{"820163152RR0001": {"name": "Fresh Start Dane Rescue NB Inc.", "designationCode": "C", "categoryCode": "54", "address": "671 ROUTE 655", "city": "WAASIS", "province": "NB", "country": "CA", "postalCode": "E3B8T9", "twitter": "None", "instagram": "None", "facebook": "None", "youtube": "None", "website": "None", "summary": "None", "logo": "None", "latitude": 45.82636699265544, "longitude": -66.59280978855902}, "728667726RR0001": {"name": "Fresh Start Empowerment Centre Inc.", "designationCode": "C", "categoryCode": "39", "address": "150 TYCHONICK BAY", "city": "WINNIPEG", "province": "MB", "country": "CA", "postalCode": "R3W0C2", "twitter": "None", "instagram": "None", "facebook": "None", "youtube": "None", "website": "None", "summary": "None", "logo": "None", "latitude": 49.91401332558127, "longitude": -97.0317359207686}, "815053046RR0001": {"name": "Fresh Start Program Inc.", "designationCode": "C", "categoryCode": "09", "address": "214 1ST AVE NE", "city": "SWIFT CURRENT", "province": "SK", "country": "CA", "postalCode": "S9H2B4", "twitter": "None", "instagram": "None", "facebook": "None", "youtube": "None", "website": "None", "summary": "None", "logo": "None", "latitude": 50.285357298084136, "longitude": -107.79873644924666}, "136720737RR0001": {"name": "Fresh Start Recovery Centre", "designationCode": "C", "categoryCode": "09", "address": "411 41ST AVE NE", "city": "CALGARY", "province": "AB", "country": "CA", "postalCode": "T2E2N4", "twitter": "None", "instagram": "None", "facebook": "None", "youtube": "None", "website": "None", "summary": "None", "logo": "None", "latitude": 51.08981486037866, "longitude": -114.05395751194521}, "837509009RR0001": {"name": "Fresh Start Services for Women Inc.", "designationCode": "C", "categoryCode": "09", "address": "276 SHERBROOKE ST.", "city": "SAINT JOHN", "province": "NB", "country": "CA", "postalCode": "E2M3L2", "twitter": "None", "instagram": "None", "facebook": "None", "youtube": "None", "website": "None", "summary": "None", "logo": "None", "latitude": 45.249975503462466, "longitude": -66.09245307799065}, "107884074RR0001": {"name": "Fresh Start Support Services", "designationCode": "C", "categoryCode": "09", "address": "118 CENTRE STREET", "city": "ST THOMAS", "province": "ON", "country": "CA", "postalCode": "N5R2Z9", "twitter": "None", "instagram": "None", "facebook": "None", "youtube": "None", "website": "None", "summary": "None", "logo": "None", "latitude": 42.77782720431251, "longitude": -81.19971977548302}, "842611220RR0001": {"name": "Fresh Wind Community Residence Inc.", "designationCode": "C", "categoryCode": "09", "address": "18 GOLF SIDE LANE", "city": "BROCKVILLE", "province": "ON", "country": "CA", "postalCode": "K6V0B9", "twitter": "None", "instagram": "None", "facebook": "None", "youtube": "None", "website": "None", "summary": "None", "logo": "None", "latitude": 44.5755256660516, "longitude": -75.70638530384919}, "119300507RR0001": {"name": "Fresh Wind Revival Centre", "designationCode": "C", "categoryCode": "36", "address": "R.R. 5                        21 LLOYD ST.", "city": "WINGHAM", "province": "ON", "country": "CA", "postalCode": "N0G2W0", "twitter": "None", "instagram": "None", "facebook": "None", "youtube": "None", "website": "None", "summary": "None", "logo": "None", "latitude": 43.87362847411808, "longitude": -81.32602118521011}, "860350792RR0001": {"name": "Freshwater Christian House", "designationCode": "C", "categoryCode": "39", "address": "74 ROCHEFORT ST", "city": "KITCHENER", "province": "ON", "country": "CA", "postalCode": "N2R1V7", "twitter": "None", "instagram": "None", "facebook": "None", "youtube": "None", "website": "None", "summary": "None", "logo": "None", "latitude": 43.384188783772984, "longitude": -80.48055795974959}, "852786805RR0001": {"name": "Freshwave Ministries Society", "designationCode": "C", "categoryCode": "09", "address": "5469 2 AVE", "city": "DELTA", "province": "BC", "country": "CA", "postalCode": "V4M1E6", "twitter": "None", "instagram": "None", "facebook": "None", "youtube": "None", "website": "None", "summary": "None", "logo": "None", "latitude": 49.006824504327845, "longitude": -123.07248955536961}, "850854969RR0001": {"name": "FreshStart Ministries Society", "designationCode": "C", "categoryCode": "57", "address": "6528 152 ST", "city": "SURREY", "province": "BC", "country": "CA", "postalCode": "V3S3L1", "twitter": "None", "instagram": "None", "facebook": "None", "youtube": "None", "website": "None", "summary": "None", "logo": "None", "latitude": 49.12145061226846, "longitude": -122.80091151330154}, "802489658RR0001": {"name": "Friedenstal Historical Society", "designationCode": "C", "categoryCode": "50", "address": "PO BOX 578", "city": "FAIRVIEW", "province": "AB", "country": "CA", "postalCode": "T0H1L0", "twitter": "None", "instagram": "None", "facebook": "None", "youtube": "None", "website": "None", "summary": "None", "logo": "None", "latitude": 56.06862000000007, "longitude": -118.39200999999997}, "774593321RR0001": {"name": "Friend to the Needy", "designationCode": "C", "categoryCode": "11", "address": "1210 - 4 ROBERT SPECK PKY", "city": "MISSISSAUGA", "province": "ON", "country": "CA", "postalCode": "L4Z1S1", "twitter": "None", "instagram": "None", "facebook": "None", "youtube": "None", "website": "None", "summary": "None", "logo": "None", "latitude": 43.5975127457443, "longitude": -79.63656012556999}, "805860715RR0001": {"name": "Friends for Life International", "designationCode": "C", "categoryCode": "10", "address": "239 PEMBROKE ST W", "city": "PEMBROKE", "province": "ON", "country": "CA", "postalCode": "K8A5N3", "twitter": "None", "instagram": "None", "facebook": "None", "youtube": "None", "website": "None", "summary": "None", "logo": "None", "latitude": 45.82470411219694, "longitude": -77.11823159354718}, "823095518RR0001": {"name": "Friends in the Heart of Jesus Foundation Society", "designationCode": "B", "categoryCode": "21", "address": "372 EAST 41ST AVENUE", "city": "VANCOUVER", "province": "BC", "country": "CA", "postalCode": "V5W1P1", "twitter": "None", "instagram": "None", "facebook": "None", "youtube": "None", "website": "None", "summary": "None", "logo": "None", "latitude": 49.23298854674263, "longitude": -123.09771094463039}, "805286457RR0001": {"name": "Friends in Toronto Community Services", "designationCode": "C", "categoryCode": "09", "address": "2 - 40 CARL HALL RD", "city": "NORTH YORK", "province": "ON", "country": "CA", "postalCode": "M3K2C1", "twitter": "None", "instagram": "None", "facebook": "None", "youtube": "None", "website": "None", "summary": "None", "logo": "None", "latitude": 43.7508145422795, "longitude": -79.47745572942594}, "840778658RR0001": {"name": "Friends of the Ashton Garrison Museum", "designationCode": "A", "categoryCode": "50", "address": "724 VANALMAN AVE", "city": "VICTORIA", "province": "BC", "country": "CA", "postalCode": "V8Z3B5", "twitter": "None", "instagram": "None", "facebook": "None", "youtube": "None", "website": "None", "summary": "None", "logo": "None", "latitude": 48.48250015520192, "longitude": -123.39353539935966}, "828234906RR0001": {"name": "Friends of the AGNS Western Branch Society", "designationCode": "C", "categoryCode": "22", "address": "PO BOX 490 STN MAIN", "city": "YARMOUTH", "province": "NS", "country": "CA", "postalCode": "B5A4B4", "twitter": "None", "instagram": "None", "facebook": "None", "youtube": "None", "website": "None", "summary": "None", "logo": "None", "latitude": 43.83439000000004, "longitude": -66.12014999999997}, "845492347RR0001": {"name": "Friends of the Bon Accord Public Library Society", "designationCode": "C", "categoryCode": "59", "address": "5025-B 50TH AVENUE            BOX 749", "city": "BON ACCORD", "province": "AB", "country": "CA", "postalCode": "T0A0K0", "twitter": "None", "instagram": "None", "facebook": "None", "youtube": "None", "website": "None", "summary": "None", "logo": "None", "latitude": 53.8363284740321, "longitude": -113.41336436081136}, "802867358RR0001": {"name": "Friends of the Bothwell Catholic Cemetery", "designationCode": "C", "categoryCode": "59", "address": "30268 WEST BOTHWELL ROAD      RR # 3", "city": "BOTHWELL", "province": "ON", "country": "CA", "postalCode": "N0P1C0", "twitter": "None", "instagram": "None", "facebook": "None", "youtube": "None", "website": "None", "summary": "None", "logo": "None", "latitude": 42.626897748542916, "longitude": -81.87973080509502}, "811397231RR0001": {"name": "Friends of the Bowl Foundation Inc.", "designationCode": "C", "categoryCode": "56", "address": "1624-33RD STREET WEST         POST OFFICE BOX 30032 WESTVIEW", "city": "SASKATOON", "province": "SK", "country": "CA", "postalCode": "S7L0X3", "twitter": "None", "instagram": "None", "facebook": "None", "youtube": "None", "website": "None", "summary": "None", "logo": "None", "latitude": 52.14390645109299, "longitude": -106.6955335881182}, "843497702RR0001": {"name": "Friends of the Certosa di Capri (Canada)", "designationCode": "C", "categoryCode": "22", "address": "45 O'CONNOR ST                SUITE 1500", "city": "OTTAWA", "province": "ON", "country": "CA", "postalCode": "K1P1A4", "twitter": "None", "instagram": "None", "facebook": "None", "youtube": "None", "website": "None", "summary": "None", "logo": "None", "latitude": 45.421524000000005, "longitude": -75.6975825}, "851763052RR0001": {"name": "Friends of the Champlain Trail Museum & Pioneer Village", "designationCode": "A", "categoryCode": "53", "address": "1032 PEMBROKE STREET EAST,", "city": "PEMBROKE", "province": "ON", "country": "CA", "postalCode": "K8A6Z2", "twitter": "None", "instagram": "None", "facebook": "None", "youtube": "None", "website": "None", "summary": "None", "logo": "None", "latitude": 45.82369725343622, "longitude": -77.08501864857396}, "853888063RR0001": {"name": "Friends of the Concert Hall", "designationCode": "C", "categoryCode": "22", "address": "1958 MARQUIS AVENUE", "city": "OTTAWA", "province": "ON", "country": "CA", "postalCode": "K1J8J4", "twitter": "None", "instagram": "None", "facebook": "None", "youtube": "None", "website": "None", "summary": "None", "logo": "None", "latitude": 45.44737927226046, "longitude": -75.6020044181142}, "821780129RR0001": {"name": "Friends of the Congregation of the Oratory / Les amis de la Congr\u00e9gation de l'Oratoire", "designationCode": "C", "categoryCode": "38", "address": "SUITE 505 - 500 TACHE AVENUE", "city": "WINNIPEG", "province": "MB", "country": "CA", "postalCode": "R2H0A2", "twitter": "None", "instagram": "None", "facebook": "None", "youtube": "None", "website": "None", "summary": "None", "logo": "None", "latitude": 49.88828667499566, "longitude": -97.12397853751004}, "825581614RR0001": {"name": "Friends of the Dempster Country Society", "designationCode": "C", "categoryCode": "52", "address": "PO BOX 1709", "city": "DAWSON CITY", "province": "YT", "country": "CA", "postalCode": "Y0B1G0", "twitter": "None", "instagram": "None", "facebook": "None", "youtube": "None", "website": "None", "summary": "None", "logo": "None", "latitude": 64.05386000000004, "longitude": -139.43884999999995}, "844738500RR0001": {"name": "Friends of the Devon Library Association", "designationCode": "A", "categoryCode": "55", "address": "101-17 ATHABASCA AVE.", "city": "DEVON", "province": "AB", "country": "CA", "postalCode": "T9G1G5", "twitter": "None", "instagram": "None", "facebook": "None", "youtube": "None", "website": "None", "summary": "None", "logo": "None", "latitude": 53.36564729408459, "longitude": -113.73047570961285}, "842707556RR0001": {"name": "Friends of the Didsbury Library Society", "designationCode": "A", "categoryCode": "53", "address": "BOX 10", "city": "DIDSBURY", "province": "AB", "country": "CA", "postalCode": "T0M0W0", "twitter": "None", "instagram": "None", "facebook": "None", "youtube": "None", "website": "None", "summary": "None", "logo": "None", "latitude": 51.662268, "longitude": -114.11970299999999}, "818572968RR0001": {"name": "Friends of the Dominion Astrophysical Observatory Society", "designationCode": "C", "categoryCode": "21", "address": "1484 EDGEWARE RD", "city": "VICTORIA", "province": "BC", "country": "CA", "postalCode": "V8T2J5", "twitter": "None", "instagram": "None", "facebook": "None", "youtube": "None", "website": "None", "summary": "None", "logo": "None", "latitude": 48.44393077880999, "longitude": -123.34326210312184}, "841071111RR0001": {"name": "Friends of the Ermatinger Clergue National Historic Site", "designationCode": "C", "categoryCode": "50", "address": "99 FOSTER DRIVE,", "city": "SAULT STE. MARIE", "province": "ON", "country": "CA", "postalCode": "P6A5X6", "twitter": "None", "instagram": "None", "facebook": "None", "youtube": "None", "website": "None", "summary": "None", "logo": "None", "latitude": 46.50751872285679, "longitude": -84.3327260421981}, "824813976RR0001": {"name": "Friends of the Fort Erie Public Library", "designationCode": "A", "categoryCode": "03", "address": "136 GILMORE ROAD,", "city": "FORT ERIE", "province": "ON", "country": "CA", "postalCode": "L2A2M1", "twitter": "None", "instagram": "None", "facebook": "None", "youtube": "None", "website": "None", "summary": "None", "logo": "None", "latitude": 42.920504453257394, "longitude": -78.91840302844942}, "818626715RR0001": {"name": "Friends of the Fort McMurray Firefighters Charities Fund Society", "designationCode": "A", "categoryCode": "03", "address": "POST OFFICE BOX 6138", "city": "FORT MCMURRAY", "province": "AB", "country": "CA", "postalCode": "T9H4W1", "twitter": "None", "instagram": "None", "facebook": "None", "youtube": "None", "website": "None", "summary": "None", "logo": "None", "latitude": 56.72719500000005, "longitude": -111.38028199999994}, "827768516RR0001": {"name": "Friends of the German International School Toronto", "designationCode": "A", "categoryCode": "23", "address": "20 QUEEN ST W, SUITE 3300", "city": "TORONTO", "province": "ON", "country": "CA", "postalCode": "M5H3R3", "twitter": "None", "instagram": "None", "facebook": "None", "youtube": "None", "website": "None", "summary": "None", "logo": "None", "latitude": 43.652350571469775, "longitude": -79.38077842754927}, "816089668RR0001": {"name": "Friends of the Greenwood Library Society", "designationCode": "C", "categoryCode": "50", "address": "740 FREEMAN DR", "city": "GREENWOOD", "province": "NS", "country": "CA", "postalCode": "B0P1R0", "twitter": "None", "instagram": "None", "facebook": "None", "youtube": "None", "website": "None", "summary": "None", "logo": "None", "latitude": 44.97204514126612, "longitude": -64.93910532569684}, "814623138RR0001": {"name": "Friends of the Guelph Public Library", "designationCode": "C", "categoryCode": "03", "address": "100 NORFOLK STREET", "city": "GUELPH", "province": "ON", "country": "CA", "postalCode": "N1H4J6", "twitter": "None", "instagram": "None", "facebook": "None", "youtube": "None", "website": "None", "summary": "None", "logo": "None", "latitude": 43.54590901858166, "longitude": -80.25271434987573}, "731893491RR0001": {"name": "Friends of the Helen Schuler Nature Centre Society", "designationCode": "A", "categoryCode": "03", "address": "910 4 AVE S", "city": "LETHBRIDGE", "province": "AB", "country": "CA", "postalCode": "T1J0P6", "twitter": "None", "instagram": "None", "facebook": "None", "youtube": "None", "website": "None", "summary": "None", "logo": "None", "latitude": 49.694581521207404, "longitude": -112.83292885928213}, "806818746RR0001": {"name": "Friends of the Ingleside Branch of Stormont, Dundas and Glengarry County Library", "designationCode": "C", "categoryCode": "50", "address": "P.O. BOX 70                   31 SPRUCE STREET", "city": "INGLESIDE", "province": "ON", "country": "CA", "postalCode": "K0C1M0", "twitter": "None", "instagram": "None", "facebook": "None", "youtube": "None", "website": "None", "summary": "None", "logo": "None", "latitude": 45.144365256443486, "longitude": -74.5037878498671}, "802868034RR0001": {"name": "Friends of the Innisfree Library Society", "designationCode": "C", "categoryCode": "53", "address": "PO BOX 121", "city": "INNISFREE", "province": "AB", "country": "CA", "postalCode": "T0B2G0", "twitter": "None", "instagram": "None", "facebook": "None", "youtube": "None", "website": "None", "summary": "None", "logo": "None", "latitude": 53.385282, "longitude": -111.57746399999999}, "852533868RR0001": {"name": "Friends of the Keremeos Skating Rink", "designationCode": "C", "categoryCode": "56", "address": "2649 MIDDLE BENCH RD", "city": "KEREMEOS", "province": "BC", "country": "CA", "postalCode": "V0X1N2", "twitter": "None", "instagram": "None", "facebook": "None", "youtube": "None", "website": "None", "summary": "None", "logo": "None", "latitude": 49.21038256191237, "longitude": -119.80523332857216}, "123783847RR0001": {"name": "Friends of the Kerry Wood Nature Centre", "designationCode": "C", "categoryCode": "52", "address": "6300-45 AVE", "city": "RED DEER", "province": "AB", "country": "CA", "postalCode": "T4N3M4", "twitter": "None", "instagram": "None", "facebook": "None", "youtube": "None", "website": "None", "summary": "None", "logo": "None", "latitude": 52.28377714542106, "longitude": -113.7970193359113}, "897433710RR0001": {"name": "Friends of the Lac Ste. Anne Founation", "designationCode": "C", "categoryCode": "09", "address": "POST OFFICE BOX 908", "city": "MAYERTHORPE", "province": "AB", "country": "CA", "postalCode": "T0E1N0", "twitter": "None", "instagram": "None", "facebook": "None", "youtube": "None", "website": "None", "summary": "None", "logo": "None", "latitude": 53.952450000000056, "longitude": -115.13884999999999}, "854672557RR0001": {"name": "Friends of the Lacombe Public Library Society", "designationCode": "C", "categoryCode": "59", "address": "5214 - 50 AVENUE", "city": "LACOMBE", "province": "AB", "country": "CA", "postalCode": "T4L0B6", "twitter": "None", "instagram": "None", "facebook": "None", "youtube": "None", "website": "None", "summary": "None", "logo": "None", "latitude": 52.463119533758196, "longitude": -113.7341835}, "803402692RR0001": {"name": "Friends of the Library - Norfolk County Public Library", "designationCode": "C", "categoryCode": "59", "address": "46 COLBORNE ST SOUTH", "city": "SIMCOE", "province": "ON", "country": "CA", "postalCode": "N3Y4H3", "twitter": "None", "instagram": "None", "facebook": "None", "youtube": "None", "website": "None", "summary": "None", "logo": "None", "latitude": 42.835988431848456, "longitude": -80.30596415119118}, "804282739RR0001": {"name": "Friends of the Margaretsville Lighthouse Society", "designationCode": "C", "categoryCode": "52", "address": "14 SEAMAN STREET", "city": "MARGARETSVILLE", "province": "NS", "country": "CA", "postalCode": "B0S1N0", "twitter": "None", "instagram": "None", "facebook": "None", "youtube": "None", "website": "None", "summary": "None", "logo": "None", "latitude": 45.04799261223978, "longitude": -65.0634041677823}, "804496289RR0001": {"name": "Friends of the Massasauga Park", "designationCode": "C", "categoryCode": "52", "address": "371 2ND AVE E", "city": "OWEN SOUND", "province": "ON", "country": "CA", "postalCode": "N4K2E8", "twitter": "None", "instagram": "None", "facebook": "None", "youtube": "None", "website": "None", "summary": "None", "logo": "None", "latitude": 44.55584392284609, "longitude": -80.94054603465317}, "833093321RR0001": {"name": "Friends of the Mayerthorpe Public Library Society", "designationCode": "C", "categoryCode": "50", "address": "4911-52 ST BOX 810", "city": "MAYERTHORPE", "province": "AB", "country": "CA", "postalCode": "T0E1N0", "twitter": "None", "instagram": "None", "facebook": "None", "youtube": "None", "website": "None", "summary": "None", "logo": "None", "latitude": 53.95406400000002, "longitude": -115.1422433260722}, "890018062RR0001": {"name": "Friends of the Meaford Library", "designationCode": "C", "categoryCode": "59", "address": "15 TROWBRIDGE STREET W.", "city": "MEAFORD", "province": "ON", "country": "CA", "postalCode": "N4L1V4", "twitter": "None", "instagram": "None", "facebook": "None", "youtube": "None", "website": "None", "summary": "None", "logo": "None", "latitude": 44.606712762132894, "longitude": -80.59245603344108}, "828358705RR0001": {"name": "Friends of the Merrickville Turbine", "designationCode": "C", "categoryCode": "52", "address": "PO BOX 256", "city": "DELTA", "province": "ON", "country": "CA", "postalCode": "K0E1G0", "twitter": "None", "instagram": "None", "facebook": "None", "youtube": "None", "website": "None", "summary": "None", "logo": "None", "latitude": 44.651154600171786, "longitude": -76.10330140930145}, "822293619RR0001": {"name": "Friends of the Museums of Mississauga", "designationCode": "C", "categoryCode": "59", "address": "P.O.BOX 52560 1801 LAKESHORE RD.W.,UNIT#6", "city": "MISSISSAUGA", "province": "ON", "country": "CA", "postalCode": "L5J4S6", "twitter": "None", "instagram": "None", "facebook": "None", "youtube": "None", "website": "None", "summary": "None", "logo": "None", "latitude": 43.51611909856288, "longitude": -79.62441457735548}, "836392530RR0001": {"name": "Friends of the National Youth Orchestra of Jamaica Foundation (Canada)", "designationCode": "C", "categoryCode": "22", "address": "217 MELROSE AVENUE", "city": "OTTAWA", "province": "ON", "country": "CA", "postalCode": "K1Y1V3", "twitter": "None", "instagram": "None", "facebook": "None", "youtube": "None", "website": "None", "summary": "None", "logo": "None", "latitude": 45.39335408327078, "longitude": -75.71898303508586}, "813810819RR0001": {"name": "Friends of the OPP Museum", "designationCode": "C", "categoryCode": "50", "address": "777 MEMORIAL AVENUE,          LINCOLN M. ALEXANDER BUILDING", "city": "ORILLIA", "province": "ON", "country": "CA", "postalCode": "L3V7V3", "twitter": "None", "instagram": "None", "facebook": "None", "youtube": "None", "website": "None", "summary": "None", "logo": "None", "latitude": 44.58127265103198, "longitude": -79.42940276829859}, "830771077RR0001": {"name": "Friends of the Penticton Museum", "designationCode": "C", "categoryCode": "53", "address": "785 MAIN ST", "city": "PENTICTON", "province": "BC", "country": "CA", "postalCode": "V2A5E3", "twitter": "None", "instagram": "None", "facebook": "None", "youtube": "None", "website": "None", "summary": "None", "logo": "None", "latitude": 49.491299011656764, "longitude": -119.58864447169482}, "853639060RR0001": {"name": "Friends of the Port Elgin Branch of the Bruce County Public Library", "designationCode": "C", "categoryCode": "50", "address": "708 GODERICH STREET           PO BOX 609", "city": "PORT ELGIN", "province": "ON", "country": "CA", "postalCode": "N0H2C0", "twitter": "None", "instagram": "None", "facebook": "None", "youtube": "None", "website": "None", "summary": "None", "logo": "None", "latitude": 44.438202397455065, "longitude": -81.38733977687674}, "854429032RR0001": {"name": "Friends of the Pugwash Estuary", "designationCode": "C", "categoryCode": "50", "address": "PO BOX 277", "city": "PUGWASH", "province": "NS", "country": "CA", "postalCode": "B0K1L0", "twitter": "None", "instagram": "None", "facebook": "None", "youtube": "None", "website": "None", "summary": "None", "logo": "None", "latitude": 45.80128373751312, "longitude": -63.63643739508734}, "119112548RR0001": {"name": "Friends of the Red Deer Regional Hospital Centre", "designationCode": "C", "categoryCode": "11", "address": "2ND FLOOR, SOUTH COMPLEX      3942 50A AVENUE", "city": "RED DEER", "province": "AB", "country": "CA", "postalCode": "T4N4E7", "twitter": "None", "instagram": "None", "facebook": "None", "youtube": "None", "website": "None", "summary": "None", "logo": "None", "latitude": 52.26067970884077, "longitude": -113.81684642232646}, "852179514RR0001": {"name": "Friends of the Tecumseh Monument", "designationCode": "C", "categoryCode": "59", "address": "11768 BATES DRIVE,            R R #1", "city": "MORPETH", "province": "ON", "country": "CA", "postalCode": "N0P1X0", "twitter": "None", "instagram": "None", "facebook": "None", "youtube": "None", "website": "None", "summary": "None", "logo": "None", "latitude": 42.33827426588381, "longitude": -81.83990921394799}, "823915475RR0001": {"name": "Friends of the Trail Inc.", "designationCode": "C", "categoryCode": "56", "address": "PO BOX 101", "city": "FRANKFORD", "province": "ON", "country": "CA", "postalCode": "K0K2C0", "twitter": "None", "instagram": "None", "facebook": "None", "youtube": "None", "website": "None", "summary": "None", "logo": "None", "latitude": 44.24085842203657, "longitude": -77.43458865131278}, "802226811RR0001": {"name": "Friends of the Wabamun Public Library", "designationCode": "C", "categoryCode": "59", "address": "PO BOX 89", "city": "WABAMUN", "province": "AB", "country": "CA", "postalCode": "T0E2K0", "twitter": "None", "instagram": "None", "facebook": "None", "youtube": "None", "website": "None", "summary": "None", "logo": "None", "latitude": 53.568336633845774, "longitude": -114.64443560770479}, "894514348RR0001": {"name": "Friends of the West Grey Library", "designationCode": "C", "categoryCode": "50", "address": "453 GARAFRAXE STREET", "city": "DURHAM", "province": "ON", "country": "CA", "postalCode": "N0G1R0", "twitter": "None", "instagram": "None", "facebook": "None", "youtube": "None", "website": "None", "summary": "None", "logo": "None", "latitude": 44.1689759311228, "longitude": -80.81685355625622}, "747449726RR0001": {"name": "Friends of the World's Jewish Museum", "designationCode": "B", "categoryCode": "50", "address": "STE.1504-201 PORTAGE AVENUE", "city": "WINNIPEG", "province": "MB", "country": "CA", "postalCode": "R3B3K6", "twitter": "None", "instagram": "None", "facebook": "None", "youtube": "None", "website": "None", "summary": "None", "logo": "None", "latitude": 49.895359615067065, "longitude": -97.13919299627776}, "854261799RR0001": {"name": "Friends of Alexander Place", "designationCode": "C", "categoryCode": "09", "address": "329 PARKSIDE DRIVE            P.O. BOX 50", "city": "WATERDOWN", "province": "ON", "country": "CA", "postalCode": "L0R2H0", "twitter": "None", "instagram": "None", "facebook": "None", "youtube": "None", "website": "None", "summary": "None", "logo": "None", "latitude": 43.340950391915165, "longitude": -79.89927755539827}, "831701354RR0001": {"name": "Friends of Amani Canada", "designationCode": "C", "categoryCode": "11", "address": "49 ELM AVE", "city": "TORONTO", "province": "ON", "country": "CA", "postalCode": "M4W1N6", "twitter": "None", "instagram": "None", "facebook": "None", "youtube": "None", "website": "None", "summary": "None", "logo": "None", "latitude": 43.6755555165042, "longitude": -79.37641140507246}, "835734583RR0001": {"name": "Friends of Animal Justice Canada", "designationCode": "C", "categoryCode": "54", "address": "5700-100 KING ST WEST", "city": "TORONTO", "province": "ON", "country": "CA", "postalCode": "M5X1C7", "twitter": "None", "instagram": "None", "facebook": "None", "youtube": "None", "website": "None", "summary": "None", "logo": "None", "latitude": 43.648384198482056, "longitude": -79.38149974023302}, "778186320RR0001": {"name": "Friends of Barra Society Caraidean Do Bharraidh", "designationCode": "C", "categoryCode": "59", "address": "39 BROOKSIDE LANE", "city": "HEAD OF CHEZZETCOOK", "province": "NS", "country": "CA", "postalCode": "B0J1N0", "twitter": "None", "instagram": "None", "facebook": "None", "youtube": "None", "website": "None", "summary": "None", "logo": "None", "latitude": 44.750130008541035, "longitude": -63.23196690365882}, "883129819RR0001": {"name": "Friends of Beaubears Island Inc.", "designationCode": "C", "categoryCode": "29", "address": "35 ST. PATRICK'S DRIVE", "city": "MIRAMICHI", "province": "NB", "country": "CA", "postalCode": "E1N5V5", "twitter": "None", "instagram": "None", "facebook": "None", "youtube": "None", "website": "None", "summary": "None", "logo": "None", "latitude": 46.9790303574164, "longitude": -65.55493208153804}, "816194724RR0001": {"name": "Friends of Black Mountain / SNTSK'IL'NTON Society", "designationCode": "C", "categoryCode": "52", "address": "3110 WALNUT ST", "city": "KELOWNA", "province": "BC", "country": "CA", "postalCode": "V1W3T7", "twitter": "None", "instagram": "None", "facebook": "None", "youtube": "None", "website": "None", "summary": "None", "logo": "None", "latitude": 49.86059399027649, "longitude": -119.4943909899011}, "863652962RR0001": {"name": "Friends of Camp St. Basil Society", "designationCode": "C", "categoryCode": "56", "address": "P.O. BOX 95010 WHYTE PO", "city": "EDMONTON", "province": "AB", "country": "CA", "postalCode": "T6E0E5", "twitter": "None", "instagram": "None", "facebook": "None", "youtube": "None", "website": "None", "summary": "None", "logo": "None", "latitude": 53.518013999999994, "longitude": -113.48866397875054}, "873219646RR0001": {"name": "Friends of Canadian Institutes of Health Research Inc./Amis des Instituts de recherche en sant\u00e9 du Canada Inc.", "designationCode": "C", "categoryCode": "11", "address": "4 DEVONSHIRE PLACE            MASSEY COLLEGE", "city": "TORONTO", "province": "ON", "country": "CA", "postalCode": "M5S2E1", "twitter": "None", "instagram": "None", "facebook": "None", "youtube": "None", "website": "None", "summary": "None", "logo": "None", "latitude": 43.664489738271136, "longitude": -79.3970538094811}, "854311453RR0001": {"name": "Friends of Churn Creek Protected Area Society", "designationCode": "C", "categoryCode": "52", "address": "PO BOX 4144", "city": "WILLIAMS LAKE", "province": "BC", "country": "CA", "postalCode": "V2G2V2", "twitter": "None", "instagram": "None", "facebook": "None", "youtube": "None", "website": "None", "summary": "None", "logo": "None", "latitude": 52.12864500000006, "longitude": -122.14108249999992}, "817674534RR0001": {"name": "Friends of Community Living - Stormont County Foundation", "designationCode": "A", "categoryCode": "03", "address": "103 SYDNEY STREET", "city": "CORNWALL", "province": "ON", "country": "CA", "postalCode": "K6H3H1", "twitter": "None", "instagram": "None", "facebook": "None", "youtube": "None", "website": "None", "summary": "None", "logo": "None", "latitude": 45.01756323258697, "longitude": -74.72579390700571}, "860786136RR0001": {"name": "Friends of Covehead-Brackley Bay Ltd.", "designationCode": "C", "categoryCode": "59", "address": "2784 BAYSHORE RD", "city": "YORK", "province": "PE", "country": "CA", "postalCode": "C0A1P0", "twitter": "None", "instagram": "None", "facebook": "None", "youtube": "None", "website": "None", "summary": "None", "logo": "None", "latitude": 46.40855823258698, "longitude": -63.10871270370486}, "834941809RR0001": {"name": "Friends of CRP - Canada Society", "designationCode": "A", "categoryCode": "03", "address": "1250-1500 WEST GEORGIA ST     BOX 62", "city": "VANCOUVER", "province": "BC", "country": "CA", "postalCode": "V6G2Z6", "twitter": "None", "instagram": "None", "facebook": "None", "youtube": "None", "website": "None", "summary": "None", "logo": "None", "latitude": 49.290187500000016, "longitude": -123.130035}, "805353190RR0001": {"name": "Friends of Dalnavert Museum Inc.", "designationCode": "C", "categoryCode": "50", "address": "61 CARLTON STREET", "city": "WINNIPEG", "province": "MB", "country": "CA", "postalCode": "R3C1N7", "twitter": "None", "instagram": "None", "facebook": "None", "youtube": "None", "website": "None", "summary": "None", "logo": "None", "latitude": 49.886003419931875, "longitude": -97.14213745640271}, "855500914RR0001": {"name": "Friends of Dyslexia Inc.", "designationCode": "C", "categoryCode": "20", "address": "204 - 825 SHERBROOK ST", "city": "WINNIPEG", "province": "MB", "country": "CA", "postalCode": "R3A1M5", "twitter": "None", "instagram": "None", "facebook": "None", "youtube": "None", "website": "None", "summary": "None", "logo": "None", "latitude": 49.905053935370574, "longitude": -97.15499593846792}, "836413583RR0001": {"name": "Friends of East Wheatland Society", "designationCode": "C", "categoryCode": "21", "address": "POST OFFICE BOX 141", "city": "HUSSAR", "province": "AB", "country": "CA", "postalCode": "T0J1S0", "twitter": "None", "instagram": "None", "facebook": "None", "youtube": "None", "website": "None", "summary": "None", "logo": "None", "latitude": 51.05012000000005, "longitude": -112.68516999999997}, "800962284RR0001": {"name": "Friends of Edson & District Field House Society", "designationCode": "C", "categoryCode": "56", "address": "PO BOX 7894", "city": "EDSON", "province": "AB", "country": "CA", "postalCode": "T7E1V9", "twitter": "None", "instagram": "None", "facebook": "None", "youtube": "None", "website": "None", "summary": "None", "logo": "None", "latitude": 53.58212700000006, "longitude": -116.43412399999994}, "847599735RR0001": {"name": "Friends of Elmdale School Inc.", "designationCode": "C", "categoryCode": "21", "address": "160 ELMDALE", "city": "STEINBACH", "province": "MB", "country": "CA", "postalCode": "R5G0P3", "twitter": "None", "instagram": "None", "facebook": "None", "youtube": "None", "website": "None", "summary": "None", "logo": "None", "latitude": 49.53035520264369, "longitude": -96.68722257914294}, "848285540RR0001": {"name": "Friends of Film Society of Powell River", "designationCode": "C", "categoryCode": "22", "address": "6290 OAK STREET", "city": "POWELL RIVER", "province": "BC", "country": "CA", "postalCode": "V8A4L6", "twitter": "None", "instagram": "None", "facebook": "None", "youtube": "None", "website": "None", "summary": "None", "logo": "None", "latitude": 49.87756150539569, "longitude": -124.55033326507576}, "822654802RR0001": {"name": "Friends of Freeman Station", "designationCode": "C", "categoryCode": "50", "address": "3023 NEW STREET               P.O. BOX 91536 ROSELAND PLAZA", "city": "BURLINGTON", "province": "ON", "country": "CA", "postalCode": "L7R4L6", "twitter": "None", "instagram": "None", "facebook": "None", "youtube": "None", "website": "None", "summary": "None", "logo": "None", "latitude": 43.3391675817989, "longitude": -79.78440552994904}, "897630471RR0001": {"name": "Friends of Gardens Manitoba Inc.", "designationCode": "C", "categoryCode": "52", "address": "576 ELLICE AVE", "city": "WINNIPEG", "province": "MB", "country": "CA", "postalCode": "R3B1Z8", "twitter": "None", "instagram": "None", "facebook": "None", "youtube": "None", "website": "None", "summary": "None", "logo": "None", "latitude": 49.89288855785112, "longitude": -97.15808130544174}, "762599728RR0001": {"name": "Friends of Grain Elevators", "designationCode": "C", "categoryCode": "21", "address": "1212 - 199 ACADEMY DR", "city": "THUNDER BAY", "province": "ON", "country": "CA", "postalCode": "P7B5W2", "twitter": "None", "instagram": "None", "facebook": "None", "youtube": "None", "website": "None", "summary": "None", "logo": "None", "latitude": 48.42405969447252, "longitude": -89.25271196837677}, "747806495RR0001": {"name": "Friends of Gryphon Football Charitable Foundation", "designationCode": "A", "categoryCode": "05", "address": "346 EDINBURGH ROAD NORTH      POST OFFICE BOX 1223", "city": "GUELPH", "province": "ON", "country": "CA", "postalCode": "N1H6N6", "twitter": "None", "instagram": "None", "facebook": "None", "youtube": "None", "website": "None", "summary": "None", "logo": "None", "latitude": 43.550191796580684, "longitude": -80.27599694892449}, "832225593RR0001": {"name": "Friends of Hartland Inc.", "designationCode": "A", "categoryCode": "03", "address": "2348 ROUTE 103", "city": "VICTORIA CORNER", "province": "NB", "country": "CA", "postalCode": "E7P3E6", "twitter": "None", "instagram": "None", "facebook": "None", "youtube": "None", "website": "None", "summary": "None", "logo": "None", "latitude": 46.2702784032452, "longitude": -67.52713140432344}, "767679921RR0001": {"name": "Friends of Historic Bovaird House", "designationCode": "C", "categoryCode": "50", "address": "PO BOX 41616 RPO HEART LAKE", "city": "BRAMPTON", "province": "ON", "country": "CA", "postalCode": "L6Z4R1", "twitter": "None", "instagram": "None", "facebook": "None", "youtube": "None", "website": "None", "summary": "None", "logo": "None", "latitude": 43.738088157638096, "longitude": -79.78315789031092}, "137412102RR0001": {"name": "Friends of Humane Society International for the Protection and Conservation of Animals", "designationCode": "C", "categoryCode": "01", "address": "320-4035 SAINT-AMBROISE STREET", "city": "MONTREAL", "province": "QC", "country": "CA", "postalCode": "H4C2E1", "twitter": "None", "instagram": "None", "facebook": "None", "youtube": "None", "website": "None", "summary": "None", "logo": "None", "latitude": 45.47570931141435, "longitude": -73.5802494296554}, "825731458RR0001": {"name": "Friends of Ile a Vache Haiti Inc.", "designationCode": "B", "categoryCode": "09", "address": "523 RIVERSIDE DR", "city": "COMBERMERE", "province": "ON", "country": "CA", "postalCode": "K0J1L0", "twitter": "None", "instagram": "None", "facebook": "None", "youtube": "None", "website": "None", "summary": "None", "logo": "None", "latitude": 45.35279358866645, "longitude": -77.59165389200207}, "824864698RR0001": {"name": "Friends of Jesus Christ Ministries (Greater Hamilton & Burlington)", "designationCode": "C", "categoryCode": "39", "address": "41 CANDLEWOOD CRT", "city": "STONEY CREEK", "province": "ON", "country": "CA", "postalCode": "L8J0C4", "twitter": "None", "instagram": "None", "facebook": "None", "youtube": "None", "website": "None", "summary": "None", "logo": "None", "latitude": 43.175504628897166, "longitude": -79.77995001462035}, "854030434RR0001": {"name": "Friends of Kingston Inner Harbour", "designationCode": "C", "categoryCode": "56", "address": "83-1 PLACE D'ARMES", "city": "KINGSTON", "province": "ON", "country": "CA", "postalCode": "K7K6S6", "twitter": "None", "instagram": "None", "facebook": "None", "youtube": "None", "website": "None", "summary": "None", "logo": "None", "latitude": 44.233872724421325, "longitude": -76.47916042535623}, "801027806RR0001": {"name": "Friends of Koura in Canada / Les amis de Koura au Canada", "designationCode": "C", "categoryCode": "11", "address": "111 HILL ST", "city": "KINGSTON", "province": "ON", "country": "CA", "postalCode": "K7L2M8", "twitter": "None", "instagram": "None", "facebook": "None", "youtube": "None", "website": "None", "summary": "None", "logo": "None", "latitude": 44.22743144936225, "longitude": -76.50898545198797}, "827761081RR0001": {"name": "Friends of Laura Secord", "designationCode": "C", "categoryCode": "52", "address": "135 KING STREET               POST OFFICE BOX 509", "city": "NIAGARA-ON-THE-LAKE", "province": "ON", "country": "CA", "postalCode": "L0S1J0", "twitter": "None", "instagram": "None", "facebook": "None", "youtube": "None", "website": "None", "summary": "None", "logo": "None", "latitude": 43.2562558662357, "longitude": -79.0695234198163}, "810599878RR0001": {"name": "Friends of Leigh Square Society", "designationCode": "C", "categoryCode": "22", "address": "1100-2253 LEIGH SQUARE", "city": "PORT COQUITLAM", "province": "BC", "country": "CA", "postalCode": "V3C3B8", "twitter": "None", "instagram": "None", "facebook": "None", "youtube": "None", "website": "None", "summary": "None", "logo": "None", "latitude": 49.26171027921401, "longitude": -122.78076013474525}, "815366489RR0001": {"name": "Friends of Leipzig Sponsorship Inc.", "designationCode": "C", "categoryCode": "57", "address": "BOX 727", "city": "BIGGAR", "province": "SK", "country": "CA", "postalCode": "S0K0M0", "twitter": "None", "instagram": "None", "facebook": "None", "youtube": "None", "website": "None", "summary": "None", "logo": "None", "latitude": 52.065150000000074, "longitude": -107.99375999999995}, "827602111RR0001": {"name": "Friends of Lincoln's History", "designationCode": "C", "categoryCode": "50", "address": "P.O BOX 4000                  4890 VICTORIA AVE N.", "city": "VINELAND STATION", "province": "ON", "country": "CA", "postalCode": "L0R2E0", "twitter": "None", "instagram": "None", "facebook": "None", "youtube": "None", "website": "None", "summary": "None", "logo": "None", "latitude": 43.17245557925319, "longitude": -79.3941309816488}, "118933126RR0001": {"name": "Friends of MUN Botanical Garden Inc.", "designationCode": "C", "categoryCode": "50", "address": "MUN-BOTANNICAL GARDENS        MEMORIAL UNIVERSITY", "city": "ST JOHN'S", "province": "NL", "country": "CA", "postalCode": "A1C5S7", "twitter": "None", "instagram": "None", "facebook": "None", "youtube": "None", "website": "None", "summary": "None", "logo": "None", "latitude": 47.56082100000006, "longitude": -52.71219349999993}, "821390135RR0001": {"name": "Friends of Point Frederick/Amis du Point Frederick", "designationCode": "C", "categoryCode": "52", "address": "PO BOX 6 STN MAIN", "city": "KINGSTON", "province": "ON", "country": "CA", "postalCode": "K7L4V6", "twitter": "None", "instagram": "None", "facebook": "None", "youtube": "None", "website": "None", "summary": "None", "logo": "None", "latitude": 44.23153200000006, "longitude": -76.47933049999993}, "814461323RR0001": {"name": "Friends of Reconstructionist Judaism", "designationCode": "C", "categoryCode": "21", "address": "3600 - 22 ADELAIDE ST W", "city": "TORONTO", "province": "ON", "country": "CA", "postalCode": "M5H4E3", "twitter": "None", "instagram": "None", "facebook": "None", "youtube": "None", "website": "None", "summary": "None", "logo": "None", "latitude": 43.6500561684748, "longitude": -79.38026958604074}, "847935798RR0001": {"name": "Friends of Redtail Society", "designationCode": "C", "categoryCode": "52", "address": "70 ANGEL POINT ROAD", "city": "RIVER JOHN", "province": "NS", "country": "CA", "postalCode": "B0K1N0", "twitter": "None", "instagram": "None", "facebook": "None", "youtube": "None", "website": "None", "summary": "None", "logo": "None", "latitude": 45.759489963667384, "longitude": -63.11754484558642}, "133308593RR0001": {"name": "Friends of Sandringham Hospital", "designationCode": "C", "categoryCode": "19", "address": "1650 FORT STREET", "city": "VICTORIA", "province": "BC", "country": "CA", "postalCode": "V8R1H9", "twitter": "None", "instagram": "None", "facebook": "None", "youtube": "None", "website": "None", "summary": "None", "logo": "None", "latitude": 48.42715868584437, "longitude": -123.33574831548238}, "813412087RR0001": {"name": "Friends of Shoal Harbour Sanctuary ON The Salish Sea: Important Bird Area Society", "designationCode": "C", "categoryCode": "52", "address": "11166 WILLOW RD", "city": "NORTH SAANICH", "province": "BC", "country": "CA", "postalCode": "V8L5K6", "twitter": "None", "instagram": "None", "facebook": "None", "youtube": "None", "website": "None", "summary": "None", "logo": "None", "latitude": 48.6854088687172, "longitude": -123.4372643543478}, "844234484RR0001": {"name": "Friends of Smash Foundation Inc.", "designationCode": "A", "categoryCode": "13", "address": "3415 KEEHR PL", "city": "REGINA", "province": "SK", "country": "CA", "postalCode": "S4N7A5", "twitter": "None", "instagram": "None", "facebook": "None", "youtube": "None", "website": "None", "summary": "None", "logo": "None", "latitude": 50.460942822667086, "longitude": -104.534520253419}}