{"119286185RR0001": {"name": "CENTRE DE SPIRITUALITE MANRESE", "designationCode": "C", "categoryCode": "38", "address": "965 AVENUE LOUIS-FR\u00c9CHETTE", "city": "QU\u00c9BEC", "province": "QC", "country": "CA", "postalCode": "G1S4V1", "twitter": "None", "instagram": "None", "facebook": "None", "youtube": "None", "website": "None", "summary": "None", "logo": "None", "latitude": 46.79564273189449, "longitude": -71.2482308284668}, "882141765RR0001": {"name": "CENTRE DE STIMULATION L'ENVOL", "designationCode": "C", "categoryCode": "09", "address": "1 LACTANTIA", "city": "VICTORIAVILLE", "province": "QC", "country": "CA", "postalCode": "G6P1J2", "twitter": "None", "instagram": "None", "facebook": "None", "youtube": "None", "website": "None", "summary": "None", "logo": "None", "latitude": 46.06595572200625, "longitude": -71.9642306206268}, "866499817RR0001": {"name": "CENTRE DE SUPPORT CONNEXION SUPPORT CENTER", "designationCode": "C", "categoryCode": "09", "address": "6 SHEPPARD STREET", "city": "KAPUSKASING", "province": "ON", "country": "CA", "postalCode": "P5N1V8", "twitter": "None", "instagram": "None", "facebook": "None", "youtube": "None", "website": "None", "summary": "None", "logo": "None", "latitude": 49.41937914377327, "longitude": -82.42337271164324}, "890221898RR0001": {"name": "CENTRE DE THEATRE FRANCOPHONE D'OTTAWA - CARLETON", "designationCode": "C", "categoryCode": "22", "address": "333, AVENUE KING EDWARD", "city": "OTTAWA", "province": "ON", "country": "CA", "postalCode": "K1N7M5", "twitter": "None", "instagram": "None", "facebook": "None", "youtube": "None", "website": "None", "summary": "None", "logo": "None", "latitude": 45.43023582044539, "longitude": -75.6868258901844}, "896662103RR0001": {"name": "CENTRE DE THERAPIE ISUARSIVIK / ISUARSIVIK TREATMENT CENTRE / ISUARSIVIK MAMISARNIMUT PINASUVVIK", "designationCode": "C", "categoryCode": "57", "address": "P O BOX 749", "city": "KUUJJUAQ", "province": "QC", "country": "CA", "postalCode": "J0M1C0", "twitter": "None", "instagram": "None", "facebook": "None", "youtube": "None", "website": "None", "summary": "None", "logo": "None", "latitude": 58.10919000000007, "longitude": -68.40213999999997}, "138129853RR0001": {"name": "CENTRE DE TRAITEMENT DES D\u00c9PENDANCES LE RUCHER", "designationCode": "C", "categoryCode": "09", "address": "4932 RUE PIERE-GEORGES-ROY    C.P. 9 SUCC BUREAU-CHEF", "city": "ST-AUGUSTIN-D-DESM", "province": "QC", "country": "CA", "postalCode": "G3A1V9", "twitter": "None", "instagram": "None", "facebook": "None", "youtube": "None", "website": "None", "summary": "None", "logo": "None", "latitude": 46.75096500000005, "longitude": -71.44335799999993}, "106896855RR0001": {"name": "CENTRE DE TRANSITION PERCEVAL INC.", "designationCode": "C", "categoryCode": "01", "address": "203-148 RUE GEORGE", "city": "SOREL-TRACY", "province": "QC", "country": "CA", "postalCode": "J3P1C6", "twitter": "None", "instagram": "None", "facebook": "None", "youtube": "None", "website": "None", "summary": "None", "logo": "None", "latitude": 46.04557975823777, "longitude": -73.109496573403}, "100887025RR0001": {"name": "CENTRE DE TRAVAIL LARO INC.", "designationCode": "C", "categoryCode": "09", "address": "179 RUE DEVEAULT", "city": "HULL", "province": "QC", "country": "CA", "postalCode": "J8Z1S7", "twitter": "None", "instagram": "None", "facebook": "None", "youtube": "None", "website": "None", "summary": "None", "logo": "None", "latitude": 45.46247345325739, "longitude": -75.7385121947025}, "136757523RR0001": {"name": "CENTRE DE VACANCES ET D'APPRENTISSAGE LOISIRS DE SAINT-CYPRIEN", "designationCode": "C", "categoryCode": "56", "address": "101-C RUE COLLIN", "city": "ST-CYPRIEN", "province": "QC", "country": "CA", "postalCode": "G0L2P0", "twitter": "None", "instagram": "None", "facebook": "None", "youtube": "None", "website": "None", "summary": "None", "logo": "None", "latitude": 47.89762106340959, "longitude": -69.02146920875079}, "119015139RR0002": {"name": "CENTRE DE VALORISATION DU PATRIMOINE VIVANT", "designationCode": "C", "categoryCode": "22", "address": "C.P. 123 SUCCURSALE B", "city": "QUEBEC", "province": "QC", "country": "CA", "postalCode": "G1K7A1", "twitter": "None", "instagram": "None", "facebook": "None", "youtube": "None", "website": "None", "summary": "None", "logo": "None", "latitude": 46.81272300000006, "longitude": -71.21930299999994}, "817541865RR0001": {"name": "CENTRE DE VIE BETHEL - BETHEL LIFE CENTRE", "designationCode": "C", "categoryCode": "36", "address": "934 ROUTE 243 (BOLTON PASS)", "city": "BOLTON-EST", "province": "QC", "country": "CA", "postalCode": "J0E1G0", "twitter": "None", "instagram": "None", "facebook": "None", "youtube": "None", "website": "None", "summary": "None", "logo": "None", "latitude": 45.194289000000055, "longitude": -72.32206399999993}, "887094159RR0001": {"name": "CENTRE DE VIE DE BELLECHASSE INC.", "designationCode": "C", "categoryCode": "09", "address": "55 B RUE DE LA FABRIQUE", "city": "SAINTE-CLAIRE", "province": "QC", "country": "CA", "postalCode": "G0R2V0", "twitter": "None", "instagram": "None", "facebook": "None", "youtube": "None", "website": "None", "summary": "None", "logo": "None"}, "853299923RR0001": {"name": "CENTRE DE ZOOTHERAPIE COMMUNAUTAIRE", "designationCode": "C", "categoryCode": "11", "address": "908 CH LAC DES BECS-SCIES EST", "city": "SAINT-SAUVEUR", "province": "QC", "country": "CA", "postalCode": "J0R1R1", "twitter": "None", "instagram": "None", "facebook": "None", "youtube": "None", "website": "None", "summary": "None", "logo": "None", "latitude": 45.84699311157595, "longitude": -74.21405248851612}, "140928060RR0001": {"name": "CENTRE DEFI-JEUNESSE DE ST-FRANCOIS", "designationCode": "C", "categoryCode": "09", "address": "455 MONTEE DU MOULIN", "city": "ST-FRANCOIS LAVAL", "province": "QC", "country": "CA", "postalCode": "H7A1Z2", "twitter": "None", "instagram": "None", "facebook": "None", "youtube": "None", "website": "None", "summary": "None", "logo": "None", "latitude": 45.66713521455359, "longitude": -73.5725819353109}, "107886806RR0001": {"name": "CENTRE DES A\u00ceN\u00c9S DU R\u00c9SEAU D'ENTRAIDE DE SAINT-L\u00c9ONARD", "designationCode": "C", "categoryCode": "09", "address": "5555, RUE JEAN-TALON E", "city": "SAINT-LEONARD", "province": "QC", "country": "CA", "postalCode": "H1S1L8", "twitter": "None", "instagram": "None", "facebook": "None", "youtube": "None", "website": "None", "summary": "None", "logo": "None", "latitude": 45.58193542131687, "longitude": -73.58060115266308}, "132841065RR0001": {"name": "CENTRE DES AINES COTE-DES-NEIGES", "designationCode": "C", "categoryCode": "09", "address": "6600, AV.VICTORIA, BUREAU 101", "city": "MONTR\u00c9AL", "province": "QC", "country": "CA", "postalCode": "H3W3G7", "twitter": "None", "instagram": "None", "facebook": "None", "youtube": "None", "website": "None", "summary": "None", "logo": "None", "latitude": 45.49601415001001, "longitude": -73.64153299387684}, "855075370RR0001": {"name": "CENTRE DES AINES DE L'ASIE DU SUD-EST (CAASE)", "designationCode": "C", "categoryCode": "09", "address": "1300 BOUL ROSEMONT", "city": "MONTR\u00c9AL", "province": "QC", "country": "CA", "postalCode": "H2G1S1", "twitter": "None", "instagram": "None", "facebook": "None", "youtube": "None", "website": "None", "summary": "None", "logo": "None", "latitude": 45.53731907992388, "longitude": -73.59280597305114}, "120521208RR0001": {"name": "CENTRE DES ARTS ACTUELS SKOL", "designationCode": "C", "categoryCode": "22", "address": "372, SAINTE-CATHERINE OUEST   LOCAL 314", "city": "MONTREAL", "province": "QC", "country": "CA", "postalCode": "H3B1A2", "twitter": "None", "instagram": "None", "facebook": "None", "youtube": "None", "website": "None", "summary": "None", "logo": "None"}, "100885821RR0001": {"name": "CENTRE DES ARTS CONTEMPORAINS DU QU\u00c9BEC \u00c0 MONTR\u00c9AL", "designationCode": "C", "categoryCode": "22", "address": "207 RUE DU PRINCE", "city": "SOREL-TRACY", "province": "QC", "country": "CA", "postalCode": "J3P4K8", "twitter": "None", "instagram": "None", "facebook": "None", "youtube": "None", "website": "None", "summary": "None", "logo": "None", "latitude": 46.0388142603439, "longitude": -73.11203013263912}, "869373373RR0001": {"name": "CENTRE DES ARTS DE LA SCENE PAULINE JULIEN", "designationCode": "C", "categoryCode": "22", "address": "15615 BOUL GOUIN OUEST", "city": "SAINTE-GENEVIEVE", "province": "QC", "country": "CA", "postalCode": "H9H5K8", "twitter": "None", "instagram": "None", "facebook": "None", "youtube": "None", "website": "None", "summary": "None", "logo": "None", "latitude": 45.48286749324799, "longitude": -73.86803863067628}, "144053949RR0001": {"name": "CENTRE DES ENFANTS", "designationCode": "C", "categoryCode": "09", "address": "522 RUE SAINTE-ANNE", "city": "CHICOUTIMI", "province": "QC", "country": "CA", "postalCode": "G7J2N4", "twitter": "None", "instagram": "None", "facebook": "None", "youtube": "None", "website": "None", "summary": "None", "logo": "None", "latitude": 48.4229813782965, "longitude": -71.06911207190247}, "104072129RR0001": {"name": "CENTRE DES FAMILLES MONOPARENTALES & RECOMPOSEES DE QUEBEC", "designationCode": "C", "categoryCode": "09", "address": "196 RUE DES CH\u00caNES OUEST", "city": "QU\u00c9BEC", "province": "QC", "country": "CA", "postalCode": "G1L1K7", "twitter": "None", "instagram": "None", "facebook": "None", "youtube": "None", "website": "None", "summary": "None", "logo": "None", "latitude": 46.83401158563671, "longitude": -71.25125105496558}, "118846476RR0001": {"name": "CENTRE DES FEMMES D'ICI ET D'AILLEURS", "designationCode": "C", "categoryCode": "09", "address": "8043, ST-HUBERT", "city": "MONTR\u00c9AL", "province": "QC", "country": "CA", "postalCode": "H2R2P4", "twitter": "None", "instagram": "None", "facebook": "None", "youtube": "None", "website": "None", "summary": "None", "logo": "None", "latitude": 45.546024173754915, "longitude": -73.62536951719667}, "120824982RR0001": {"name": "CENTRE DES FEMMES DE CHARLEVOIX", "designationCode": "C", "categoryCode": "09", "address": "595 RUE GEORGES-E.-TREMBLAY", "city": "BAIE-ST-PAUL", "province": "QC", "country": "CA", "postalCode": "G3Z1V5", "twitter": "None", "instagram": "None", "facebook": "None", "youtube": "None", "website": "None", "summary": "None", "logo": "None", "latitude": 47.44666845045876, "longitude": -70.52016238715463}, "140793365RR0001": {"name": "CENTRE DES FEMMES DE LA M.R.C. DU GRANIT", "designationCode": "C", "categoryCode": "09", "address": "3791 RUE VILLENEUVE", "city": "LAC-MEGANTIC", "province": "QC", "country": "CA", "postalCode": "G6B2B3", "twitter": "None", "instagram": "None", "facebook": "None", "youtube": "None", "website": "None", "summary": "None", "logo": "None", "latitude": 45.5786878262451, "longitude": -70.88465801719668}, "118846450RR0001": {"name": "CENTRE DES FEMMES DE MONTREAL", "designationCode": "C", "categoryCode": "59", "address": "3585 RUE SAINT-URBAIN", "city": "MONTREAL", "province": "QC", "country": "CA", "postalCode": "H2X2N6", "twitter": "None", "instagram": "None", "facebook": "None", "youtube": "None", "website": "None", "summary": "None", "logo": "None", "latitude": 45.51247223593385, "longitude": -73.57306964819101}, "103018768RR0001": {"name": "CENTRE DES FEMMES DE ROSEMONT", "designationCode": "C", "categoryCode": "09", "address": "5350 RUE LAFOND", "city": "MONTREAL", "province": "QC", "country": "CA", "postalCode": "H1X2X2", "twitter": "None", "instagram": "None", "facebook": "None", "youtube": "None", "website": "None", "summary": "None", "logo": "None", "latitude": 45.55238905297504, "longitude": -73.5710193212821}, "120298815RR0001": {"name": "CENTRE DES FEMMES DE SAINT-LAURENT INC.", "designationCode": "C", "categoryCode": "20", "address": "685 BOUL. DECARIE             BUREAU 101", "city": "SAINT-LAURENT", "province": "QC", "country": "CA", "postalCode": "H4L5G4", "twitter": "None", "instagram": "None", "facebook": "None", "youtube": "None", "website": "None", "summary": "None", "logo": "None", "latitude": 45.51032721899696, "longitude": -73.67637679251555}, "106896541RR0001": {"name": "CENTRE DES FEMMES DE VERDUN INC.", "designationCode": "C", "categoryCode": "59", "address": "4080 RUE WELLINGTON           BUREAU 203", "city": "VERDUN", "province": "QC", "country": "CA", "postalCode": "H4G1V4", "twitter": "None", "instagram": "None", "facebook": "None", "youtube": "None", "website": "None", "summary": "None", "logo": "None", "latitude": 45.4630120932541, "longitude": -73.56698321285147}, "107656084RR0001": {"name": "CENTRE DES FEMMES DU O PAYS", "designationCode": "C", "categoryCode": "09", "address": "74-A RUE PRINCIPALE           C.P. 159", "city": "LAC-DES-AIGLES", "province": "QC", "country": "CA", "postalCode": "G0K1V0", "twitter": "None", "instagram": "None", "facebook": "None", "youtube": "None", "website": "None", "summary": "None", "logo": "None", "latitude": 47.98625738675387, "longitude": -68.67603008768663}, "120267919RR0001": {"name": "CENTRE DES FEMMES DU PLATEAU MONT-ROYAL", "designationCode": "C", "categoryCode": "09", "address": "1022, BOUL. ST-JOSEPH EST", "city": "MONTREAL", "province": "QC", "country": "CA", "postalCode": "H2J1L1", "twitter": "None", "instagram": "None", "facebook": "None", "youtube": "None", "website": "None", "summary": "None", "logo": "None", "latitude": 45.529963984448095, "longitude": -73.5843374862371}, "139765465RR0001": {"name": "CENTRE DES FEMMES DU TEMISCOUATA", "designationCode": "C", "categoryCode": "09", "address": "233 - 2 RUE COMMERCIALE       C.P. 192", "city": "ST-LOUIS-DU-HA-HA", "province": "QC", "country": "CA", "postalCode": "G0L3S0", "twitter": "None", "instagram": "None", "facebook": "None", "youtube": "None", "website": "None", "summary": "None", "logo": "None", "latitude": 47.67145342322221, "longitude": -68.97380238617909}, "100886381RR0001": {"name": "CENTRE DES FEMMES DU VAL SAINT-FRANCOIS", "designationCode": "C", "categoryCode": "09", "address": "75 RUE ALLEN", "city": "WINDSOR", "province": "QC", "country": "CA", "postalCode": "J1S2P8", "twitter": "None", "instagram": "None", "facebook": "None", "youtube": "None", "website": "None", "summary": "None", "logo": "None", "latitude": 45.57545063226377, "longitude": -72.00539893493553}, "889635538RR0001": {"name": "CENTRE DES FEMMES INTERCULTUREL CLAIRE", "designationCode": "C", "categoryCode": "09", "address": "3840 BOUL. HENRI BOURASSA E", "city": "MONTREAL-NORD", "province": "QC", "country": "CA", "postalCode": "H1H1K4", "twitter": "None", "instagram": "None", "facebook": "None", "youtube": "None", "website": "None", "summary": "None", "logo": "None", "latitude": 45.592579216198345, "longitude": -73.64507684690423}, "137015152RR0001": {"name": "CENTRE DES FEMMES L'HERITAGE", "designationCode": "C", "categoryCode": "09", "address": "9-121 RANG PETITE RIVIERE", "city": "LOUISEVILLE", "province": "QC", "country": "CA", "postalCode": "J5V2H3", "twitter": "None", "instagram": "None", "facebook": "None", "youtube": "None", "website": "None", "summary": "None", "logo": "None", "latitude": 46.25360541159335, "longitude": -72.95106513154259}, "106893845RR0001": {"name": "CENTRE DES FEMMES LA PAROLIERE", "designationCode": "C", "categoryCode": "59", "address": "217, RUE BELVEDERE NORD", "city": "SHERBROOKE", "province": "QC", "country": "CA", "postalCode": "J1H5W2", "twitter": "None", "instagram": "None", "facebook": "None", "youtube": "None", "website": "None", "summary": "None", "logo": "None", "latitude": 45.40198545155528, "longitude": -71.89962121192784}, "139099287RR0001": {"name": "CENTRE DES FEMMES MEMPHREMAGOG", "designationCode": "C", "categoryCode": "09", "address": "288 RUE SAINT-PATRICE O", "city": "MAGOG", "province": "QC", "country": "CA", "postalCode": "J1X1W3", "twitter": "None", "instagram": "None", "facebook": "None", "youtube": "None", "website": "None", "summary": "None", "logo": "None", "latitude": 45.2669308859139, "longitude": -72.1504865162444}, "100886407RR0001": {"name": "CENTRE DES FEMMES RIVIERES-DES-PRAIRIES", "designationCode": "C", "categoryCode": "59", "address": "12017 ALEXIS CARREL", "city": "MONTREAL", "province": "QC", "country": "CA", "postalCode": "H1E4B8", "twitter": "None", "instagram": "None", "facebook": "None", "youtube": "None", "website": "None", "summary": "None", "logo": "None", "latitude": 45.639152401898485, "longitude": -73.58074918953795}, "100886415RR0001": {"name": "CENTRE DES FEMMES WEST ISLAND", "designationCode": "C", "categoryCode": "59", "address": "PO BOX 521", "city": "POINTE-CLAIRE", "province": "QC", "country": "CA", "postalCode": "H9R4S6", "twitter": "None", "instagram": "None", "facebook": "None", "youtube": "None", "website": "None", "summary": "None", "logo": "None", "latitude": 45.44809800000006, "longitude": -73.81735099999993}, "880657747RR0001": {"name": "CENTRE DES GENERATIONS DE BOUCHERVILLE", "designationCode": "C", "categoryCode": "09", "address": "61 RUE DE MONTBRUN", "city": "BOUCHERVILLE", "province": "QC", "country": "CA", "postalCode": "J4B7H4", "twitter": "None", "instagram": "None", "facebook": "None", "youtube": "None", "website": "None", "summary": "None", "logo": "None", "latitude": 45.6144555004327, "longitude": -73.45178489217496}, "895138543RR0001": {"name": "CENTRE DES JEUNES BOYCE-VIAU", "designationCode": "C", "categoryCode": "09", "address": "2625, RUE THEODORE            PORTE 1", "city": "MONTREAL", "province": "QC", "country": "CA", "postalCode": "H1V3C7", "twitter": "None", "instagram": "None", "facebook": "None", "youtube": "None", "website": "None", "summary": "None", "logo": "None", "latitude": 45.560390793236714, "longitude": -73.5442415785389}, "120514229RR0001": {"name": "CENTRE DES JEUNES DE LENNOXVILLE", "designationCode": "C", "categoryCode": "29", "address": "168-B QUEEN", "city": "LENNOXVILLE", "province": "QC", "country": "CA", "postalCode": "J1M1J9", "twitter": "None", "instagram": "None", "facebook": "None", "youtube": "None", "website": "None", "summary": "None", "logo": "None", "latitude": 45.36848150858411, "longitude": -71.85670308770297}, "868165366RR0001": {"name": "CENTRE DES JEUNES L'ESCALE DE MONTREAL-NORD INC", "designationCode": "C", "categoryCode": "09", "address": "4255 PLACE HOTEL DE VILLE", "city": "MONTREAL NORD", "province": "QC", "country": "CA", "postalCode": "H1H1S4", "twitter": "None", "instagram": "None", "facebook": "None", "youtube": "None", "website": "None", "summary": "None", "logo": "None", "latitude": 45.594342638092144, "longitude": -73.63796478977426}, "119011229RR0001": {"name": "CENTRE DES LETTRES ET DES MOTS (CLEM)", "designationCode": "C", "categoryCode": "59", "address": "8733 HOCHELAGA", "city": "MONTREAL", "province": "QC", "country": "CA", "postalCode": "H1L2M8", "twitter": "None", "instagram": "None", "facebook": "None", "youtube": "None", "website": "None", "summary": "None", "logo": "None", "latitude": 45.60175758035659, "longitude": -73.51971318653685}, "118846500RR0001": {"name": "CENTRE DES LOISIRS ST-SACREMENT INC.", "designationCode": "C", "categoryCode": "56", "address": "1360 BOUL DE L'ENTENTE", "city": "QUEBEC", "province": "QC", "country": "CA", "postalCode": "G1S2T9", "twitter": "None", "instagram": "None", "facebook": "None", "youtube": "None", "website": "None", "summary": "None", "logo": "None", "latitude": 46.795559214458905, "longitude": -71.2577631384175}, "100886522RR0001": {"name": "CENTRE DES MARAIS ET SES HABITANTS INC.", "designationCode": "C", "categoryCode": "54", "address": "4241 CH. CROTEAU              R.R. 2", "city": "AMOS", "province": "QC", "country": "CA", "postalCode": "J9T3A1", "twitter": "None", "instagram": "None", "facebook": "None", "youtube": "None", "website": "None", "summary": "None", "logo": "None", "latitude": 48.56815181957999, "longitude": -78.01421500005546}, "127734036RR0001": {"name": "CENTRE DES METIERS DU CUIR DE MONTREAL", "designationCode": "C", "categoryCode": "20", "address": "911 RUE JEAN-TALON E          BUREAU 108", "city": "MONTREAL", "province": "QC", "country": "CA", "postalCode": "H2R1V5", "twitter": "None", "instagram": "None", "facebook": "None", "youtube": "None", "website": "None", "summary": "None", "logo": "None", "latitude": 45.54149052013953, "longitude": -73.61280380287332}, "100886530RR0001": {"name": "CENTRE DES METIERS DU VERRE DU QUEBEC INC.", "designationCode": "C", "categoryCode": "20", "address": "1200 RUE MILL", "city": "MONTREAL", "province": "QC", "country": "CA", "postalCode": "H3K2B3", "twitter": "None", "instagram": "None", "facebook": "None", "youtube": "None", "website": "None", "summary": "None", "logo": "None", "latitude": 45.48957724340701, "longitude": -73.55179549275798}, "118846526RR0001": {"name": "CENTRE DES OEUVRES DE L'ASSOMPTION", "designationCode": "C", "categoryCode": "46", "address": "251, RUE ST-JEAN-BAPTISTE", "city": "NICOLET", "province": "QC", "country": "CA", "postalCode": "J3T1X9", "twitter": "None", "instagram": "None", "facebook": "None", "youtube": "None", "website": "None", "summary": "None", "logo": "None", "latitude": 46.22824998782363, "longitude": -72.6223705195053}, "118846559RR0001": {"name": "CENTRE DES RESSOURCES COMMUNAUTAIRES DE L'OUEST DE L'ILE, WEST ISLAND COMMUNITY RESOURCE CENTRE", "designationCode": "C", "categoryCode": "59", "address": "114 DONEGANI", "city": "POINTE-CLAIRE", "province": "QC", "country": "CA", "postalCode": "H9R2W3", "twitter": "None", "instagram": "None", "facebook": "None", "youtube": "None", "website": "None", "summary": "None", "logo": "None", "latitude": 45.45001261613494, "longitude": -73.791059464193}, "894477041RR0001": {"name": "CENTRE DES ROSES DE L'ABITIBI-TEMISCAMINGUE", "designationCode": "C", "categoryCode": "11", "address": "220-380 RUE RICHARD", "city": "ROUYN-NORANDA", "province": "QC", "country": "CA", "postalCode": "J9X4L3", "twitter": "None", "instagram": "None", "facebook": "None", "youtube": "None", "website": "None", "summary": "None", "logo": "None", "latitude": 48.232449115182646, "longitude": -79.01576169294215}, "131910275RR0001": {"name": "CENTRE DES SERVICES COMMUNAUTAIRES DE VANIER/VANIER COMMUNITY SERVICE CENTRE", "designationCode": "C", "categoryCode": "56", "address": "290 RUE DUPUIS", "city": "OTTAWA", "province": "ON", "country": "CA", "postalCode": "K1L1A2", "twitter": "None", "instagram": "None", "facebook": "None", "youtube": "None", "website": "None", "summary": "None", "logo": "None", "latitude": 45.43539686649551, "longitude": -75.66112610242935}, "128759032RR0001": {"name": "CENTRE DES SERVICES DE DEVELOPPEMENT POUR STORMONT, DUNDAS ET GLENGARRY", "designationCode": "C", "categoryCode": "09", "address": "775 RUE CAMPBELL", "city": "CORNWALL", "province": "ON", "country": "CA", "postalCode": "K6H7B7", "twitter": "None", "instagram": "None", "facebook": "None", "youtube": "None", "website": "None", "summary": "None", "logo": "None", "latitude": 45.03987795363277, "longitude": -74.69111555583096}, "134948413RR0001": {"name": "CENTRE DES 55 ANS ET PLUS DE CHATEAUGUAY", "designationCode": "C", "categoryCode": "56", "address": "27 ST. FRANCIS BLVD", "city": "CHATEAUGUAY", "province": "QC", "country": "CA", "postalCode": "J6J1Y2", "twitter": "None", "instagram": "None", "facebook": "None", "youtube": "None", "website": "None", "summary": "None", "logo": "None", "latitude": 45.36894540723593, "longitude": -73.74694466307908}, "119277036RR0001": {"name": "CENTRE DOMR\u00c9MY DES APPALACHES INC.", "designationCode": "C", "categoryCode": "57", "address": "CP 64 SUCC BUREAU-CHEF", "city": "THETFORD MINES", "province": "QC", "country": "CA", "postalCode": "G6G5R9", "twitter": "None", "instagram": "None", "facebook": "None", "youtube": "None", "website": "None", "summary": "None", "logo": "None", "latitude": 46.09057200000005, "longitude": -71.29926349999994}, "125711028RR0001": {"name": "CENTRE DU CINEMA PARALLELE INC", "designationCode": "C", "categoryCode": "22", "address": "5948 RUE LOUIS-HEMON", "city": "MONTREAL", "province": "QC", "country": "CA", "postalCode": "H2G2K6", "twitter": "None", "instagram": "None", "facebook": "None", "youtube": "None", "website": "None", "summary": "None", "logo": "None", "latitude": 45.54488579681475, "longitude": -73.58894454498227}, "892037995RR0001": {"name": "CENTRE DU PARTAGE DE VALLEYFIELD INC", "designationCode": "C", "categoryCode": "09", "address": "11 JEAN-TALON", "city": "VALLEYFIELD", "province": "QC", "country": "CA", "postalCode": "J6S3H5", "twitter": "None", "instagram": "None", "facebook": "None", "youtube": "None", "website": "None", "summary": "None", "logo": "None", "latitude": 45.265292087714165, "longitude": -74.13733585939771}, "887342681RR0001": {"name": "CENTRE DU PLATEAU LAVAL", "designationCode": "C", "categoryCode": "09", "address": "65 PLACE DES COQUELICOTS", "city": "BECANCOUR", "province": "QC", "country": "CA", "postalCode": "G9H2N7", "twitter": "None", "instagram": "None", "facebook": "None", "youtube": "None", "website": "None", "summary": "None", "logo": "None", "latitude": 46.34454329615091, "longitude": -72.48498742700102}, "132932468RR0001": {"name": "CENTRE DU PLEIN \u00c9VANGILE DE LA RIVE SUD", "designationCode": "C", "categoryCode": "36", "address": "1575 CH DU SAULT", "city": "LEVIS", "province": "QC", "country": "CA", "postalCode": "G6W2M2", "twitter": "None", "instagram": "None", "facebook": "None", "youtube": "None", "website": "None", "summary": "None", "logo": "None", "latitude": 46.74436524510912, "longitude": -71.25685632852412}, "118846724RR0001": {"name": "CENTRE DU THEATRE D'AUJOURD'HUI", "designationCode": "C", "categoryCode": "22", "address": "3888 RUE SAINT-DENIS", "city": "MONTREAL", "province": "QC", "country": "CA", "postalCode": "H2W2M2", "twitter": "None", "instagram": "None", "facebook": "None", "youtube": "None", "website": "None", "summary": "None", "logo": "None", "latitude": 45.51980885178033, "longitude": -73.57386595726808}, "118846732RR0001": {"name": "CENTRE DU TROISIEME AGE ST-MARTIN INC.", "designationCode": "C", "categoryCode": "01", "address": "93, 1RE AVE EST               CP 2001", "city": "ST-MARTIN", "province": "QC", "country": "CA", "postalCode": "G0M1B0", "twitter": "None", "instagram": "None", "facebook": "None", "youtube": "None", "website": "None", "summary": "None", "logo": "None", "latitude": 45.963916805989996, "longitude": -70.65581433507458}, "118846716RR0001": {"name": "CENTRE DUROCHER INC.", "designationCode": "C", "categoryCode": "56", "address": "680 RAOUL-JOBIN", "city": "QUEBEC", "province": "QC", "country": "CA", "postalCode": "G1N4N1", "twitter": "None", "instagram": "None", "facebook": "None", "youtube": "None", "website": "None", "summary": "None", "logo": "None", "latitude": 46.80762241217027, "longitude": -71.24413677670385}, "133552273RR0001": {"name": "CENTRE E.R.K. 58 INC.", "designationCode": "C", "categoryCode": "57", "address": "855 RUE LEONIDAS BELANGER     C P 534", "city": "CHICOUTIMI", "province": "QC", "country": "CA", "postalCode": "G7H5C8", "twitter": "None", "instagram": "None", "facebook": "None", "youtube": "None", "website": "None", "summary": "None", "logo": "None", "latitude": 48.428622533181276, "longitude": -71.04209361226845}, "874776396RR0001": {"name": "CENTRE ECLOSION INC", "designationCode": "C", "categoryCode": "09", "address": "63 RUE ST-JACQUES SUD", "city": "CAUSAPSCAL", "province": "QC", "country": "CA", "postalCode": "G0J1J0", "twitter": "None", "instagram": "None", "facebook": "None", "youtube": "None", "website": "None", "summary": "None", "logo": "None", "latitude": 48.35183297417632, "longitude": -67.22301281652156}, "878986801RR0001": {"name": "CENTRE EDUCATIF COMMUNAUTAIRE (CEC) PHILOS", "designationCode": "C", "categoryCode": "09", "address": "1774 SUN VALLEY", "city": "LAVAL", "province": "QC", "country": "CA", "postalCode": "H7M3G6", "twitter": "None", "instagram": "None", "facebook": "None", "youtube": "None", "website": "None", "summary": "None", "logo": "None", "latitude": 45.57809472716263, "longitude": -73.71334251361866}, "132698960RR0001": {"name": "CENTRE EDUCATIF COMMUNAUTAIRE RENE GOUPIL", "designationCode": "C", "categoryCode": "59", "address": "4105 47IEME RUE", "city": "MONTREAL", "province": "QC", "country": "CA", "postalCode": "H1Z1L6", "twitter": "None", "instagram": "None", "facebook": "None", "youtube": "None", "website": "None", "summary": "None", "logo": "None", "latitude": 45.58059700833854, "longitude": -73.62181509036856}, "885706424RR0001": {"name": "CENTRE EDUCATIF ESPACE 7000 INC", "designationCode": "C", "categoryCode": "22", "address": "7000 RUE MARIE-VICTORIN", "city": "MONTREAL", "province": "QC", "country": "CA", "postalCode": "H1G2J6", "twitter": "None", "instagram": "None", "facebook": "None", "youtube": "None", "website": "None", "summary": "None", "logo": "None", "latitude": 45.61741502195719, "longitude": -73.60633139185784}, "107419004RR0001": {"name": "CENTRE EDUCATIF SUR UN NUAGE", "designationCode": "C", "categoryCode": "20", "address": "614 EASTVALE DRIVE", "city": "GLOUCESTER", "province": "ON", "country": "CA", "postalCode": "K1J6Z6", "twitter": "None", "instagram": "None", "facebook": "None", "youtube": "None", "website": "None", "summary": "None", "logo": "None", "latitude": 45.4605014831787, "longitude": -75.59685234788425}, "890069826RR0001": {"name": "CENTRE EDUCATIONNEL COMMUNAUTAIRE DE MONTREAL KOLLEL TORAH MITZION", "designationCode": "C", "categoryCode": "49", "address": "PO BOX 84", "city": "COTE ST-LUC", "province": "QC", "country": "CA", "postalCode": "H4V2Y5", "twitter": "None", "instagram": "None", "facebook": "None", "youtube": "None", "website": "None", "summary": "None", "logo": "None", "latitude": 45.468369533229854, "longitude": -73.65085268422894}, "135406502RR0001": {"name": "CENTRE EMILIE GAMELIN", "designationCode": "C", "categoryCode": "09", "address": "307 RUE MONSEIGNEUR-ROSS E", "city": "CHANDLER", "province": "QC", "country": "CA", "postalCode": "G0C1K0", "twitter": "None", "instagram": "None", "facebook": "None", "youtube": "None", "website": "None", "summary": "None", "logo": "None", "latitude": 48.35427444272581, "longitude": -64.67483883943106}, "867944506RR0001": {"name": "CENTRE EMMAUS DES BOIS-FRANCS", "designationCode": "C", "categoryCode": "49", "address": "71, RUE ST-LOUIS", "city": "VICTORIAVILLE", "province": "QC", "country": "CA", "postalCode": "G6P3P6", "twitter": "None", "instagram": "None", "facebook": "None", "youtube": "None", "website": "None", "summary": "None", "logo": "None", "latitude": 46.0562892423105, "longitude": -71.9596722226323}, "865246706RR0001": {"name": "CENTRE EQUESTRE THERAPEUTIQUE MARIE-LAURENCE", "designationCode": "C", "categoryCode": "09", "address": "1750, 4E RANG", "city": "SAINTE-JUSTINE-DE-NEWTON", "province": "QC", "country": "CA", "postalCode": "J0P1T0", "twitter": "None", "instagram": "None", "facebook": "None", "youtube": "None", "website": "None", "summary": "None", "logo": "None", "latitude": 45.35628330062296, "longitude": -74.38091550983908}, "848106365RR0001": {"name": "CENTRE ESPOIR DE GATINEAU", "designationCode": "C", "categoryCode": "09", "address": "791 BOUL MALONEY E", "city": "GATINEAU", "province": "QC", "country": "CA", "postalCode": "J8P1G5", "twitter": "None", "instagram": "None", "facebook": "None", "youtube": "None", "website": "None", "summary": "None", "logo": "None", "latitude": 45.48278935501163, "longitude": -75.61463677575156}, "714594728RR0001": {"name": "CENTRE ESPOIR VIVANT LIVING HOPE CENTER", "designationCode": "C", "categoryCode": "39", "address": "145 RUE WILKINSON", "city": "DUNHAM", "province": "QC", "country": "CA", "postalCode": "J0E1M0", "twitter": "None", "instagram": "None", "facebook": "None", "youtube": "None", "website": "None", "summary": "None", "logo": "None", "latitude": 45.09854488923211, "longitude": -72.78643637771958}, "873144414RR0001": {"name": "CENTRE ETUDIANT BENOIT-LACROIX", "designationCode": "C", "categoryCode": "49", "address": "2715, CH. COTE STE-CATHERINE", "city": "MONTREAL", "province": "QC", "country": "CA", "postalCode": "H3T1B6", "twitter": "None", "instagram": "None", "facebook": "None", "youtube": "None", "website": "None", "summary": "None", "logo": "None", "latitude": 45.50668659703366, "longitude": -73.62023772932606}, "120117452RR0001": {"name": "CENTRE EUREKA INC", "designationCode": "C", "categoryCode": "09", "address": "4377 RUE NOTRE-DAME OEST      2E ETAGE", "city": "MONTREAL", "province": "QC", "country": "CA", "postalCode": "H4C1R9", "twitter": "None", "instagram": "None", "facebook": "None", "youtube": "None", "website": "None", "summary": "None", "logo": "None", "latitude": 45.47506306079396, "longitude": -73.58673723400061}, "118846849RR0001": {"name": "CENTRE EVANGELIQUE DE L'EGLISE DU NAZAREEN", "designationCode": "C", "categoryCode": "39", "address": "6775, RUE DE SAINT-VALLIER", "city": "MONTREAL", "province": "QC", "country": "CA", "postalCode": "H2S2R1", "twitter": "None", "instagram": "None", "facebook": "None", "youtube": "None", "website": "None", "summary": "None", "logo": "None", "latitude": 45.53694114100634, "longitude": -73.60900938230719}, "106897689RR0001": {"name": "CENTRE EVANGELIQUE DE LAVAL INC.", "designationCode": "C", "categoryCode": "36", "address": "1645 BOUL DES LAURENTIDES", "city": "VIMONT LAVAL", "province": "QC", "country": "CA", "postalCode": "H7M2P2", "twitter": "None", "instagram": "None", "facebook": "None", "youtube": "None", "website": "None", "summary": "None", "logo": "None", "latitude": 45.59508448294754, "longitude": -73.71987613486083}, "886301803RR0001": {"name": "CENTRE EVANGELIQUE FRANCOPHONE D'OTTAWA", "designationCode": "B", "categoryCode": "31", "address": "2144, CHEMIN EAST ACRES", "city": "GLOUCESTER", "province": "ON", "country": "CA", "postalCode": "K1J9A3", "twitter": "None", "instagram": "None", "facebook": "None", "youtube": "None", "website": "None", "summary": "None", "logo": "None", "latitude": 45.44537799469123, "longitude": -75.58921456506447}, "848522728RR0001": {"name": "CENTRE EVANGELIQUE INTERNATIONAL", "designationCode": "C", "categoryCode": "39", "address": "2 LAFAYETTE PRIVATE", "city": "OTTAWA", "province": "ON", "country": "CA", "postalCode": "K1K4E8", "twitter": "None", "instagram": "None", "facebook": "None", "youtube": "None", "website": "None", "summary": "None", "logo": "None", "latitude": 45.4430999439379, "longitude": -75.62503107548049}, "132591298RR0001": {"name": "CENTRE EVANGELIQUE RENAISSANCE DE ST-GEORGES", "designationCode": "C", "categoryCode": "39", "address": "18500, BOUL. LACROIX          R.R. 2", "city": "SAINT-GEORGES", "province": "QC", "country": "CA", "postalCode": "G5Y5B8", "twitter": "None", "instagram": "None", "facebook": "None", "youtube": "None", "website": "None", "summary": "None", "logo": "None", "latitude": 46.094220717122, "longitude": -70.63138749873059}, "118846914RR0001": {"name": "CENTRE EVOLUTIF SHAMBHALLA INC.", "designationCode": "B", "categoryCode": "13", "address": "1250 MALOUIN", "city": "SHERBROOKE", "province": "QC", "country": "CA", "postalCode": "J1J3C2", "twitter": "None", "instagram": "None", "facebook": "None", "youtube": "None", "website": "None", "summary": "None", "logo": "None", "latitude": 45.41693628365742, "longitude": -71.916622246581}, "135974343RR0001": {"name": "CENTRE EX-EQUO", "designationCode": "C", "categoryCode": "59", "address": "630 BOUL VACHON NORD", "city": "SAINTE-MARIE", "province": "QC", "country": "CA", "postalCode": "G6E1M2", "twitter": "None", "instagram": "None", "facebook": "None", "youtube": "None", "website": "None", "summary": "None", "logo": "None", "latitude": 46.447001014166915, "longitude": -71.02792808601207}, "863538120RR0001": {"name": "CENTRE FAMILLE & RESSOURCE A.D.D.", "designationCode": "C", "categoryCode": "09", "address": "4855 A BOUL DES SOURCES", "city": "PIERREFONDS", "province": "QC", "country": "CA", "postalCode": "H8Y3C8", "twitter": "None", "instagram": "None", "facebook": "None", "youtube": "None", "website": "None", "summary": "None", "logo": "None", "latitude": 45.50517929254423, "longitude": -73.81821004022174}, "857912307RR0001": {"name": "CENTRE FAMILLE HAUTE-VILLE", "designationCode": "C", "categoryCode": "09", "address": "540 ST-GABRIEL", "city": "QU\u00c9BEC", "province": "QC", "country": "CA", "postalCode": "G1R1W3", "twitter": "None", "instagram": "None", "facebook": "None", "youtube": "None", "website": "None", "summary": "None", "logo": "None", "latitude": 46.80938638135491, "longitude": -71.22028376839398}, "118846955RR0001": {"name": "CENTRE FELIX ANTOINE SAVARD", "designationCode": "C", "categoryCode": "23", "address": "304, RUE FELIX-ANTOINE-SAVARD", "city": "SAINT-JOSEPH-DE-LA-RIVE", "province": "QC", "country": "CA", "postalCode": "G0A3Y0", "twitter": "None", "instagram": "None", "facebook": "None", "youtube": "None", "website": "None", "summary": "None", "logo": "None", "latitude": 47.45759648211083, "longitude": -70.36337633971954}, "106897754RR0001": {"name": "CENTRE FEMININ DU SAGUENAY INC.", "designationCode": "C", "categoryCode": "09", "address": "C.P. 20084", "city": "CHICOUTIMI", "province": "QC", "country": "CA", "postalCode": "G7H7S2", "twitter": "None", "instagram": "None", "facebook": "None", "youtube": "None", "website": "None", "summary": "None", "logo": "None", "latitude": 48.42928500000005, "longitude": -71.06546149999993}, "107356826RR0001": {"name": "CENTRE FEMMES AUX 3 A DE QUEBEC INC.", "designationCode": "C", "categoryCode": "09", "address": "270, 5E RUE", "city": "QUEBEC", "province": "QC", "country": "CA", "postalCode": "G1L2R6", "twitter": "None", "instagram": "None", "facebook": "None", "youtube": "None", "website": "None", "summary": "None", "logo": "None", "latitude": 46.82293556367951, "longitude": -71.22754228599469}, "100890094RR0001": {"name": "CENTRE FEMMES DE BEAUCE INC.", "designationCode": "C", "categoryCode": "59", "address": "12725, BOULEVARD LACROIX", "city": "VILLE DE SAINT-GEORGES", "province": "QC", "country": "CA", "postalCode": "G5Y1M5", "twitter": "None", "instagram": "None", "facebook": "None", "youtube": "None", "website": "None", "summary": "None", "logo": "None", "latitude": 46.11911970886941, "longitude": -70.66479663056164}, "106895857RR0001": {"name": "CENTRE FEMMES LA ROSE DES VENTS INC.", "designationCode": "C", "categoryCode": "09", "address": "95 RUE NOTRE-DAME EST", "city": "THETFORD-MINES", "province": "QC", "country": "CA", "postalCode": "G6G2J6", "twitter": "None", "instagram": "None", "facebook": "None", "youtube": "None", "website": "None", "summary": "None", "logo": "None", "latitude": 46.092897323907835, "longitude": -71.29871503194052}, "822377875RR0001": {"name": "CENTRE FLAVIE LAURENT INC/FLAVIE LAURENT CENTRE INC.", "designationCode": "C", "categoryCode": "09", "address": "450 PROVENCHER BLVD.", "city": "WINNIPEG", "province": "MB", "country": "CA", "postalCode": "R2J0B9", "twitter": "None", "instagram": "None", "facebook": "None", "youtube": "None", "website": "None", "summary": "None", "logo": "None", "latitude": 49.895468823734944, "longitude": -97.10874794281271}, "869673095RR0001": {"name": "CENTRE FOR ADDICTION AND MENTAL HEALTH", "designationCode": "C", "categoryCode": "10", "address": "1001 QUEEN ST W", "city": "TORONTO", "province": "ON", "country": "CA", "postalCode": "M6J1H4", "twitter": "None", "instagram": "None", "facebook": "None", "youtube": "None", "website": "None", "summary": "None", "logo": "None", "latitude": 43.64429780541307, "longitude": -79.41814743851354}, "106932320RR0001": {"name": "CENTRE FOR ADDICTION AND MENTAL HEALTH FOUNDATION", "designationCode": "A", "categoryCode": "13", "address": "100 STOKES STREET, 5TH FL     BELL GATEWAY BUILDING", "city": "TORONTO", "province": "ON", "country": "CA", "postalCode": "M6J1H4", "twitter": "None", "instagram": "None", "facebook": "None", "youtube": "None", "website": "None", "summary": "None", "logo": "None", "latitude": 43.6431402489756, "longitude": -79.41915623342369}, "863751616RR0001": {"name": "CENTRE FOR AFFORDABLE WATER AND SANITATION TECHNOLOGY(CAWST)", "designationCode": "C", "categoryCode": "11", "address": "424 AVIATION ROAD NE", "city": "CALGARY", "province": "AB", "country": "CA", "postalCode": "T2E8H6", "twitter": "None", "instagram": "None", "facebook": "None", "youtube": "None", "website": "None", "summary": "None", "logo": "None", "latitude": 51.097439483695055, "longitude": -114.0292827911105}, "872973995RR0001": {"name": "CENTRE FOR AUTISM SERVICES ALBERTA", "designationCode": "C", "categoryCode": "09", "address": "4752 99 STREET", "city": "EDMONTON", "province": "AB", "country": "CA", "postalCode": "T6E5H5", "twitter": "None", "instagram": "None", "facebook": "None", "youtube": "None", "website": "None", "summary": "None", "logo": "None", "latitude": 53.485047335276136, "longitude": -113.4861586294642}, "867311995RR0001": {"name": "CENTRE FOR CANADIAN LANGUAGE BENCHMARKS/CENTRE DES NIVEAUX DE COMP\u00c9TENCE LINGUISTIQUE CANADIENS", "designationCode": "C", "categoryCode": "21", "address": "400-294 ALBERT ST", "city": "OTTAWA", "province": "ON", "country": "CA", "postalCode": "K1P6E6", "twitter": "None", "instagram": "None", "facebook": "None", "youtube": "None", "website": "None", "summary": "None", "logo": "None", "latitude": 45.41918279681473, "longitude": -75.70200919594325}, "106897812RR0001": {"name": "CENTRE FOR CHRISTIAN STUDIES CANADA INCORPORATED", "designationCode": "C", "categoryCode": "20", "address": "60 MARYLAND ST", "city": "WINNIPEG", "province": "MB", "country": "CA", "postalCode": "R3G1K7", "twitter": "None", "instagram": "None", "facebook": "None", "youtube": "None", "website": "None", "summary": "None", "logo": "None", "latitude": 49.88057554010618, "longitude": -97.1610954496507}, "873968176RR0001": {"name": "CENTRE FOR CIVIC ENGAGEMENT", "designationCode": "C", "categoryCode": "20", "address": "201 - 505 DANFORTH AVE", "city": "TORONTO", "province": "ON", "country": "CA", "postalCode": "M4K1P5", "twitter": "None", "instagram": "None", "facebook": "None", "youtube": "None", "website": "None", "summary": "None", "logo": "None", "latitude": 43.67810479098636, "longitude": -79.34897854065443}, "130562119RR0001": {"name": "CENTRE FOR COMMUNITY BASED RESEARCH", "designationCode": "C", "categoryCode": "20", "address": "190 WESTMOUNT RD N", "city": "WATERLOO", "province": "ON", "country": "CA", "postalCode": "N2L3G5", "twitter": "None", "instagram": "None", "facebook": "None", "youtube": "None", "website": "None", "summary": "None", "logo": "None", "latitude": 43.4673528036547, "longitude": -80.54726199495973}, "896112372RR0001": {"name": "CENTRE FOR CONTEMPORARY CANADIAN ART/CENTRE DE L'ART CONTEMPORAIN CANADIEN", "designationCode": "C", "categoryCode": "22", "address": "520 SPRAGUE STREET", "city": "WINNIPEG", "province": "MB", "country": "CA", "postalCode": "R3G2S1", "twitter": "None", "instagram": "None", "facebook": "None", "youtube": "None", "website": "None", "summary": "None", "logo": "None", "latitude": 49.882790744936244, "longitude": -97.1810924905936}}