{"748226495RR0001": {"name": "Une Chance de Vivre", "designationCode": "C", "categoryCode": "11", "address": "5933 CHRISTOPHE COLOMB", "city": "MONTR\u00c9AL", "province": "QC", "country": "CA", "postalCode": "H2S2G3", "twitter": "None", "instagram": "None", "facebook": "None", "youtube": "None", "website": "None", "summary": "None", "logo": "None", "latitude": 45.53556526146907, "longitude": -73.59642048346714}, "832188387RR0001": {"name": "Une Histoire de Chevaux Inc./A Horse Tale Inc.", "designationCode": "C", "categoryCode": "54", "address": "POST OFFICE BOX 176", "city": "HUDSON", "province": "QC", "country": "CA", "postalCode": "J0P1H0", "twitter": "None", "instagram": "None", "facebook": "None", "youtube": "None", "website": "None", "summary": "None", "logo": "None", "latitude": 45.459190000000035, "longitude": -74.14298999999994}, "119275485RR0001": {"name": "Unemployed Help Centre of Windsor Inc.", "designationCode": "C", "categoryCode": "09", "address": "6955  CANTELON DRIVE", "city": "WINDSOR", "province": "ON", "country": "CA", "postalCode": "N8T3J9", "twitter": "None", "instagram": "None", "facebook": "None", "youtube": "None", "website": "None", "summary": "None", "logo": "None", "latitude": 42.30366150138194, "longitude": -82.93351827828955}, "832597843RR0001": {"name": "Unfailing Love Outreach", "designationCode": "B", "categoryCode": "45", "address": "54 GULLIVER CRES", "city": "BRAMPTON", "province": "ON", "country": "CA", "postalCode": "L6S1S9", "twitter": "None", "instagram": "None", "facebook": "None", "youtube": "None", "website": "None", "summary": "None", "logo": "None", "latitude": 43.73517280460502, "longitude": -79.71461805969744}, "821631645RR0001": {"name": "Unger Family Foundation Inc.", "designationCode": "B", "categoryCode": "03", "address": "123 WHITESWAN DRIVE", "city": "SASKATOON", "province": "SK", "country": "CA", "postalCode": "S7K4M5", "twitter": "None", "instagram": "None", "facebook": "None", "youtube": "None", "website": "None", "summary": "None", "logo": "None", "latitude": 52.16839362337695, "longitude": -106.61158061091211}, "794443481RR0001": {"name": "Unified Heart Productions Foundation", "designationCode": "A", "categoryCode": "03", "address": "1000 RUE DE LA GAUCHETIERE O  APP 3700", "city": "MONTREAL", "province": "QC", "country": "CA", "postalCode": "H3B4W5", "twitter": "None", "instagram": "None", "facebook": "None", "youtube": "None", "website": "None", "summary": "None", "logo": "None", "latitude": 45.49846698248619, "longitude": -73.56698518102652}, "135323756RR0001": {"name": "Unifor Social Justice Fund/Le fonds de justice sociale d'Unifor", "designationCode": "A", "categoryCode": "03", "address": "205 PLACER COURT", "city": "NORTH YORK", "province": "ON", "country": "CA", "postalCode": "M2H3H9", "twitter": "None", "instagram": "None", "facebook": "None", "youtube": "None", "website": "None", "summary": "None", "logo": "None", "latitude": 43.80211400106787, "longitude": -79.34262139881139}, "108149956RR0001": {"name": "Union d'\u00e9glises baptistes francophones du Canada", "designationCode": "C", "categoryCode": "49", "address": "4824 CH DE LA COTE-DES-NEIGES UNITE 206", "city": "MONTREAL", "province": "QC", "country": "CA", "postalCode": "H3V1G4", "twitter": "None", "instagram": "None", "facebook": "None", "youtube": "None", "website": "None", "summary": "None", "logo": "None", "latitude": 45.49532050288555, "longitude": -73.61328180391251}, "108164187RR0001": {"name": "Union des travailleuses et travailleurs accident\u00e9s ou malades (uttam)", "designationCode": "C", "categoryCode": "59", "address": "2348 RUE HOCHELAGA", "city": "MONTR\u00c9AL", "province": "QC", "country": "CA", "postalCode": "H2K1H8", "twitter": "None", "instagram": "None", "facebook": "None", "youtube": "None", "website": "None", "summary": "None", "logo": "None", "latitude": 45.53233527976228, "longitude": -73.56029945446947}, "824549059RR0001": {"name": "Union for Reform Judaism Maple Lake Centre", "designationCode": "C", "categoryCode": "59", "address": "3845 BATHURST STREET, 301", "city": "TORONTO", "province": "ON", "country": "CA", "postalCode": "M3H3N2", "twitter": "None", "instagram": "None", "facebook": "None", "youtube": "None", "website": "None", "summary": "None", "logo": "None", "latitude": 43.74047087039064, "longitude": -79.43473796055765}, "806958427RR0001": {"name": "Union of New Brunswick Indians Training Institute (UNBITI),Inc", "designationCode": "C", "categoryCode": "20", "address": "1-75 MELISSA STREET", "city": "RICHIBUCTO ROAD", "province": "NB", "country": "CA", "postalCode": "E3A6V9", "twitter": "None", "instagram": "None", "facebook": "None", "youtube": "None", "website": "None", "summary": "None", "logo": "None", "latitude": 45.95521153095958, "longitude": -66.58983469112447}, "836143388RR0001": {"name": "Union of Syrian Medical Relief Organizations - Canada", "designationCode": "A", "categoryCode": "03", "address": "129 - 2255 DUNDAS ST W", "city": "MISSISSAUGA", "province": "ON", "country": "CA", "postalCode": "L5K1R6", "twitter": "None", "instagram": "None", "facebook": "None", "youtube": "None", "website": "None", "summary": "None", "logo": "None", "latitude": 43.543128663519944, "longitude": -79.65839818301347}, "797213329RR0001": {"name": "Union City Church", "designationCode": "C", "categoryCode": "39", "address": "2 MONK ST", "city": "OTTAWA", "province": "ON", "country": "CA", "postalCode": "K1S3Y6", "twitter": "None", "instagram": "None", "facebook": "None", "youtube": "None", "website": "None", "summary": "None", "logo": "None", "latitude": 45.40110530584576, "longitude": -75.68824082226305}, "107998601RR0001": {"name": "Union Pastoral Charge", "designationCode": "C", "categoryCode": "44", "address": "46810 MARTYN LINE             RR 1", "city": "SPARTA", "province": "ON", "country": "CA", "postalCode": "N0L2H0", "twitter": "None", "instagram": "None", "facebook": "None", "youtube": "None", "website": "None", "summary": "None", "logo": "None", "latitude": 42.672672506058575, "longitude": -81.06749269747245}, "807414057RR0001": {"name": "Unison Benevolent Fund", "designationCode": "C", "categoryCode": "09", "address": "130 - 55 ST CLAIR AVE W", "city": "TORONTO", "province": "ON", "country": "CA", "postalCode": "M4V2Y7", "twitter": "None", "instagram": "None", "facebook": "None", "youtube": "None", "website": "None", "summary": "None", "logo": "None", "latitude": 43.68788710460182, "longitude": -79.39487415272116}, "823293808RR0001": {"name": "Unison Festival - Festival Unisson", "designationCode": "C", "categoryCode": "22", "address": "531 - 860 MIDRIDGE DR SE", "city": "CALGARY", "province": "AB", "country": "CA", "postalCode": "T2X1K1", "twitter": "None", "instagram": "None", "facebook": "None", "youtube": "None", "website": "None", "summary": "None", "logo": "None", "latitude": 50.91763791257429, "longitude": -114.04784958407883}, "819222464RR0001": {"name": "Unit\u00e9 Silencieuse en Pri\u00e8re", "designationCode": "C", "categoryCode": "49", "address": "CP 46032 CSP CTR PTE-CLAIRE", "city": "POINTE-CLAIRE", "province": "QC", "country": "CA", "postalCode": "H9R5R4", "twitter": "None", "instagram": "None", "facebook": "None", "youtube": "None", "website": "None", "summary": "None", "logo": "None", "latitude": 45.44809800000006, "longitude": -73.81735099999993}, "118797620RR0001": {"name": "United on Whyte Pastoral Charge", "designationCode": "C", "categoryCode": "44", "address": "7909-82 AVE", "city": "EDMONTON", "province": "AB", "country": "CA", "postalCode": "T6C0Y1", "twitter": "None", "instagram": "None", "facebook": "None", "youtube": "None", "website": "None", "summary": "None", "logo": "None", "latitude": 53.517871499567306, "longitude": -113.44980149999999}, "810184390RR0001": {"name": "United Active Living Foundation", "designationCode": "B", "categoryCode": "09", "address": "3028 DON ETHELL BLVD SW", "city": "CALGARY", "province": "AB", "country": "CA", "postalCode": "T3E0C9", "twitter": "None", "instagram": "None", "facebook": "None", "youtube": "None", "website": "None", "summary": "None", "logo": "None", "latitude": 51.00478145325738, "longitude": -114.1277535}, "842999310RR0001": {"name": "United Apostolic Church Canada", "designationCode": "C", "categoryCode": "39", "address": "4 HAMBLEY CRT", "city": "BRAMPTON", "province": "ON", "country": "CA", "postalCode": "L6Z4N8", "twitter": "None", "instagram": "None", "facebook": "None", "youtube": "None", "website": "None", "summary": "None", "logo": "None", "latitude": 43.72714606243874, "longitude": -79.81348148638133}, "877730713RR0001": {"name": "United Christian Broadcasters Media Canada", "designationCode": "C", "categoryCode": "47", "address": "PO BOX 23095", "city": "BELLEVILLE", "province": "ON", "country": "CA", "postalCode": "K8P5J3", "twitter": "None", "instagram": "None", "facebook": "None", "youtube": "None", "website": "None", "summary": "None", "logo": "None", "latitude": 44.16104400000006, "longitude": -77.38183249999993}, "837327360RR0001": {"name": "United Christian Pentecostal Fellowship", "designationCode": "C", "categoryCode": "39", "address": "286-3030 BREAKWATER COURT", "city": "MISSISSAUGA", "province": "ON", "country": "CA", "postalCode": "L5B4N6", "twitter": "None", "instagram": "None", "facebook": "None", "youtube": "None", "website": "None", "summary": "None", "logo": "None", "latitude": 43.57384002135162, "longitude": -79.62429641176624}, "130379175RR0001": {"name": "United Church Housing Corporation of Regina", "designationCode": "C", "categoryCode": "09", "address": "328 CENTURY CRES.", "city": "REGINA", "province": "SK", "country": "CA", "postalCode": "S4T6M1", "twitter": "None", "instagram": "None", "facebook": "None", "youtube": "None", "website": "None", "summary": "None", "logo": "None", "latitude": 50.453365567314854, "longitude": -104.6471708637542}, "856346804RR0001": {"name": "United Citizens Initiative (UCI)", "designationCode": "C", "categoryCode": "21", "address": "251 BANK STREET               2ND FLOOR", "city": "OTTAWA", "province": "ON", "country": "CA", "postalCode": "K2P1X3", "twitter": "None", "instagram": "None", "facebook": "None", "youtube": "None", "website": "None", "summary": "None", "logo": "None", "latitude": 45.41620551263771, "longitude": -75.69703608976297}, "813452661RR0001": {"name": "United Doukhobors of Alberta, Cowley-Lundbreck", "designationCode": "C", "categoryCode": "39", "address": "284 COOPERS PK SW", "city": "AIRDRIE", "province": "AB", "country": "CA", "postalCode": "T4B0R8", "twitter": "None", "instagram": "None", "facebook": "None", "youtube": "None", "website": "None", "summary": "None", "logo": "None", "latitude": 51.266288315021015, "longitude": -114.0172722689709}, "843262296RR0001": {"name": "United Entertainers Society", "designationCode": "C", "categoryCode": "22", "address": "5724 16A AVE.", "city": "DELTA", "province": "BC", "country": "CA", "postalCode": "V4L1H9", "twitter": "None", "instagram": "None", "facebook": "None", "youtube": "None", "website": "None", "summary": "None", "logo": "None", "latitude": 49.03275248124546, "longitude": -123.06509027699232}, "849665088RR0001": {"name": "United Girls of the World Society", "designationCode": "C", "categoryCode": "20", "address": "3433 COMMERCIAL ST", "city": "VANCOUVER", "province": "BC", "country": "CA", "postalCode": "V5N4E8", "twitter": "None", "instagram": "None", "facebook": "None", "youtube": "None", "website": "None", "summary": "None", "logo": "None", "latitude": 49.253839669112125, "longitude": -123.06794402256656}, "838255180RR0001": {"name": "United Hatzalah Canada", "designationCode": "C", "categoryCode": "11", "address": "155 WELLINGTON STREET WEST", "city": "TORONTO", "province": "ON", "country": "CA", "postalCode": "M5V3J7", "twitter": "None", "instagram": "None", "facebook": "None", "youtube": "None", "website": "None", "summary": "None", "logo": "None", "latitude": 43.64596585316531, "longitude": -79.38574575644876}, "119165900RR0001": {"name": "United Heritage Church", "designationCode": "C", "categoryCode": "44", "address": "500 CHARLOTTE ST", "city": "SYDNEY", "province": "NS", "country": "CA", "postalCode": "B1P1E7", "twitter": "None", "instagram": "None", "facebook": "None", "youtube": "None", "website": "None", "summary": "None", "logo": "None", "latitude": 46.13433597584976, "longitude": -60.1935377981128}, "802280834RR0001": {"name": "United Khmer Buddhist Temple", "designationCode": "C", "categoryCode": "35", "address": "184 MARGARET AVE", "city": "STONEY CREEK", "province": "ON", "country": "CA", "postalCode": "L8E2H7", "twitter": "None", "instagram": "None", "facebook": "None", "youtube": "None", "website": "None", "summary": "None", "logo": "None", "latitude": 43.218922830688506, "longitude": -79.72104067023514}, "830698080RR0001": {"name": "United Methodist Church - Edmonton", "designationCode": "C", "categoryCode": "39", "address": "15 GRAND MEADOW CRES NW", "city": "EDMONTON", "province": "AB", "country": "CA", "postalCode": "T6L1A3", "twitter": "None", "instagram": "None", "facebook": "None", "youtube": "None", "website": "None", "summary": "None", "logo": "None", "latitude": 53.47458859172489, "longitude": -113.43083576294097}, "844361311RR0001": {"name": "United Methodist Fellowship", "designationCode": "C", "categoryCode": "39", "address": "APT 411                       215 - 86 AVENUE SOUTHEAST", "city": "CALGARY", "province": "AB", "country": "CA", "postalCode": "T2H2K5", "twitter": "None", "instagram": "None", "facebook": "None", "youtube": "None", "website": "None", "summary": "None", "logo": "None", "latitude": 50.97586550346246, "longitude": -114.066783}, "803526201RR0001": {"name": "United Ostomy Association of Canada Inc. Newfoundland and Labrador Chapter #604", "designationCode": "C", "categoryCode": "19", "address": "POST OFFICE BOX 321           8 CENTENIAL SQ", "city": "MT PEARL", "province": "NL", "country": "CA", "postalCode": "A1N2C3", "twitter": "None", "instagram": "None", "facebook": "None", "youtube": "None", "website": "None", "summary": "None", "logo": "None", "latitude": 47.51887547100232, "longitude": -52.80668103136361}, "810246504RR0001": {"name": "United Pentecostal Church - C\u00f4te St. Luc", "designationCode": "C", "categoryCode": "39", "address": "339 RUE BELLINI", "city": "VAUDREUIL-DORION", "province": "QC", "country": "CA", "postalCode": "J7V0M7", "twitter": "None", "instagram": "None", "facebook": "None", "youtube": "None", "website": "None", "summary": "None", "logo": "None", "latitude": 45.3821100133302, "longitude": -74.04456671163938}, "853822864RR0001": {"name": "United Pentecostal Church of Portage", "designationCode": "C", "categoryCode": "39", "address": "PO BOX 848", "city": "PORTAGE LA PRAIRIE", "province": "MB", "country": "CA", "postalCode": "R1N3C3", "twitter": "None", "instagram": "None", "facebook": "None", "youtube": "None", "website": "None", "summary": "None", "logo": "None", "latitude": 49.97301900000005, "longitude": -98.29058299999993}, "816028294RR0001": {"name": "United Pentecostal Church Elliot Lake Gospel Lighthouse", "designationCode": "C", "categoryCode": "39", "address": "283 MISSISSAUGA AVENUE", "city": "ELLIOT LAKE", "province": "ON", "country": "CA", "postalCode": "P5A1E8", "twitter": "None", "instagram": "None", "facebook": "None", "youtube": "None", "website": "None", "summary": "None", "logo": "None", "latitude": 46.375445906140335, "longitude": -82.66157500536609}, "827883505RR0001": {"name": "United Pentecostal Spanish Church of the Name of Jesus in Edmonton", "designationCode": "C", "categoryCode": "39", "address": "13521-119 STREET", "city": "EDMONTON", "province": "AB", "country": "CA", "postalCode": "T5E5M9", "twitter": "None", "instagram": "None", "facebook": "None", "youtube": "None", "website": "None", "summary": "None", "logo": "None", "latitude": 53.59713232944776, "longitude": -113.52678474184914}, "763081122RR0001": {"name": "United Reformed Church of Prince Edward Island Inc.", "designationCode": "C", "categoryCode": "39", "address": "21096 RTE 2", "city": "HUNTER RIVER", "province": "PE", "country": "CA", "postalCode": "C0A1N0", "twitter": "None", "instagram": "None", "facebook": "None", "youtube": "None", "website": "None", "summary": "None", "logo": "None", "latitude": 46.36110240685021, "longitude": -63.42819280453098}, "802219998RR0001": {"name": "United Reformed Missions Association", "designationCode": "C", "categoryCode": "09", "address": "1100-40 AVENUE NORTH", "city": "LETHBRIDGE", "province": "AB", "country": "CA", "postalCode": "T1H6B7", "twitter": "None", "instagram": "None", "facebook": "None", "youtube": "None", "website": "None", "summary": "None", "logo": "None", "latitude": 49.737817523948706, "longitude": -112.82812272300768}, "836425827RR0001": {"name": "United Share Life Outreach Ministries", "designationCode": "C", "categoryCode": "09", "address": "53 KIMBERLY CRESCENT,", "city": "BRAMPTON", "province": "ON", "country": "CA", "postalCode": "L6R1T6", "twitter": "None", "instagram": "None", "facebook": "None", "youtube": "None", "website": "None", "summary": "None", "logo": "None", "latitude": 43.74231789231918, "longitude": -79.75368509296563}, "817335417RR0001": {"name": "United Soup Kitchen", "designationCode": "C", "categoryCode": "09", "address": "200-6927 PARK AVE", "city": "MONTREAL", "province": "QC", "country": "CA", "postalCode": "H3N1X7", "twitter": "None", "instagram": "None", "facebook": "None", "youtube": "None", "website": "None", "summary": "None", "logo": "None", "latitude": 45.52943369499095, "longitude": -73.61848342241338}, "839760444RR0001": {"name": "United Spanich Pentecostal Church (Leamington)", "designationCode": "C", "categoryCode": "39", "address": "97 SHEPHERD ST EAST,", "city": "WINDSOR", "province": "ON", "country": "CA", "postalCode": "N8X2K1", "twitter": "None", "instagram": "None", "facebook": "None", "youtube": "None", "website": "None", "summary": "None", "logo": "None", "latitude": 42.30107236329284, "longitude": -83.02637055730285}, "820396422RR0001": {"name": "United Spanish Pentecostal Church of Canada", "designationCode": "C", "categoryCode": "47", "address": "610 MOHAWK RD. E.", "city": "HAMILTON", "province": "ON", "country": "CA", "postalCode": "L8V2J7", "twitter": "None", "instagram": "None", "facebook": "None", "youtube": "None", "website": "None", "summary": "None", "logo": "None", "latitude": 43.22008799137299, "longitude": -79.84684935541566}, "108102781RR0001": {"name": "United Steeples Pastoral Charge", "designationCode": "C", "categoryCode": "44", "address": "479 DUFFERIN STREET", "city": "STANSTEAD", "province": "QC", "country": "CA", "postalCode": "J0B3E0", "twitter": "None", "instagram": "None", "facebook": "None", "youtube": "None", "website": "None", "summary": "None", "logo": "None", "latitude": 45.013861790466756, "longitude": -72.09500845966268}, "824511794RR0001": {"name": "United SAN", "designationCode": "C", "categoryCode": "09", "address": "459 GEORGE ST N", "city": "PETERBOROUGH", "province": "ON", "country": "CA", "postalCode": "K9H3R6", "twitter": "None", "instagram": "None", "facebook": "None", "youtube": "None", "website": "None", "summary": "None", "logo": "None", "latitude": 44.30767329225577, "longitude": -78.32024075148576}, "811037225RR0001": {"name": "United Through Worship", "designationCode": "C", "categoryCode": "39", "address": "23 PRINCESS VALLEY CRESCENT", "city": "BRAMPTON", "province": "ON", "country": "CA", "postalCode": "L6P2B8", "twitter": "None", "instagram": "None", "facebook": "None", "youtube": "None", "website": "None", "summary": "None", "logo": "None", "latitude": 43.7717795229095, "longitude": -79.70566774897559}, "118816644RR0001": {"name": "United Way of Brandon & District Inc.", "designationCode": "A", "categoryCode": "03", "address": "#201 1011 ROSSER AVENUE       SCOTIA TOWERS", "city": "BRANDON", "province": "MB", "country": "CA", "postalCode": "R7A0L5", "twitter": "None", "instagram": "None", "facebook": "None", "youtube": "None", "website": "None", "summary": "None", "logo": "None", "latitude": 49.84848953318129, "longitude": -99.951813}, "119278232RR0002": {"name": "United Way of Halifax Region Tomorrow Fund", "designationCode": "C", "categoryCode": "03", "address": "7TH FLOOR                     46 PORTLAND STREET", "city": "DARTMOUTH", "province": "NS", "country": "CA", "postalCode": "B2Y1H4", "twitter": "None", "instagram": "None", "facebook": "None", "youtube": "None", "website": "None", "summary": "None", "logo": "None", "latitude": 44.66511965055696, "longitude": -63.56710102925747}, "125978270RR0001": {"name": "United Way of Kingston, Frontenac, Lennox & Addington", "designationCode": "A", "categoryCode": "03", "address": "417 BAGOT STREET", "city": "KINGSTON", "province": "ON", "country": "CA", "postalCode": "K7K3C1", "twitter": "None", "instagram": "None", "facebook": "None", "youtube": "None", "website": "None", "summary": "None", "logo": "None", "latitude": 44.235406005828395, "longitude": -76.48382318301707}, "890068547RR0001": {"name": "United Way of Northwest Territories", "designationCode": "A", "categoryCode": "03", "address": "PO BOX 1145", "city": "YELLOWKNIFE", "province": "NT", "country": "CA", "postalCode": "X1A2N8", "twitter": "None", "instagram": "None", "facebook": "None", "youtube": "None", "website": "None", "summary": "None", "logo": "None", "latitude": 62.45446200000005, "longitude": -114.37092349999993}, "130557598RR0001": {"name": "United Way of Stormont, Dundas & Glengarry", "designationCode": "A", "categoryCode": "03", "address": "PO BOX 441 STN MAIN", "city": "CORNWALL", "province": "ON", "country": "CA", "postalCode": "K6H5T2", "twitter": "None", "instagram": "None", "facebook": "None", "youtube": "None", "website": "None", "summary": "None", "logo": "None", "latitude": 45.028419000000056, "longitude": -74.73569299999993}, "131791790RR0001": {"name": "United Way Alberta Northwest Society", "designationCode": "A", "categoryCode": "03", "address": "213,11330-106 ST", "city": "GRANDE PRAIRIE", "province": "AB", "country": "CA", "postalCode": "T8V7X9", "twitter": "None", "instagram": "None", "facebook": "None", "youtube": "None", "website": "None", "summary": "None", "logo": "None", "latitude": 55.18241842962673, "longitude": -118.81681678137745}, "108160037RR0001": {"name": "United Way Centraide North East Ontario / Nord-est de l'Ontario", "designationCode": "A", "categoryCode": "03", "address": "E6-105 ELM ST", "city": "SUDBURY", "province": "ON", "country": "CA", "postalCode": "P3C1T3", "twitter": "None", "instagram": "None", "facebook": "None", "youtube": "None", "website": "None", "summary": "None", "logo": "None", "latitude": 46.49299346771319, "longitude": -80.99792954888368}, "108092735RR0001": {"name": "United Way Cochrane - Timiskaming", "designationCode": "A", "categoryCode": "03", "address": "115 FIRST ST", "city": "WALLACEBURG", "province": "ON", "country": "CA", "postalCode": "N8A3R1", "twitter": "None", "instagram": "None", "facebook": "None", "youtube": "None", "website": "None", "summary": "None", "logo": "None", "latitude": 42.59739712101103, "longitude": -82.39689768347843}, "894144575RR0001": {"name": "United Way East Kootenay", "designationCode": "A", "categoryCode": "03", "address": "PO BOX 657  STN MAIN", "city": "CRANBROOK", "province": "BC", "country": "CA", "postalCode": "V1C4J2", "twitter": "None", "instagram": "None", "facebook": "None", "youtube": "None", "website": "None", "summary": "None", "logo": "None", "latitude": 49.513515000000055, "longitude": -115.76875399999994}, "119278182RR0001": {"name": "United Way Estevan Inc.", "designationCode": "A", "categoryCode": "03", "address": "BOX 611", "city": "ESTEVAN", "province": "SK", "country": "CA", "postalCode": "S4A2A5", "twitter": "None", "instagram": "None", "facebook": "None", "youtube": "None", "website": "None", "summary": "None", "logo": "None", "latitude": 49.140249000000054, "longitude": -102.99454999999993}, "119278430RR0001": {"name": "United Way Fraser Valley", "designationCode": "C", "categoryCode": "03", "address": "P208-33355 BEVAN AVENUE", "city": "ABBOTSFORD", "province": "BC", "country": "CA", "postalCode": "V2S0E7", "twitter": "None", "instagram": "None", "facebook": "None", "youtube": "None", "website": "None", "summary": "None", "logo": "None", "latitude": 49.041983503750906, "longitude": -122.3045322485429}, "131921652RR0001": {"name": "United Way Hastings & Prince Edward Inc.", "designationCode": "A", "categoryCode": "05", "address": "PO BOX 815 STN CSC", "city": "BELLEVILLE", "province": "ON", "country": "CA", "postalCode": "K8N5B5", "twitter": "None", "instagram": "None", "facebook": "None", "youtube": "None", "website": "None", "summary": "None", "logo": "None", "latitude": 44.17979889300782, "longitude": -77.37150667947562}, "108160250RR0001": {"name": "United Way Prescott-Russell, Ottawa, Lanark and Renfrew Counties", "designationCode": "A", "categoryCode": "05", "address": "363 COVENTRY ROAD", "city": "OTTAWA", "province": "ON", "country": "CA", "postalCode": "K1K2C5", "twitter": "None", "instagram": "None", "facebook": "None", "youtube": "None", "website": "None", "summary": "None", "logo": "None", "latitude": 45.42138944662096, "longitude": -75.65023450582838}, "118799485RR0001": {"name": "United Way Simcoe Muskoka", "designationCode": "A", "categoryCode": "05", "address": "1110 HIGHWAY 26", "city": "MIDHURST", "province": "ON", "country": "CA", "postalCode": "L0L1X0", "twitter": "None", "instagram": "None", "facebook": "None", "youtube": "None", "website": "None", "summary": "None", "logo": "None", "latitude": 44.43555956962207, "longitude": -79.73054463987468}, "892971961RR0001": {"name": "United Way Society of the Yukon", "designationCode": "A", "categoryCode": "03", "address": "P.O. BOX 31731                RPO MAIN ST", "city": "WHITEHORSE", "province": "YT", "country": "CA", "postalCode": "Y1A6L3", "twitter": "None", "instagram": "None", "facebook": "None", "youtube": "None", "website": "None", "summary": "None", "logo": "None", "latitude": 60.71897187917898, "longitude": -135.05620969857728}, "765940721RR0001": {"name": "United We Stand Breakthrough Ministries", "designationCode": "C", "categoryCode": "39", "address": "4 CASTLEHILL ROAD", "city": "BRAMPTON", "province": "ON", "country": "CA", "postalCode": "L6X4E7", "twitter": "None", "instagram": "None", "facebook": "None", "youtube": "None", "website": "None", "summary": "None", "logo": "None", "latitude": 43.67830851012756, "longitude": -79.79190817863099}, "822182499RR0001": {"name": "United World Voices Inc.", "designationCode": "B", "categoryCode": "09", "address": "32 LANGEVIN AVENUE", "city": "OTTAWA", "province": "ON", "country": "CA", "postalCode": "K1M1E9", "twitter": "None", "instagram": "None", "facebook": "None", "youtube": "None", "website": "None", "summary": "None", "logo": "None", "latitude": 45.44135395475795, "longitude": -75.67478849420027}, "107280372RR0001": {"name": "United/Presbyterian Campus Ministry Committee", "designationCode": "C", "categoryCode": "49", "address": "201B 4 STREET NE", "city": "CALGARY", "province": "AB", "country": "CA", "postalCode": "T2E3S1", "twitter": "None", "instagram": "None", "facebook": "None", "youtube": "None", "website": "None", "summary": "None", "logo": "None", "latitude": 51.05343926777201, "longitude": -114.051769767772}, "843652777RR0001": {"name": "Uniterre Conf\u00e9rences", "designationCode": "C", "categoryCode": "21", "address": "8 - 2050 RUE SICARD", "city": "MONTREAL", "province": "QC", "country": "CA", "postalCode": "H1V2Y2", "twitter": "None", "instagram": "None", "facebook": "None", "youtube": "None", "website": "None", "summary": "None", "logo": "None", "latitude": 45.5566471517977, "longitude": -73.53810268111249}, "850243718RR0001": {"name": "Unity in Christ for the Relief of Poverty", "designationCode": "C", "categoryCode": "09", "address": "85 PARK ST.E.", "city": "WINDSOR", "province": "ON", "country": "CA", "postalCode": "N9A3A8", "twitter": "None", "instagram": "None", "facebook": "None", "youtube": "None", "website": "None", "summary": "None", "logo": "None", "latitude": 42.31684307851026, "longitude": -83.03666321536163}, "105455554RR0001": {"name": "Unity Centre of Winnipeg Inc.", "designationCode": "C", "categoryCode": "39", "address": "300 ARLINGTON ST", "city": "WINNIPEG", "province": "MB", "country": "CA", "postalCode": "R3G1Y9", "twitter": "None", "instagram": "None", "facebook": "None", "youtube": "None", "website": "None", "summary": "None", "logo": "None", "latitude": 49.88612815237462, "longitude": -97.16941538804866}, "857359012RR0001": {"name": "Unity Charity", "designationCode": "C", "categoryCode": "21", "address": "2300 YONGE ST                 SUITE 1602", "city": "TORONTO", "province": "ON", "country": "CA", "postalCode": "M4P1E4", "twitter": "None", "instagram": "None", "facebook": "None", "youtube": "None", "website": "None", "summary": "None", "logo": "None", "latitude": 43.70721096779967, "longitude": -79.39846036808203}, "842138489RR0001": {"name": "Unity Christian Mission", "designationCode": "C", "categoryCode": "09", "address": "12947 COVENTRY HILLS WAY NE", "city": "CALGARY", "province": "AB", "country": "CA", "postalCode": "T3K5R2", "twitter": "None", "instagram": "None", "facebook": "None", "youtube": "None", "website": "None", "summary": "None", "logo": "None", "latitude": 51.17153235443471, "longitude": -114.04598420927344}, "866464753RR0001": {"name": "Unity Church of Christ Canada", "designationCode": "C", "categoryCode": "39", "address": "50 WEYBRIGHT CRT              UNIT 31", "city": "SCARBOROUGH", "province": "ON", "country": "CA", "postalCode": "M1S5A8", "twitter": "None", "instagram": "None", "facebook": "None", "youtube": "None", "website": "None", "summary": "None", "logo": "None", "latitude": 43.78187856448758, "longitude": -79.2790045767499}, "829327220RR0001": {"name": "Unity Community Resource Center Inc.", "designationCode": "C", "categoryCode": "56", "address": "PO BOX 1493", "city": "UNITY", "province": "SK", "country": "CA", "postalCode": "S0K4L0", "twitter": "None", "instagram": "None", "facebook": "None", "youtube": "None", "website": "None", "summary": "None", "logo": "None", "latitude": 52.437110000000075, "longitude": -109.14557999999994}, "898008768RR0001": {"name": "Unity Comox Valley Spiritual Center Society", "designationCode": "C", "categoryCode": "39", "address": "PO BOX 3518", "city": "COURTENAY", "province": "BC", "country": "CA", "postalCode": "V9N6Z8", "twitter": "None", "instagram": "None", "facebook": "None", "youtube": "None", "website": "None", "summary": "None", "logo": "None", "latitude": 49.68669300000006, "longitude": -124.99317349999993}, "808847719RR0001": {"name": "Unity Facilities Committee Inc.", "designationCode": "C", "categoryCode": "56", "address": "POST OFFICE BOX 594", "city": "UNITY", "province": "SK", "country": "CA", "postalCode": "S0K4L0", "twitter": "None", "instagram": "None", "facebook": "None", "youtube": "None", "website": "None", "summary": "None", "logo": "None", "latitude": 52.437110000000075, "longitude": -109.14557999999994}, "857127617RR0001": {"name": "Unity Ministry in Motion", "designationCode": "C", "categoryCode": "39", "address": "16404 SOMERVALE LINK SW", "city": "CALGARY", "province": "AB", "country": "CA", "postalCode": "T2Y3J5", "twitter": "None", "instagram": "None", "facebook": "None", "youtube": "None", "website": "None", "summary": "None", "logo": "None", "latitude": 50.900608990564926, "longitude": -114.07264499235394}, "888833795RR0001": {"name": "Unity Music Festival Association", "designationCode": "C", "categoryCode": "22", "address": "PO BOX 1263", "city": "UNITY", "province": "SK", "country": "CA", "postalCode": "S0K4L0", "twitter": "None", "instagram": "None", "facebook": "None", "youtube": "None", "website": "None", "summary": "None", "logo": "None", "latitude": 52.437110000000075, "longitude": -109.14557999999994}, "839594983RR0001": {"name": "Universal Assembly of God", "designationCode": "C", "categoryCode": "39", "address": "4 - 1345 MORNINGSIDE AVE", "city": "SCARBOROUGH", "province": "ON", "country": "CA", "postalCode": "M1B5K3", "twitter": "None", "instagram": "None", "facebook": "None", "youtube": "None", "website": "None", "summary": "None", "logo": "None", "latitude": 43.806904186248396, "longitude": -79.201608705321}, "139482715RR0001": {"name": "Universal Educational Institute of Canada", "designationCode": "C", "categoryCode": "20", "address": "3000-8882 170 ST", "city": "EDMONTON", "province": "AB", "country": "CA", "postalCode": "T5T4M2", "twitter": "None", "instagram": "None", "facebook": "None", "youtube": "None", "website": "None", "summary": "None", "logo": "None", "latitude": 53.52360000000006, "longitude": -113.61550399999993}, "851771774RR0001": {"name": "Universal Jazz Advocates and Mentors Society", "designationCode": "C", "categoryCode": "22", "address": "190 SUNNY LANE", "city": "VICTORIA", "province": "BC", "country": "CA", "postalCode": "V8S2K7", "twitter": "None", "instagram": "None", "facebook": "None", "youtube": "None", "website": "None", "summary": "None", "logo": "None", "latitude": 48.41215270027107, "longitude": -123.31956945876864}, "102510385RR0001": {"name": "Universal Peace Federation / F\u00e9d\u00e9ration pour la Paix Universelle", "designationCode": "C", "categoryCode": "09", "address": "902 STE-CROIX", "city": "ST.LAURENT", "province": "QC", "country": "CA", "postalCode": "H4L3Y6", "twitter": "None", "instagram": "None", "facebook": "None", "youtube": "None", "website": "None", "summary": "None", "logo": "None", "latitude": 45.51498757672123, "longitude": -73.6779955735759}, "119278877RR0001": {"name": "Universit\u00e9 d'Ottawa / University of Ottawa", "designationCode": "C", "categoryCode": "20", "address": "027-550 RUE CUMBERLAND", "city": "OTTAWA", "province": "ON", "country": "CA", "postalCode": "K1N6N5", "twitter": "None", "instagram": "None", "facebook": "None", "youtube": "None", "website": "None", "summary": "None", "logo": "None", "latitude": 45.4249710944462, "longitude": -75.68516459069795}, "108160979RR0001": {"name": "Universit\u00e9 de Moncton", "designationCode": "C", "categoryCode": "20", "address": "18 AV ANTONINE-MAILLET", "city": "MONCTON", "province": "NB", "country": "CA", "postalCode": "E1A3E9", "twitter": "None", "instagram": "None", "facebook": "None", "youtube": "None", "website": "None", "summary": "None", "logo": "None", "latitude": 46.104670681906946, "longitude": -64.78178403736526}, "106953110RR0002": {"name": "Universit\u00e9 de Saint-Boniface", "designationCode": "C", "categoryCode": "20", "address": "200, AV DE LA CATH\u00c9DRALE", "city": "SAINT-BONIFACE", "province": "MB", "country": "CA", "postalCode": "R2H0H7", "twitter": "None", "instagram": "None", "facebook": "None", "youtube": "None", "website": "None", "summary": "None", "logo": "None", "latitude": 49.889770000000055, "longitude": -97.11915999999997}, "119278968RR0001": {"name": "Universit\u00e9 Sainte-Anne", "designationCode": "C", "categoryCode": "20", "address": "1695 ROUTE 1", "city": "POINTE-DE-L'EGLISE", "province": "NS", "country": "CA", "postalCode": "B0W1M0", "twitter": "None", "instagram": "None", "facebook": "None", "youtube": "None", "website": "None", "summary": "None", "logo": "None", "latitude": 44.332832913042466, "longitude": -66.11537366800817}, "129987301RR0001": {"name": "Universities Canada/Universit\u00e9s Canada", "designationCode": "C", "categoryCode": "21", "address": "1710-350 ALBERT ST", "city": "OTTAWA", "province": "ON", "country": "CA", "postalCode": "K1R1B1", "twitter": "None", "instagram": "None", "facebook": "None", "youtube": "None", "website": "None", "summary": "None", "logo": "None", "latitude": 45.41332607969947, "longitude": -75.71158691322}, "138003231RR0003": {"name": "University nuhelot'ine tthaiyots'i nistameymak\u00e2nak Blue Quills", "designationCode": "C", "categoryCode": "20", "address": "PO BOX 279", "city": "ST PAUL", "province": "AB", "country": "CA", "postalCode": "T0A3A0", "twitter": "None", "instagram": "None", "facebook": "None", "youtube": "None", "website": "None", "summary": "None", "logo": "None", "latitude": 53.99207006217902, "longitude": -111.26834992613558}, "892379165RR0001": {"name": "University of Toronto International Health Program (UTIHP)", "designationCode": "C", "categoryCode": "21", "address": "MS 2171 B,                    1 KING'S COLLEGE CIRCLE", "city": "TORONTO", "province": "ON", "country": "CA", "postalCode": "M5S1A8", "twitter": "None", "instagram": "None", "facebook": "None", "youtube": "None", "website": "None", "summary": "None", "logo": "None"}, "108162611RR0001": {"name": "University of Windsor", "designationCode": "C", "categoryCode": "20", "address": "401 SUNSET AVE", "city": "WINDSOR", "province": "ON", "country": "CA", "postalCode": "N9B3P4", "twitter": "None", "instagram": "None", "facebook": "None", "youtube": "None", "website": "None", "summary": "None", "logo": "None", "latitude": 42.30617165200125, "longitude": -83.06564136488882}, "848547048RR0001": {"name": "University Bible Fellowship at Humber", "designationCode": "C", "categoryCode": "47", "address": "28 WOODLOT CRESCENT", "city": "ETOBICOKE", "province": "ON", "country": "CA", "postalCode": "M9W6T2", "twitter": "None", "instagram": "None", "facebook": "None", "youtube": "None", "website": "None", "summary": "None", "logo": "None", "latitude": 43.73398958338636, "longitude": -79.61432236525474}, "801170309RR0001": {"name": "University Bible Fellowship at North York", "designationCode": "C", "categoryCode": "47", "address": "269 KINGSLAKE ROAD,", "city": "NORTH YORK", "province": "ON", "country": "CA", "postalCode": "M2J3H2", "twitter": "None", "instagram": "None", "facebook": "None", "youtube": "None", "website": "None", "summary": "None", "logo": "None", "latitude": 43.79189646047076, "longitude": -79.35022840882337}, "848546842RR0001": {"name": "University Bible Fellowship at Ryerson", "designationCode": "C", "categoryCode": "47", "address": "4B - 4 CHARLES ST E", "city": "TORONTO", "province": "ON", "country": "CA", "postalCode": "M4Y1T1", "twitter": "None", "instagram": "None", "facebook": "None", "youtube": "None", "website": "None", "summary": "None", "logo": "None", "latitude": 43.668877376559365, "longitude": -79.38498309030602}, "801170101RR0001": {"name": "University Bible Fellowship at St. George", "designationCode": "C", "categoryCode": "47", "address": "720 SPADINA AVE, 101", "city": "TORONTO", "province": "ON", "country": "CA", "postalCode": "M5S2T9", "twitter": "None", "instagram": "None", "facebook": "None", "youtube": "None", "website": "None", "summary": "None", "logo": "None", "latitude": 43.665348604766635, "longitude": -79.40317238804866}, "848546644RR0001": {"name": "University Bible Fellowship at York", "designationCode": "C", "categoryCode": "47", "address": "803 - 1 FOUR WINDS DR", "city": "NORTH YORK", "province": "ON", "country": "CA", "postalCode": "M3J2T1", "twitter": "None", "instagram": "None", "facebook": "None", "youtube": "None", "website": "None", "summary": "None", "logo": "None"}, "822794145RR0001": {"name": "University Heritage Society/Heritage Retreats", "designationCode": "C", "categoryCode": "49", "address": "330 SPADINA ROAD #102", "city": "TORONTO", "province": "ON", "country": "CA", "postalCode": "M5R2V9", "twitter": "None", "instagram": "None", "facebook": "None", "youtube": "None", "website": "None", "summary": "None", "logo": "None", "latitude": 43.68359291450752, "longitude": -79.41076413950576}, "810102822RR0001": {"name": "University Women's Club of South Delta B.C. Education Fund", "designationCode": "C", "categoryCode": "21", "address": "5786 GOLDENROD CRESCENT", "city": "DELTA", "province": "BC", "country": "CA", "postalCode": "V4L2G6", "twitter": "None", "instagram": "None", "facebook": "None", "youtube": "None", "website": "None", "summary": "None", "logo": "None", "latitude": 49.01528931611755, "longitude": -123.06468866440675}, "856477856RR0001": {"name": "UniPHARM & Medicine Centre Pharmacies Charitable Foundation", "designationCode": "A", "categoryCode": "03", "address": "2051 VANDYKE PLACE", "city": "RICHMOND", "province": "BC", "country": "CA", "postalCode": "V6V1X6", "twitter": "None", "instagram": "None", "facebook": "None", "youtube": "None", "website": "None", "summary": "None", "logo": "None", "latitude": 49.19789400000006, "longitude": -123.06356449999993}, "825127483RR0001": {"name": "UniWater Education Limited", "designationCode": "C", "categoryCode": "20", "address": "130-6001 1A STREET SOUTHWEST", "city": "CALGARY", "province": "AB", "country": "CA", "postalCode": "T2H0G5", "twitter": "None", "instagram": "None", "facebook": "None", "youtube": "None", "website": "None", "summary": "None", "logo": "None", "latitude": 50.99991236081135, "longitude": -114.06770511979893}, "802676155RR0001": {"name": "Unknown Angel Society", "designationCode": "A", "categoryCode": "03", "address": "1904-154 PROMENADE DR", "city": "NANAIMO", "province": "BC", "country": "CA", "postalCode": "V9R6Y3", "twitter": "None", "instagram": "None", "facebook": "None", "youtube": "None", "website": "None", "summary": "None", "logo": "None", "latitude": 49.16661514886061, "longitude": -123.93285406938116}, "886606391RR0001": {"name": "Unlikely Events Yukon Society", "designationCode": "C", "categoryCode": "22", "address": "PO BOX 33216", "city": "WHITEHORSE", "province": "YT", "country": "CA", "postalCode": "Y1A6S1", "twitter": "None", "instagram": "None", "facebook": "None", "youtube": "None", "website": "None", "summary": "None", "logo": "None", "latitude": 60.72084600000005, "longitude": -135.05323399999992}, "821044997RR0001": {"name": "Unmask the Mystery", "designationCode": "C", "categoryCode": "11", "address": "118 JACQUELINE BLVD", "city": "HAMILTON", "province": "ON", "country": "CA", "postalCode": "L9B2R2", "twitter": "None", "instagram": "None", "facebook": "None", "youtube": "None", "website": "None", "summary": "None", "logo": "None", "latitude": 43.199019178458094, "longitude": -79.88686073922341}, "847568714RR0001": {"name": "Unshakable Kingdom Believers", "designationCode": "C", "categoryCode": "39", "address": "POST OFFICE BOX 863", "city": "GUELPH", "province": "ON", "country": "CA", "postalCode": "N1H6M6", "twitter": "None", "instagram": "None", "facebook": "None", "youtube": "None", "website": "None", "summary": "None", "logo": "None", "latitude": 43.54455300000005, "longitude": -80.24788249999993}}