{"132910415RR0001": {"name": "CALGARY VIETNAMESE ALLIANCE CHURCH", "designationCode": "C", "categoryCode": "39", "address": "4924 FOREGO AVENUE SE", "city": "CALGARY", "province": "AB", "country": "CA", "postalCode": "T2A2C5", "twitter": "None", "instagram": "None", "facebook": "None", "youtube": "None", "website": "None", "summary": "None", "logo": "None", "latitude": 51.04948652928614, "longitude": -113.9623335}, "130121262RR0001": {"name": "CALGARY VIETNAMESE MENNONITE CHURCH", "designationCode": "C", "categoryCode": "34", "address": "167 WHITEFIELD DRIVE NE", "city": "CALGARY", "province": "AB", "country": "CA", "postalCode": "T1Y5X1", "twitter": "None", "instagram": "None", "facebook": "None", "youtube": "None", "website": "None", "summary": "None", "logo": "None", "latitude": 51.0883424851406, "longitude": -113.97923983236194}, "131799082RR0002": {"name": "CALGARY WALDORF SCHOOL SOCIETY", "designationCode": "C", "categoryCode": "20", "address": "515 COUGAR RIDGE DR SW", "city": "CALGARY", "province": "AB", "country": "CA", "postalCode": "T3H5G9", "twitter": "None", "instagram": "None", "facebook": "None", "youtube": "None", "website": "None", "summary": "None", "logo": "None", "latitude": 51.07246283819032, "longitude": -114.21944726752861}, "891088189RR0001": {"name": "CALGARY WILDLIFE REHABILITATION SOCIETY", "designationCode": "C", "categoryCode": "54", "address": "11555 - 85TH ST. NW", "city": "CALGARY", "province": "AB", "country": "CA", "postalCode": "T3R1J3", "twitter": "None", "instagram": "None", "facebook": "None", "youtube": "None", "website": "None", "summary": "None", "logo": "None", "latitude": 51.156829889318225, "longitude": -114.21102230832045}, "129883443RR0001": {"name": "CALGARY WOMEN'S EMERGENCY SHELTER ASSOCIATION", "designationCode": "C", "categoryCode": "09", "address": "500 - 1509 CENTRE ST SW", "city": "CALGARY", "province": "AB", "country": "CA", "postalCode": "T2G2E6", "twitter": "None", "instagram": "None", "facebook": "None", "youtube": "None", "website": "None", "summary": "None", "logo": "None", "latitude": 51.009760371867955, "longitude": -114.06503213338193}, "872434733RR0001": {"name": "CALGARY WORD OF FAITH CHURCH", "designationCode": "C", "categoryCode": "39", "address": "5225-4TH ST. NE", "city": "CALGARY", "province": "AB", "country": "CA", "postalCode": "T2K6J5", "twitter": "None", "instagram": "None", "facebook": "None", "youtube": "None", "website": "None", "summary": "None", "logo": "None", "latitude": 51.09850446074607, "longitude": -114.05380119331384}, "872912274RR0001": {"name": "CALGARY WORD OF LIFE CENTRE CHURCH AND MINISTRIES", "designationCode": "C", "categoryCode": "39", "address": "RR 4 SITE 4                   BOX 50", "city": "RED DEER", "province": "AB", "country": "CA", "postalCode": "T4N5E4", "twitter": "None", "instagram": "None", "facebook": "None", "youtube": "None", "website": "None", "summary": "None", "logo": "None", "latitude": 52.26852300000006, "longitude": -113.80901299999994}, "877276915RR0001": {"name": "CALGARY WORLD HARVEST CHRISTIAN CENTRE CHURCH", "designationCode": "C", "categoryCode": "39", "address": "47 SUNLAKE WAY SE", "city": "CALGARY", "province": "AB", "country": "CA", "postalCode": "T2X3E3", "twitter": "None", "instagram": "None", "facebook": "None", "youtube": "None", "website": "None", "summary": "None", "logo": "None", "latitude": 50.89835683236194, "longitude": -114.04760704261633}, "118824168RR0001": {"name": "CALGARY YOUNG MEN'S CHRISTIAN ASSOCIATION", "designationCode": "C", "categoryCode": "49", "address": "HEAD OFFICE                   101-3RD STREET SW", "city": "CALGARY", "province": "AB", "country": "CA", "postalCode": "T2P4G6", "twitter": "None", "instagram": "None", "facebook": "None", "youtube": "None", "website": "None", "summary": "None", "logo": "None", "latitude": 51.05140965334387, "longitude": -114.07007316366689}, "895328367RR0001": {"name": "CALGARY YOUNG PEOPLE'S THEATRE SOCIETY", "designationCode": "C", "categoryCode": "22", "address": "2007 10 AVE SW", "city": "CALGARY", "province": "AB", "country": "CA", "postalCode": "T3C0K4", "twitter": "None", "instagram": "None", "facebook": "None", "youtube": "None", "website": "None", "summary": "None", "logo": "None", "latitude": 51.044414042772615, "longitude": -114.10718541636719}, "890877772RR0001": {"name": "CALGARY YOUNG-NAK PRESBYTERIAN CHURCH", "designationCode": "C", "categoryCode": "37", "address": "3704 37 ST SW", "city": "CALGARY", "province": "AB", "country": "CA", "postalCode": "T3E3C3", "twitter": "None", "instagram": "None", "facebook": "None", "youtube": "None", "website": "None", "summary": "None", "logo": "None", "latitude": 51.02123399999999, "longitude": -114.1410297897456}, "870837044RR0001": {"name": "CALGARY YOUTH JUSTICE SOCIETY", "designationCode": "C", "categoryCode": "59", "address": "900, 620 7TH AVE SW", "city": "CALGARY", "province": "AB", "country": "CA", "postalCode": "T2P0Y8", "twitter": "None", "instagram": "None", "facebook": "None", "youtube": "None", "website": "None", "summary": "None", "logo": "None", "latitude": 51.04682342625144, "longitude": -114.07570373231476}, "139126999RR0001": {"name": "CALGARY YOUTH SCIENCE FAIR SOCIETY", "designationCode": "C", "categoryCode": "21", "address": "PO BOX 84041 RPO MARKET MALL", "city": "CALGARY", "province": "AB", "country": "CA", "postalCode": "T3A5C4", "twitter": "None", "instagram": "None", "facebook": "None", "youtube": "None", "website": "None", "summary": "None", "logo": "None", "latitude": 51.08194000000003, "longitude": -114.15466999999995}, "738428697RR0001": {"name": "CALGARY ZION KOREAN BAPTIST CHURCH", "designationCode": "C", "categoryCode": "31", "address": "65 COUGARSTONE CIR SW", "city": "CALGARY", "province": "AB", "country": "CA", "postalCode": "T3H4W3", "twitter": "None", "instagram": "None", "facebook": "None", "youtube": "None", "website": "None", "summary": "None", "logo": "None", "latitude": 51.06996058728147, "longitude": -114.21254704163537}, "118824192RR0001": {"name": "CALGARY ZOOLOGICAL SOCIETY", "designationCode": "C", "categoryCode": "50", "address": "1300 ZOO RD NE", "city": "CALGARY", "province": "AB", "country": "CA", "postalCode": "T2E7V6", "twitter": "None", "instagram": "None", "facebook": "None", "youtube": "None", "website": "None", "summary": "None", "logo": "None", "latitude": 51.044334575732805, "longitude": -114.03201359959027}, "863673984RR0001": {"name": "CALGARY(ALBERTA) NEUROPATHY ASSOCIATION", "designationCode": "C", "categoryCode": "11", "address": "BOX 72068                     RPO GLENMORE LANDING", "city": "CALGARY", "province": "AB", "country": "CA", "postalCode": "T2V5H9", "twitter": "None", "instagram": "None", "facebook": "None", "youtube": "None", "website": "None", "summary": "None", "logo": "None"}, "889584553RR0001": {"name": "CALGARY'S INTERDENOMINATIONAL TABERNACLE", "designationCode": "C", "categoryCode": "39", "address": "11203 - 11 STREET S.W.", "city": "CALGARY", "province": "AB", "country": "CA", "postalCode": "T2W0H4", "twitter": "None", "instagram": "None", "facebook": "None", "youtube": "None", "website": "None", "summary": "None", "logo": "None", "latitude": 50.95289582653356, "longitude": -114.08837403540296}, "894366988RR0001": {"name": "CALL TO BE FAMILY IN CANADA", "designationCode": "C", "categoryCode": "49", "address": "188 EDGEWOOD DRIVE", "city": "WOODSTOCK", "province": "ON", "country": "CA", "postalCode": "N4S7P3", "twitter": "None", "instagram": "None", "facebook": "None", "youtube": "None", "website": "None", "summary": "None", "logo": "None", "latitude": 43.14007080128679, "longitude": -80.73262374228183}, "890624927RR0001": {"name": "CALL TO HOLINESS, CANADA", "designationCode": "C", "categoryCode": "47", "address": "P.O. BOX 74511                270 THE KINGSWAY", "city": "TORONTO", "province": "ON", "country": "CA", "postalCode": "M9A5E2", "twitter": "None", "instagram": "None", "facebook": "None", "youtube": "None", "website": "None", "summary": "None", "logo": "None", "latitude": 43.661939690518906, "longitude": -79.51889572017946}, "118824226RR0001": {"name": "CALL-A-SERVICE INC.", "designationCode": "C", "categoryCode": "09", "address": "2 GOWER STREET", "city": "TORONTO", "province": "ON", "country": "CA", "postalCode": "M4B1E2", "twitter": "None", "instagram": "None", "facebook": "None", "youtube": "None", "website": "None", "summary": "None", "logo": "None", "latitude": 43.70188111076791, "longitude": -79.2987485856367}, "861494029RR0001": {"name": "CALLANDER BAY EVANGELICAL MISSIONARY CHURCH", "designationCode": "C", "categoryCode": "39", "address": "888 CALLANDER BAY DR.         (BOX 218)", "city": "CALLANDER", "province": "ON", "country": "CA", "postalCode": "P0H1H0", "twitter": "None", "instagram": "None", "facebook": "None", "youtube": "None", "website": "None", "summary": "None", "logo": "None", "latitude": 46.235082610042475, "longitude": -79.37011261086855}, "880697164RR0001": {"name": "CALLANISH HEALING RETREATS SOCIETY", "designationCode": "C", "categoryCode": "09", "address": "2277 WEST 10TH AVE", "city": "VANCOUVER", "province": "BC", "country": "CA", "postalCode": "V6K2J1", "twitter": "None", "instagram": "None", "facebook": "None", "youtube": "None", "website": "None", "summary": "None", "logo": "None", "latitude": 49.262911478792596, "longitude": -123.15706166472387}, "131109928RR0001": {"name": "CALLING FOUNDATION", "designationCode": "C", "categoryCode": "09", "address": "SUITE A                       3263 BLEINHEIM STREET", "city": "VANCOUVER", "province": "BC", "country": "CA", "postalCode": "V6L2X7", "twitter": "None", "instagram": "None", "facebook": "None", "youtube": "None", "website": "None", "summary": "None", "logo": "None", "latitude": 49.25711034583636, "longitude": -123.17824288669235}, "890769946RR0001": {"name": "CALLING MINISTRIES", "designationCode": "C", "categoryCode": "01", "address": "A-3263 BLENHEIM ST", "city": "VANCOUVER", "province": "BC", "country": "CA", "postalCode": "V6L2X7", "twitter": "None", "instagram": "None", "facebook": "None", "youtube": "None", "website": "None", "summary": "None", "logo": "None", "latitude": 49.25711034583636, "longitude": -123.17824288669235}, "119288918RR0566": {"name": "CALLINGWOOD CONGREGATION OF JEHOVAH'S WITNESSES", "designationCode": "C", "categoryCode": "61", "address": "5808 190A ST NW", "city": "EDMONTON", "province": "AB", "country": "CA", "postalCode": "T6M2G5", "twitter": "None", "instagram": "None", "facebook": "None", "youtube": "None", "website": "None", "summary": "None", "logo": "None", "latitude": 53.49283534194122, "longitude": -113.6527473958103}, "130908908RR0001": {"name": "CALLINGWOOD ROAD PRESBYTERIAN CHURCH", "designationCode": "C", "categoryCode": "37", "address": "6015 184 STREET", "city": "EDMONTON", "province": "AB", "country": "CA", "postalCode": "T6M1T8", "twitter": "None", "instagram": "None", "facebook": "None", "youtube": "None", "website": "None", "summary": "None", "logo": "None", "latitude": 53.49427312143688, "longitude": -113.64010133838812}, "898947577RR0001": {"name": "CALLOW VETERANS AND INVALIDS WELFARE LEAGUE", "designationCode": "C", "categoryCode": "09", "address": "P.O. BOX 33034", "city": "HALIFAX", "province": "NS", "country": "CA", "postalCode": "B3L4T6", "twitter": "None", "instagram": "None", "facebook": "None", "youtube": "None", "website": "None", "summary": "None", "logo": "None", "latitude": 44.65086900000006, "longitude": -63.61343899999993}, "890224249RR0001": {"name": "CALMAR ALBERTA CONGREGATION OF JEHOVAH'S WITNESSES", "designationCode": "C", "categoryCode": "61", "address": "P.O. BOX 301", "city": "CALMAR", "province": "AB", "country": "CA", "postalCode": "T0C0V0", "twitter": "None", "instagram": "None", "facebook": "None", "youtube": "None", "website": "None", "summary": "None", "logo": "None", "latitude": 53.265040000000056, "longitude": -113.80454999999995}, "131088726RR0001": {"name": "CALMAR CHRISTIAN CENTRE", "designationCode": "C", "categoryCode": "36", "address": "12140-103 STREET NW", "city": "EDMONTON", "province": "AB", "country": "CA", "postalCode": "T5G2J9", "twitter": "None", "instagram": "None", "facebook": "None", "youtube": "None", "website": "None", "summary": "None", "logo": "None", "latitude": 53.575749, "longitude": -113.49743926319982}, "851269969RR0001": {"name": "CALMAR COMMUNITY CEMETERY (ASSOCIATION)", "designationCode": "C", "categoryCode": "59", "address": "PO BOX 217", "city": "CALMAR", "province": "AB", "country": "CA", "postalCode": "T0C0V0", "twitter": "None", "instagram": "None", "facebook": "None", "youtube": "None", "website": "None", "summary": "None", "logo": "None", "latitude": 53.265040000000056, "longitude": -113.80454999999995}, "137656617RR0001": {"name": "CALMEADOW", "designationCode": "C", "categoryCode": "59", "address": "SUITE 1440, THE EXCHANGE TOWER130 KING STREET W P.O. BOX 426", "city": "TORONTO", "province": "ON", "country": "CA", "postalCode": "M5X1E3", "twitter": "None", "instagram": "None", "facebook": "None", "youtube": "None", "website": "None", "summary": "None", "logo": "None", "latitude": 43.64826932503962, "longitude": -79.38190945606182}, "891604860RR0001": {"name": "CALTON CONSERVATIVE MENNONITE CHURCH", "designationCode": "C", "categoryCode": "34", "address": "RR 6", "city": "AYLMER", "province": "ON", "country": "CA", "postalCode": "N5H2R5", "twitter": "None", "instagram": "None", "facebook": "None", "youtube": "None", "website": "None", "summary": "None", "logo": "None", "latitude": 42.72092700000006, "longitude": -80.90902249999994}, "890550064RR0001": {"name": "CALUMET COMMUNITY SOCIETY", "designationCode": "C", "categoryCode": "56", "address": "BOX 668", "city": "BASHAW", "province": "AB", "country": "CA", "postalCode": "T0B0H0", "twitter": "None", "instagram": "None", "facebook": "None", "youtube": "None", "website": "None", "summary": "None", "logo": "None", "latitude": 52.58378000000005, "longitude": -112.97087999999997}, "887891158RR0001": {"name": "CALUMET PROTESTANT CEMETERY INC", "designationCode": "C", "categoryCode": "59", "address": "2008, ROUTE 148               P.O. BOX 247", "city": "GRENVILLE-SUR-LA-ROUGE", "province": "QC", "country": "CA", "postalCode": "J0V1B0", "twitter": "None", "instagram": "None", "facebook": "None", "youtube": "None", "website": "None", "summary": "None", "logo": "None", "latitude": 45.64935504186554, "longitude": -74.6449596749264}, "834859522RR0001": {"name": "CALVAIRE D'HUBERDEAU", "designationCode": "C", "categoryCode": "52", "address": "231, PRINCIPALE", "city": "HUBERDEAU", "province": "QC", "country": "CA", "postalCode": "J0T1G0", "twitter": "None", "instagram": "None", "facebook": "None", "youtube": "None", "website": "None", "summary": "None", "logo": "None", "latitude": 45.97921136747645, "longitude": -74.63170197934086}, "899086821RR0001": {"name": "CALVARY ASSEMBLY CHURCH", "designationCode": "C", "categoryCode": "39", "address": "51 SAVARIN STREET", "city": "SCARBOROUGH", "province": "ON", "country": "CA", "postalCode": "M1J1Z9", "twitter": "None", "instagram": "None", "facebook": "None", "youtube": "None", "website": "None", "summary": "None", "logo": "None", "latitude": 43.74280197694627, "longitude": -79.24054731611754}, "118824358RR0001": {"name": "CALVARY ASSOCIATED GOSPEL CHURCH INC.", "designationCode": "C", "categoryCode": "39", "address": "2810 LOUISE ST", "city": "SASKATOON", "province": "SK", "country": "CA", "postalCode": "S7J0P4", "twitter": "None", "instagram": "None", "facebook": "None", "youtube": "None", "website": "None", "summary": "None", "logo": "None", "latitude": 52.10043591476734, "longitude": -106.61085628807217}, "106831753RR0001": {"name": "CALVARY BAPTIST CHURCH", "designationCode": "C", "categoryCode": "31", "address": "CP 47001 CSP CTR CHATEAUGUAY", "city": "CHATEAUGUAY", "province": "QC", "country": "CA", "postalCode": "J6K5B7", "twitter": "None", "instagram": "None", "facebook": "None", "youtube": "None", "website": "None", "summary": "None", "logo": "None", "latitude": 45.36151800000006, "longitude": -73.75070149999993}, "106831761RR0001": {"name": "CALVARY BAPTIST CHURCH", "designationCode": "C", "categoryCode": "31", "address": "BOX 341", "city": "KILLALOE", "province": "ON", "country": "CA", "postalCode": "K0J2A0", "twitter": "None", "instagram": "None", "facebook": "None", "youtube": "None", "website": "None", "summary": "None", "logo": "None", "latitude": 45.56451000000004, "longitude": -77.41959999999995}, "106831852RR0001": {"name": "CALVARY BAPTIST CHURCH", "designationCode": "C", "categoryCode": "31", "address": "598 KING ST", "city": "MIDLAND", "province": "ON", "country": "CA", "postalCode": "L4R4P3", "twitter": "None", "instagram": "None", "facebook": "None", "youtube": "None", "website": "None", "summary": "None", "logo": "None", "latitude": 44.74071191848809, "longitude": -79.87767816740026}, "106831894RR0001": {"name": "CALVARY BAPTIST CHURCH", "designationCode": "C", "categoryCode": "31", "address": "72 MAIN STREET", "city": "TORONTO", "province": "ON", "country": "CA", "postalCode": "M4E2V7", "twitter": "None", "instagram": "None", "facebook": "None", "youtube": "None", "website": "None", "summary": "None", "logo": "None", "latitude": 43.68111465583708, "longitude": -79.29903650072114}, "106831969RR0001": {"name": "CALVARY BAPTIST CHURCH", "designationCode": "C", "categoryCode": "31", "address": "P.O. BOX 148", "city": "DESBARATS", "province": "ON", "country": "CA", "postalCode": "P0R1E0", "twitter": "None", "instagram": "None", "facebook": "None", "youtube": "None", "website": "None", "summary": "None", "logo": "None", "latitude": 46.302099084085796, "longitude": -83.79029912888505}, "106831977RR0001": {"name": "CALVARY BAPTIST CHURCH", "designationCode": "C", "categoryCode": "31", "address": "P.O. BOX 460", "city": "BALMERTOWN", "province": "ON", "country": "CA", "postalCode": "P0V1C0", "twitter": "None", "instagram": "None", "facebook": "None", "youtube": "None", "website": "None", "summary": "None", "logo": "None", "latitude": 51.05986000000007, "longitude": -93.74009999999998}, "106831985RR0001": {"name": "CALVARY BAPTIST CHURCH", "designationCode": "C", "categoryCode": "31", "address": "BOX 36", "city": "SIOUX LOOKOUT", "province": "ON", "country": "CA", "postalCode": "P8T1A1", "twitter": "None", "instagram": "None", "facebook": "None", "youtube": "None", "website": "None", "summary": "None", "logo": "None", "latitude": 50.09808300000006, "longitude": -91.91503249999994}, "106832009RR0001": {"name": "CALVARY BAPTIST CHURCH", "designationCode": "C", "categoryCode": "31", "address": "245 YORK ST", "city": "SUDBURY", "province": "ON", "country": "CA", "postalCode": "P3E2A2", "twitter": "None", "instagram": "None", "facebook": "None", "youtube": "None", "website": "None", "summary": "None", "logo": "None", "latitude": 46.475413041107, "longitude": -81.00489854110698}, "106832025RR0001": {"name": "CALVARY BAPTIST CHURCH", "designationCode": "C", "categoryCode": "31", "address": "BOX 115", "city": "KILLARNEY", "province": "MB", "country": "CA", "postalCode": "R0K1G0", "twitter": "None", "instagram": "None", "facebook": "None", "youtube": "None", "website": "None", "summary": "None", "logo": "None", "latitude": 49.18482000000006, "longitude": -99.66915999999998}, "106832033RR0001": {"name": "CALVARY BAPTIST CHURCH", "designationCode": "C", "categoryCode": "31", "address": "PO BOX 90", "city": "KIPLING", "province": "SK", "country": "CA", "postalCode": "S0G2S0", "twitter": "None", "instagram": "None", "facebook": "None", "youtube": "None", "website": "None", "summary": "None", "logo": "None", "latitude": 50.94214200000001, "longitude": -104.50606274999998}, "106832074RR0001": {"name": "CALVARY BAPTIST CHURCH", "designationCode": "C", "categoryCode": "31", "address": "7215-97 ST", "city": "EDMONTON", "province": "AB", "country": "CA", "postalCode": "T6E3K4", "twitter": "None", "instagram": "None", "facebook": "None", "youtube": "None", "website": "None", "summary": "None", "logo": "None", "latitude": 53.50916699999999, "longitude": -113.47972780734631}, "106832090RR0001": {"name": "CALVARY BAPTIST CHURCH", "designationCode": "C", "categoryCode": "31", "address": "PO BOX 151", "city": "CHEMAINUS", "province": "BC", "country": "CA", "postalCode": "V0R1K0", "twitter": "None", "instagram": "None", "facebook": "None", "youtube": "None", "website": "None", "summary": "None", "logo": "None", "latitude": 48.90353545217932, "longitude": -123.70279429748639}, "118824382RR0001": {"name": "CALVARY BAPTIST CHURCH", "designationCode": "C", "categoryCode": "31", "address": "8 MARTINS LANE", "city": "PLYMPTON", "province": "NS", "country": "CA", "postalCode": "B0W2R0", "twitter": "None", "instagram": "None", "facebook": "None", "youtube": "None", "website": "None", "summary": "None", "logo": "None", "latitude": 44.49678131389586, "longitude": -65.92548479352517}, "118824390RR0001": {"name": "CALVARY BAPTIST CHURCH", "designationCode": "C", "categoryCode": "31", "address": "PO BOX 244                    STN MAIN", "city": "MIRAMICHI", "province": "NB", "country": "CA", "postalCode": "E1V3M3", "twitter": "None", "instagram": "None", "facebook": "None", "youtube": "None", "website": "None", "summary": "None", "logo": "None", "latitude": 47.00187600000005, "longitude": -65.56824349999994}, "118824432RR0001": {"name": "CALVARY BAPTIST CHURCH", "designationCode": "C", "categoryCode": "31", "address": "107 MAIN ST.", "city": "OTTAWA", "province": "ON", "country": "CA", "postalCode": "K1S1B9", "twitter": "None", "instagram": "None", "facebook": "None", "youtube": "None", "website": "None", "summary": "None", "logo": "None", "latitude": 45.41121194838131, "longitude": -75.67921083080405}, "118824440RR0001": {"name": "CALVARY BAPTIST CHURCH", "designationCode": "C", "categoryCode": "31", "address": "2213 PITT ST N", "city": "CORNWALL", "province": "ON", "country": "CA", "postalCode": "K6K1A4", "twitter": "None", "instagram": "None", "facebook": "None", "youtube": "None", "website": "None", "summary": "None", "logo": "None", "latitude": 45.05610671375493, "longitude": -74.75879381239365}, "118824465RR0001": {"name": "CALVARY BAPTIST CHURCH", "designationCode": "C", "categoryCode": "31", "address": "567 MELTON ST", "city": "PEMBROKE", "province": "ON", "country": "CA", "postalCode": "K8A6Y3", "twitter": "None", "instagram": "None", "facebook": "None", "youtube": "None", "website": "None", "summary": "None", "logo": "None", "latitude": 45.819549979192985, "longitude": -77.09021569182771}, "118824523RR0001": {"name": "CALVARY BAPTIST CHURCH", "designationCode": "C", "categoryCode": "31", "address": "PO-BOX 93001", "city": "BRAMPTON", "province": "ON", "country": "CA", "postalCode": "L6Y4V8", "twitter": "None", "instagram": "None", "facebook": "None", "youtube": "None", "website": "None", "summary": "None", "logo": "None", "latitude": 43.68430500000005, "longitude": -79.75872349999993}, "118824580RR0001": {"name": "CALVARY BAPTIST CHURCH", "designationCode": "C", "categoryCode": "31", "address": "360 BETHUNE DRIVE NORD", "city": "GRAVENHURST", "province": "ON", "country": "CA", "postalCode": "P1P1B8", "twitter": "None", "instagram": "None", "facebook": "None", "youtube": "None", "website": "None", "summary": "None", "logo": "None", "latitude": 44.92513861809684, "longitude": -79.37167424891827}, "118824622RR0001": {"name": "CALVARY BAPTIST CHURCH", "designationCode": "C", "categoryCode": "31", "address": "PO BOX 338", "city": "EMO", "province": "ON", "country": "CA", "postalCode": "P0W1E0", "twitter": "None", "instagram": "None", "facebook": "None", "youtube": "None", "website": "None", "summary": "None", "logo": "None", "latitude": 48.662577540629606, "longitude": -93.82672263965895}, "118824705RR0001": {"name": "CALVARY BAPTIST CHURCH", "designationCode": "C", "categoryCode": "31", "address": "4910-NORTHMOUNT DR", "city": "WETASKIWIN", "province": "AB", "country": "CA", "postalCode": "T9A3R2", "twitter": "None", "instagram": "None", "facebook": "None", "youtube": "None", "website": "None", "summary": "None", "logo": "None", "latitude": 52.98477043940757, "longitude": -113.37440506232318}, "118824747RR0001": {"name": "CALVARY BAPTIST CHURCH", "designationCode": "C", "categoryCode": "31", "address": "1636 REGAN AVE", "city": "COQUITLAM", "province": "BC", "country": "CA", "postalCode": "V3J3B8", "twitter": "None", "instagram": "None", "facebook": "None", "youtube": "None", "website": "None", "summary": "None", "logo": "None", "latitude": 49.261556536211025, "longitude": -122.84873027699231}, "130244395RR0001": {"name": "CALVARY BAPTIST CHURCH", "designationCode": "C", "categoryCode": "31", "address": "1619-1ST AVE NE", "city": "WEYBURN", "province": "SK", "country": "CA", "postalCode": "S4H3E7", "twitter": "None", "instagram": "None", "facebook": "None", "youtube": "None", "website": "None", "summary": "None", "logo": "None", "latitude": 49.66886525674834, "longitude": -103.83472282951858}, "130336514RR0001": {"name": "CALVARY BAPTIST CHURCH", "designationCode": "C", "categoryCode": "31", "address": "6950 NASHVILLE RD", "city": "KLEINBURG", "province": "ON", "country": "CA", "postalCode": "L0J1C0", "twitter": "None", "instagram": "None", "facebook": "None", "youtube": "None", "website": "None", "summary": "None", "logo": "None", "latitude": 43.839706542638005, "longitude": -79.6746043207887}, "131455867RR0001": {"name": "CALVARY BAPTIST CHURCH", "designationCode": "C", "categoryCode": "31", "address": "231 BAYFIELD RD", "city": "GODERICH", "province": "ON", "country": "CA", "postalCode": "N7A3G5", "twitter": "None", "instagram": "None", "facebook": "None", "youtube": "None", "website": "None", "summary": "None", "logo": "None", "latitude": 43.73517561226845, "longitude": -81.70591600213572}, "132643289RR0001": {"name": "CALVARY BAPTIST CHURCH", "designationCode": "C", "categoryCode": "31", "address": "4401 50 AVENUE", "city": "DRAYTON VALLEY", "province": "AB", "country": "CA", "postalCode": "T7A1H3", "twitter": "None", "instagram": "None", "facebook": "None", "youtube": "None", "website": "None", "summary": "None", "logo": "None", "latitude": 53.2214545100989, "longitude": -114.96699}, "893367367RR0001": {"name": "CALVARY BAPTIST CHURCH", "designationCode": "C", "categoryCode": "31", "address": "525 ELINOR ST.", "city": "WINDSOR", "province": "ON", "country": "CA", "postalCode": "N8P1E3", "twitter": "None", "instagram": "None", "facebook": "None", "youtube": "None", "website": "None", "summary": "None", "logo": "None", "latitude": 42.335356599774975, "longitude": -82.91717741996052}, "853444040RR0001": {"name": "CALVARY BAPTIST CHURCH - GUELPH", "designationCode": "C", "categoryCode": "31", "address": "454 ARKELL RD", "city": "PUSLINCH", "province": "ON", "country": "CA", "postalCode": "N0B2J0", "twitter": "None", "instagram": "None", "facebook": "None", "youtube": "None", "website": "None", "summary": "None", "logo": "None", "latitude": 43.53284407366359, "longitude": -80.17385807424203}, "858912223RR0001": {"name": "CALVARY BAPTIST CHURCH COBOURG", "designationCode": "C", "categoryCode": "31", "address": "237 BALL ST", "city": "COBOURG", "province": "ON", "country": "CA", "postalCode": "K9A3H8", "twitter": "None", "instagram": "None", "facebook": "None", "youtube": "None", "website": "None", "summary": "None", "logo": "None", "latitude": 43.95958790641321, "longitude": -78.17231711672717}, "106831746RR0001": {"name": "CALVARY BAPTIST CHURCH INDEPENDENT", "designationCode": "C", "categoryCode": "31", "address": "845 REGENT ST", "city": "FREDERICTON", "province": "NB", "country": "CA", "postalCode": "E3B3Y6", "twitter": "None", "instagram": "None", "facebook": "None", "youtube": "None", "website": "None", "summary": "None", "logo": "None", "latitude": 45.94637550152921, "longitude": -66.6514646394771}, "118824804RR0001": {"name": "CALVARY BAPTIST CHURCH NORTH REGINA", "designationCode": "C", "categoryCode": "31", "address": "190 RINK AVENUE", "city": "REGINA", "province": "SK", "country": "CA", "postalCode": "S4R7V5", "twitter": "None", "instagram": "None", "facebook": "None", "youtube": "None", "website": "None", "summary": "None", "logo": "None", "latitude": 50.487583493219326, "longitude": -104.65474583250617}, "118824812RR0001": {"name": "CALVARY BAPTIST CHURCH OF ALDERGROVE BC", "designationCode": "C", "categoryCode": "31", "address": "27233 FRASER HWY", "city": "ALDERGROVE", "province": "BC", "country": "CA", "postalCode": "V4W3P9", "twitter": "None", "instagram": "None", "facebook": "None", "youtube": "None", "website": "None", "summary": "None", "logo": "None", "latitude": 49.05806447760247, "longitude": -122.46963507749167}, "106831951RR0001": {"name": "CALVARY BAPTIST CHURCH OF ESPANOLA ONTARIO", "designationCode": "C", "categoryCode": "31", "address": "599 BARBER ST", "city": "ESPANOLA", "province": "ON", "country": "CA", "postalCode": "P5E1M9", "twitter": "None", "instagram": "None", "facebook": "None", "youtube": "None", "website": "None", "summary": "None", "logo": "None", "latitude": 46.25486243838798, "longitude": -81.78641849625647}, "827930850RR0001": {"name": "CALVARY BAPTIST CHURCH OF GIBSONS", "designationCode": "C", "categoryCode": "31", "address": "711 PARK RD", "city": "GIBSONS", "province": "BC", "country": "CA", "postalCode": "V0N1V7", "twitter": "None", "instagram": "None", "facebook": "None", "youtube": "None", "website": "None", "summary": "None", "logo": "None", "latitude": 49.40881984762539, "longitude": -123.52333244399522}, "118824838RR0001": {"name": "CALVARY BAPTIST CHURCH OF MOOSE JAW INC.", "designationCode": "C", "categoryCode": "31", "address": "60 HOCHELAGA STREET WEST", "city": "MOOSE JAW", "province": "SK", "country": "CA", "postalCode": "S6H2G1", "twitter": "None", "instagram": "None", "facebook": "None", "youtube": "None", "website": "None", "summary": "None", "logo": "None", "latitude": 50.39634435830071, "longitude": -105.53631833865953}, "889231064RR0001": {"name": "CALVARY BAPTIST CHURCH OF NIAGARA", "designationCode": "C", "categoryCode": "31", "address": "PO BOX 8", "city": "STEVENSVILLE", "province": "ON", "country": "CA", "postalCode": "L0S1S0", "twitter": "None", "instagram": "None", "facebook": "None", "youtube": "None", "website": "None", "summary": "None", "logo": "None", "latitude": 42.95987684117784, "longitude": -79.05496598986427}, "118824846RR0001": {"name": "CALVARY BAPTIST CHURCH OF WHITEHORSE", "designationCode": "C", "categoryCode": "31", "address": "1301 FIR ST", "city": "WHITEHORSE", "province": "YT", "country": "CA", "postalCode": "Y1A4C3", "twitter": "None", "instagram": "None", "facebook": "None", "youtube": "None", "website": "None", "summary": "None", "logo": "None", "latitude": 60.764530599774965, "longitude": -135.13530323581827}, "861139335RR0001": {"name": "CALVARY BAPTIST CHURCH, ARNPRIOR ONTARIO", "designationCode": "C", "categoryCode": "31", "address": "156 LANDRIGAN ST", "city": "ARNPRIOR", "province": "ON", "country": "CA", "postalCode": "K7S2S6", "twitter": "None", "instagram": "None", "facebook": "None", "youtube": "None", "website": "None", "summary": "None", "logo": "None", "latitude": 45.429002948641084, "longitude": -76.36310489895563}, "129455523RR0001": {"name": "CALVARY BAPTIST CHURCH, FORT ST JOHN, B C", "designationCode": "C", "categoryCode": "31", "address": "9607-107 AVE", "city": "FORT ST JOHN", "province": "BC", "country": "CA", "postalCode": "V1J2P5", "twitter": "None", "instagram": "None", "facebook": "None", "youtube": "None", "website": "None", "summary": "None", "logo": "None", "latitude": 56.25290250678068, "longitude": -120.84057352553523}, "118824481RR0001": {"name": "CALVARY BAPTIST CHURCH, OSHAWA", "designationCode": "C", "categoryCode": "31", "address": "300 ROSSLAND RD. EAST", "city": "OSHAWA", "province": "ON", "country": "CA", "postalCode": "L1G2X1", "twitter": "None", "instagram": "None", "facebook": "None", "youtube": "None", "website": "None", "summary": "None", "logo": "None", "latitude": 43.91731241362156, "longitude": -78.861425959824}, "118824853RR0001": {"name": "CALVARY BIBLE CHURCH", "designationCode": "C", "categoryCode": "39", "address": "P.O. BOX 103", "city": "SMITH FALLS", "province": "ON", "country": "CA", "postalCode": "K7A4S9", "twitter": "None", "instagram": "None", "facebook": "None", "youtube": "None", "website": "None", "summary": "None", "logo": "None", "latitude": 44.90257200000005, "longitude": -76.02153199999994}, "118824879RR0001": {"name": "CALVARY BIBLE CHURCH", "designationCode": "C", "categoryCode": "39", "address": "905 SAYWARD RD", "city": "SAYWARD", "province": "BC", "country": "CA", "postalCode": "V0P1R0", "twitter": "None", "instagram": "None", "facebook": "None", "youtube": "None", "website": "None", "summary": "None", "logo": "None", "latitude": 50.32532462058635, "longitude": -125.92213138858716}, "107443939RR0001": {"name": "CALVARY BIBLE CHURCH OF KINGSTON", "designationCode": "C", "categoryCode": "39", "address": "395 NELSON STREET", "city": "KINGSTON", "province": "ON", "country": "CA", "postalCode": "K7K4M9", "twitter": "None", "instagram": "None", "facebook": "None", "youtube": "None", "website": "None", "summary": "None", "logo": "None", "latitude": 44.242742493479135, "longitude": -76.50251413486082}, "140773243RR0001": {"name": "CALVARY BIBLE PRESBYTERIAN CHURCH", "designationCode": "C", "categoryCode": "37", "address": "4981 APPLEBY LINE", "city": "BURLINGTON", "province": "ON", "country": "CA", "postalCode": "L7M0P3", "twitter": "None", "instagram": "None", "facebook": "None", "youtube": "None", "website": "None", "summary": "None", "logo": "None", "latitude": 43.433002088002645, "longitude": -79.84428759114796}, "106832215RR0001": {"name": "CALVARY CHAPEL", "designationCode": "C", "categoryCode": "36", "address": "BOX 507", "city": "NEEPAWA", "province": "MB", "country": "CA", "postalCode": "R0J1H0", "twitter": "None", "instagram": "None", "facebook": "None", "youtube": "None", "website": "None", "summary": "None", "logo": "None", "latitude": 50.22581100000005, "longitude": -99.48963949999994}, "107833394RR0047": {"name": "CALVARY CHAPEL", "designationCode": "C", "categoryCode": "36", "address": "PO BOX 123", "city": "NORTH WEST RIVER", "province": "NL", "country": "CA", "postalCode": "A0P1M0", "twitter": "None", "instagram": "None", "facebook": "None", "youtube": "None", "website": "None", "summary": "None", "logo": "None", "latitude": 53.47562636528523, "longitude": -60.26854020534523}, "878992825RR0001": {"name": "CALVARY CHAPEL", "designationCode": "C", "categoryCode": "36", "address": "12140 103 ST NW", "city": "EDMONTON", "province": "AB", "country": "CA", "postalCode": "T5G2J9", "twitter": "None", "instagram": "None", "facebook": "None", "youtube": "None", "website": "None", "summary": "None", "logo": "None", "latitude": 53.575749, "longitude": -113.49743926319982}, "884395302RR0001": {"name": "CALVARY CHAPEL CRANBROOK", "designationCode": "C", "categoryCode": "39", "address": "19 21ST AVE S", "city": "CRANBROOK", "province": "BC", "country": "CA", "postalCode": "V1C3H2", "twitter": "None", "instagram": "None", "facebook": "None", "youtube": "None", "website": "None", "summary": "None", "logo": "None", "latitude": 49.511589308067464, "longitude": -115.75286358592517}, "871784534RR0001": {"name": "CALVARY CHAPEL KELOWNA SOCIETY", "designationCode": "C", "categoryCode": "39", "address": "223 - 1889 SPRINGFIELD RD", "city": "KELOWNA", "province": "BC", "country": "CA", "postalCode": "V1Y5V5", "twitter": "None", "instagram": "None", "facebook": "None", "youtube": "None", "website": "None", "summary": "None", "logo": "None", "latitude": 49.87710040660634, "longitude": -119.4548724756288}, "894205376RR0001": {"name": "CALVARY CHAPEL OF STEINBACH INC.", "designationCode": "C", "categoryCode": "39", "address": "30 MCKENZIE RD", "city": "STEINBACH", "province": "MB", "country": "CA", "postalCode": "R5G2E5", "twitter": "None", "instagram": "None", "facebook": "None", "youtube": "None", "website": "None", "summary": "None", "logo": "None", "latitude": 49.51735530166324, "longitude": -96.69765020117786}, "891062721RR0001": {"name": "CALVARY CHAPEL RICHMOND SOCIETY", "designationCode": "C", "categoryCode": "39", "address": "16-11631 7TH AVE", "city": "RICHMOND", "province": "BC", "country": "CA", "postalCode": "V7E5V6", "twitter": "None", "instagram": "None", "facebook": "None", "youtube": "None", "website": "None", "summary": "None", "logo": "None", "latitude": 49.12794884587936, "longitude": -123.19190345882038}, "851737379RR0001": {"name": "CALVARY CHAPEL, TORONTO", "designationCode": "C", "categoryCode": "39", "address": "75 WESTMORE DR", "city": "ETOBICOKE", "province": "ON", "country": "CA", "postalCode": "M9V3Y6", "twitter": "None", "instagram": "None", "facebook": "None", "youtube": "None", "website": "None", "summary": "None", "logo": "None", "latitude": 43.738469107709484, "longitude": -79.60264732991003}, "839302072RR0001": {"name": "CALVARY CHAPELLE MONTREAL REGENERATION/CALVARY CHAPEL MONTREAL REGENERATION", "designationCode": "C", "categoryCode": "39", "address": "1439 RUE SAINTE-CATHERINE O", "city": "MONTREAL", "province": "QC", "country": "CA", "postalCode": "H3G1S6", "twitter": "None", "instagram": "None", "facebook": "None", "youtube": "None", "website": "None", "summary": "None", "logo": "None", "latitude": 45.49625542022033, "longitude": -73.57665523775151}, "887765832RR0001": {"name": "CALVARY CHARISMATIC CENTRE ONTARIO", "designationCode": "C", "categoryCode": "39", "address": "1215-95 THORNCLIFFE PARK DR.", "city": "EAST YORK", "province": "ON", "country": "CA", "postalCode": "M4H1L7", "twitter": "None", "instagram": "None", "facebook": "None", "youtube": "None", "website": "None", "summary": "None", "logo": "None", "latitude": 43.703856762182525, "longitude": -79.3412294083074}, "880514963RR0001": {"name": "CALVARY CHRISTIAN ACADEMY", "designationCode": "C", "categoryCode": "20", "address": "9749 HWY 15                   RR 6", "city": "SMITHS FALLS", "province": "ON", "country": "CA", "postalCode": "K7A4S7", "twitter": "None", "instagram": "None", "facebook": "None", "youtube": "None", "website": "None", "summary": "None", "logo": "None", "latitude": 45.034695112231596, "longitude": -76.0575454043347}, "896008984RR0001": {"name": "CALVARY CHRISTIAN CHURCH", "designationCode": "C", "categoryCode": "39", "address": "16293 104 AVE", "city": "SURREY", "province": "BC", "country": "CA", "postalCode": "V4N1Z7", "twitter": "None", "instagram": "None", "facebook": "None", "youtube": "None", "website": "None", "summary": "None", "logo": "None", "latitude": 49.19159902347501, "longitude": -122.77007446438485}, "106832272RR0001": {"name": "CALVARY CHRISTIAN REFORMED CHURCH OF CHATHAM", "designationCode": "C", "categoryCode": "39", "address": "PO BOX 1363", "city": "CHATHAM", "province": "ON", "country": "CA", "postalCode": "N7M5W8", "twitter": "None", "instagram": "None", "facebook": "None", "youtube": "None", "website": "None", "summary": "None", "logo": "None", "latitude": 42.404613000000055, "longitude": -82.18960099999994}, "106832264RR0001": {"name": "CALVARY CHRISTIAN REFORMED CHURCH OF FLAMBOROUGH", "designationCode": "C", "categoryCode": "39", "address": "265 MIDDLETOWN RD             RR #1", "city": "DUNDAS", "province": "ON", "country": "CA", "postalCode": "L9H5E1", "twitter": "None", "instagram": "None", "facebook": "None", "youtube": "None", "website": "None", "summary": "None", "logo": "None", "latitude": 43.2678540596688, "longitude": -80.03261615448073}, "106832298RR0002": {"name": "CALVARY CHRISTIAN REFORMED CHURCH OF OTTAWA (EAST)", "designationCode": "C", "categoryCode": "39", "address": "3782 RUSSELL RD.", "city": "OTTAWA", "province": "ON", "country": "CA", "postalCode": "K1G3N2", "twitter": "None", "instagram": "None", "facebook": "None", "youtube": "None", "website": "None", "summary": "None", "logo": "None", "latitude": 45.38797929444881, "longitude": -75.60008104916587}, "853358075RR0001": {"name": "CALVARY CHRISTIAN SCHOOL NIAGARA", "designationCode": "C", "categoryCode": "20", "address": "310 SCOTT STREET", "city": "ST CATHARINES", "province": "ON", "country": "CA", "postalCode": "L2N1J5", "twitter": "None", "instagram": "None", "facebook": "None", "youtube": "None", "website": "None", "summary": "None", "logo": "None", "latitude": 43.186759321023246, "longitude": -79.23513180371097}, "118824978RR0001": {"name": "CALVARY CHURCH", "designationCode": "C", "categoryCode": "39", "address": "PO BOX 1856", "city": "MINNEDOSA", "province": "MB", "country": "CA", "postalCode": "R0J1E0", "twitter": "None", "instagram": "None", "facebook": "None", "youtube": "None", "website": "None", "summary": "None", "logo": "None", "latitude": 50.35204290882316, "longitude": -100.20187636199029}, "106832322RR0001": {"name": "CALVARY CHURCH (ST. CATHARINES)", "designationCode": "C", "categoryCode": "39", "address": "89 SCOTT ST", "city": "ST CATHARINES", "province": "ON", "country": "CA", "postalCode": "L2N1G8", "twitter": "None", "instagram": "None", "facebook": "None", "youtube": "None", "website": "None", "summary": "None", "logo": "None", "latitude": 43.17920543473303, "longitude": -79.25626443193443}, "133235929RR0012": {"name": "CALVARY CHURCH OF GOD", "designationCode": "C", "categoryCode": "39", "address": "8530 AVE CHAMPAGENEUR #34", "city": "MONTREAL", "province": "QC", "country": "CA", "postalCode": "H3N2L2", "twitter": "None", "instagram": "None", "facebook": "None", "youtube": "None", "website": "None", "summary": "None", "logo": "None", "latitude": 45.53224999526814, "longitude": -73.64321818679664}}