{"865215693RR0001": {"name": "Living Fountain Christian Centre", "designationCode": "C", "categoryCode": "39", "address": "130 CENTRE ST", "city": "LONDON", "province": "ON", "country": "CA", "postalCode": "N6J1T5", "twitter": "None", "instagram": "None", "facebook": "None", "youtube": "None", "website": "None", "summary": "None", "logo": "None", "latitude": 42.96004145325739, "longitude": -81.27027316916728}, "817703739RR0001": {"name": "Living Grace Christian Community", "designationCode": "C", "categoryCode": "39", "address": "3852 BRINWOOD GATE", "city": "MISSISSAUGA", "province": "ON", "country": "CA", "postalCode": "L5M7H2", "twitter": "None", "instagram": "None", "facebook": "None", "youtube": "None", "website": "None", "summary": "None", "logo": "None", "latitude": 43.55131581819501, "longitude": -79.75294208032793}, "133743211RR0001": {"name": "Living Hope Alliance Church", "designationCode": "C", "categoryCode": "39", "address": "290 MAIN ST SOUTH", "city": "GEORGETOWN", "province": "ON", "country": "CA", "postalCode": "L7G4S5", "twitter": "None", "instagram": "None", "facebook": "None", "youtube": "None", "website": "None", "summary": "None", "logo": "None", "latitude": 43.63861170243547, "longitude": -79.91171777468371}, "855223988RR0001": {"name": "Living Hope Baptist Church", "designationCode": "C", "categoryCode": "31", "address": "27 NORDIC CRESCENT", "city": "LOWER SACKVILLE", "province": "NS", "country": "CA", "postalCode": "B4C2E4", "twitter": "None", "instagram": "None", "facebook": "None", "youtube": "None", "website": "None", "summary": "None", "logo": "None", "latitude": 44.78302502524675, "longitude": -63.67953871761198}, "841099906RR0001": {"name": "Living Hope Christian Church ANiC", "designationCode": "C", "categoryCode": "30", "address": "304 - 2500 BRIDLETOWNE CIR", "city": "SCARBOROUGH", "province": "ON", "country": "CA", "postalCode": "M1W2V6", "twitter": "None", "instagram": "None", "facebook": "None", "youtube": "None", "website": "None", "summary": "None", "logo": "None", "latitude": 43.80165656116934, "longitude": -79.31770936066712}, "813868502RR0001": {"name": "Living Hope Community Christian Reformed Church", "designationCode": "C", "categoryCode": "39", "address": "PO BOX 206 STN MAIN", "city": "RUSSELL", "province": "ON", "country": "CA", "postalCode": "K4R1C9", "twitter": "None", "instagram": "None", "facebook": "None", "youtube": "None", "website": "None", "summary": "None", "logo": "None", "latitude": 45.257618391264984, "longitude": -75.35962961167314}, "817049331RR0001": {"name": "Living Hope Community Church", "designationCode": "C", "categoryCode": "39", "address": "1674 ADMIRAL TRYON BLVD", "city": "PARKSVILLE", "province": "BC", "country": "CA", "postalCode": "V9P1Y1", "twitter": "None", "instagram": "None", "facebook": "None", "youtube": "None", "website": "None", "summary": "None", "logo": "None", "latitude": 49.352760554319325, "longitude": -124.36436795537674}, "818505828RR0001": {"name": "Living Hope Evangelical Church La Crete", "designationCode": "C", "categoryCode": "34", "address": "BOX 2309", "city": "LA CRETE", "province": "AB", "country": "CA", "postalCode": "T0H2H0", "twitter": "None", "instagram": "None", "facebook": "None", "youtube": "None", "website": "None", "summary": "None", "logo": "None", "latitude": 58.18348000000003, "longitude": -116.40267999999998}, "839514932RR0001": {"name": "Living Hope Family Church", "designationCode": "C", "categoryCode": "39", "address": "73 NABOB CRESCENT", "city": "SCARBOROUGH", "province": "ON", "country": "CA", "postalCode": "M1B2Z1", "twitter": "None", "instagram": "None", "facebook": "None", "youtube": "None", "website": "None", "summary": "None", "logo": "None", "latitude": 43.81002610687277, "longitude": -79.20440013613023}, "834714099RR0001": {"name": "Living Hope Fellowship of Simcoe County", "designationCode": "C", "categoryCode": "39", "address": "52 BRIAN AVENUE", "city": "ANGUS", "province": "ON", "country": "CA", "postalCode": "L0M1B3", "twitter": "None", "instagram": "None", "facebook": "None", "youtube": "None", "website": "None", "summary": "None", "logo": "None", "latitude": 44.321438768769355, "longitude": -79.89339650401071}, "829974559RR0001": {"name": "Living Hope Foundation", "designationCode": "A", "categoryCode": "03", "address": "P.O BOX 1532                  11 GRAND TRUNK PACIFIC TRAIL", "city": "SIOUX LOOKOUT", "province": "ON", "country": "CA", "postalCode": "P8T1C3", "twitter": "None", "instagram": "None", "facebook": "None", "youtube": "None", "website": "None", "summary": "None", "logo": "None", "latitude": 50.09808300000006, "longitude": -91.91503249999994}, "107406449RR0001": {"name": "Living Hope Free reformed church", "designationCode": "C", "categoryCode": "39", "address": "10318 CLAYMORE LINE           RR 7", "city": "DRESDEN", "province": "ON", "country": "CA", "postalCode": "N0P1M0", "twitter": "None", "instagram": "None", "facebook": "None", "youtube": "None", "website": "None", "summary": "None", "logo": "None", "latitude": 42.52240932056095, "longitude": -82.19218650929082}, "136481124RR0001": {"name": "Living Hope Presbyterian Church", "designationCode": "C", "categoryCode": "39", "address": "4 TED ST", "city": "ST CATHARINES", "province": "ON", "country": "CA", "postalCode": "L2N1E5", "twitter": "None", "instagram": "None", "facebook": "None", "youtube": "None", "website": "None", "summary": "None", "logo": "None", "latitude": 43.18055754925277, "longitude": -79.24029391228584}, "805440385RR0001": {"name": "Living Hope Ranch Inc.", "designationCode": "C", "categoryCode": "11", "address": "BOX 275", "city": "CONSUL", "province": "SK", "country": "CA", "postalCode": "S0N0P0", "twitter": "None", "instagram": "None", "facebook": "None", "youtube": "None", "website": "None", "summary": "None", "logo": "None", "latitude": 49.30003000000005, "longitude": -109.51817999999997}, "829844190RR0001": {"name": "Living Kindness", "designationCode": "C", "categoryCode": "09", "address": "333 ST. PATRICK ST", "city": "OTTAWA", "province": "ON", "country": "CA", "postalCode": "K1N5K6", "twitter": "None", "instagram": "None", "facebook": "None", "youtube": "None", "website": "None", "summary": "None", "logo": "None", "latitude": 45.43208643632052, "longitude": -75.69001429491014}, "856267612RR0001": {"name": "Living Life Community Church", "designationCode": "C", "categoryCode": "39", "address": "36 SPRUCE AVE", "city": "RICHMOND HILL", "province": "ON", "country": "CA", "postalCode": "L4C6W1", "twitter": "None", "instagram": "None", "facebook": "None", "youtube": "None", "website": "None", "summary": "None", "logo": "None", "latitude": 43.85082119848206, "longitude": -79.43567710534353}, "803775733RR0001": {"name": "Living Life House of God Ministry (Edmonton)", "designationCode": "C", "categoryCode": "39", "address": "11817 44 ST NW", "city": "EDMONTON", "province": "AB", "country": "CA", "postalCode": "T5W2S4", "twitter": "None", "instagram": "None", "facebook": "None", "youtube": "None", "website": "None", "summary": "None", "logo": "None", "latitude": 53.57119500000002, "longitude": -113.40912722352728}, "802324913RR0001": {"name": "Living Miracles Canada Society", "designationCode": "C", "categoryCode": "49", "address": "1103 NANAIMO ST", "city": "NEW WESTMINSTER", "province": "BC", "country": "CA", "postalCode": "V3M2E7", "twitter": "None", "instagram": "None", "facebook": "None", "youtube": "None", "website": "None", "summary": "None", "logo": "None", "latitude": 49.20883490065771, "longitude": -122.92997804221231}, "136720612RR0001": {"name": "Living Positive Through Positive Living Society of Alberta", "designationCode": "C", "categoryCode": "11", "address": "33-9912 106 ST NW", "city": "EDMONTON", "province": "AB", "country": "CA", "postalCode": "T5K1C5", "twitter": "None", "instagram": "None", "facebook": "None", "youtube": "None", "website": "None", "summary": "None", "logo": "None", "latitude": 53.537733, "longitude": -113.50299724372412}, "896741816RR0001": {"name": "Living Praise Ministries", "designationCode": "C", "categoryCode": "39", "address": "18 CLEOPATRA DR", "city": "NEPEAN", "province": "ON", "country": "CA", "postalCode": "K2G0B3", "twitter": "None", "instagram": "None", "facebook": "None", "youtube": "None", "website": "None", "summary": "None", "logo": "None", "latitude": 45.32638646875196, "longitude": -75.72241171521739}, "894884451RR0001": {"name": "Living Rock Christian Fellowship", "designationCode": "C", "categoryCode": "39", "address": "13-5216 201A STREET", "city": "LANGLEY", "province": "BC", "country": "CA", "postalCode": "V3A1S4", "twitter": "None", "instagram": "None", "facebook": "None", "youtube": "None", "website": "None", "summary": "None", "logo": "None", "latitude": 49.09726884858652, "longitude": -122.66436070172685}, "837206390RR0001": {"name": "Living Skies Spiritual Care Inc", "designationCode": "C", "categoryCode": "39", "address": "1304 N MAPLE LEAF CRES", "city": "REGINA", "province": "SK", "country": "CA", "postalCode": "S4X4N5", "twitter": "None", "instagram": "None", "facebook": "None", "youtube": "None", "website": "None", "summary": "None", "logo": "None", "latitude": 50.50073491589251, "longitude": -104.68203023746305}, "832245468RR0001": {"name": "Living Sky Wildlife Rehabilitation, Inc.", "designationCode": "C", "categoryCode": "54", "address": "100 RAYNER AVE", "city": "SASKATOON", "province": "SK", "country": "CA", "postalCode": "S7N2P8", "twitter": "None", "instagram": "None", "facebook": "None", "youtube": "None", "website": "None", "summary": "None", "logo": "None", "latitude": 52.144586214265104, "longitude": -106.60145566227102}, "856098454RR0001": {"name": "Living Stones Village Canada Association", "designationCode": "C", "categoryCode": "20", "address": "207 - 500 ALDEN RD", "city": "MARKHAM", "province": "ON", "country": "CA", "postalCode": "L3R5H5", "twitter": "None", "instagram": "None", "facebook": "None", "youtube": "None", "website": "None", "summary": "None", "logo": "None", "latitude": 43.83538764559396, "longitude": -79.3328991507585}, "811650332RR0001": {"name": "Living Testimonies Ministries Evangelical Christian Church", "designationCode": "C", "categoryCode": "39", "address": "402 - 50 STATION STREET", "city": "AJAX", "province": "ON", "country": "CA", "postalCode": "L1S0E2", "twitter": "None", "instagram": "None", "facebook": "None", "youtube": "None", "website": "None", "summary": "None", "logo": "None", "latitude": 43.85111608191445, "longitude": -79.02347035250146}, "857398457RR0001": {"name": "Living Truth Christian School Society", "designationCode": "C", "categoryCode": "20", "address": "PO BOX 89", "city": "MIRROR", "province": "AB", "country": "CA", "postalCode": "T0B3C0", "twitter": "None", "instagram": "None", "facebook": "None", "youtube": "None", "website": "None", "summary": "None", "logo": "None", "latitude": 52.46324000000004, "longitude": -113.11403999999999}, "853241966RR0001": {"name": "Living Truth Worship Centre", "designationCode": "C", "categoryCode": "39", "address": "1900 CLARK BLVD. UNIT 4", "city": "BRAMPTON", "province": "ON", "country": "CA", "postalCode": "L6T0E9", "twitter": "None", "instagram": "None", "facebook": "None", "youtube": "None", "website": "None", "summary": "None", "logo": "None", "latitude": 43.734771414709066, "longitude": -79.68750143277114}, "794805697RR0001": {"name": "Living Victory World Outreach Mission", "designationCode": "C", "categoryCode": "39", "address": "12 CAMPWOOD CRESCENT,", "city": "BRAMPTON", "province": "ON", "country": "CA", "postalCode": "L6P3S5", "twitter": "None", "instagram": "None", "facebook": "None", "youtube": "None", "website": "None", "summary": "None", "logo": "None", "latitude": 43.79827350262573, "longitude": -79.67915022344036}, "800701112RR0001": {"name": "Living Water Christian Church of Ottawa", "designationCode": "C", "categoryCode": "39", "address": "253 ECHO DR", "city": "OTTAWA", "province": "ON", "country": "CA", "postalCode": "K1S1N3", "twitter": "None", "instagram": "None", "facebook": "None", "youtube": "None", "website": "None", "summary": "None", "logo": "None", "latitude": 45.41067330948111, "longitude": -75.68176926669187}, "811274729RR0001": {"name": "Living Water Faith Worship Ministries 7th Day Int'l", "designationCode": "C", "categoryCode": "41", "address": "21 FERNCASTLE CRES,", "city": "BRAMPTON", "province": "ON", "country": "CA", "postalCode": "L7A3P2", "twitter": "None", "instagram": "None", "facebook": "None", "youtube": "None", "website": "None", "summary": "None", "logo": "None", "latitude": 43.69802482791855, "longitude": -79.8323573778638}, "813499209RR0001": {"name": "Living Water Ministry", "designationCode": "C", "categoryCode": "39", "address": "1401 110TH ST", "city": "NORTH BATTLEFORD", "province": "SK", "country": "CA", "postalCode": "S9A2J3", "twitter": "None", "instagram": "None", "facebook": "None", "youtube": "None", "website": "None", "summary": "None", "logo": "None", "latitude": 52.7781962514571, "longitude": -108.28432593828241}, "811438852RR0001": {"name": "Living Water Pipeline Ministries", "designationCode": "C", "categoryCode": "39", "address": "13-910 FORT FRASER RISE", "city": "PORT COQUITLAM", "province": "BC", "country": "CA", "postalCode": "V3C6K3", "twitter": "None", "instagram": "None", "facebook": "None", "youtube": "None", "website": "None", "summary": "None", "logo": "None", "latitude": 49.23127507847187, "longitude": -122.79211057592477}, "804056166RR0001": {"name": "Living Waters Anglican Fellowship Kingston", "designationCode": "C", "categoryCode": "30", "address": "726 CHATSWORTH PL", "city": "KINGSTON", "province": "ON", "country": "CA", "postalCode": "K7P2E2", "twitter": "None", "instagram": "None", "facebook": "None", "youtube": "None", "website": "None", "summary": "None", "logo": "None", "latitude": 44.2534726219633, "longitude": -76.5754217561603}, "870778693RR0001": {"name": "Living Waters Christian Assembly", "designationCode": "C", "categoryCode": "36", "address": "105 SLACK RD", "city": "OTTAWA", "province": "ON", "country": "CA", "postalCode": "K2G0B7", "twitter": "None", "instagram": "None", "facebook": "None", "youtube": "None", "website": "None", "summary": "None", "logo": "None", "latitude": 45.32294713472934, "longitude": -75.72710962902411}, "828560649RR0001": {"name": "Living Waters Church of God Ltd.", "designationCode": "C", "categoryCode": "39", "address": "24 MIRACLE DR", "city": "LAKEVILLE-WESTMORLAND", "province": "NB", "country": "CA", "postalCode": "E1H1H9", "twitter": "None", "instagram": "None", "facebook": "None", "youtube": "None", "website": "None", "summary": "None", "logo": "None", "latitude": 46.147568855415656, "longitude": -64.67807856064974}, "844062166RR0001": {"name": "Living Waters Housing Society", "designationCode": "C", "categoryCode": "11", "address": "180 LAKESHORE DR NW           PO BOX 308", "city": "SALMON ARM", "province": "BC", "country": "CA", "postalCode": "V1E4N5", "twitter": "None", "instagram": "None", "facebook": "None", "youtube": "None", "website": "None", "summary": "None", "logo": "None", "latitude": 50.700743582136916, "longitude": -119.28845542467317}, "119120863RR0001": {"name": "Living Waters United Church", "designationCode": "C", "categoryCode": "44", "address": "653 OTIS DR", "city": "NACKAWIC", "province": "NB", "country": "CA", "postalCode": "E6G1H6", "twitter": "None", "instagram": "None", "facebook": "None", "youtube": "None", "website": "None", "summary": "None", "logo": "None", "latitude": 45.967057614518815, "longitude": -67.24838769807803}, "107396905RR0014": {"name": "Living Way Foursquare Church", "designationCode": "C", "categoryCode": "39", "address": "23643 118TH AVE", "city": "MAPLE RIDGE", "province": "BC", "country": "CA", "postalCode": "V4R2C9", "twitter": "None", "instagram": "None", "facebook": "None", "youtube": "None", "website": "None", "summary": "None", "logo": "None", "latitude": 49.21673548600597, "longitude": -122.56683291618097}, "106717382RR0001": {"name": "Living Way Life Church", "designationCode": "C", "categoryCode": "47", "address": "8127 RIVER ROAD", "city": "OLIVER", "province": "BC", "country": "CA", "postalCode": "V0H1T7", "twitter": "None", "instagram": "None", "facebook": "None", "youtube": "None", "website": "None", "summary": "None", "logo": "None", "latitude": 49.235289673488566, "longitude": -119.53908407133947}, "831622550RR0001": {"name": "Living Well Ministries Canada", "designationCode": "C", "categoryCode": "39", "address": "PO BOX 135 STN MAIN", "city": "COBOURG", "province": "ON", "country": "CA", "postalCode": "K9A4K5", "twitter": "None", "instagram": "None", "facebook": "None", "youtube": "None", "website": "None", "summary": "None", "logo": "None", "latitude": 43.95960600000005, "longitude": -78.16778449999994}, "801486374RR0001": {"name": "Living Word & Worship Ministries", "designationCode": "C", "categoryCode": "47", "address": "71 LAFAYETTE BLVD", "city": "WHITBY", "province": "ON", "country": "CA", "postalCode": "L1P1T3", "twitter": "None", "instagram": "None", "facebook": "None", "youtube": "None", "website": "None", "summary": "None", "logo": "None", "latitude": 43.90444272049752, "longitude": -78.97088511160462}, "819619222RR0001": {"name": "Living Word Assembly of God Church", "designationCode": "C", "categoryCode": "39", "address": "139  MILLWICK DRIVE", "city": "TORONTO", "province": "ON", "country": "CA", "postalCode": "M9L1Y7", "twitter": "None", "instagram": "None", "facebook": "None", "youtube": "None", "website": "None", "summary": "None", "logo": "None", "latitude": 43.76070281204953, "longitude": -79.5683070227366}, "822543336RR0001": {"name": "Living Word Baptist Church", "designationCode": "C", "categoryCode": "39", "address": "40 FROBISHER COURT", "city": "CAMBRIDGE", "province": "ON", "country": "CA", "postalCode": "N1R6Z5", "twitter": "None", "instagram": "None", "facebook": "None", "youtube": "None", "website": "None", "summary": "None", "logo": "None", "latitude": 43.38709580267176, "longitude": -80.3026034976054}, "804272912RR0001": {"name": "Living Word Canadian Reformed Church", "designationCode": "C", "categoryCode": "39", "address": "17-370 STONE ROAD W           PO BOX 25044", "city": "GUELPH", "province": "ON", "country": "CA", "postalCode": "N1G4T4", "twitter": "None", "instagram": "None", "facebook": "None", "youtube": "None", "website": "None", "summary": "None", "logo": "None", "latitude": 43.51781273071199, "longitude": -80.23655620194545}, "831344841RR0001": {"name": "Living Word Empowerment Ministries", "designationCode": "C", "categoryCode": "39", "address": "30 SPICEBUSH TERR", "city": "BRAMPTON", "province": "ON", "country": "CA", "postalCode": "L6X0J8", "twitter": "None", "instagram": "None", "facebook": "None", "youtube": "None", "website": "None", "summary": "None", "logo": "None", "latitude": 43.6774636219633, "longitude": -79.80067262127082}, "805946241RR0001": {"name": "Livingspring Christian Church", "designationCode": "C", "categoryCode": "39", "address": "19 HILLPATH CRES", "city": "BRAMPTON", "province": "ON", "country": "CA", "postalCode": "L6Z4T9", "twitter": "None", "instagram": "None", "facebook": "None", "youtube": "None", "website": "None", "summary": "None", "logo": "None", "latitude": 43.73764220872519, "longitude": -79.82757554068309}, "805584562RR0001": {"name": "Livingway Pentecostal Church", "designationCode": "C", "categoryCode": "36", "address": "PO BOX 155", "city": "BEACHVILLE", "province": "ON", "country": "CA", "postalCode": "N0J1A0", "twitter": "None", "instagram": "None", "facebook": "None", "youtube": "None", "website": "None", "summary": "None", "logo": "None", "latitude": 43.10953307909114, "longitude": -80.799296522454}, "817054968RR0001": {"name": "LivWise Foundation", "designationCode": "B", "categoryCode": "13", "address": "319 CORTLEIGH BOULEVARD", "city": "TORONTO", "province": "ON", "country": "CA", "postalCode": "M5N1R2", "twitter": "None", "instagram": "None", "facebook": "None", "youtube": "None", "website": "None", "summary": "None", "logo": "None", "latitude": 43.71127286037865, "longitude": -79.4200152053783}, "800975526RR0001": {"name": "Lloydminster Columbus Club Charitable Foundation Inc.", "designationCode": "B", "categoryCode": "63", "address": "3417 50 AVE", "city": "LLOYDMINSTER", "province": "SK", "country": "CA", "postalCode": "S9V0N9", "twitter": "None", "instagram": "None", "facebook": "None", "youtube": "None", "website": "None", "summary": "None", "logo": "None", "latitude": 53.26885814365594, "longitude": -110.00521033139579}, "803025196RR0001": {"name": "Lloydminster Filipino Community Christian Fellowship", "designationCode": "C", "categoryCode": "39", "address": "1804 47A AVE", "city": "LLOYDMINSTER", "province": "SK", "country": "CA", "postalCode": "S9V0Z7", "twitter": "None", "instagram": "None", "facebook": "None", "youtube": "None", "website": "None", "summary": "None", "logo": "None", "latitude": 53.25140670338059, "longitude": -109.99773353545213}, "889420394RR0001": {"name": "Loblaw Scholarship Fund", "designationCode": "C", "categoryCode": "21", "address": "1 PRESIDENTS CHOICE CIR", "city": "BRAMPTON", "province": "ON", "country": "CA", "postalCode": "L6Y5S5", "twitter": "None", "instagram": "None", "facebook": "None", "youtube": "None", "website": "None", "summary": "None", "logo": "None", "latitude": 43.618767520630485, "longitude": -79.7688504276935}, "834304313RR0001": {"name": "Local communautaire transformation", "designationCode": "C", "categoryCode": "09", "address": "310 PLACE DU MILAN", "city": "TERREBONNE", "province": "QC", "country": "CA", "postalCode": "J6Y1C8", "twitter": "None", "instagram": "None", "facebook": "None", "youtube": "None", "website": "None", "summary": "None", "logo": "None", "latitude": 45.70474654284749, "longitude": -73.80901349999999}, "818103566RR0001": {"name": "Local Helicopter Emergency Response Organization Foundation", "designationCode": "C", "categoryCode": "11", "address": "1001 SALINE CREEK PKY", "city": "FORT MCMURRAY", "province": "AB", "country": "CA", "postalCode": "T9H0H8", "twitter": "None", "instagram": "None", "facebook": "None", "youtube": "None", "website": "None", "summary": "None", "logo": "None", "latitude": 56.762453851509825, "longitude": -111.46482749335115}, "826633158RR0001": {"name": "Lochmaddy Foundation", "designationCode": "B", "categoryCode": "05", "address": "700-200 BURRARD ST", "city": "VANCOUVER", "province": "BC", "country": "CA", "postalCode": "V6C3L6", "twitter": "None", "instagram": "None", "facebook": "None", "youtube": "None", "website": "None", "summary": "None", "logo": "None", "latitude": 49.28797693363747, "longitude": -123.1156542976228}, "810670828RR0001": {"name": "Lockerby Memorial Cemetery Association", "designationCode": "C", "categoryCode": "59", "address": "BOX 55, 236 MAIN ST.,", "city": "TATAMAGOUCHE", "province": "NS", "country": "CA", "postalCode": "B0K1V0", "twitter": "None", "instagram": "None", "facebook": "None", "youtube": "None", "website": "None", "summary": "None", "logo": "None", "latitude": 45.71217102801672, "longitude": -63.29133893104037}, "808680607RR0001": {"name": "Loeys-Dietz Syndrome Foundation Canada/Fondation du syndromeLoeys-Dietz Canada", "designationCode": "C", "categoryCode": "11", "address": "300 - 4 AV KING", "city": "POINTE-CLAIRE", "province": "QC", "country": "CA", "postalCode": "H9R4G7", "twitter": "None", "instagram": "None", "facebook": "None", "youtube": "None", "website": "None", "summary": "None", "logo": "None", "latitude": 45.45086526810552, "longitude": -73.78852798392849}, "812514354RR0001": {"name": "Logem'informe de l'Outaouais", "designationCode": "C", "categoryCode": "09", "address": "10, RUE CUR\u00c9-ANDR\u00c9-PR\u00c9SEAULT", "city": "GATINEAU", "province": "QC", "country": "CA", "postalCode": "J8T6N8", "twitter": "None", "instagram": "None", "facebook": "None", "youtube": "None", "website": "None", "summary": "None", "logo": "None", "latitude": 45.482522586704576, "longitude": -75.70309841603674}, "812195527RR0001": {"name": "Logement en Sant\u00e9 Vall\u00e9e-de-la-Gatineau", "designationCode": "C", "categoryCode": "09", "address": "30 RUE PRINCIPALE", "city": "GRACEFIELD", "province": "QC", "country": "CA", "postalCode": "J0X1W0", "twitter": "None", "instagram": "None", "facebook": "None", "youtube": "None", "website": "None", "summary": "None", "logo": "None", "latitude": 46.09364214680606, "longitude": -76.05170618979776}, "898994918RR0001": {"name": "Logements adapt\u00e9s Drummond", "designationCode": "C", "categoryCode": "09", "address": "320, RUE ST-ALPHONSE", "city": "DRUMMONDVILLE", "province": "QC", "country": "CA", "postalCode": "J2B8P9", "twitter": "None", "instagram": "None", "facebook": "None", "youtube": "None", "website": "None", "summary": "None", "logo": "None", "latitude": 45.86670900164477, "longitude": -72.5029046222231}, "819642174RR0001": {"name": "Logifamille", "designationCode": "C", "categoryCode": "09", "address": "2235 RUE SAINT-JACQUES", "city": "MONTREAL", "province": "QC", "country": "CA", "postalCode": "H3J1H6", "twitter": "None", "instagram": "None", "facebook": "None", "youtube": "None", "website": "None", "summary": "None", "logo": "None", "latitude": 45.486697262854065, "longitude": -73.57483755816823}, "838775906RR0001": {"name": "Logifem inc.", "designationCode": "C", "categoryCode": "01", "address": "151 ATWATER                   CP 72108", "city": "MONTREAL", "province": "QC", "country": "CA", "postalCode": "H3J2Z6", "twitter": "None", "instagram": "None", "facebook": "None", "youtube": "None", "website": "None", "summary": "None", "logo": "None", "latitude": 45.48012003442203, "longitude": -73.57661503468182}, "145298352RR0001": {"name": "Logis phare", "designationCode": "C", "categoryCode": "57", "address": "1 - 2288 AV PRINCE-GEORGE", "city": "MONTREAL", "province": "QC", "country": "CA", "postalCode": "H2K1S9", "twitter": "None", "instagram": "None", "facebook": "None", "youtube": "None", "website": "None", "summary": "None", "logo": "None", "latitude": 45.53040622009348, "longitude": -73.55576528198398}, "844722686RR0001": {"name": "Logis Des Aulniers", "designationCode": "C", "categoryCode": "09", "address": "3-460 BOUL. DESAULNIERS", "city": "ST-LAMBERT", "province": "QC", "country": "CA", "postalCode": "J4P1N6", "twitter": "None", "instagram": "None", "facebook": "None", "youtube": "None", "website": "None", "summary": "None", "logo": "None", "latitude": 45.50824636470648, "longitude": -73.50949043300228}, "839613759RR0001": {"name": "Logis-Rap", "designationCode": "C", "categoryCode": "09", "address": "11855 MARIE-ANNE LAVALL\u00c9E", "city": "MONTR\u00c9AL", "province": "QC", "country": "CA", "postalCode": "H3M3E9", "twitter": "None", "instagram": "None", "facebook": "None", "youtube": "None", "website": "None", "summary": "None", "logo": "None", "latitude": 45.540378743002975, "longitude": -73.69005370038664}, "851021105RR0001": {"name": "Logos Baptist Church (York Region)", "designationCode": "C", "categoryCode": "39", "address": "75 OXFORD STREET", "city": "RICHMOND HILL", "province": "ON", "country": "CA", "postalCode": "L4C4L6", "twitter": "None", "instagram": "None", "facebook": "None", "youtube": "None", "website": "None", "summary": "None", "logo": "None", "latitude": 43.88559472938433, "longitude": -79.44777722952854}, "851026716RR0001": {"name": "Logos Baptist Church Joint Mission (LBC-JM)", "designationCode": "A", "categoryCode": "43", "address": "133 OLD KENNEDY ROAD", "city": "MARKHAM", "province": "ON", "country": "CA", "postalCode": "L3R0L5", "twitter": "None", "instagram": "None", "facebook": "None", "youtube": "None", "website": "None", "summary": "None", "logo": "None", "latitude": 43.828976817935214, "longitude": -79.30102735022244}, "810985788RR0001": {"name": "Logos Canada Foundation", "designationCode": "A", "categoryCode": "03", "address": "1250-1500 GEORGIA W ST        BOX 62", "city": "VANCOUVER", "province": "BC", "country": "CA", "postalCode": "V6G2Z6", "twitter": "None", "instagram": "None", "facebook": "None", "youtube": "None", "website": "None", "summary": "None", "logo": "None", "latitude": 49.290187500000016, "longitude": -123.130035}, "848938494RR0001": {"name": "Logos Family Church", "designationCode": "C", "categoryCode": "39", "address": "8 BROAD OAK COURT", "city": "BRAMPTON", "province": "ON", "country": "CA", "postalCode": "L6Y3S8", "twitter": "None", "instagram": "None", "facebook": "None", "youtube": "None", "website": "None", "summary": "None", "logo": "None", "latitude": 43.650500344970986, "longitude": -79.73806270956192}, "850060757RR0001": {"name": "Logos Global Missions Church of God", "designationCode": "C", "categoryCode": "39", "address": "434 BIRCHMOUNT RD", "city": "SCARBOROUGH", "province": "ON", "country": "CA", "postalCode": "M1K1M6", "twitter": "None", "instagram": "None", "facebook": "None", "youtube": "None", "website": "None", "summary": "None", "logo": "None", "latitude": 43.703739315280814, "longitude": -79.26684497535882}, "821009180RR0001": {"name": "Logos Global Missions Church Edmonton", "designationCode": "C", "categoryCode": "39", "address": "10126 156 ST NW", "city": "EDMONTON", "province": "AB", "country": "CA", "postalCode": "T5P2P9", "twitter": "None", "instagram": "None", "facebook": "None", "youtube": "None", "website": "None", "summary": "None", "logo": "None", "latitude": 53.54203612101102, "longitude": -113.59041811994317}, "826177370RR0001": {"name": "Logos Global Missions Church Vancouver", "designationCode": "C", "categoryCode": "39", "address": "202-6541 FRASER STREET", "city": "VANCOUVER", "province": "BC", "country": "CA", "postalCode": "V5P3T4", "twitter": "None", "instagram": "None", "facebook": "None", "youtube": "None", "website": "None", "summary": "None", "logo": "None", "latitude": 49.21451700000006, "longitude": -123.06853699999994}, "833998263RR0001": {"name": "London Antioch Korean Church", "designationCode": "C", "categoryCode": "39", "address": "#11-135 BELMONT DRIVE", "city": "LONDON", "province": "ON", "country": "CA", "postalCode": "N6J4J3", "twitter": "None", "instagram": "None", "facebook": "None", "youtube": "None", "website": "None", "summary": "None", "logo": "None", "latitude": 42.94709333337155, "longitude": -81.26270344047543}, "834264335RR0001": {"name": "London Area Catholic Cusillo Movement", "designationCode": "C", "categoryCode": "49", "address": "P.O. BOX 9023 WHITE OAK       1795 ERNEST AVENUE", "city": "LONDON", "province": "ON", "country": "CA", "postalCode": "N6E3P3", "twitter": "None", "instagram": "None", "facebook": "None", "youtube": "None", "website": "None", "summary": "None", "logo": "None", "latitude": 42.942052572018056, "longitude": -81.23668005695615}, "827669763RR0001": {"name": "London Block Parent Program", "designationCode": "C", "categoryCode": "59", "address": "P.O. BOX 5035", "city": "LONDON", "province": "ON", "country": "CA", "postalCode": "N6A4L9", "twitter": "None", "instagram": "None", "facebook": "None", "youtube": "None", "website": "None", "summary": "None", "logo": "None", "latitude": 42.98689500000006, "longitude": -81.24624349999993}, "140664202RR0001": {"name": "London Christadelphian Ecclesia", "designationCode": "C", "categoryCode": "39", "address": "PO BOX 25651", "city": "LONDON", "province": "ON", "country": "CA", "postalCode": "N6C6B3", "twitter": "None", "instagram": "None", "facebook": "None", "youtube": "None", "website": "None", "summary": "None", "logo": "None", "latitude": 42.98689500000006, "longitude": -81.24624349999993}, "119024032RR0001": {"name": "London Christian Elementary School Society", "designationCode": "C", "categoryCode": "20", "address": "202 CLARKE RD", "city": "LONDON", "province": "ON", "country": "CA", "postalCode": "N5W5E4", "twitter": "None", "instagram": "None", "facebook": "None", "youtube": "None", "website": "None", "summary": "None", "logo": "None", "latitude": 42.99519879519862, "longitude": -81.17128267003359}, "841053804RR0001": {"name": "London Christian Fellowship International", "designationCode": "C", "categoryCode": "49", "address": "746 COLBORNE ST", "city": "LONDON", "province": "ON", "country": "CA", "postalCode": "N6A3Z7", "twitter": "None", "instagram": "None", "facebook": "None", "youtube": "None", "website": "None", "summary": "None", "logo": "None", "latitude": 42.997504619770275, "longitude": -81.2452925879453}, "890821663RR0001": {"name": "London Community Chaplaincy", "designationCode": "C", "categoryCode": "09", "address": "PO BOX 37085                  900 ADELAIDE ST S", "city": "LONDON", "province": "ON", "country": "CA", "postalCode": "N6E3T3", "twitter": "None", "instagram": "None", "facebook": "None", "youtube": "None", "website": "None", "summary": "None", "logo": "None", "latitude": 42.944411695821664, "longitude": -81.2145389930361}, "893973222RR0001": {"name": "London Concert Band", "designationCode": "C", "categoryCode": "22", "address": "60 NORTH CENTRE ROAD          PO BOX 27062", "city": "LONDON", "province": "ON", "country": "CA", "postalCode": "N5X3X5", "twitter": "None", "instagram": "None", "facebook": "None", "youtube": "None", "website": "None", "summary": "None", "logo": "None", "latitude": 43.027244862629026, "longitude": -81.27614279747856}, "892384165RR0001": {"name": "London Dance Ensemble", "designationCode": "C", "categoryCode": "22", "address": "160 SYDENHAM STREET", "city": "LONDON", "province": "ON", "country": "CA", "postalCode": "N6A1V9", "twitter": "None", "instagram": "None", "facebook": "None", "youtube": "None", "website": "None", "summary": "None", "logo": "None", "latitude": 42.99585392091284, "longitude": -81.25621968971083}, "884282369RR0001": {"name": "London Health Sciences Centre Research Inc.", "designationCode": "C", "categoryCode": "11", "address": "750 BASELINE ROAD EAST        SUITE 300", "city": "LONDON", "province": "ON", "country": "CA", "postalCode": "N6C2R5", "twitter": "None", "instagram": "None", "facebook": "None", "youtube": "None", "website": "None", "summary": "None", "logo": "None", "latitude": 42.962117446044026, "longitude": -81.22695480697094}, "825967797RR0001": {"name": "London Prayer Fellowship", "designationCode": "C", "categoryCode": "39", "address": "1801 CEDARHOLLOW BLVD", "city": "LONDON", "province": "ON", "country": "CA", "postalCode": "N5X0C5", "twitter": "None", "instagram": "None", "facebook": "None", "youtube": "None", "website": "None", "summary": "None", "logo": "None", "latitude": 43.04325636718799, "longitude": -81.21285196782833}, "810192724RR0001": {"name": "London River of Life Christian Church of Canada", "designationCode": "C", "categoryCode": "39", "address": "8-50 CHAPMAN CRT,", "city": "LONDON", "province": "ON", "country": "CA", "postalCode": "N6G5E1", "twitter": "None", "instagram": "None", "facebook": "None", "youtube": "None", "website": "None", "summary": "None", "logo": "None", "latitude": 42.9933905323159, "longitude": -81.29969002553523}, "806920237RR0001": {"name": "London School of Hygiene and Tropical Medicine Canada", "designationCode": "A", "categoryCode": "03", "address": "390 BAY STREET                SUITE 1202", "city": "TORONTO", "province": "ON", "country": "CA", "postalCode": "M5H2Y2", "twitter": "None", "instagram": "None", "facebook": "None", "youtube": "None", "website": "None", "summary": "None", "logo": "None", "latitude": 43.65110410687275, "longitude": -79.38169965834723}, "797488129RR0001": {"name": "London Symphonia", "designationCode": "C", "categoryCode": "22", "address": "PO BOX 39044                  RPO ADELAIDE CENTRE", "city": "LONDON", "province": "ON", "country": "CA", "postalCode": "N5Y5L1", "twitter": "None", "instagram": "None", "facebook": "None", "youtube": "None", "website": "None", "summary": "None", "logo": "None", "latitude": 43.00798501255835, "longitude": -81.2410360291016}, "775788094RR0001": {"name": "Lone Pine Charitable Trust", "designationCode": "B", "categoryCode": "45", "address": "3425 2 AVE S", "city": "LETHBRIDGE", "province": "AB", "country": "CA", "postalCode": "T1J4V1", "twitter": "None", "instagram": "None", "facebook": "None", "youtube": "None", "website": "None", "summary": "None", "logo": "None", "latitude": 49.696839530439966, "longitude": -112.78914308381903}, "815987425RR0001": {"name": "Lone Prairie Camp Ltd.", "designationCode": "C", "categoryCode": "49", "address": "RR#1", "city": "FERINTOSH", "province": "AB", "country": "CA", "postalCode": "T0B1M0", "twitter": "None", "instagram": "None", "facebook": "None", "youtube": "None", "website": "None", "summary": "None", "logo": "None", "latitude": 52.76784572794733, "longitude": -112.96655684762285}, "837462977RR0001": {"name": "Long Creek Baptist Church", "designationCode": "C", "categoryCode": "39", "address": "POST OFFICE BOX 298", "city": "CORNWALL", "province": "PE", "country": "CA", "postalCode": "C0A1H0", "twitter": "None", "instagram": "None", "facebook": "None", "youtube": "None", "website": "None", "summary": "None", "logo": "None", "latitude": 46.241144818530714, "longitude": -63.21831691777574}, "119024321RR0001": {"name": "Long Point Foundation for Conservation", "designationCode": "A", "categoryCode": "03", "address": "P.O. BOX 24                   45 WOLVEN STREET", "city": "PORT ROWAN", "province": "ON", "country": "CA", "postalCode": "N0E1M0", "twitter": "None", "instagram": "None", "facebook": "None", "youtube": "None", "website": "None", "summary": "None", "logo": "None", "latitude": 42.62643817208146, "longitude": -80.44704462490616}, "807005285RR0001": {"name": "Longbow Lake Bible Camp", "designationCode": "C", "categoryCode": "59", "address": "PO BOX 771", "city": "BLUMENORT", "province": "MB", "country": "CA", "postalCode": "R0A0C0", "twitter": "None", "instagram": "None", "facebook": "None", "youtube": "None", "website": "None", "summary": "None", "logo": "None", "latitude": 49.604250000000036, "longitude": -96.69016999999997}, "828551192RR0001": {"name": "Longhand Charity Inc.", "designationCode": "B", "categoryCode": "11", "address": "507-788 12TH AVENUE SW", "city": "CALGARY", "province": "AB", "country": "CA", "postalCode": "T2R0H1", "twitter": "None", "instagram": "None", "facebook": "None", "youtube": "None", "website": "None", "summary": "None", "logo": "None", "latitude": 51.04186448211084, "longitude": -114.07860022009349}, "812250991RR0001": {"name": "Longhedge Foundation", "designationCode": "B", "categoryCode": "03", "address": "4725 RUTLAND RD", "city": "WEST VANCOUVER", "province": "BC", "country": "CA", "postalCode": "V7W1G6", "twitter": "None", "instagram": "None", "facebook": "None", "youtube": "None", "website": "None", "summary": "None", "logo": "None", "latitude": 49.34900115211483, "longitude": -123.2479535880313}, "841641236RR0001": {"name": "Longview Community Church", "designationCode": "C", "categoryCode": "39", "address": "POST OFFICE BOX 86            107A MORRISON ROAD", "city": "LONGVIEW", "province": "AB", "country": "CA", "postalCode": "T0L1H0", "twitter": "None", "instagram": "None", "facebook": "None", "youtube": "None", "website": "None", "summary": "None", "logo": "None", "latitude": 50.5313359090664, "longitude": -114.23093522706996}, "839543402RR0001": {"name": "Lonnie Sims Evangelistic Association Corp.", "designationCode": "C", "categoryCode": "39", "address": "PO BOX 1077", "city": "MELFORT", "province": "SK", "country": "CA", "postalCode": "S0E1A0", "twitter": "None", "instagram": "None", "facebook": "None", "youtube": "None", "website": "None", "summary": "None", "logo": "None", "latitude": 52.85637, "longitude": -104.63436225000001}, "819256207RR0001": {"name": "Lonny's Smile Foundation", "designationCode": "A", "categoryCode": "03", "address": "20 ALLISTER AVENUE,", "city": "SCARBOROUGH", "province": "ON", "country": "CA", "postalCode": "M1M3K9", "twitter": "None", "instagram": "None", "facebook": "None", "youtube": "None", "website": "None", "summary": "None", "logo": "None", "latitude": 43.72617620982172, "longitude": -79.2355939087078}, "779585298RR0001": {"name": "Looking at the Stars Foundation", "designationCode": "C", "categoryCode": "22", "address": "19 SUNNYDENE CRESCENT", "city": "NORTH YORK", "province": "ON", "country": "CA", "postalCode": "M4N3J5", "twitter": "None", "instagram": "None", "facebook": "None", "youtube": "None", "website": "None", "summary": "None", "logo": "None", "latitude": 43.71862368053558, "longitude": -79.3802499688962}, "801648866RR0001": {"name": "Lookout Ridge Foundation, Canada", "designationCode": "B", "categoryCode": "09", "address": "1800 - 510 GEORGIA ST W", "city": "VANCOUVER", "province": "BC", "country": "CA", "postalCode": "V6B0M3", "twitter": "None", "instagram": "None", "facebook": "None", "youtube": "None", "website": "None", "summary": "None", "logo": "None", "latitude": 49.281267759207665, "longitude": -123.11633309804196}, "841873664RR0001": {"name": "Lookup Theatre", "designationCode": "C", "categoryCode": "22", "address": "221 STERLING ROAD,            UNIT 7", "city": "TORONTO", "province": "ON", "country": "CA", "postalCode": "M6R2B2", "twitter": "None", "instagram": "None", "facebook": "None", "youtube": "None", "website": "None", "summary": "None", "logo": "None", "latitude": 43.6557742048587, "longitude": -79.44663712704188}, "894813666RR0001": {"name": "Loon Bay United Church Camping Centre Inc.", "designationCode": "C", "categoryCode": "56", "address": "15 WHITEPINE DRIVE            PO BOX 1623", "city": "LEWISPORTE", "province": "NL", "country": "CA", "postalCode": "A0G3A0", "twitter": "None", "instagram": "None", "facebook": "None", "youtube": "None", "website": "None", "summary": "None", "logo": "None", "latitude": 37.64340332194593, "longitude": -118.99067053260434}, "817464431RR0001": {"name": "Loose TEA Music Theatre", "designationCode": "C", "categoryCode": "22", "address": "184 HIGHBOURNE RD", "city": "TORONTO", "province": "ON", "country": "CA", "postalCode": "M5P2J7", "twitter": "None", "instagram": "None", "facebook": "None", "youtube": "None", "website": "None", "summary": "None", "logo": "None", "latitude": 43.70435140882339, "longitude": -79.40725730518193}}