{"832549356RR0001": {"name": "Jet Aircraft Museum", "designationCode": "C", "categoryCode": "50", "address": "2 - 2465 AVIATION LANE", "city": "LONDON", "province": "ON", "country": "CA", "postalCode": "N5V3Z9", "twitter": "None", "instagram": "None", "facebook": "None", "youtube": "None", "website": "None", "summary": "None", "logo": "None", "latitude": 43.03138489892697, "longitude": -81.15629284228794}, "832400089RR0001": {"name": "Jeune Oasis", "designationCode": "C", "categoryCode": "09", "address": "35 RUE HYPPOLITE-DENAUT", "city": "LA PRAIRIE", "province": "QC", "country": "CA", "postalCode": "J5R6P1", "twitter": "None", "instagram": "None", "facebook": "None", "youtube": "None", "website": "None", "summary": "None", "logo": "None", "latitude": 45.401093141814385, "longitude": -73.48114027159663}, "863029161RR0001": {"name": "Jeunes Adultes Gai-e-s (J.A.G.)", "designationCode": "C", "categoryCode": "09", "address": "1195, RUE SAINT-ANTOINE       PORTE 305", "city": "SAINT-HYACINTHE", "province": "QC", "country": "CA", "postalCode": "J2S3K6", "twitter": "None", "instagram": "None", "facebook": "None", "youtube": "None", "website": "None", "summary": "None", "logo": "None", "latitude": 45.625280134601034, "longitude": -72.94288513737098}, "119206290RR0001": {"name": "Jeunesse au Soleil / Sun Youth Organization", "designationCode": "C", "categoryCode": "56", "address": "4251 ST. URBAIN ST.", "city": "MONTREAL", "province": "QC", "country": "CA", "postalCode": "H2W1V6", "twitter": "None", "instagram": "None", "facebook": "None", "youtube": "None", "website": "None", "summary": "None", "logo": "None", "latitude": 45.51723215600997, "longitude": -73.58364008601207}, "821313178RR0001": {"name": "Jeunesse idem", "designationCode": "C", "categoryCode": "59", "address": "109, RUE WRIGHT               SUITE 003", "city": "GATINEAU", "province": "QC", "country": "CA", "postalCode": "J8X2G7", "twitter": "None", "instagram": "None", "facebook": "None", "youtube": "None", "website": "None", "summary": "None", "logo": "None", "latitude": 45.42702050432782, "longitude": -75.71872264071786}, "102636552RR0002": {"name": "Jeunesse Beauharnois", "designationCode": "C", "categoryCode": "09", "address": "21, RUE SAINT-JOSEPH", "city": "BEAUHARNOIS", "province": "QC", "country": "CA", "postalCode": "J6N0P3", "twitter": "None", "instagram": "None", "facebook": "None", "youtube": "None", "website": "None", "summary": "None", "logo": "None", "latitude": 45.319557012144905, "longitude": -73.8485003407928}, "872869664RR0001": {"name": "Jeunesse Classique Ballet Society", "designationCode": "C", "categoryCode": "22", "address": "125S - 8500 MACLEOD TRAIL SE", "city": "CALGARY", "province": "AB", "country": "CA", "postalCode": "T2H2N1", "twitter": "None", "instagram": "None", "facebook": "None", "youtube": "None", "website": "None", "summary": "None", "logo": "None", "latitude": 50.97228401243988, "longitude": -114.07150034831645}, "858986599RR0001": {"name": "Jeunesses Musicales of Ontario", "designationCode": "C", "categoryCode": "22", "address": "305 AVENUE DU MONT-ROYAL EST", "city": "MONTR\u00c9AL", "province": "QC", "country": "CA", "postalCode": "H2T1P8", "twitter": "None", "instagram": "None", "facebook": "None", "youtube": "None", "website": "None", "summary": "None", "logo": "None", "latitude": 45.523047268393995, "longitude": -73.5837473437589}, "833432396RR0001": {"name": "Jewel Dharma Tibetan Buddhist Temple", "designationCode": "C", "categoryCode": "35", "address": "6 KENSINGTON AVENUE,", "city": "TORONTO", "province": "ON", "country": "CA", "postalCode": "M5T2J7", "twitter": "None", "instagram": "None", "facebook": "None", "youtube": "None", "website": "None", "summary": "None", "logo": "None", "latitude": 43.65296982209015, "longitude": -79.40003641883536}, "852733351RR0001": {"name": "Jewish Community Properties of Greater Toronto", "designationCode": "C", "categoryCode": "56", "address": "4600 BATHURST STREET", "city": "TORONTO", "province": "ON", "country": "CA", "postalCode": "M2R3V2", "twitter": "None", "instagram": "None", "facebook": "None", "youtube": "None", "website": "None", "summary": "None", "logo": "None", "latitude": 43.764549213428396, "longitude": -79.4407190577642}, "118894229RR0001": {"name": "Jewish Federation of Edmonton", "designationCode": "A", "categoryCode": "05", "address": "200 - 10220 156 ST NW", "city": "EDMONTON", "province": "AB", "country": "CA", "postalCode": "T5P2R1", "twitter": "None", "instagram": "None", "facebook": "None", "youtube": "None", "website": "None", "summary": "None", "logo": "None", "latitude": 53.54370900000001, "longitude": -113.590396762046}, "108155797RR0002": {"name": "Jewish Foundation of Greater Toronto", "designationCode": "A", "categoryCode": "03", "address": "4600 BATHURST STREET", "city": "TORONTO", "province": "ON", "country": "CA", "postalCode": "M2R3V2", "twitter": "None", "instagram": "None", "facebook": "None", "youtube": "None", "website": "None", "summary": "None", "logo": "None", "latitude": 43.764549213428396, "longitude": -79.4407190577642}, "135585735RR0001": {"name": "Jewish Genealogical Society of Toronto", "designationCode": "C", "categoryCode": "50", "address": "P.O. BOX 91006                2901 BAYVIEW AVENUE", "city": "TORONTO", "province": "ON", "country": "CA", "postalCode": "M2K2Y6", "twitter": "None", "instagram": "None", "facebook": "None", "youtube": "None", "website": "None", "summary": "None", "logo": "None", "latitude": 43.76919245850885, "longitude": -79.38857782956332}, "813232444RR0001": {"name": "Jewish Learning Initiative On Campus (JLIC)", "designationCode": "C", "categoryCode": "42", "address": "533 SPRING GATE BLVD", "city": "THORNHILL", "province": "ON", "country": "CA", "postalCode": "L4J5B7", "twitter": "None", "instagram": "None", "facebook": "None", "youtube": "None", "website": "None", "summary": "None", "logo": "None", "latitude": 43.80581186759203, "longitude": -79.44566745822038}, "832574883RR0001": {"name": "Jewish Music Week", "designationCode": "C", "categoryCode": "22", "address": "748 BRIAR HILL AVENUE", "city": "TORONTO", "province": "ON", "country": "CA", "postalCode": "M6B1L3", "twitter": "None", "instagram": "None", "facebook": "None", "youtube": "None", "website": "None", "summary": "None", "logo": "None", "latitude": 43.70608519069178, "longitude": -79.43564720358928}, "107534877RR0001": {"name": "Jewish National Fund of Canada (Keren Kayemeth Le'Israel) Inc. / Fonds National Juif du Canada (Keren Kayemeth Le'Israel) Inc.", "designationCode": "C", "categoryCode": "09", "address": "550-5757 CAVENDISH BLVD.", "city": "COTE SAINT-LUC", "province": "QC", "country": "CA", "postalCode": "H4W2W8", "twitter": "None", "instagram": "None", "facebook": "None", "youtube": "None", "website": "None", "summary": "None", "logo": "None", "latitude": 45.476284418575574, "longitude": -73.6618405990538}, "855801619RR0001": {"name": "Jewish Niagara", "designationCode": "C", "categoryCode": "42", "address": "12 WOOD-DALE DRIVE", "city": "ST. CATHARINES", "province": "ON", "country": "CA", "postalCode": "L2T1Y8", "twitter": "None", "instagram": "None", "facebook": "None", "youtube": "None", "website": "None", "summary": "None", "logo": "None", "latitude": 43.12787216734961, "longitude": -79.24113713379295}, "838159390RR0001": {"name": "Jewish Religious and Education Assistance Fund", "designationCode": "B", "categoryCode": "03", "address": "2939 BATHURST STREET", "city": "TORONTO", "province": "ON", "country": "CA", "postalCode": "M6B3B2", "twitter": "None", "instagram": "None", "facebook": "None", "youtube": "None", "website": "None", "summary": "None", "logo": "None", "latitude": 43.71620865168213, "longitude": -79.42900636952527}, "805878881RR0001": {"name": "Jewish Renaissance Centre", "designationCode": "C", "categoryCode": "39", "address": "3080 YONGE STREET             UNIT 3035", "city": "TORONTO", "province": "ON", "country": "CA", "postalCode": "M4N3N1", "twitter": "None", "instagram": "None", "facebook": "None", "youtube": "None", "website": "None", "summary": "None", "logo": "None", "latitude": 43.72562362669517, "longitude": -79.40238573027837}, "800702250RR0001": {"name": "Jewish Senior Circle", "designationCode": "C", "categoryCode": "09", "address": "3727 CHESSWOOD DRIVE", "city": "TORONTO", "province": "ON", "country": "CA", "postalCode": "M3J2P6", "twitter": "None", "instagram": "None", "facebook": "None", "youtube": "None", "website": "None", "summary": "None", "logo": "None", "latitude": 43.75624900346742, "longitude": -79.47433992060962}, "795853290RR0001": {"name": "Jewish Seniors Alliance of Greater Vancouver Foundation", "designationCode": "A", "categoryCode": "03", "address": "949 WEST 49TH AVENUE", "city": "VANCOUVER", "province": "BC", "country": "CA", "postalCode": "V5Z2T1", "twitter": "None", "instagram": "None", "facebook": "None", "youtube": "None", "website": "None", "summary": "None", "logo": "None", "latitude": 49.22653944993916, "longitude": -123.12757091756595}, "811498559RR0001": {"name": "Jewish Unity Partnership Inc.", "designationCode": "C", "categoryCode": "29", "address": "1455 PEEL STREET              SUITE 424", "city": "MONTREAL", "province": "QC", "country": "CA", "postalCode": "H3A1T5", "twitter": "None", "instagram": "None", "facebook": "None", "youtube": "None", "website": "None", "summary": "None", "logo": "None", "latitude": 45.5005420905128, "longitude": -73.57398842988654}, "131309965RR0001": {"name": "Jewish Women International Foundation of British Columbia", "designationCode": "C", "categoryCode": "65", "address": "106-7580 COLUMBIA STREET", "city": "VANCOUVER", "province": "BC", "country": "CA", "postalCode": "V5X4S8", "twitter": "None", "instagram": "None", "facebook": "None", "youtube": "None", "website": "None", "summary": "None", "logo": "None", "latitude": 49.2158580022679, "longitude": -123.1125543262681}, "820541555RR0001": {"name": "Jewish Youth Network", "designationCode": "C", "categoryCode": "49", "address": "8700 BATHURST STREET, UNIT 5", "city": "THORNHILL", "province": "ON", "country": "CA", "postalCode": "L4J9J8", "twitter": "None", "instagram": "None", "facebook": "None", "youtube": "None", "website": "None", "summary": "None", "logo": "None", "latitude": 43.834610641121884, "longitude": -79.45564781135609}, "814420238RR0001": {"name": "Jhamtse Canada", "designationCode": "C", "categoryCode": "09", "address": "1353 MILTON AVENUE", "city": "MISSISSAUGA", "province": "ON", "country": "CA", "postalCode": "L5G3C5", "twitter": "None", "instagram": "None", "facebook": "None", "youtube": "None", "website": "None", "summary": "None", "logo": "None", "latitude": 43.55973998309179, "longitude": -79.59388612724342}, "858770415RR0001": {"name": "Jilla & Robert Williams Foundation", "designationCode": "B", "categoryCode": "03", "address": "2540-100 KING STREET WEST     PO BOX 360", "city": "TORONTO", "province": "ON", "country": "CA", "postalCode": "M5X1E1", "twitter": "None", "instagram": "None", "facebook": "None", "youtube": "None", "website": "None", "summary": "None", "logo": "None", "latitude": 43.648384198482056, "longitude": -79.38149974023302}, "800996944RR0001": {"name": "Jim And Janice Parker Foundation Inc.", "designationCode": "B", "categoryCode": "03", "address": "4304 CORONATION DRIVE SW", "city": "CALGARY", "province": "AB", "country": "CA", "postalCode": "T2S1M2", "twitter": "None", "instagram": "None", "facebook": "None", "youtube": "None", "website": "None", "summary": "None", "logo": "None", "latitude": 51.0148575165042, "longitude": -114.08299054994527}, "135309342RR0001": {"name": "Jim Pattison Children's Hospital Foundation Inc.", "designationCode": "A", "categoryCode": "13", "address": "1-345 3RD AVENUE S", "city": "SASKATOON", "province": "SK", "country": "CA", "postalCode": "S7K1M6", "twitter": "None", "instagram": "None", "facebook": "None", "youtube": "None", "website": "None", "summary": "None", "logo": "None", "latitude": 52.12467450000001, "longitude": -106.66386225}, "848250445RR0001": {"name": "Jim V. and Lina De Gasperis Foundation", "designationCode": "B", "categoryCode": "03", "address": "100-30 FLORAL PARKWAY", "city": "CONCORD", "province": "ON", "country": "CA", "postalCode": "L4K4R1", "twitter": "None", "instagram": "None", "facebook": "None", "youtube": "None", "website": "None", "summary": "None", "logo": "None", "latitude": 43.829694010286374, "longitude": -79.48216417292245}, "809173040RR0001": {"name": "Jimmy Chee Foundation", "designationCode": "B", "categoryCode": "03", "address": "1250-1500 WEST GEORGIA STREET PO BOX 62", "city": "VANCOUVER", "province": "BC", "country": "CA", "postalCode": "V6G2Z6", "twitter": "None", "instagram": "None", "facebook": "None", "youtube": "None", "website": "None", "summary": "None", "logo": "None", "latitude": 49.290187500000016, "longitude": -123.130035}, "841820467RR0001": {"name": "Jimmy Pratt Foundation Inc.", "designationCode": "C", "categoryCode": "11", "address": "112 MILITARY ROAD", "city": "ST. JOHN'S", "province": "NL", "country": "CA", "postalCode": "A1C2C9", "twitter": "None", "instagram": "None", "facebook": "None", "youtube": "None", "website": "None", "summary": "None", "logo": "None", "latitude": 47.56971191341101, "longitude": -52.707437176120834}, "804008399RR0001": {"name": "Jimmy Pratt Memorial Outreach Centre Inc.", "designationCode": "C", "categoryCode": "09", "address": "25 BUCHANAN ST", "city": "ST. JOHN'S", "province": "NL", "country": "CA", "postalCode": "A1C0A4", "twitter": "None", "instagram": "None", "facebook": "None", "youtube": "None", "website": "None", "summary": "None", "logo": "None", "latitude": 47.55808769663575, "longitude": -52.7131446283686}, "816390041RR0001": {"name": "Jireh Community Church", "designationCode": "C", "categoryCode": "39", "address": "2800 DON MILLS RD", "city": "NORTH YORK", "province": "ON", "country": "CA", "postalCode": "M2J3B6", "twitter": "None", "instagram": "None", "facebook": "None", "youtube": "None", "website": "None", "summary": "None", "logo": "None", "latitude": 43.78002035832985, "longitude": -79.34947577240469}, "810290965RR0001": {"name": "Jiu Xuan Ba De Xiu Zhen Chan Yuan Temple", "designationCode": "C", "categoryCode": "35", "address": "5 - 1680 COURTNEYPARK DR E", "city": "MISSISSAUGA", "province": "ON", "country": "CA", "postalCode": "L5T1R4", "twitter": "None", "instagram": "None", "facebook": "None", "youtube": "None", "website": "None", "summary": "None", "logo": "None", "latitude": 43.66684075212093, "longitude": -79.65434318521011}, "803077122RR0001": {"name": "Jivana Organ Donation Society", "designationCode": "C", "categoryCode": "11", "address": "15472 99A AVE", "city": "SURREY", "province": "BC", "country": "CA", "postalCode": "V3R9H5", "twitter": "None", "instagram": "None", "facebook": "None", "youtube": "None", "website": "None", "summary": "None", "logo": "None", "latitude": 49.18332051067582, "longitude": -122.79334313488948}, "829280049RR0001": {"name": "Joan Hunter Ministries Canada", "designationCode": "C", "categoryCode": "47", "address": "P.O. BOX 123", "city": "HAVRE BOUCHER", "province": "NS", "country": "CA", "postalCode": "B0H1P0", "twitter": "None", "instagram": "None", "facebook": "None", "youtube": "None", "website": "None", "summary": "None", "logo": "None", "latitude": 45.621447122845275, "longitude": -61.495352461841065}, "880432216RR0001": {"name": "Jobworks Employment Education Programs Inc.", "designationCode": "C", "categoryCode": "20", "address": "1175 PEMBINA HIGHWAY", "city": "WINNIPEG", "province": "MB", "country": "CA", "postalCode": "R3T2A5", "twitter": "None", "instagram": "None", "facebook": "None", "youtube": "None", "website": "None", "summary": "None", "logo": "None", "latitude": 49.84585407438396, "longitude": -97.15330611105635}, "835051681RR0001": {"name": "Jocelyn Hutton Foundation Inc.", "designationCode": "A", "categoryCode": "13", "address": "177 EGERTON ROAD", "city": "WINNIPEG", "province": "MB", "country": "CA", "postalCode": "R2M2W7", "twitter": "None", "instagram": "None", "facebook": "None", "youtube": "None", "website": "None", "summary": "None", "logo": "None", "latitude": 49.86635837803671, "longitude": -97.09948097824527}, "133397133RR0001": {"name": "Jocelyne Montpetit Danse", "designationCode": "C", "categoryCode": "22", "address": "5260 RUE HUTCHISON", "city": "MONTREAL", "province": "QC", "country": "CA", "postalCode": "H2V4B3", "twitter": "None", "instagram": "None", "facebook": "None", "youtube": "None", "website": "None", "summary": "None", "logo": "None", "latitude": 45.51989180070987, "longitude": -73.59923492451951}, "792251720RR0001": {"name": "Joe & Debbie Vidal Foundation Inc.", "designationCode": "B", "categoryCode": "03", "address": "300 - 15 23RD ST E", "city": "SASKATOON", "province": "SK", "country": "CA", "postalCode": "S7K0H6", "twitter": "None", "instagram": "None", "facebook": "None", "youtube": "None", "website": "None", "summary": "None", "logo": "None", "latitude": 52.13123999999999, "longitude": -106.6678425}, "820356327RR0001": {"name": "Joe Carter Classic", "designationCode": "A", "categoryCode": "03", "address": "TD BANK TOWER                 66 WELLINGTON ST W 4TH FLOOR", "city": "TORONTO", "province": "ON", "country": "CA", "postalCode": "M5K1A2", "twitter": "None", "instagram": "None", "facebook": "None", "youtube": "None", "website": "None", "summary": "None", "logo": "None", "latitude": 43.6468467508999, "longitude": -79.3819558202305}, "836020610RR0001": {"name": "Joe Couillard Memorial Foundation", "designationCode": "C", "categoryCode": "21", "address": "1420-21A STREET NW", "city": "CALGARY", "province": "AB", "country": "CA", "postalCode": "T2N2M4", "twitter": "None", "instagram": "None", "facebook": "None", "youtube": "None", "website": "None", "summary": "None", "logo": "None", "latitude": 51.06472216763808, "longitude": -114.11224824588851}, "846029080RR0001": {"name": "Joe Finley Family Foundation", "designationCode": "A", "categoryCode": "03", "address": "2 ST. MARGARET'S DRIVE", "city": "TORONTO", "province": "ON", "country": "CA", "postalCode": "M4N3E5", "twitter": "None", "instagram": "None", "facebook": "None", "youtube": "None", "website": "None", "summary": "None", "logo": "None", "latitude": 43.73924288926076, "longitude": -79.39698744589978}, "859191116RR0001": {"name": "Joggins Fossil Institute Association", "designationCode": "C", "categoryCode": "52", "address": "100 MAIN STREET", "city": "JOGGINS", "province": "NS", "country": "CA", "postalCode": "B0L1A0", "twitter": "None", "instagram": "None", "facebook": "None", "youtube": "None", "website": "None", "summary": "None", "logo": "None", "latitude": 45.69530861552934, "longitude": -64.44881598037912}, "809594831RR0001": {"name": "Johanniter Humanitarian Group Canada (JHG Canada) / Organisation Humanitaire Johanniter Canada (OHJ Canada)", "designationCode": "C", "categoryCode": "11", "address": "7629 ADJALA-TOS SIDEROAD 5", "city": "TOTTENHAM", "province": "ON", "country": "CA", "postalCode": "L0G1W0", "twitter": "None", "instagram": "None", "facebook": "None", "youtube": "None", "website": "None", "summary": "None", "logo": "None", "latitude": 44.021418000000054, "longitude": -79.79257249999993}, "858129950RR0001": {"name": "Johannson Family Foundation", "designationCode": "B", "categoryCode": "03", "address": "1250-1500 WEST GEORGIA ST     BOX 62", "city": "VANCOUVER", "province": "BC", "country": "CA", "postalCode": "V6G2Z6", "twitter": "None", "instagram": "None", "facebook": "None", "youtube": "None", "website": "None", "summary": "None", "logo": "None", "latitude": 49.290187500000016, "longitude": -123.130035}, "824722011RR0001": {"name": "Johansen-Larsen Foundation", "designationCode": "B", "categoryCode": "03", "address": "19 CATHCART STREET", "city": "LONDON", "province": "ON", "country": "CA", "postalCode": "N6C3L5", "twitter": "None", "instagram": "None", "facebook": "None", "youtube": "None", "website": "None", "summary": "None", "logo": "None", "latitude": 42.97142439133825, "longitude": -81.25467829381363}, "885326009RR0001": {"name": "John & Bonnie Buhler Foundation, Inc.", "designationCode": "B", "categoryCode": "03", "address": "107 HIGHLAND PARK DR", "city": "EAST ST PAUL", "province": "MB", "country": "CA", "postalCode": "R2E0H4", "twitter": "None", "instagram": "None", "facebook": "None", "youtube": "None", "website": "None", "summary": "None", "logo": "None", "latitude": 49.98775620592656, "longitude": -97.04861352100491}, "842075038RR0001": {"name": "John and Carol Arnott Ministries", "designationCode": "B", "categoryCode": "47", "address": "272 ATTWELL DRIVE", "city": "TORONTO", "province": "ON", "country": "CA", "postalCode": "M9W6M3", "twitter": "None", "instagram": "None", "facebook": "None", "youtube": "None", "website": "None", "summary": "None", "logo": "None", "latitude": 43.69629970269527, "longitude": -79.5914467527265}, "814913224RR0001": {"name": "John and Elizabeth Godin Perpetual Charitable Trust", "designationCode": "B", "categoryCode": "05", "address": "5151 GEORGE ST, 16TH FLOOR    P.O BOX 2207", "city": "HALIFAX", "province": "NS", "country": "CA", "postalCode": "B3J3C4", "twitter": "None", "instagram": "None", "facebook": "None", "youtube": "None", "website": "None", "summary": "None", "logo": "None", "latitude": 44.64864892480796, "longitude": -63.57299125910314}, "869788703RR0001": {"name": "John and Myrna Daniels Charitable Foundation", "designationCode": "B", "categoryCode": "03", "address": "20 QUEEN STREET               SUITE 3400", "city": "TORONTO", "province": "ON", "country": "CA", "postalCode": "M5H3R3", "twitter": "None", "instagram": "None", "facebook": "None", "youtube": "None", "website": "None", "summary": "None", "logo": "None", "latitude": 43.652350571469775, "longitude": -79.38077842754927}, "818491722RR0001": {"name": "John and Myrna Daniels Foundation", "designationCode": "A", "categoryCode": "03", "address": "20 QUEEN STREET WEST          SUITE 3400", "city": "TORONTO", "province": "ON", "country": "CA", "postalCode": "M5H3R3", "twitter": "None", "instagram": "None", "facebook": "None", "youtube": "None", "website": "None", "summary": "None", "logo": "None", "latitude": 43.652350571469775, "longitude": -79.38077842754927}, "872090808RR0001": {"name": "John Arcand Fiddle Fest Inc.", "designationCode": "C", "categoryCode": "22", "address": "BOX 3  SITE 302               RR#3", "city": "SASKATOON", "province": "SK", "country": "CA", "postalCode": "S7K3J6", "twitter": "None", "instagram": "None", "facebook": "None", "youtube": "None", "website": "None", "summary": "None", "logo": "None", "latitude": 52.13049000000005, "longitude": -106.65926449999994}, "817036163RR0001": {"name": "John Brown Heritage Foundation", "designationCode": "C", "categoryCode": "52", "address": "1 - 125 TRADERS BLVD E", "city": "MISSISSAUGA", "province": "ON", "country": "CA", "postalCode": "L4Z2H3", "twitter": "None", "instagram": "None", "facebook": "None", "youtube": "None", "website": "None", "summary": "None", "logo": "None", "latitude": 43.6252611771018, "longitude": -79.67175202224566}, "848666608RR0001": {"name": "John Cameron Changing Lives Foundation", "designationCode": "C", "categoryCode": "22", "address": "11430-160 STREET", "city": "EDMONTON", "province": "AB", "country": "CA", "postalCode": "T5M3Y7", "twitter": "None", "instagram": "None", "facebook": "None", "youtube": "None", "website": "None", "summary": "None", "logo": "None", "latitude": 53.56404900000001, "longitude": -113.59718728094477}, "774578298RR0001": {"name": "John Cooper Learning Centre", "designationCode": "C", "categoryCode": "20", "address": "42 GREEN MEADOW CRES", "city": "RICHMOND HILL", "province": "ON", "country": "CA", "postalCode": "L4E3W7", "twitter": "None", "instagram": "None", "facebook": "None", "youtube": "None", "website": "None", "summary": "None", "logo": "None", "latitude": 43.95253113240797, "longitude": -79.4396760133302}, "119117315RR0001": {"name": "John Edgar McAllister Foundation", "designationCode": "B", "categoryCode": "25", "address": "175 WALL ROAD                 R.R. 3", "city": "NIAGARA ON THE LAKE", "province": "ON", "country": "CA", "postalCode": "L0S1J0", "twitter": "None", "instagram": "None", "facebook": "None", "youtube": "None", "website": "None", "summary": "None", "logo": "None", "latitude": 43.247815576172975, "longitude": -79.11455868872989}, "859044612RR0001": {"name": "John Howard Society of Simcoe & Muskoka", "designationCode": "C", "categoryCode": "59", "address": "336-80 BRADFORD ST", "city": "BARRIE", "province": "ON", "country": "CA", "postalCode": "L4N6S7", "twitter": "None", "instagram": "None", "facebook": "None", "youtube": "None", "website": "None", "summary": "None", "logo": "None", "latitude": 44.38314673688615, "longitude": -79.69383931308778}, "133800672RR0001": {"name": "John Howard Society of Southeastern New Brunswick Inc.", "designationCode": "C", "categoryCode": "59", "address": "15 FLANDERS COURT", "city": "MONCTON", "province": "NB", "country": "CA", "postalCode": "E1C0K6", "twitter": "None", "instagram": "None", "facebook": "None", "youtube": "None", "website": "None", "summary": "None", "logo": "None", "latitude": 46.094446340008, "longitude": -64.80103890299499}, "820357069RR0001": {"name": "John Howard Society of York Region", "designationCode": "C", "categoryCode": "59", "address": "306-16600 BAYVIEW AVE", "city": "NEWMARKET", "province": "ON", "country": "CA", "postalCode": "L3X1Z9", "twitter": "None", "instagram": "None", "facebook": "None", "youtube": "None", "website": "None", "summary": "None", "logo": "None", "latitude": 44.0380954648855, "longitude": -79.45126832422494}, "809870611RR0001": {"name": "John John's Children's Foundation", "designationCode": "B", "categoryCode": "03", "address": "1 TORONTO STREET              SUITE 808 / P.O. BOX 19", "city": "TORONTO", "province": "ON", "country": "CA", "postalCode": "M5C2V6", "twitter": "None", "instagram": "None", "facebook": "None", "youtube": "None", "website": "None", "summary": "None", "logo": "None", "latitude": 43.64988730558597, "longitude": -79.37604079929623}, "106920119RR0001": {"name": "John Knox Christian School Association", "designationCode": "C", "categoryCode": "21", "address": "8260-13 AVE", "city": "BURNABY", "province": "BC", "country": "CA", "postalCode": "V3N2G5", "twitter": "None", "instagram": "None", "facebook": "None", "youtube": "None", "website": "None", "summary": "None", "logo": "None", "latitude": 49.2264092958338, "longitude": -122.92085844416903}, "813429867RR0001": {"name": "John Maude and Susan Quinn Charitable Foundation", "designationCode": "B", "categoryCode": "03", "address": "5116-50 AVENUE", "city": "WETASKIWIN", "province": "AB", "country": "CA", "postalCode": "T9A0S6", "twitter": "None", "instagram": "None", "facebook": "None", "youtube": "None", "website": "None", "summary": "None", "logo": "None", "latitude": 52.96991822329988, "longitude": -113.37660863444424}, "807833595RR0001": {"name": "John Maxwell Leadership Foundation of Canada", "designationCode": "C", "categoryCode": "29", "address": "205 - 2907 KENNEDY RD", "city": "SCARBOROUGH", "province": "ON", "country": "CA", "postalCode": "M1V1S8", "twitter": "None", "instagram": "None", "facebook": "None", "youtube": "None", "website": "None", "summary": "None", "logo": "None", "latitude": 43.803486774366604, "longitude": -79.29796137394}, "829032986RR0001": {"name": "John Patrick Colfer Family Foundation", "designationCode": "B", "categoryCode": "03", "address": "5650 AUT TRANSCANADIENNE", "city": "POINTE-CLAIRE", "province": "QC", "country": "CA", "postalCode": "H9R1B9", "twitter": "None", "instagram": "None", "facebook": "None", "youtube": "None", "website": "None", "summary": "None", "logo": "None", "latitude": 45.468363969213485, "longitude": -73.81609070221694}, "835340985RR0001": {"name": "John Paul II Centre for Divine Mercy", "designationCode": "C", "categoryCode": "39", "address": "606 BOUNDARY ROAD SOUTH", "city": "ALFRED", "province": "ON", "country": "CA", "postalCode": "K0B1A0", "twitter": "None", "instagram": "None", "facebook": "None", "youtube": "None", "website": "None", "summary": "None", "logo": "None", "latitude": 45.540585726845514, "longitude": -74.94010563050246}, "807275870RR0001": {"name": "John Petropoulos Memorial Fund Society", "designationCode": "C", "categoryCode": "59", "address": "347-440-10816 MACLEOD TR SE", "city": "CALGARY", "province": "AB", "country": "CA", "postalCode": "T2J5N8", "twitter": "None", "instagram": "None", "facebook": "None", "youtube": "None", "website": "None", "summary": "None", "logo": "None", "latitude": 50.95634525728548, "longitude": -114.07147694238002}, "852326404RR0001": {"name": "John R. McConnell Foundation/La Fondation John R. McConnell", "designationCode": "B", "categoryCode": "03", "address": "1350 RUE SHERBROOKE OUEST     BUREAU 1201", "city": "MONTREAL", "province": "QC", "country": "CA", "postalCode": "H3G1J1", "twitter": "None", "instagram": "None", "facebook": "None", "youtube": "None", "website": "None", "summary": "None", "logo": "None", "latitude": 45.49907079848817, "longitude": -73.57924886147518}, "775112691RR0001": {"name": "John Rudy Health Resource Centre Association", "designationCode": "C", "categoryCode": "11", "address": "3604 9 ST", "city": "VERNON", "province": "BC", "country": "CA", "postalCode": "V1T6S7", "twitter": "None", "instagram": "None", "facebook": "None", "youtube": "None", "website": "None", "summary": "None", "logo": "None", "latitude": 50.26859999999999, "longitude": -119.2439854781001}, "871891560RR0001": {"name": "John Volken Academy Society", "designationCode": "B", "categoryCode": "03", "address": "6911 KING GEORGE BLVD", "city": "SURREY", "province": "BC", "country": "CA", "postalCode": "V3W5A1", "twitter": "None", "instagram": "None", "facebook": "None", "youtube": "None", "website": "None", "summary": "None", "logo": "None", "latitude": 49.128232950947016, "longitude": -122.84563595907564}, "737150292RR0001": {"name": "John 15 Foundation", "designationCode": "A", "categoryCode": "03", "address": "71 TUSSLEWOOD VIEW NW", "city": "CALGARY", "province": "AB", "country": "CA", "postalCode": "T3L2Y4", "twitter": "None", "instagram": "None", "facebook": "None", "youtube": "None", "website": "None", "summary": "None", "logo": "None", "latitude": 51.137148845951934, "longitude": -114.24819698473657}, "830666772RR0001": {"name": "Johnny Fong Charitable Foundation", "designationCode": "B", "categoryCode": "05", "address": "1708 6TH AVE W", "city": "VANCOUVER", "province": "BC", "country": "CA", "postalCode": "V6J5E8", "twitter": "None", "instagram": "None", "facebook": "None", "youtube": "None", "website": "None", "summary": "None", "logo": "None", "latitude": 49.2661873698561, "longitude": -123.1435525932929}, "847136439RR0001": {"name": "Johnstown Pastoral Charge", "designationCode": "C", "categoryCode": "44", "address": "1834 COUNTRY ROAD 2", "city": "JOHNSTOWN", "province": "ON", "country": "CA", "postalCode": "K0E1T1", "twitter": "None", "instagram": "None", "facebook": "None", "youtube": "None", "website": "None", "summary": "None", "logo": "None", "latitude": 44.76461080958595, "longitude": -75.43334457661187}, "827434812RR0001": {"name": "Join the Dance (Canada)", "designationCode": "C", "categoryCode": "20", "address": "640 STROUDS LANE", "city": "PICKERING", "province": "ON", "country": "CA", "postalCode": "L1V4T3", "twitter": "None", "instagram": "None", "facebook": "None", "youtube": "None", "website": "None", "summary": "None", "logo": "None", "latitude": 43.828880132407974, "longitude": -79.12377970650348}, "831811096RR0001": {"name": "Jolly Nyeko Foundation Canada", "designationCode": "C", "categoryCode": "21", "address": "3911 HOBBS STREET", "city": "VICTORIA", "province": "BC", "country": "CA", "postalCode": "V8N4C8", "twitter": "None", "instagram": "None", "facebook": "None", "youtube": "None", "website": "None", "summary": "None", "logo": "None", "latitude": 48.464672742974315, "longitude": -123.29543389630123}, "837616101RR0001": {"name": "Jonathan David Wayne Lewis Foundation", "designationCode": "B", "categoryCode": "05", "address": "P O BOX 270", "city": "MAHONE BAY", "province": "NS", "country": "CA", "postalCode": "B0J2E0", "twitter": "None", "instagram": "None", "facebook": "None", "youtube": "None", "website": "None", "summary": "None", "logo": "None", "latitude": 44.5107664683721, "longitude": -64.5603343504879}, "813080330RR0001": {"name": "Jonathon D. Fischer Foundation", "designationCode": "B", "categoryCode": "03", "address": "73 BEL AIR DR", "city": "OAKVILLE", "province": "ON", "country": "CA", "postalCode": "L6J7N1", "twitter": "None", "instagram": "None", "facebook": "None", "youtube": "None", "website": "None", "summary": "None", "logo": "None", "latitude": 43.45773885651217, "longitude": -79.65268724006013}, "794839498RR0001": {"name": "Jones Family Foundation", "designationCode": "B", "categoryCode": "03", "address": "120-10451 SHELLBRIDGE WAY", "city": "RICHMOND", "province": "BC", "country": "CA", "postalCode": "V6X2W8", "twitter": "None", "instagram": "None", "facebook": "None", "youtube": "None", "website": "None", "summary": "None", "logo": "None", "latitude": 49.186189885654095, "longitude": -123.10740255805266}, "828053389RR0001": {"name": "Joo Soomgyul Church", "designationCode": "C", "categoryCode": "39", "address": "349 KENNETH AVE", "city": "NORTH YORK", "province": "ON", "country": "CA", "postalCode": "M2N4V9", "twitter": "None", "instagram": "None", "facebook": "None", "youtube": "None", "website": "None", "summary": "None", "logo": "None", "latitude": 43.77566799446009, "longitude": -79.41026824003147}, "809787351RR0001": {"name": "Jordan and Lynne Elliott Family Foundation", "designationCode": "B", "categoryCode": "05", "address": "78 LYTTON BLVD", "city": "TORONTO", "province": "ON", "country": "CA", "postalCode": "M4R1L3", "twitter": "None", "instagram": "None", "facebook": "None", "youtube": "None", "website": "None", "summary": "None", "logo": "None", "latitude": 43.7154991906918, "longitude": -79.40475928740833}, "832478655RR0001": {"name": "Jordan Wilson Fund Society", "designationCode": "B", "categoryCode": "09", "address": "2866 LEIGH RD", "city": "VICTORIA", "province": "BC", "country": "CA", "postalCode": "V9B4G3", "twitter": "None", "instagram": "None", "facebook": "None", "youtube": "None", "website": "None", "summary": "None", "logo": "None", "latitude": 48.44798980045009, "longitude": -123.51904538706772}, "812353688RR0001": {"name": "Jose Eduardo Lopez Memorial Scholarship", "designationCode": "C", "categoryCode": "21", "address": "201-158 HESTER ST", "city": "HAMILTON", "province": "ON", "country": "CA", "postalCode": "L9A2N8", "twitter": "None", "instagram": "None", "facebook": "None", "youtube": "None", "website": "None", "summary": "None", "logo": "None", "latitude": 43.222836951411054, "longitude": -79.87431101194521}, "850766635RR0001": {"name": "Joselen Foundation", "designationCode": "A", "categoryCode": "43", "address": "2900-550 BURRARD ST", "city": "VANCOUVER", "province": "BC", "country": "CA", "postalCode": "V6C0A3", "twitter": "None", "instagram": "None", "facebook": "None", "youtube": "None", "website": "None", "summary": "None", "logo": "None", "latitude": 49.28596391921073, "longitude": -123.11870289255033}, "840359533RR0001": {"name": "Joseph & Najat Dableh Family Foundation", "designationCode": "B", "categoryCode": "03", "address": "53 SHOREWOOD PLACE", "city": "OAKVILLE", "province": "ON", "country": "CA", "postalCode": "L6K3Y3", "twitter": "None", "instagram": "None", "facebook": "None", "youtube": "None", "website": "None", "summary": "None", "logo": "None", "latitude": 43.432106835420356, "longitude": -79.67977288092223}, "832681530RR0001": {"name": "Joseph Alfred Remai Family Foundation Inc.", "designationCode": "B", "categoryCode": "03", "address": "150 LAKESHORE CRESCENT", "city": "SASKATOON", "province": "SK", "country": "CA", "postalCode": "S7J3T3", "twitter": "None", "instagram": "None", "facebook": "None", "youtube": "None", "website": "None", "summary": "None", "logo": "None", "latitude": 52.0979404612788, "longitude": -106.59682353410491}, "108085515RR0001": {"name": "Joseph Brant Hospital", "designationCode": "C", "categoryCode": "10", "address": "1230 NORTH SHORE BLVD", "city": "BURLINGTON", "province": "ON", "country": "CA", "postalCode": "L7S1W7", "twitter": "None", "instagram": "None", "facebook": "None", "youtube": "None", "website": "None", "summary": "None", "logo": "None", "latitude": 43.317642116403626, "longitude": -79.8037291246398}, "102714151RR0001": {"name": "Joseph Brant Hospital Foundation", "designationCode": "A", "categoryCode": "13", "address": "1245 LAKESHORE RD", "city": "BURLINGTON", "province": "ON", "country": "CA", "postalCode": "L7S0A2", "twitter": "None", "instagram": "None", "facebook": "None", "youtube": "None", "website": "None", "summary": "None", "logo": "None", "latitude": 43.31651429122146, "longitude": -79.80131951892795}, "842774424RR0001": {"name": "Joseph Nama Ministries", "designationCode": "C", "categoryCode": "39", "address": "709 SANIBEL PVT", "city": "NEPEAN", "province": "ON", "country": "CA", "postalCode": "K2H0A8", "twitter": "None", "instagram": "None", "facebook": "None", "youtube": "None", "website": "None", "summary": "None", "logo": "None", "latitude": 45.31076467831388, "longitude": -75.82886540536092}, "860337799RR0001": {"name": "Joseph Neufeld Family Foundation/ Fondation Familiale Joseph Neufeld", "designationCode": "B", "categoryCode": "03", "address": "1981 AVENUE MCGILL COLLEGE    12TH FLOOR", "city": "MONTREAL", "province": "QC", "country": "CA", "postalCode": "H3A0G6", "twitter": "None", "instagram": "None", "facebook": "None", "youtube": "None", "website": "None", "summary": "None", "logo": "None", "latitude": 45.50305997394517, "longitude": -73.57323951800474}, "804159820RR0001": {"name": "Joshua Creek Heritage Art Centre", "designationCode": "C", "categoryCode": "22", "address": "1086 BURNHAMTHORPE ROAD EST", "city": "OAKVILLE", "province": "ON", "country": "CA", "postalCode": "L6H7B2", "twitter": "None", "instagram": "None", "facebook": "None", "youtube": "None", "website": "None", "summary": "None", "logo": "None", "latitude": 43.50949906243874, "longitude": -79.72964109573559}, "119148666RR0001": {"name": "Joshua Crossing Evangelical Missionary Church", "designationCode": "C", "categoryCode": "39", "address": "RR 1 STN MAIN                 3301 TRAFALGAR RD", "city": "OAKVILLE", "province": "ON", "country": "CA", "postalCode": "L6H7C1", "twitter": "None", "instagram": "None", "facebook": "None", "youtube": "None", "website": "None", "summary": "None", "logo": "None", "latitude": 43.495387238703806, "longitude": -79.72964597833125}, "831265111RR0001": {"name": "Joshua Ministries", "designationCode": "C", "categoryCode": "31", "address": "102 - 64 URSULINE AVE", "city": "CHATHAM", "province": "ON", "country": "CA", "postalCode": "N7L0A8", "twitter": "None", "instagram": "None", "facebook": "None", "youtube": "None", "website": "None", "summary": "None", "logo": "None", "latitude": 42.40754032191726, "longitude": -82.193988966472}, "860663145RR0001": {"name": "Josiah Venture Canada", "designationCode": "C", "categoryCode": "47", "address": "#3 TC PLAZA                   1335 TRANS CANADA WAY SE", "city": "MEDICINE HAT", "province": "AB", "country": "CA", "postalCode": "T1B1J1", "twitter": "None", "instagram": "None", "facebook": "None", "youtube": "None", "website": "None", "summary": "None", "logo": "None", "latitude": 50.00492508298232, "longitude": -110.65998950957929}, "840756886RR0001": {"name": "Joubert Syndrome and Related Disorders (JSRD) Canadian Group", "designationCode": "B", "categoryCode": "11", "address": "112 ILER AVE,", "city": "ESSEX", "province": "ON", "country": "CA", "postalCode": "N8M1T7", "twitter": "None", "instagram": "None", "facebook": "None", "youtube": "None", "website": "None", "summary": "None", "logo": "None", "latitude": 42.169968251770946, "longitude": -82.82280637884759}, "801402561RR0001": {"name": "Jouer pour les enfants / Play it Forward Kids", "designationCode": "C", "categoryCode": "09", "address": "173 RUE SAINTE-CATHERINE", "city": "SAINT-CONSTANT", "province": "QC", "country": "CA", "postalCode": "J5A1K2", "twitter": "None", "instagram": "None", "facebook": "None", "youtube": "None", "website": "None", "summary": "None", "logo": "None", "latitude": 45.382310139621346, "longitude": -73.57699631903172}, "838916716RR0001": {"name": "Joujouth\u00e8que de Saint-Hubert", "designationCode": "C", "categoryCode": "50", "address": "3625 MONT\u00c9E SAINT-HUBERT", "city": "SAINT-HUBERT", "province": "QC", "country": "CA", "postalCode": "J3Y4J8", "twitter": "None", "instagram": "None", "facebook": "None", "youtube": "None", "website": "None", "summary": "None", "logo": "None", "latitude": 45.49427871189919, "longitude": -73.42860446153861}, "831510151RR0001": {"name": "Journey Canada - Central Office Inc.", "designationCode": "C", "categoryCode": "49", "address": "PO BOX 1493 STN MAIN", "city": "WINNIPEG", "province": "MB", "country": "CA", "postalCode": "R3C2Z4", "twitter": "None", "instagram": "None", "facebook": "None", "youtube": "None", "website": "None", "summary": "None", "logo": "None", "latitude": 49.886161958421624, "longitude": -97.13345310241456}, "887407039RR0001": {"name": "Journey Canada Program Society", "designationCode": "C", "categoryCode": "49", "address": "300-291 EAST 2ND AVE", "city": "VANCOUVER", "province": "BC", "country": "CA", "postalCode": "V5T1B8", "twitter": "None", "instagram": "None", "facebook": "None", "youtube": "None", "website": "None", "summary": "None", "logo": "None", "latitude": 49.26805774023303, "longitude": -123.09864657963544}, "808770648RR0001": {"name": "Journey Fellowship Baptist Church", "designationCode": "C", "categoryCode": "31", "address": "81 - 8068 207 ST", "city": "LANGLEY", "province": "BC", "country": "CA", "postalCode": "V2Y0M9", "twitter": "None", "instagram": "None", "facebook": "None", "youtube": "None", "website": "None", "summary": "None", "logo": "None", "latitude": 49.15062236751164, "longitude": -122.64876387083136}, "810207548RR0001": {"name": "Journey Home Community Association", "designationCode": "C", "categoryCode": "09", "address": "7175 ROYAL OAK AVE", "city": "BURNABY", "province": "BC", "country": "CA", "postalCode": "V5J4J3", "twitter": "None", "instagram": "None", "facebook": "None", "youtube": "None", "website": "None", "summary": "None", "logo": "None", "latitude": 49.21865842413748, "longitude": -122.98858706334852}}