{"773206693RR0001": {"name": "Journey House", "designationCode": "C", "categoryCode": "09", "address": "164 HIGHBURY PARK DRIVE", "city": "OTTAWA", "province": "ON", "country": "CA", "postalCode": "K2J5Y1", "twitter": "None", "instagram": "None", "facebook": "None", "youtube": "None", "website": "None", "summary": "None", "logo": "None", "latitude": 45.280217483755614, "longitude": -75.74439356979633}, "842333429RR0001": {"name": "Journeys Church", "designationCode": "C", "categoryCode": "39", "address": "PO BOX 21062", "city": "SASKATOON", "province": "SK", "country": "CA", "postalCode": "S7H5N9", "twitter": "None", "instagram": "None", "facebook": "None", "youtube": "None", "website": "None", "summary": "None", "logo": "None", "latitude": 52.13049000000005, "longitude": -106.65926449999994}, "840369607RR0001": {"name": "Journeys Therapeutic Riding Society", "designationCode": "C", "categoryCode": "56", "address": "PO BOX 694", "city": "NANTON", "province": "AB", "country": "CA", "postalCode": "T0L1R0", "twitter": "None", "instagram": "None", "facebook": "None", "youtube": "None", "website": "None", "summary": "None", "logo": "None", "latitude": 50.448604499999995, "longitude": -113.84751825000001}, "827651209RR0001": {"name": "Joy and Hope of Haiti", "designationCode": "C", "categoryCode": "01", "address": "195 EAST 38TH ST", "city": "HAMILTON", "province": "ON", "country": "CA", "postalCode": "L8V4G1", "twitter": "None", "instagram": "None", "facebook": "None", "youtube": "None", "website": "None", "summary": "None", "logo": "None", "latitude": 43.23214375031237, "longitude": -79.83921050953322}, "815688528RR0001": {"name": "Joy of the Lord Church", "designationCode": "C", "categoryCode": "39", "address": "56 HOLBROOKE AVE", "city": "TORONTO", "province": "ON", "country": "CA", "postalCode": "M8Y3B4", "twitter": "None", "instagram": "None", "facebook": "None", "youtube": "None", "website": "None", "summary": "None", "logo": "None", "latitude": 43.629401158751264, "longitude": -79.50140281046204}, "850189887RR0001": {"name": "Joy to the World International Ministries", "designationCode": "C", "categoryCode": "09", "address": "3602 - 10 STREET", "city": "VERNON", "province": "BC", "country": "CA", "postalCode": "V1T6S9", "twitter": "None", "instagram": "None", "facebook": "None", "youtube": "None", "website": "None", "summary": "None", "logo": "None", "latitude": 50.268391658895496, "longitude": -119.24501342702968}, "845348036RR0001": {"name": "Joy Beyond Vision Community", "designationCode": "C", "categoryCode": "11", "address": "155 BEECROFT ROAD             SUITE 612", "city": "NORTH YORK", "province": "ON", "country": "CA", "postalCode": "M2N7C6", "twitter": "None", "instagram": "None", "facebook": "None", "youtube": "None", "website": "None", "summary": "None", "logo": "None", "latitude": 43.76528709660098, "longitude": -79.41489834880882}, "805583168RR0001": {"name": "Joy Christian Fellowship", "designationCode": "C", "categoryCode": "39", "address": "6953 14TH AVE", "city": "MARKHAM", "province": "ON", "country": "CA", "postalCode": "L6B0C7", "twitter": "None", "instagram": "None", "facebook": "None", "youtube": "None", "website": "None", "summary": "None", "logo": "None", "latitude": 43.8612719219807, "longitude": -79.22258516582039}, "846968311RR0001": {"name": "Joy Divine Praise Church of God in Christ", "designationCode": "C", "categoryCode": "39", "address": "1044 GLENANNA ROAD,", "city": "PICKERING", "province": "ON", "country": "CA", "postalCode": "L1V5E3", "twitter": "None", "instagram": "None", "facebook": "None", "youtube": "None", "website": "None", "summary": "None", "logo": "None", "latitude": 43.83653986678398, "longitude": -79.10640111293228}, "823404215RR0001": {"name": "Joy Fountain Christian Movement Inc.", "designationCode": "C", "categoryCode": "39", "address": "7 SORREL LANE", "city": "WINNIPEG", "province": "MB", "country": "CA", "postalCode": "R2E0E4", "twitter": "None", "instagram": "None", "facebook": "None", "youtube": "None", "website": "None", "summary": "None", "logo": "None", "latitude": 49.96248599310375, "longitude": -97.02390448043738}, "813136751RR0001": {"name": "Joy Johnston Ministries Inc. / Minist\u00e8re Joy Johnston Inc.", "designationCode": "C", "categoryCode": "36", "address": "8- 9 DE CAMBRAI", "city": "CHATEAUGAY", "province": "QC", "country": "CA", "postalCode": "J6K5H3", "twitter": "None", "instagram": "None", "facebook": "None", "youtube": "None", "website": "None", "summary": "None", "logo": "None", "latitude": 45.35574873160603, "longitude": -73.73416880047873}, "841080286RR0001": {"name": "Joy Lutheran Church Inc.", "designationCode": "C", "categoryCode": "32", "address": "NO 2-50 BARNES STREET", "city": "WINNIPEG", "province": "MB", "country": "CA", "postalCode": "R3T4Z7", "twitter": "None", "instagram": "None", "facebook": "None", "youtube": "None", "website": "None", "summary": "None", "logo": "None", "latitude": 49.79988251621574, "longitude": -97.16501003240187}, "806474367RR0001": {"name": "Joy Of Living Fellowship Center", "designationCode": "C", "categoryCode": "39", "address": "39 MAJOR WM. SHARPE DR", "city": "BRAMPTON", "province": "ON", "country": "CA", "postalCode": "L6X3J3", "twitter": "None", "instagram": "None", "facebook": "None", "youtube": "None", "website": "None", "summary": "None", "logo": "None", "latitude": 43.67164200000006, "longitude": -79.78342849999993}, "749471520RR0001": {"name": "Joy Overflow International Church", "designationCode": "C", "categoryCode": "39", "address": "72 VALLEY WOODS WAY NW", "city": "CALGARY", "province": "AB", "country": "CA", "postalCode": "T3B6A2", "twitter": "None", "instagram": "None", "facebook": "None", "youtube": "None", "website": "None", "summary": "None", "logo": "None", "latitude": 51.09901505912054, "longitude": -114.26487385414626}, "839478484RR0001": {"name": "Joy Vassal Ministries - God's House of Prayer", "designationCode": "C", "categoryCode": "49", "address": "808-186 KINGSVIEW BLVD", "city": "ETOBICOKE", "province": "ON", "country": "CA", "postalCode": "M9R1V6", "twitter": "None", "instagram": "None", "facebook": "None", "youtube": "None", "website": "None", "summary": "None", "logo": "None", "latitude": 43.69359471409223, "longitude": -79.56576578316647}, "812205797RR0001": {"name": "Joyful Christian Church", "designationCode": "C", "categoryCode": "39", "address": "1607 - 2330 BRIDLETOWNE CIR", "city": "SCARBOROUGH", "province": "ON", "country": "CA", "postalCode": "M1W3P6", "twitter": "None", "instagram": "None", "facebook": "None", "youtube": "None", "website": "None", "summary": "None", "logo": "None", "latitude": 43.80031506688216, "longitude": -79.31558625993986}, "802775452RR0001": {"name": "Joyful House of Prayer Congregation of Lethbridge", "designationCode": "C", "categoryCode": "39", "address": "PO BOX 21004", "city": "LETHBRIDGE", "province": "AB", "country": "CA", "postalCode": "T1K6X4", "twitter": "None", "instagram": "None", "facebook": "None", "youtube": "None", "website": "None", "summary": "None", "logo": "None", "latitude": 49.69383000000006, "longitude": -112.83373249999994}, "831825435RR0001": {"name": "Ju Won Church", "designationCode": "C", "categoryCode": "39", "address": "2931 SANDLEWOOD WAY", "city": "PORT COQUITLAM", "province": "BC", "country": "CA", "postalCode": "V3B3K3", "twitter": "None", "instagram": "None", "facebook": "None", "youtube": "None", "website": "None", "summary": "None", "logo": "None", "latitude": 49.26627547141785, "longitude": -122.74944334596778}, "810934042RR0001": {"name": "Juan de Fuca Community Land Trust Society", "designationCode": "A", "categoryCode": "56", "address": "2459 KEMP LAKE ROAD", "city": "SOOKE", "province": "BC", "country": "CA", "postalCode": "V9Z0R3", "twitter": "None", "instagram": "None", "facebook": "None", "youtube": "None", "website": "None", "summary": "None", "logo": "None", "latitude": 48.37651547343433, "longitude": -123.7916283822872}, "794219725RR0001": {"name": "Juan De Fuca Performing Arts Centre Society", "designationCode": "C", "categoryCode": "22", "address": "297 PERIMETER PL", "city": "VICTORIA", "province": "BC", "country": "CA", "postalCode": "V9C4J6", "twitter": "None", "instagram": "None", "facebook": "None", "youtube": "None", "website": "None", "summary": "None", "logo": "None", "latitude": 48.41565775823778, "longitude": -123.4799086423913}, "861246825RR0001": {"name": "Juan De Fuca Salmon Restoration Society", "designationCode": "C", "categoryCode": "54", "address": "2895 SOOKE RIVER ROAD", "city": "SOOKE", "province": "BC", "country": "CA", "postalCode": "V9Z0Y1", "twitter": "None", "instagram": "None", "facebook": "None", "youtube": "None", "website": "None", "summary": "None", "logo": "None", "latitude": 48.41404629572772, "longitude": -123.71078444682938}, "106866098RR0001": {"name": "Jubilee Canadian Reformed Church of Ottawa", "designationCode": "C", "categoryCode": "39", "address": "22 SANDHEAD TERRACE", "city": "OTTAWA", "province": "ON", "country": "CA", "postalCode": "K2J1L4", "twitter": "None", "instagram": "None", "facebook": "None", "youtube": "None", "website": "None", "summary": "None", "logo": "None", "latitude": 45.28513524479201, "longitude": -75.75224387290079}, "837702356RR0001": {"name": "Jubilee Celebration Centre", "designationCode": "C", "categoryCode": "39", "address": "149 WESTMOUNT DR N            P.O. BOX 20048", "city": "ORILLIA", "province": "ON", "country": "CA", "postalCode": "L3V7X9", "twitter": "None", "instagram": "None", "facebook": "None", "youtube": "None", "website": "None", "summary": "None", "logo": "None", "latitude": 44.60780122634128, "longitude": -79.43876332585445}, "830792602RR0001": {"name": "Jubilee Chapel", "designationCode": "C", "categoryCode": "39", "address": "7600 GLOVER RD                FOSMARK CENTRE", "city": "LANGLEY", "province": "BC", "country": "CA", "postalCode": "V2Y1Y1", "twitter": "None", "instagram": "None", "facebook": "None", "youtube": "None", "website": "None", "summary": "None", "logo": "None", "latitude": 49.14035608924, "longitude": -122.60750361270851}, "825176241RR0001": {"name": "Jubilee Christian Fellowship", "designationCode": "B", "categoryCode": "39", "address": "17 DUNLOP PL", "city": "KITCHENER", "province": "ON", "country": "CA", "postalCode": "N2P1J3", "twitter": "None", "instagram": "None", "facebook": "None", "youtube": "None", "website": "None", "summary": "None", "logo": "None", "latitude": 43.39841804385709, "longitude": -80.44427420425313}, "107552515RR0001": {"name": "Jubilee Christian Fellowship of Stratford Inc.", "designationCode": "C", "categoryCode": "39", "address": "707 DOWNIE ST", "city": "STRATFORD", "province": "ON", "country": "CA", "postalCode": "N5A1Y8", "twitter": "None", "instagram": "None", "facebook": "None", "youtube": "None", "website": "None", "summary": "None", "logo": "None", "latitude": 43.35604275327477, "longitude": -80.97405296220244}, "832029169RR0001": {"name": "Jubilee Missions Canada", "designationCode": "C", "categoryCode": "39", "address": "4674 RUE BERRI", "city": "MONTREAL", "province": "QC", "country": "CA", "postalCode": "H2J2R5", "twitter": "None", "instagram": "None", "facebook": "None", "youtube": "None", "website": "None", "summary": "None", "logo": "None", "latitude": 45.525930716890855, "longitude": -73.58417406370816}, "840576904RR0001": {"name": "Jubilee Multi Generational Housing Society", "designationCode": "C", "categoryCode": "09", "address": "1656 75TH W AVE", "city": "VANCOUVER", "province": "BC", "country": "CA", "postalCode": "V6P6G2", "twitter": "None", "instagram": "None", "facebook": "None", "youtube": "None", "website": "None", "summary": "None", "logo": "None", "latitude": 49.205815440392364, "longitude": -123.14602738339522}, "107994899RR0001": {"name": "Jubilee United Church", "designationCode": "C", "categoryCode": "44", "address": "7591 GRAY AVENUE", "city": "BURNABY", "province": "BC", "country": "CA", "postalCode": "V5J3Z4", "twitter": "None", "instagram": "None", "facebook": "None", "youtube": "None", "website": "None", "summary": "None", "logo": "None", "latitude": 49.215078000000005, "longitude": -122.99943608162599}, "812747954RR0001": {"name": "Judique and District Volunteer Fire Department", "designationCode": "C", "categoryCode": "59", "address": "P.O. BOX 39", "city": "JUDIQUE", "province": "NS", "country": "CA", "postalCode": "B0E1P0", "twitter": "None", "instagram": "None", "facebook": "None", "youtube": "None", "website": "None", "summary": "None", "logo": "None", "latitude": 45.87677000000008, "longitude": -61.49064999999996}, "873482970RR0001": {"name": "Judith Teller Foundation", "designationCode": "A", "categoryCode": "23", "address": "45 ELDERWOOD DRIVE", "city": "TORONTO", "province": "ON", "country": "CA", "postalCode": "M5P1W9", "twitter": "None", "instagram": "None", "facebook": "None", "youtube": "None", "website": "None", "summary": "None", "logo": "None", "latitude": 43.69581289312724, "longitude": -79.42004717692889}, "816748388RR0001": {"name": "Judy and Wilmot Matthews Foundation", "designationCode": "B", "categoryCode": "03", "address": "PO BOX 245 STN 1ST CAN PLACE", "city": "TORONTO", "province": "ON", "country": "CA", "postalCode": "M5X1C8", "twitter": "None", "instagram": "None", "facebook": "None", "youtube": "None", "website": "None", "summary": "None", "logo": "None", "latitude": 43.64868300000006, "longitude": -79.38544399999994}, "841943616RR0001": {"name": "Jugamos Sport and Development Association", "designationCode": "C", "categoryCode": "11", "address": "4191 GOLF DR", "city": "NORTH VANCOUVER", "province": "BC", "country": "CA", "postalCode": "V7G1A4", "twitter": "None", "instagram": "None", "facebook": "None", "youtube": "None", "website": "None", "summary": "None", "logo": "None", "latitude": 49.30680652510254, "longitude": -122.95550392492353}, "119205359RR0001": {"name": "Julia Street Community Church", "designationCode": "C", "categoryCode": "36", "address": "9918 JULIA ST", "city": "SUMMERLAND", "province": "BC", "country": "CA", "postalCode": "V0H1Z5", "twitter": "None", "instagram": "None", "facebook": "None", "youtube": "None", "website": "None", "summary": "None", "logo": "None", "latitude": 49.607497021032415, "longitude": -119.67999568741834}, "108084658RR0054": {"name": "Julian of Norwich", "designationCode": "C", "categoryCode": "30", "address": "8 WITHROW AVE", "city": "OTTAWA", "province": "ON", "country": "CA", "postalCode": "K2G2H6", "twitter": "None", "instagram": "None", "facebook": "None", "youtube": "None", "website": "None", "summary": "None", "logo": "None", "latitude": 45.355055618068164, "longitude": -75.73700024935096}, "813457603RR0001": {"name": "Julie Patel Foundation", "designationCode": "B", "categoryCode": "23", "address": "34 SOUTHLEA AVE", "city": "EAST YORK", "province": "ON", "country": "CA", "postalCode": "M4G3L9", "twitter": "None", "instagram": "None", "facebook": "None", "youtube": "None", "website": "None", "summary": "None", "logo": "None", "latitude": 43.69934520843674, "longitude": -79.36895421746776}, "134604313RR0001": {"name": "Juma's World", "designationCode": "C", "categoryCode": "47", "address": "6580 POULTON ROAD", "city": "MERVILLE", "province": "BC", "country": "CA", "postalCode": "V0R2M0", "twitter": "None", "instagram": "None", "facebook": "None", "youtube": "None", "website": "None", "summary": "None", "logo": "None", "latitude": 49.78161596356161, "longitude": -125.05878279769233}, "858388366RR0001": {"name": "Jumelage Saint-F\u00e9lix", "designationCode": "C", "categoryCode": "03", "address": "MAISON PAROISSIALE SAINT-FELIX1460 RUE PROVANCHER", "city": "QUEBEC", "province": "QC", "country": "CA", "postalCode": "G1Y1S1", "twitter": "None", "instagram": "None", "facebook": "None", "youtube": "None", "website": "None", "summary": "None", "logo": "None", "latitude": 46.74978401608723, "longitude": -71.34329049699872}, "831128780RR0001": {"name": "Jump In Foundation", "designationCode": "C", "categoryCode": "11", "address": "401 - 1 YOUNG ST", "city": "HAMILTON", "province": "ON", "country": "CA", "postalCode": "L8N1T8", "twitter": "None", "instagram": "None", "facebook": "None", "youtube": "None", "website": "None", "summary": "None", "logo": "None", "latitude": 43.25126996087477, "longitude": -79.87107463835193}, "818521593RR0001": {"name": "Junction Community Church", "designationCode": "C", "categoryCode": "39", "address": "7363 OIL HERITAGE RD", "city": "TOWN OF PLYMPTON WYOMING", "province": "ON", "country": "CA", "postalCode": "N0N1J5", "twitter": "None", "instagram": "None", "facebook": "None", "youtube": "None", "website": "None", "summary": "None", "logo": "None", "latitude": 43.075826727451094, "longitude": -82.11543809261892}, "720774694RR0001": {"name": "June and Ian Cockwell Private Foundation", "designationCode": "B", "categoryCode": "03", "address": "BROOKFIELD PLACE              3300-181 BAY STREET", "city": "TORONTO", "province": "ON", "country": "CA", "postalCode": "M5J2T3", "twitter": "None", "instagram": "None", "facebook": "None", "youtube": "None", "website": "None", "summary": "None", "logo": "None", "latitude": 43.64715006939234, "longitude": -79.3795999811012}, "850429325RR0001": {"name": "Jungdaun Church", "designationCode": "C", "categoryCode": "39", "address": "7 - 6137 TISDALL ST", "city": "VANCOUVER", "province": "BC", "country": "CA", "postalCode": "V5Z3M9", "twitter": "None", "instagram": "None", "facebook": "None", "youtube": "None", "website": "None", "summary": "None", "logo": "None", "latitude": 49.22939696854463, "longitude": -123.12170873836558}, "833820392RR0001": {"name": "Jungle Breezes Youth Ministries", "designationCode": "C", "categoryCode": "09", "address": "1327 GREENWOOD HILL ROAD", "city": "WELLESLEY", "province": "ON", "country": "CA", "postalCode": "N0B2T0", "twitter": "None", "instagram": "None", "facebook": "None", "youtube": "None", "website": "None", "summary": "None", "logo": "None", "latitude": 43.47888306327546, "longitude": -80.75178600854102}, "768569097RR0001": {"name": "Jungto Buddhist Society", "designationCode": "C", "categoryCode": "35", "address": "855 ALNESS STREE              UNITE 5", "city": "TORONTO", "province": "ON", "country": "CA", "postalCode": "M3J2X3", "twitter": "None", "instagram": "None", "facebook": "None", "youtube": "None", "website": "None", "summary": "None", "logo": "None", "latitude": 43.77891392506778, "longitude": -79.47529715678935}, "824000202RR0001": {"name": "Junior Achievement of Peterborough Lakeland Muskoka", "designationCode": "C", "categoryCode": "21", "address": "I - 270 GEORGE ST N", "city": "PETERBOROUGH", "province": "ON", "country": "CA", "postalCode": "K9J3H1", "twitter": "None", "instagram": "None", "facebook": "None", "youtube": "None", "website": "None", "summary": "None", "logo": "None", "latitude": 44.30178154010619, "longitude": -78.31973223019239}, "812804912RR0001": {"name": "Junior Golf Mentorship (JGM) Inc.", "designationCode": "B", "categoryCode": "09", "address": "26-25 PERES OBLATS DRIVE", "city": "WINNIPEG", "province": "MB", "country": "CA", "postalCode": "R3X1E8", "twitter": "None", "instagram": "None", "facebook": "None", "youtube": "None", "website": "None", "summary": "None", "logo": "None", "latitude": 49.838792486582896, "longitude": -97.05632255398464}, "852387448RR0001": {"name": "Juno Beach Squadron Sponsoring Committee", "designationCode": "C", "categoryCode": "29", "address": "7620 ELBOW DRIVE SW           BOX #534", "city": "CALGARY", "province": "AB", "country": "CA", "postalCode": "T2V1K2", "twitter": "None", "instagram": "None", "facebook": "None", "youtube": "None", "website": "None", "summary": "None", "logo": "None", "latitude": 50.98527321929785, "longitude": -114.08309202200739}, "844813907RR0001": {"name": "Juno Foundation", "designationCode": "C", "categoryCode": "09", "address": "1100 - 110 9 AVE SW", "city": "CALGARY", "province": "AB", "country": "CA", "postalCode": "T2P0T1", "twitter": "None", "instagram": "None", "facebook": "None", "youtube": "None", "website": "None", "summary": "None", "logo": "None", "latitude": 51.04495107547109, "longitude": -114.0758334905459}, "863507810RR0001": {"name": "Juntos!", "designationCode": "C", "categoryCode": "09", "address": "572 COTE ST. ANTOINE ROAD", "city": "WESTMOUNT", "province": "QC", "country": "CA", "postalCode": "H3Y2K4", "twitter": "None", "instagram": "None", "facebook": "None", "youtube": "None", "website": "None", "summary": "None", "logo": "None", "latitude": 45.4803814546137, "longitude": -73.60839769190387}, "850633371RR0001": {"name": "Jusoor Canada", "designationCode": "C", "categoryCode": "09", "address": "112 FOREST HILL ROAD", "city": "TORONTO", "province": "ON", "country": "CA", "postalCode": "M4V2L7", "twitter": "None", "instagram": "None", "facebook": "None", "youtube": "None", "website": "None", "summary": "None", "logo": "None", "latitude": 43.69166332638933, "longitude": -79.40542397088676}, "821672581RR0001": {"name": "Just Cause Education Outreach", "designationCode": "C", "categoryCode": "21", "address": "1510-9 COMMISSIONERS ROAD E", "city": "LONDON", "province": "ON", "country": "CA", "postalCode": "N6C5Z7", "twitter": "None", "instagram": "None", "facebook": "None", "youtube": "None", "website": "None", "summary": "None", "logo": "None", "latitude": 42.95789184861807, "longitude": -81.23937020553693}, "802658534RR0001": {"name": "Just Energy Foundation Canada", "designationCode": "B", "categoryCode": "03", "address": "6345 DIXIE ROAD               SUITE 200", "city": "MISSISSAUGA", "province": "ON", "country": "CA", "postalCode": "L5T2E6", "twitter": "None", "instagram": "None", "facebook": "None", "youtube": "None", "website": "None", "summary": "None", "logo": "None", "latitude": 43.662610218794484, "longitude": -79.65715448770901}, "843061235RR0001": {"name": "Just Imagine Foundation", "designationCode": "B", "categoryCode": "03", "address": "201 - 215 14TH ST", "city": "WEST VANCOUVER", "province": "BC", "country": "CA", "postalCode": "V7T2P9", "twitter": "None", "instagram": "None", "facebook": "None", "youtube": "None", "website": "None", "summary": "None", "logo": "None", "latitude": 49.327624204830045, "longitude": -123.15440602334218}, "823043864RR0001": {"name": "Just Kiddin' Theatre", "designationCode": "C", "categoryCode": "22", "address": "236 BRADWELL WAY", "city": "OTTAWA", "province": "ON", "country": "CA", "postalCode": "K1T4J5", "twitter": "None", "instagram": "None", "facebook": "None", "youtube": "None", "website": "None", "summary": "None", "logo": "None", "latitude": 45.319615520428, "longitude": -75.60451859755327}, "836278176RR0001": {"name": "Just Socks Foundation", "designationCode": "B", "categoryCode": "03", "address": "1203-388 BLOOR STREET EAST", "city": "TORONTO", "province": "ON", "country": "CA", "postalCode": "M4W3W9", "twitter": "None", "instagram": "None", "facebook": "None", "youtube": "None", "website": "None", "summary": "None", "logo": "None", "latitude": 43.67224915072984, "longitude": -79.37752763030184}, "804370831RR0001": {"name": "Just 4 Keeps Bull Terrier Rescue", "designationCode": "C", "categoryCode": "54", "address": "174 BEECHGROVE DRIVE", "city": "SCARBOROUGH", "province": "ON", "country": "CA", "postalCode": "M1E3Z5", "twitter": "None", "instagram": "None", "facebook": "None", "youtube": "None", "website": "None", "summary": "None", "logo": "None", "latitude": 43.76906176519132, "longitude": -79.15929263171549}, "107392128RR0001": {"name": "Justice alternative de l'Est", "designationCode": "C", "categoryCode": "01", "address": "5, RUE ST-PAUL                SUITE 2", "city": "RIMOUSKI", "province": "QC", "country": "CA", "postalCode": "G5L1S8", "twitter": "None", "instagram": "None", "facebook": "None", "youtube": "None", "website": "None", "summary": "None", "logo": "None", "latitude": 48.45141563696695, "longitude": -68.52588980529751}, "817174865RR0001": {"name": "Justice Centre for Constitutional Freedoms", "designationCode": "C", "categoryCode": "59", "address": "253 - 7620 ELBOW DR SW", "city": "CALGARY", "province": "AB", "country": "CA", "postalCode": "T2V1K2", "twitter": "None", "instagram": "None", "facebook": "None", "youtube": "None", "website": "None", "summary": "None", "logo": "None", "latitude": 50.98527321929785, "longitude": -114.08309202200739}, "106962715RR0001": {"name": "Justice Niagara", "designationCode": "C", "categoryCode": "59", "address": "100 - 15 BURGAR ST", "city": "WELLAND", "province": "ON", "country": "CA", "postalCode": "L3B2S6", "twitter": "None", "instagram": "None", "facebook": "None", "youtube": "None", "website": "None", "summary": "None", "logo": "None", "latitude": 42.99195776045183, "longitude": -79.24362483731664}, "810549238RR0001": {"name": "Justin Kim Ministries", "designationCode": "C", "categoryCode": "39", "address": "1 WESTSIDE DR,                UNIT 1", "city": "TORONTO", "province": "ON", "country": "CA", "postalCode": "M9C1B2", "twitter": "None", "instagram": "None", "facebook": "None", "youtube": "None", "website": "None", "summary": "None", "logo": "None", "latitude": 43.618518398551615, "longitude": -79.56349634811632}, "834358483RR0001": {"name": "Just4kics - kids in community sports", "designationCode": "C", "categoryCode": "09", "address": "UNIT 7                        2679 BRISTOL CIRCLE", "city": "OAKVILLE", "province": "ON", "country": "CA", "postalCode": "L6H6Z8", "twitter": "None", "instagram": "None", "facebook": "None", "youtube": "None", "website": "None", "summary": "None", "logo": "None", "latitude": 43.51153392172088, "longitude": -79.68753842244203}, "131905226RR0001": {"name": "Juv\u00e9nat Saint-Jean", "designationCode": "C", "categoryCode": "20", "address": "CP 25 SUCC B", "city": "DOLBEAU-MISTASSINI", "province": "QC", "country": "CA", "postalCode": "G8L2P9", "twitter": "None", "instagram": "None", "facebook": "None", "youtube": "None", "website": "None", "summary": "None", "logo": "None", "latitude": 48.88193100000005, "longitude": -72.23158249999993}, "805575016RR0001": {"name": "Juving Nepal Development Society", "designationCode": "C", "categoryCode": "21", "address": "127 TWIN BROOKS COVE NW", "city": "EDMONTON", "province": "AB", "country": "CA", "postalCode": "T6J6T1", "twitter": "None", "instagram": "None", "facebook": "None", "youtube": "None", "website": "None", "summary": "None", "logo": "None", "latitude": 53.440458853165296, "longitude": -113.52995556895962}, "887498004RR0001": {"name": "JA-MERI-CAN MISSIONS ASSOCIATION", "designationCode": "C", "categoryCode": "47", "address": "15 WEIR AVENUE", "city": "TRURO", "province": "NS", "country": "CA", "postalCode": "B2N2Y6", "twitter": "None", "instagram": "None", "facebook": "None", "youtube": "None", "website": "None", "summary": "None", "logo": "None", "latitude": 45.385962769346264, "longitude": -63.26261687650749}, "860988377RR0001": {"name": "JABEZ BLANKET MINISTRY INTERNATIONAL", "designationCode": "C", "categoryCode": "01", "address": "30 BOLAND STREET              P. O. BOX 336", "city": "KILLALOE", "province": "ON", "country": "CA", "postalCode": "K0J2A0", "twitter": "None", "instagram": "None", "facebook": "None", "youtube": "None", "website": "None", "summary": "None", "logo": "None", "latitude": 45.55501520457027, "longitude": -77.42055819305772}, "890792542RR0001": {"name": "JABEZ FOUNDATION / FONDATION JABEZ", "designationCode": "B", "categoryCode": "03", "address": "2166 PARKHILL ROAD WEST", "city": "PETERBOROUGH", "province": "ON", "country": "CA", "postalCode": "K9J6X4", "twitter": "None", "instagram": "None", "facebook": "None", "youtube": "None", "website": "None", "summary": "None", "logo": "None", "latitude": 44.292706553456156, "longitude": -78.41650328293595}, "885959502RR0001": {"name": "JABEZ THERAPY RANCH", "designationCode": "C", "categoryCode": "56", "address": "52765 RON MCNEIL LINE", "city": "SPRINGFIELD", "province": "ON", "country": "CA", "postalCode": "N0L2J0", "twitter": "None", "instagram": "None", "facebook": "None", "youtube": "None", "website": "None", "summary": "None", "logo": "None", "latitude": 42.8369627149576, "longitude": -80.88803678351319}, "892465170RR0001": {"name": "JACK AND BUSCHIE KAMIN FOUNDATION", "designationCode": "B", "categoryCode": "53", "address": "3 AVA RD", "city": "TORONTO", "province": "ON", "country": "CA", "postalCode": "M5P1X8", "twitter": "None", "instagram": "None", "facebook": "None", "youtube": "None", "website": "None", "summary": "None", "logo": "None", "latitude": 43.69809086759203, "longitude": -79.41703701220501}, "896069689RR0001": {"name": "JACK AND DORIS BISTRICER CHARITABLE FOUNDATION", "designationCode": "B", "categoryCode": "03", "address": "145 ADELAIDE STREET WEST      SUITE 500", "city": "TORONTO", "province": "ON", "country": "CA", "postalCode": "M5H4E5", "twitter": "None", "instagram": "None", "facebook": "None", "youtube": "None", "website": "None", "summary": "None", "logo": "None", "latitude": 43.64903786037866, "longitude": -79.38462801220501}, "870819182RR0001": {"name": "JACK AND DORIS BROWN FOUNDATION", "designationCode": "B", "categoryCode": "03", "address": "1763 WEST 38TH AVENUE", "city": "VANCOUVER", "province": "BC", "country": "CA", "postalCode": "V6M1R7", "twitter": "None", "instagram": "None", "facebook": "None", "youtube": "None", "website": "None", "summary": "None", "logo": "None", "latitude": 49.23697250432783, "longitude": -123.14604370038664}, "891995243RR0001": {"name": "JACK AND INA POLLOCK CHARITABLE FOUNDATION", "designationCode": "B", "categoryCode": "05", "address": "3130 YONGE ST SUITE 404", "city": "TORONTO", "province": "ON", "country": "CA", "postalCode": "M4N2K6", "twitter": "None", "instagram": "None", "facebook": "None", "youtube": "None", "website": "None", "summary": "None", "logo": "None", "latitude": 43.72665862669517, "longitude": -79.40264722970144}, "107518722RR0001": {"name": "JACK AND JILL CO-OPERATIVE NURSERY SCHOOL OF RIDGETOWN INC.", "designationCode": "C", "categoryCode": "20", "address": "ATTN: SISKINDS LLP            680 WATERLOO STREET", "city": "LONDON", "province": "ON", "country": "CA", "postalCode": "N6A3V8", "twitter": "None", "instagram": "None", "facebook": "None", "youtube": "None", "website": "None", "summary": "None", "logo": "None", "latitude": 42.99418100028845, "longitude": -81.24678152285217}, "131440190RR0001": {"name": "JACK AND JILL PARENT PARTICIPATION PRESCHOOL SOCIETY", "designationCode": "C", "categoryCode": "20", "address": "BOX 801", "city": "GIBSONS", "province": "BC", "country": "CA", "postalCode": "V0N1V0", "twitter": "None", "instagram": "None", "facebook": "None", "youtube": "None", "website": "None", "summary": "None", "logo": "None", "latitude": 49.40659350000001, "longitude": -123.528087}, "133483990RR0001": {"name": "JACK JACKSON EVANGELICAL MINISTRIES ASSOCIATION", "designationCode": "C", "categoryCode": "47", "address": "115 HAVENHURST CRES SW", "city": "CALGARY", "province": "AB", "country": "CA", "postalCode": "T2V3C4", "twitter": "None", "instagram": "None", "facebook": "None", "youtube": "None", "website": "None", "summary": "None", "logo": "None", "latitude": 50.96603691618097, "longitude": -114.08225465918395}, "862875317RR0001": {"name": "JACK LONG FOUNDATION FOR COMMUNITY DEVELOPMENT", "designationCode": "A", "categoryCode": "03", "address": "104 - 808 5 ST SE", "city": "CALGARY", "province": "AB", "country": "CA", "postalCode": "T2G4T5", "twitter": "None", "instagram": "None", "facebook": "None", "youtube": "None", "website": "None", "summary": "None", "logo": "None", "latitude": 51.044695627531894, "longitude": -114.05071647181038}, "806978474RR0001": {"name": "JACK PATRICK AND LOIS SHIRLEY O'REGAN CHARITABLE FOUNDATION", "designationCode": "B", "categoryCode": "03", "address": "P O BOX 10085", "city": "VANCOUVER", "province": "BC", "country": "CA", "postalCode": "V7Y1B6", "twitter": "None", "instagram": "None", "facebook": "None", "youtube": "None", "website": "None", "summary": "None", "logo": "None", "latitude": 49.26037200000006, "longitude": -123.11336149999994}, "852958818RR0001": {"name": "JACK VAN IMPE MINISTRIES INC.", "designationCode": "C", "categoryCode": "47", "address": "110 RIVERSIDE DRIVE, #102", "city": "LONDON", "province": "ON", "country": "CA", "postalCode": "N6H4S5", "twitter": "None", "instagram": "None", "facebook": "None", "youtube": "None", "website": "None", "summary": "None", "logo": "None", "latitude": 42.982907481245455, "longitude": -81.26418514071786}, "119290153RR0001": {"name": "JACK WEBSTER FOUNDATION", "designationCode": "C", "categoryCode": "21", "address": "6209 ANGUS DRIVE", "city": "VANCOUVER", "province": "BC", "country": "CA", "postalCode": "V6M3P2", "twitter": "None", "instagram": "None", "facebook": "None", "youtube": "None", "website": "None", "summary": "None", "logo": "None", "latitude": 49.22970420483006, "longitude": -123.14784294731344}, "889030193RR0001": {"name": "JACKFISH LUTHERAN CAMP INC", "designationCode": "C", "categoryCode": "56", "address": "BOX 324", "city": "LANGENBURG", "province": "SK", "country": "CA", "postalCode": "S0A2A0", "twitter": "None", "instagram": "None", "facebook": "None", "youtube": "None", "website": "None", "summary": "None", "logo": "None", "latitude": 50.84159000000005, "longitude": -101.69833999999997}, "118972520RR0001": {"name": "JACKMAN FOUNDATION", "designationCode": "B", "categoryCode": "03", "address": "TD CENTRE, 66 WELLINGTON ST W SUITE 5402, P.O. BOX 166", "city": "TORONTO", "province": "ON", "country": "CA", "postalCode": "M5K1H6", "twitter": "None", "instagram": "None", "facebook": "None", "youtube": "None", "website": "None", "summary": "None", "logo": "None", "latitude": 43.647055248975605, "longitude": -79.38109901041601}, "107519266RR0001": {"name": "JACKS AND JILLS CO-OPERATIVE PRESCHOOL OF ANCASTER INC.", "designationCode": "C", "categoryCode": "20", "address": "47 WILSON STREET W.           PO BOX 81112", "city": "ANCASTER", "province": "ON", "country": "CA", "postalCode": "L9G4X1", "twitter": "None", "instagram": "None", "facebook": "None", "youtube": "None", "website": "None", "summary": "None", "logo": "None", "latitude": 43.21657931578396, "longitude": -79.98928857891977}, "140263179RR0001": {"name": "JACKSONS ARM VOLUNTEER FIRE DEPARTMENT", "designationCode": "C", "categoryCode": "59", "address": "PO BOX 170", "city": "JACKSONS ARM", "province": "NL", "country": "CA", "postalCode": "A0K3H0", "twitter": "None", "instagram": "None", "facebook": "None", "youtube": "None", "website": "None", "summary": "None", "logo": "None", "latitude": 49.866070000000036, "longitude": -56.79407999999995}, "107519407RR0001": {"name": "JACKSONTOWN BAPTIST CHURCH INC.", "designationCode": "C", "categoryCode": "31", "address": "1100 ROUTE 560", "city": "JACKSONVILLE", "province": "NB", "country": "CA", "postalCode": "E7M3L6", "twitter": "None", "instagram": "None", "facebook": "None", "youtube": "None", "website": "None", "summary": "None", "logo": "None", "latitude": 46.21688502382044, "longitude": -67.61319502761498}, "107519415RR0001": {"name": "JACKSONVILLE UNITED BAPTIST CHURCH", "designationCode": "C", "categoryCode": "31", "address": "433 ROUTE 560", "city": "JACKSONVILLE", "province": "NB", "country": "CA", "postalCode": "E7M3H4", "twitter": "None", "instagram": "None", "facebook": "None", "youtube": "None", "website": "None", "summary": "None", "logo": "None", "latitude": 46.201670492718605, "longitude": -67.61056026162703}, "118972561RR0001": {"name": "JACOB AND CATHERINE WOLAK FOUNDATION", "designationCode": "B", "categoryCode": "03", "address": "190 SIXTH STREET", "city": "TORONTO", "province": "ON", "country": "CA", "postalCode": "M8V3A5", "twitter": "None", "instagram": "None", "facebook": "None", "youtube": "None", "website": "None", "summary": "None", "logo": "None", "latitude": 43.60340177417988, "longitude": -79.50515982687766}, "118972579RR0001": {"name": "JACOB AND DOROTHY HENDELES FOUNDATION", "designationCode": "B", "categoryCode": "23", "address": "PO BOX 757, STATION F", "city": "TORONTO", "province": "ON", "country": "CA", "postalCode": "M4Y2N6", "twitter": "None", "instagram": "None", "facebook": "None", "youtube": "None", "website": "None", "summary": "None", "logo": "None", "latitude": 43.666332000000054, "longitude": -79.38025549999993}, "138890199RR0001": {"name": "JACOB HESPELER CHILD CARE CENTRE", "designationCode": "C", "categoryCode": "01", "address": "640 NEW HAMPSHIRE ST", "city": "WATERLOO", "province": "ON", "country": "CA", "postalCode": "N2K0A5", "twitter": "None", "instagram": "None", "facebook": "None", "youtube": "None", "website": "None", "summary": "None", "logo": "None", "latitude": 43.51342586037865, "longitude": -80.50378370367528}, "118972587RR0001": {"name": "JACOB-JOSEF CONGREGATION", "designationCode": "C", "categoryCode": "42", "address": "715 DU SABLON", "city": "CHOMEDEY", "province": "QC", "country": "CA", "postalCode": "H7W4H5", "twitter": "None", "instagram": "None", "facebook": "None", "youtube": "None", "website": "None", "summary": "None", "logo": "None", "latitude": 45.53160266582041, "longitude": -73.76959288813558}, "118972603RR0001": {"name": "JACOB'S WELL MINISTRIES INC.", "designationCode": "C", "categoryCode": "39", "address": "PO BOX 172", "city": "PARIS", "province": "ON", "country": "CA", "postalCode": "N3L3E7", "twitter": "None", "instagram": "None", "facebook": "None", "youtube": "None", "website": "None", "summary": "None", "logo": "None", "latitude": 43.190664000000055, "longitude": -80.38167199999994}, "884667916RR0001": {"name": "JACOB'S WELL MINISTRY", "designationCode": "C", "categoryCode": "49", "address": "543 POWELL ST", "city": "VANCOUVER", "province": "BC", "country": "CA", "postalCode": "V6A1G8", "twitter": "None", "instagram": "None", "facebook": "None", "youtube": "None", "website": "None", "summary": "None", "logo": "None", "latitude": 49.28310546768411, "longitude": -123.09234266472387}, "863109757RR0001": {"name": "JACS TORONTO", "designationCode": "C", "categoryCode": "57", "address": "858 SHEPPARD AVENUE WEST", "city": "TORONTO", "province": "ON", "country": "CA", "postalCode": "M3H2T5", "twitter": "None", "instagram": "None", "facebook": "None", "youtube": "None", "website": "None", "summary": "None", "logo": "None", "latitude": 43.75251220901365, "longitude": -79.45287921801601}, "862687225RR0001": {"name": "JADE INTERNATIONAL COMMUNITY DEVELOPMENT FOUNDATION", "designationCode": "C", "categoryCode": "01", "address": "302 - 10735 107 ST NW", "city": "EDMONTON", "province": "AB", "country": "CA", "postalCode": "T5H2Y9", "twitter": "None", "instagram": "None", "facebook": "None", "youtube": "None", "website": "None", "summary": "None", "logo": "None", "latitude": 53.5524927485429, "longitude": -113.50470722352728}, "118972637RR0001": {"name": "JAFFRAY UNITED CHURCH", "designationCode": "C", "categoryCode": "44", "address": "BOX 286", "city": "JAFFRAY", "province": "BC", "country": "CA", "postalCode": "V0B1T0", "twitter": "None", "instagram": "None", "facebook": "None", "youtube": "None", "website": "None", "summary": "None", "logo": "None", "latitude": 49.37577300000001, "longitude": -115.30324575}, "872243217RR0001": {"name": "JAFFRAY VOLUNTEER FIRE DEPARTMENT", "designationCode": "C", "categoryCode": "59", "address": "PO BOX 360", "city": "JAFFRAY", "province": "BC", "country": "CA", "postalCode": "V0B1T0", "twitter": "None", "instagram": "None", "facebook": "None", "youtube": "None", "website": "None", "summary": "None", "logo": "None"}, "866433816RR0001": {"name": "JAH-JIREH SENIORS MINISTRY ASSOCIATION", "designationCode": "C", "categoryCode": "61", "address": "490 DUTTON DR                 SUITE C9", "city": "WATERLOO", "province": "ON", "country": "CA", "postalCode": "N2L6H7", "twitter": "None", "instagram": "None", "facebook": "None", "youtube": "None", "website": "None", "summary": "None", "logo": "None", "latitude": 43.49395276244295, "longitude": -80.53872485967753}, "118972645RR0001": {"name": "JAI DURGA HINDU SOCIETY SCARBOROUGH", "designationCode": "C", "categoryCode": "48", "address": "37 UNITA GROVE", "city": "SCARBOROUGH", "province": "ON", "country": "CA", "postalCode": "M1B1S4", "twitter": "None", "instagram": "None", "facebook": "None", "youtube": "None", "website": "None", "summary": "None", "logo": "None", "latitude": 43.80184672162269, "longitude": -79.22661010687276}, "890872393RR0001": {"name": "JAI VAISHNO MATA SOCIETY", "designationCode": "B", "categoryCode": "39", "address": "68 LITTLES ROAD", "city": "SCARBOROUGH", "province": "ON", "country": "CA", "postalCode": "M1B5E2", "twitter": "None", "instagram": "None", "facebook": "None", "youtube": "None", "website": "None", "summary": "None", "logo": "None", "latitude": 43.81753628919735, "longitude": -79.2046838272547}, "867056749RR0001": {"name": "JAIN CENTER OF BRITISH COLUMBIA", "designationCode": "C", "categoryCode": "47", "address": "7162 EDMONDS ST", "city": "BURNABY", "province": "BC", "country": "CA", "postalCode": "V3N1A5", "twitter": "None", "instagram": "None", "facebook": "None", "youtube": "None", "website": "None", "summary": "None", "logo": "None", "latitude": 49.21630907380705, "longitude": -122.95494682289822}, "817858822RR0001": {"name": "JAIN SOCIETY OF TORONTO INC.", "designationCode": "C", "categoryCode": "39", "address": "48 ROSEMEADE AVE", "city": "ETOBICOKE", "province": "ON", "country": "CA", "postalCode": "M8Y3A5", "twitter": "None", "instagram": "None", "facebook": "None", "youtube": "None", "website": "None", "summary": "None", "logo": "None", "latitude": 43.62863610629584, "longitude": -79.50239505761998}, "866481187RR0001": {"name": "JAKABOVITS FAMILY FOUNDATION", "designationCode": "B", "categoryCode": "05", "address": "19500 TRANS CANADA HIGHWAY W", "city": "BAIE D'URFE", "province": "QC", "country": "CA", "postalCode": "H9X3S8", "twitter": "None", "instagram": "None", "facebook": "None", "youtube": "None", "website": "None", "summary": "None", "logo": "None", "latitude": 45.42002700000006, "longitude": -73.90578049999993}}