{"118936988RR0001": {"name": "GEORGE AND HELEN VARI FOUNDATION", "designationCode": "B", "categoryCode": "53", "address": "10 - 80 ST CLAIR AVE W", "city": "TORONTO", "province": "ON", "country": "CA", "postalCode": "M4V1N3", "twitter": "None", "instagram": "None", "facebook": "None", "youtube": "None", "website": "None", "summary": "None", "logo": "None", "latitude": 43.68788710460182, "longitude": -79.39487415272116}, "894217686RR0001": {"name": "GEORGE AND SARAH JOSE MEMORIAL FUND", "designationCode": "B", "categoryCode": "21", "address": "1121 COLLEGE DRIVE            UNIVERSITY OF SASKATCHEWAN", "city": "SASKATOON", "province": "SK", "country": "CA", "postalCode": "S7N0W3", "twitter": "None", "instagram": "None", "facebook": "None", "youtube": "None", "website": "None", "summary": "None", "logo": "None", "latitude": 52.128962474897484, "longitude": -106.64203066763807}, "118936996RR0001": {"name": "GEORGE BRAY SPORTS ASSOCIATION INC.", "designationCode": "C", "categoryCode": "56", "address": "9606 TOWER ROAD", "city": "ST THOMAS", "province": "ON", "country": "CA", "postalCode": "N5P3S7", "twitter": "None", "instagram": "None", "facebook": "None", "youtube": "None", "website": "None", "summary": "None", "logo": "None", "latitude": 42.78136294156658, "longitude": -81.11475305693911}, "108082868RR0001": {"name": "GEORGE BROWN COLLEGE OF APPLIED ARTS AND TECHNOLOGY", "designationCode": "C", "categoryCode": "20", "address": "500 MACPHERSON AVE", "city": "TORONTO", "province": "ON", "country": "CA", "postalCode": "M5R1M3", "twitter": "None", "instagram": "None", "facebook": "None", "youtube": "None", "website": "None", "summary": "None", "logo": "None", "latitude": 43.67549020901365, "longitude": -79.40940728449414}, "134491489RR0001": {"name": "GEORGE C GAUTHIER FOUNDATION INC.", "designationCode": "C", "categoryCode": "11", "address": "BOX 370", "city": "DUCK LAKE", "province": "SK", "country": "CA", "postalCode": "S0K1J0", "twitter": "None", "instagram": "None", "facebook": "None", "youtube": "None", "website": "None", "summary": "None", "logo": "None", "latitude": 52.809180000000026, "longitude": -106.22419999999994}, "872026984RR0001": {"name": "GEORGE C. HUNT FAMILY FOUNDATION", "designationCode": "B", "categoryCode": "05", "address": "470 FAITH DRIVE               UNIT 60", "city": "MISSISSAUGA", "province": "ON", "country": "CA", "postalCode": "L5R4E9", "twitter": "None", "instagram": "None", "facebook": "None", "youtube": "None", "website": "None", "summary": "None", "logo": "None", "latitude": 43.60473414986447, "longitude": -79.67272163566888}, "118937002RR0001": {"name": "GEORGE CALLAHAN FOUNDATION", "designationCode": "B", "categoryCode": "21", "address": "2939 HWY 169 P.O. BOX 200", "city": "BALA", "province": "ON", "country": "CA", "postalCode": "P0C1A0", "twitter": "None", "instagram": "None", "facebook": "None", "youtube": "None", "website": "None", "summary": "None", "logo": "None", "latitude": 45.00216015034666, "longitude": -79.60360961848166}, "895301067RR0001": {"name": "GEORGE CHUVALO RESEARCH GROUP INC.", "designationCode": "C", "categoryCode": "21", "address": "303 JANE ST", "city": "TORONTO", "province": "ON", "country": "CA", "postalCode": "M6S3Z3", "twitter": "None", "instagram": "None", "facebook": "None", "youtube": "None", "website": "None", "summary": "None", "logo": "None", "latitude": 43.65649228533319, "longitude": -79.48735520895579}, "136365558RR0001": {"name": "GEORGE DERBY CARE SOCIETY", "designationCode": "C", "categoryCode": "11", "address": "7550 CUMBERLAND ST", "city": "BURNABY", "province": "BC", "country": "CA", "postalCode": "V3N3X5", "twitter": "None", "instagram": "None", "facebook": "None", "youtube": "None", "website": "None", "summary": "None", "logo": "None", "latitude": 49.23191908194142, "longitude": -122.91775126252735}, "861242469RR0001": {"name": "GEORGE F. WADE FOUNDATION", "designationCode": "B", "categoryCode": "05", "address": "P.O. BOX 295", "city": "COLDBROOK", "province": "NS", "country": "CA", "postalCode": "B4R1B6", "twitter": "None", "instagram": "None", "facebook": "None", "youtube": "None", "website": "None", "summary": "None", "logo": "None", "latitude": 45.06687600000005, "longitude": -64.57854049999993}, "107424897RR0001": {"name": "GEORGE JEFFREY CHILDREN'S CENTRE", "designationCode": "C", "categoryCode": "20", "address": "200 BROCK STREET EAST", "city": "THUNDER BAY", "province": "ON", "country": "CA", "postalCode": "P7E0A2", "twitter": "None", "instagram": "None", "facebook": "None", "youtube": "None", "website": "None", "summary": "None", "logo": "None", "latitude": 48.368271878119245, "longitude": -89.27275464830554}, "854696770RR0001": {"name": "GEORGE JEFFREY CHILDREN'S FOUNDATION", "designationCode": "A", "categoryCode": "03", "address": "200 EAST BROCK STREET", "city": "THUNDER BAY", "province": "ON", "country": "CA", "postalCode": "P7E0A2", "twitter": "None", "instagram": "None", "facebook": "None", "youtube": "None", "website": "None", "summary": "None", "logo": "None", "latitude": 48.368271878119245, "longitude": -89.27275464830554}, "892000845RR0001": {"name": "GEORGE JOHNSON MINISTRIES INTERNATIONAL", "designationCode": "C", "categoryCode": "47", "address": "7416 VICTORIA DR", "city": "VANCOUVER", "province": "BC", "country": "CA", "postalCode": "V5P3Z3", "twitter": "None", "instagram": "None", "facebook": "None", "youtube": "None", "website": "None", "summary": "None", "logo": "None", "latitude": 49.217022000000014, "longitude": -123.06594992169222}, "118937051RR0001": {"name": "GEORGE LAKE AQUATIC RECREATION ASSOCIATION", "designationCode": "C", "categoryCode": "56", "address": "BOX 361", "city": "HINES CREEK", "province": "AB", "country": "CA", "postalCode": "T0H2A0", "twitter": "None", "instagram": "None", "facebook": "None", "youtube": "None", "website": "None", "summary": "None", "logo": "None", "latitude": 56.24589996667458, "longitude": -118.60465996667448}, "132730334RR0001": {"name": "GEORGE PEGG BOTANIC GARDEN SOCIETY", "designationCode": "C", "categoryCode": "52", "address": "BOX 463", "city": "SANGUDO", "province": "AB", "country": "CA", "postalCode": "T0E2A0", "twitter": "None", "instagram": "None", "facebook": "None", "youtube": "None", "website": "None", "summary": "None", "logo": "None", "latitude": 53.88934000000006, "longitude": -114.90204999999997}, "872942297RR0001": {"name": "GEORGE SHIPPEY MUSIC CENTRE CORPORATION", "designationCode": "C", "categoryCode": "56", "address": "635 - 4TH LINE                BOX253", "city": "PORT DOVER", "province": "ON", "country": "CA", "postalCode": "N0A1N0", "twitter": "None", "instagram": "None", "facebook": "None", "youtube": "None", "website": "None", "summary": "None", "logo": "None", "latitude": 43.091240093388464, "longitude": -80.18993937234765}, "107425944RR0001": {"name": "GEORGE STREET UNITED PASTORAL CHARGE", "designationCode": "C", "categoryCode": "44", "address": "25 BUCHANAN ST", "city": "ST. JOHN'S", "province": "NL", "country": "CA", "postalCode": "A1B0A4", "twitter": "None", "instagram": "None", "facebook": "None", "youtube": "None", "website": "None", "summary": "None", "logo": "None", "latitude": 47.55808769663575, "longitude": -52.7131446283686}, "890658941RR0001": {"name": "GEORGE T. BLACK MEMORIAL SCHOLARSHIP FUND", "designationCode": "C", "categoryCode": "21", "address": "155 LEGION DRIVE              P. O. BAG 2001", "city": "SOUTH PORCUPINE", "province": "ON", "country": "CA", "postalCode": "P0N1H0", "twitter": "None", "instagram": "None", "facebook": "None", "youtube": "None", "website": "None", "summary": "None", "logo": "None", "latitude": 48.48198481194273, "longitude": -81.21543503397876}, "107383903RR0001": {"name": "GEORGETOWN BAPTIST CHURCH", "designationCode": "C", "categoryCode": "31", "address": "P.O. BOX 249", "city": "GEORGETOWN", "province": "PE", "country": "CA", "postalCode": "C0A1L0", "twitter": "None", "instagram": "None", "facebook": "None", "youtube": "None", "website": "None", "summary": "None", "logo": "None", "latitude": 46.198799489087506, "longitude": -62.55041554596116}, "881229561RR0001": {"name": "GEORGETOWN BREAD BASKET", "designationCode": "C", "categoryCode": "09", "address": "12 - 55 SINCLAIR AVE", "city": "GEORGETOWN", "province": "ON", "country": "CA", "postalCode": "L7G4X4", "twitter": "None", "instagram": "None", "facebook": "None", "youtube": "None", "website": "None", "summary": "None", "logo": "None", "latitude": 43.65155378296494, "longitude": -79.89381114873835}, "853522084RR0001": {"name": "GEORGETOWN CEMETERY COMPANY LTD.", "designationCode": "C", "categoryCode": "59", "address": "P.O. BOX 342", "city": "HOWICK", "province": "QC", "country": "CA", "postalCode": "J0S1G0", "twitter": "None", "instagram": "None", "facebook": "None", "youtube": "None", "website": "None", "summary": "None", "logo": "None", "latitude": 45.18623000000008, "longitude": -73.84894999999995}, "857613194RR0001": {"name": "GEORGETOWN CHORAL SOCIETY", "designationCode": "C", "categoryCode": "22", "address": "24 CINDEBARKE TERRACE", "city": "GEORGETOWN", "province": "ON", "country": "CA", "postalCode": "L7G4S5", "twitter": "None", "instagram": "None", "facebook": "None", "youtube": "None", "website": "None", "summary": "None", "logo": "None"}, "856264197RR0001": {"name": "GEORGETOWN CHRISTIAN FELLOWSHIP", "designationCode": "C", "categoryCode": "36", "address": "13619 HWY 7 WEST              R.R.#1", "city": "GEORGETOWN", "province": "ON", "country": "CA", "postalCode": "L7G4S4", "twitter": "None", "instagram": "None", "facebook": "None", "youtube": "None", "website": "None", "summary": "None", "logo": "None", "latitude": 43.652725691225974, "longitude": -79.95409012376491}, "119288918RR0216": {"name": "GEORGETOWN CONGREGATION OF JEHOVAH'S WITNESSES,", "designationCode": "C", "categoryCode": "61", "address": "21 LYNDEN CIRCLE", "city": "GEORGETOWN", "province": "ON", "country": "CA", "postalCode": "L7G4Y7", "twitter": "None", "instagram": "None", "facebook": "None", "youtube": "None", "website": "None", "summary": "None", "logo": "None", "latitude": 43.66160960367975, "longitude": -79.91341527546089}, "889899399RR0001": {"name": "GEORGETOWN DISTRICT SENIORS CENTRE", "designationCode": "C", "categoryCode": "59", "address": "UNIT 9 318 GUELPH STREET      INDOOR MALL", "city": "GEORGETOWN", "province": "ON", "country": "CA", "postalCode": "L7G4B5", "twitter": "None", "instagram": "None", "facebook": "None", "youtube": "None", "website": "None", "summary": "None", "logo": "None", "latitude": 43.649580556697295, "longitude": -79.89113504538629}, "819622945RR0001": {"name": "GEORGETOWN HOSPITAL VOLUNTEER ASSOCIATION", "designationCode": "A", "categoryCode": "19", "address": "1 PRINCESS ANNE DRIVE", "city": "GEORGETOWN", "province": "ON", "country": "CA", "postalCode": "L7G2B8", "twitter": "None", "instagram": "None", "facebook": "None", "youtube": "None", "website": "None", "summary": "None", "logo": "None", "latitude": 43.644256322617736, "longitude": -79.93223459831167}, "862230752RR0001": {"name": "GEORGETOWN LITTLE THEATRE PRODUCTIONS INC.", "designationCode": "C", "categoryCode": "22", "address": "33 STEWARTTOWN ROAD", "city": "GEORGETOWN", "province": "ON", "country": "CA", "postalCode": "L7G4S5", "twitter": "None", "instagram": "None", "facebook": "None", "youtube": "None", "website": "None", "summary": "None", "logo": "None", "latitude": 43.630610917594616, "longitude": -79.92623629918066}, "107426165RR0001": {"name": "GEORGETOWN PRESBYTERIAN CHURCH", "designationCode": "C", "categoryCode": "37", "address": "18 RUE GALE", "city": "ORMSTOWN", "province": "QC", "country": "CA", "postalCode": "J0S1K0", "twitter": "None", "instagram": "None", "facebook": "None", "youtube": "None", "website": "None", "summary": "None", "logo": "None", "latitude": 45.12643602112049, "longitude": -73.99815358454018}, "118937226RR0001": {"name": "GEORGEVILLE UNITED CHURCH", "designationCode": "C", "categoryCode": "44", "address": "63 MAGOON POINT ROAD", "city": "GEORGEVILLE", "province": "QC", "country": "CA", "postalCode": "J0B1T0", "twitter": "None", "instagram": "None", "facebook": "None", "youtube": "None", "website": "None", "summary": "None", "logo": "None", "latitude": 45.13695657285476, "longitude": -72.2516485587165}, "871028387RR0001": {"name": "GEORGIA BASIN ECOLOGICAL ASSESSMENT AND RESTORATION SOCIETY", "designationCode": "C", "categoryCode": "52", "address": "PO BOX 41012                  RPO WOODGROVE", "city": "NANAIMO", "province": "BC", "country": "CA", "postalCode": "V9T6M7", "twitter": "None", "instagram": "None", "facebook": "None", "youtube": "None", "website": "None", "summary": "None", "logo": "None", "latitude": 49.222950548892, "longitude": -124.04011127817928}, "139942254RR0001": {"name": "GEORGIA STRAIT ALLIANCE", "designationCode": "C", "categoryCode": "59", "address": "195 COMMERCIAL STREET", "city": "NANAIMO", "province": "BC", "country": "CA", "postalCode": "V9R5G5", "twitter": "None", "instagram": "None", "facebook": "None", "youtube": "None", "website": "None", "summary": "None", "logo": "None", "latitude": 49.166173906745904, "longitude": -123.93690359371544}, "836382895RR0001": {"name": "GEORGIAN BAY CHILDREN'S CHOIR", "designationCode": "C", "categoryCode": "22", "address": "PO BOX 844 STN MAIN", "city": "OWEN SOUND", "province": "ON", "country": "CA", "postalCode": "N4K5W9", "twitter": "None", "instagram": "None", "facebook": "None", "youtube": "None", "website": "None", "summary": "None", "logo": "None", "latitude": 44.56423500000005, "longitude": -80.94243049999993}, "118937242RR0001": {"name": "GEORGIAN BAY CONCERT CHOIR", "designationCode": "C", "categoryCode": "22", "address": "890 4TH AVENUE EAST", "city": "OWEN SOUND", "province": "ON", "country": "CA", "postalCode": "N4K2N7", "twitter": "None", "instagram": "None", "facebook": "None", "youtube": "None", "website": "None", "summary": "None", "logo": "None", "latitude": 44.56600832861103, "longitude": -80.93912854916586}, "118937267RR0001": {"name": "GEORGIAN BAY FOLK SOCIETY", "designationCode": "C", "categoryCode": "22", "address": "1101 2ND AVENUE EAST", "city": "OWEN SOUND", "province": "ON", "country": "CA", "postalCode": "N4K5R1", "twitter": "None", "instagram": "None", "facebook": "None", "youtube": "None", "website": "None", "summary": "None", "logo": "None", "latitude": 44.57015839829394, "longitude": -80.94165632330349}, "895311066RR0001": {"name": "GEORGIAN BAY FOREVER", "designationCode": "C", "categoryCode": "52", "address": "PO BOX 75347 RPO LESLIE ST", "city": "TORONTO", "province": "ON", "country": "CA", "postalCode": "M4M1B3", "twitter": "None", "instagram": "None", "facebook": "None", "youtube": "None", "website": "None", "summary": "None", "logo": "None", "latitude": 43.66215870072909, "longitude": -79.3297383480421}, "107498693RR0001": {"name": "GEORGIAN BAY GENERAL HOSPITAL", "designationCode": "C", "categoryCode": "10", "address": "P.O. BOX 760", "city": "MIDLAND", "province": "ON", "country": "CA", "postalCode": "L4R1N6", "twitter": "None", "instagram": "None", "facebook": "None", "youtube": "None", "website": "None", "summary": "None", "logo": "None", "latitude": 44.694115000000124, "longitude": -79.8235328627946}, "118965789RR0001": {"name": "GEORGIAN BAY GENERAL HOSPITAL FOUNDATION", "designationCode": "A", "categoryCode": "15", "address": "P.O. BOX 760", "city": "MIDLAND", "province": "ON", "country": "CA", "postalCode": "L4R4P4", "twitter": "None", "instagram": "None", "facebook": "None", "youtube": "None", "website": "None", "summary": "None", "logo": "None", "latitude": 44.74989600000005, "longitude": -79.88850349999993}, "134895572RR0001": {"name": "GEORGIAN BAY NATIVE FRIENDSHIP CENTRE INC", "designationCode": "C", "categoryCode": "59", "address": "175 YONGE ST.", "city": "MIDLAND", "province": "ON", "country": "CA", "postalCode": "L4R2A7", "twitter": "None", "instagram": "None", "facebook": "None", "youtube": "None", "website": "None", "summary": "None", "logo": "None", "latitude": 44.752466501931615, "longitude": -79.86938043454374}, "118937275RR0001": {"name": "GEORGIAN BAY SYMPHONY", "designationCode": "C", "categoryCode": "22", "address": "PO BOX 133  STN MAIN", "city": "OWEN SOUND", "province": "ON", "country": "CA", "postalCode": "N4K5P1", "twitter": "None", "instagram": "None", "facebook": "None", "youtube": "None", "website": "None", "summary": "None", "logo": "None", "latitude": 44.56423500000005, "longitude": -80.94243049999993}, "864986377RR0001": {"name": "GEORGIAN BAY VOLUNTEER SEARCH AND RESCUE", "designationCode": "C", "categoryCode": "59", "address": "165 - 65 CEDAR POINTE DR", "city": "BARRIE", "province": "ON", "country": "CA", "postalCode": "L4N9R3", "twitter": "None", "instagram": "None", "facebook": "None", "youtube": "None", "website": "None", "summary": "None", "logo": "None", "latitude": 44.38389599999999, "longitude": -79.71144208477132}, "867219065RR0001": {"name": "GEORGIAN CRITICAL INCIDENT STRESS TEAM", "designationCode": "C", "categoryCode": "11", "address": "PO BOX 20157", "city": "BARRIE", "province": "ON", "country": "CA", "postalCode": "L4M6E9", "twitter": "None", "instagram": "None", "facebook": "None", "youtube": "None", "website": "None", "summary": "None", "logo": "None", "latitude": 44.38929300000005, "longitude": -79.68626449999994}, "139270888RR0001": {"name": "GEORGIAN CYCLE & SKI TRAIL ASSOCIATION", "designationCode": "C", "categoryCode": "56", "address": "BOX 151", "city": "COLLINGWOOD", "province": "ON", "country": "CA", "postalCode": "L9Y3Z5", "twitter": "None", "instagram": "None", "facebook": "None", "youtube": "None", "website": "None", "summary": "None", "logo": "None", "latitude": 44.49987600000006, "longitude": -80.21683249999994}, "871215661RR0001": {"name": "GEORGIAN NATIVE & OUTREACH MINISTRIES", "designationCode": "C", "categoryCode": "49", "address": "PO BOX 451 STN MAIN", "city": "PARRY SOUND", "province": "ON", "country": "CA", "postalCode": "P2A2X5", "twitter": "None", "instagram": "None", "facebook": "None", "youtube": "None", "website": "None", "summary": "None", "logo": "None", "latitude": 45.34362600000006, "longitude": -80.03579299999993}, "118937291RR0001": {"name": "GEORGIAN NORDIC SKI & CANOE CLUB", "designationCode": "C", "categoryCode": "56", "address": "BOX 42", "city": "PARRY SOUND", "province": "ON", "country": "CA", "postalCode": "P2A2X2", "twitter": "None", "instagram": "None", "facebook": "None", "youtube": "None", "website": "None", "summary": "None", "logo": "None", "latitude": 45.34362600000006, "longitude": -80.03579299999993}, "133723924RR0001": {"name": "GEORGIAN RIDING ASSOCIATION FOR CHALLENGED EQUESTRIANS", "designationCode": "C", "categoryCode": "56", "address": "P.O. BOX 992", "city": "OWEN SOUND", "province": "ON", "country": "CA", "postalCode": "N4K6H6", "twitter": "None", "instagram": "None", "facebook": "None", "youtube": "None", "website": "None", "summary": "None", "logo": "None", "latitude": 44.56423500000005, "longitude": -80.94243049999993}, "895262145RR0001": {"name": "GEORGIAN SHORES COMMUNITY CHURCH", "designationCode": "C", "categoryCode": "36", "address": "256 QUEEN ST                  BOX 574", "city": "VICTORIA HARBOUR", "province": "ON", "country": "CA", "postalCode": "L0K2A0", "twitter": "None", "instagram": "None", "facebook": "None", "youtube": "None", "website": "None", "summary": "None", "logo": "None", "latitude": 44.75410188591389, "longitude": -79.77090793242536}, "118937309RR0001": {"name": "GEORGIAN SHORES SWINGING SENIORS", "designationCode": "C", "categoryCode": "09", "address": "300 BALM BEACH RD", "city": "TINY", "province": "ON", "country": "CA", "postalCode": "L0L2J0", "twitter": "None", "instagram": "None", "facebook": "None", "youtube": "None", "website": "None", "summary": "None", "logo": "None", "latitude": 44.696497043308824, "longitude": -79.99319012300158}, "107021693RR0001": {"name": "GEORGIAN SHORES UNITED CHURCH", "designationCode": "C", "categoryCode": "44", "address": "BOX 774", "city": "OWEN SOUND", "province": "ON", "country": "CA", "postalCode": "N4K5W9", "twitter": "None", "instagram": "None", "facebook": "None", "youtube": "None", "website": "None", "summary": "None", "logo": "None", "latitude": 44.56423500000005, "longitude": -80.94243049999993}, "877433110RR0001": {"name": "GEORGIAN TRIANGLE RESIDENTIAL RESOURCE CENTRE", "designationCode": "C", "categoryCode": "09", "address": "115 HURONTARIO ST.            SUITE 105", "city": "COLLINGWOOD", "province": "ON", "country": "CA", "postalCode": "L9Y2L9", "twitter": "None", "instagram": "None", "facebook": "None", "youtube": "None", "website": "None", "summary": "None", "logo": "None", "latitude": 44.49992406385724, "longitude": -80.21678270994283}, "118937317RR0001": {"name": "GEORGIAN TRIANGLE TOURIST ASSOCIATION AND CONVENTION BUREAU", "designationCode": "C", "categoryCode": "59", "address": "45 ST. PAUL STREET", "city": "COLLINGWOOD", "province": "ON", "country": "CA", "postalCode": "L9Y3P1", "twitter": "None", "instagram": "None", "facebook": "None", "youtube": "None", "website": "None", "summary": "None", "logo": "None", "latitude": 44.5023033072907, "longitude": -80.21469281642159}, "871973616RR0001": {"name": "GEORGINA ARTS COUNCIL", "designationCode": "C", "categoryCode": "22", "address": "149 HIGH STREET               P O BOX 1455", "city": "SUTTON", "province": "ON", "country": "CA", "postalCode": "L0E1R0", "twitter": "None", "instagram": "None", "facebook": "None", "youtube": "None", "website": "None", "summary": "None", "logo": "None", "latitude": 44.304873355588555, "longitude": -79.36136622759531}, "834492639RR0001": {"name": "GEORGINA COMMUNITY FOOD PANTRY", "designationCode": "C", "categoryCode": "09", "address": "20849 DALTON ROAD PO BOX 851", "city": "SUTTON", "province": "ON", "country": "CA", "postalCode": "L0E1R0", "twitter": "None", "instagram": "None", "facebook": "None", "youtube": "None", "website": "None", "summary": "None", "logo": "None", "latitude": 44.30612828645603, "longitude": -79.36352969054849}, "885335919RR0001": {"name": "GEORGINA COMMUNITY HEALTH CARE COUNCIL", "designationCode": "C", "categoryCode": "11", "address": "CARE OF ACCOUNT GEORGINA      26557 CIVIC CENTRE ROAD", "city": "KESWICK", "province": "ON", "country": "CA", "postalCode": "L4P3G1", "twitter": "None", "instagram": "None", "facebook": "None", "youtube": "None", "website": "None", "summary": "None", "logo": "None", "latitude": 44.29627900769023, "longitude": -79.43830655612854}, "107426769RR0001": {"name": "GEORGINA GOSPEL ASSEMBLY INC.", "designationCode": "C", "categoryCode": "39", "address": "36 RIVERGLEN DRIVE", "city": "KESWICK", "province": "ON", "country": "CA", "postalCode": "L4P2P8", "twitter": "None", "instagram": "None", "facebook": "None", "youtube": "None", "website": "None", "summary": "None", "logo": "None", "latitude": 44.227760110219634, "longitude": -79.45071859149374}, "118937341RR0001": {"name": "GEORGINA HISTORICAL SOCIETY", "designationCode": "C", "categoryCode": "52", "address": "26552 CIVIC CENTRE RD", "city": "KESWICK", "province": "ON", "country": "CA", "postalCode": "L4P3G1", "twitter": "None", "instagram": "None", "facebook": "None", "youtube": "None", "website": "None", "summary": "None", "logo": "None", "latitude": 44.29616112486108, "longitude": -79.43839675586969}, "890452642RR0001": {"name": "GEORGINA ISLAND UNITED CHURCH", "designationCode": "C", "categoryCode": "44", "address": "PO BOX 917", "city": "SUTTON WEST", "province": "ON", "country": "CA", "postalCode": "L0E1R0", "twitter": "None", "instagram": "None", "facebook": "None", "youtube": "None", "website": "None", "summary": "None", "logo": "None", "latitude": 44.33123400000005, "longitude": -79.33264549999993}, "807222674RR0001": {"name": "GEORGINA MILITARY MUSEUM INCORPORATED", "designationCode": "C", "categoryCode": "50", "address": "26061 WOODBINE AVE            RR #2", "city": "KESWICK", "province": "ON", "country": "CA", "postalCode": "L4P3Y8", "twitter": "None", "instagram": "None", "facebook": "None", "youtube": "None", "website": "None", "summary": "None", "logo": "None", "latitude": 44.27885547331002, "longitude": -79.4599249910864}, "118937366RR0001": {"name": "GEORGINA SAWYER MEMORIAL FOUNDATION", "designationCode": "A", "categoryCode": "43", "address": "136 MIDPARK DRIVE SE", "city": "CALGARY", "province": "AB", "country": "CA", "postalCode": "T2X1S8", "twitter": "None", "instagram": "None", "facebook": "None", "youtube": "None", "website": "None", "summary": "None", "logo": "None", "latitude": 50.90963051096429, "longitude": -114.05607860101571}, "890585391RR0001": {"name": "GEORGINA-BROCK GARDEN CLUB", "designationCode": "C", "categoryCode": "56", "address": "9937 MORNING GLORY RD.", "city": "PEFFERLAW", "province": "ON", "country": "CA", "postalCode": "L0E1N0", "twitter": "None", "instagram": "None", "facebook": "None", "youtube": "None", "website": "None", "summary": "None", "logo": "None", "latitude": 44.3183398670151, "longitude": -79.21105581513659}, "893104042RR0001": {"name": "GERALD C BAINES CHARITABLE FOUNDATION", "designationCode": "B", "categoryCode": "13", "address": "700 RICHMOND STREET           SUITE 201", "city": "LONDON", "province": "ON", "country": "CA", "postalCode": "N6A5C7", "twitter": "None", "instagram": "None", "facebook": "None", "youtube": "None", "website": "None", "summary": "None", "logo": "None", "latitude": 42.99403521954524, "longitude": -81.25239318829719}, "107427585RR0001": {"name": "GERALDTON DISTRICT HOSPITAL", "designationCode": "C", "categoryCode": "10", "address": "500 HOGARTH AVE", "city": "GERALDTON", "province": "ON", "country": "CA", "postalCode": "P0T1M0", "twitter": "None", "instagram": "None", "facebook": "None", "youtube": "None", "website": "None", "summary": "None", "logo": "None", "latitude": 49.72285640833862, "longitude": -86.95487676544342}, "118937457RR0001": {"name": "GERALDTON FAITH CHAPEL", "designationCode": "C", "categoryCode": "39", "address": "1319 MAIN ST BOX 657", "city": "GERALDTON", "province": "ON", "country": "CA", "postalCode": "P0T1M0", "twitter": "None", "instagram": "None", "facebook": "None", "youtube": "None", "website": "None", "summary": "None", "logo": "None", "latitude": 49.70826840250079, "longitude": -86.95311637003483}, "131880353RR0001": {"name": "GERALDTON NATIVE HOUSING CORP", "designationCode": "C", "categoryCode": "09", "address": "226 MAY ST S", "city": "THUNDER BAY", "province": "ON", "country": "CA", "postalCode": "P7E1B4", "twitter": "None", "instagram": "None", "facebook": "None", "youtube": "None", "website": "None", "summary": "None", "logo": "None", "latitude": 48.38139000000001, "longitude": -89.24545910724812}, "119288918RR0118": {"name": "GERALDTON ONTARIO CONGREGATION OF JEHOVAH'S WITNESSES,", "designationCode": "C", "categoryCode": "61", "address": "BOX 1496", "city": "GERALDTON", "province": "ON", "country": "CA", "postalCode": "P0T1M0", "twitter": "None", "instagram": "None", "facebook": "None", "youtube": "None", "website": "None", "summary": "None", "logo": "None", "latitude": 49.73012979055605, "longitude": -86.95068883318625}, "897741237RR0001": {"name": "GERDA FRIEBERG CHARITABLE FOUNDATION", "designationCode": "B", "categoryCode": "03", "address": "SUITE 2204                    85 SKYMARK DRIVE", "city": "WILLOWDALE", "province": "ON", "country": "CA", "postalCode": "M2H3P2", "twitter": "None", "instagram": "None", "facebook": "None", "youtube": "None", "website": "None", "summary": "None", "logo": "None", "latitude": 43.79492939006789, "longitude": -79.35384696309647}, "872085949RR0001": {"name": "GEREMIA CHARITABLE TRUST FUND", "designationCode": "B", "categoryCode": "03", "address": "200, 1501 - 1 STREET S W", "city": "CALGARY", "province": "AB", "country": "CA", "postalCode": "T2R0W1", "twitter": "None", "instagram": "None", "facebook": "None", "youtube": "None", "website": "None", "summary": "None", "logo": "None", "latitude": 51.038317204830065, "longitude": -114.06603404319326}, "107428492RR0001": {"name": "GERMAN - CANADIAN BENEVOLENT SOCIETY OF BRITISH COLUMBIA", "designationCode": "C", "categoryCode": "01", "address": "2010 HARRISON DRIVE,", "city": "VANCOUVER", "province": "BC", "country": "CA", "postalCode": "V5P2P6", "twitter": "None", "instagram": "None", "facebook": "None", "youtube": "None", "website": "None", "summary": "None", "logo": "None", "latitude": 49.21018552314064, "longitude": -123.06477530561463}, "118937564RR0001": {"name": "GERMAN CANADIAN CHOIR ASSOCIATION", "designationCode": "C", "categoryCode": "22", "address": "314 SANDRINGHAM DRIVE", "city": "COURTICE", "province": "ON", "country": "CA", "postalCode": "L1E3A7", "twitter": "None", "instagram": "None", "facebook": "None", "youtube": "None", "website": "None", "summary": "None", "logo": "None", "latitude": 43.90868957949122, "longitude": -78.78092138620235}, "891256141RR0001": {"name": "GERMAN CANADIAN HERITAGE FOUNDATION OF MANITOBA INC.", "designationCode": "C", "categoryCode": "20", "address": "202-120 FORT STREET", "city": "WINNIPEG", "province": "MB", "country": "CA", "postalCode": "R3C1C7", "twitter": "None", "instagram": "None", "facebook": "None", "youtube": "None", "website": "None", "summary": "None", "logo": "None", "latitude": 49.88924010990253, "longitude": -97.13672334419158}, "118937580RR0001": {"name": "GERMAN CANADIAN MALE CHORUS OF CALGARY", "designationCode": "C", "categoryCode": "22", "address": "1923 BROADVIEW RD. N.W.", "city": "CALGARY", "province": "AB", "country": "CA", "postalCode": "T2N3H6", "twitter": "None", "instagram": "None", "facebook": "None", "youtube": "None", "website": "None", "summary": "None", "logo": "None", "latitude": 51.050141528997685, "longitude": -114.10448391618097}, "863758082RR0001": {"name": "GERMAN CANADIAN REMEMBRANCE SOCIETY", "designationCode": "C", "categoryCode": "59", "address": "41 RIVER ROAD EAST, UNIT B", "city": "KITCHENER", "province": "ON", "country": "CA", "postalCode": "N2B2G3", "twitter": "None", "instagram": "None", "facebook": "None", "youtube": "None", "website": "None", "summary": "None", "logo": "None", "latitude": 43.463534640256505, "longitude": -80.46384854876183}, "128967353RR0078": {"name": "GERMAN CATHOLIC CHURCH ST ALBERTUS PFARRGEMEINDE", "designationCode": "C", "categoryCode": "38", "address": "BOX 3620 STATION C", "city": "OTTAWA", "province": "ON", "country": "CA", "postalCode": "K1Y4J7", "twitter": "None", "instagram": "None", "facebook": "None", "youtube": "None", "website": "None", "summary": "None", "logo": "None", "latitude": 45.42177300000006, "longitude": -75.69115999999994}, "106864242RR0002": {"name": "GERMAN CHURCH OF GOD", "designationCode": "C", "categoryCode": "39", "address": "PO BOX 6632 STN MAIN", "city": "WETASKIWIN", "province": "AB", "country": "CA", "postalCode": "T9A2G3", "twitter": "None", "instagram": "None", "facebook": "None", "youtube": "None", "website": "None", "summary": "None", "logo": "None", "latitude": 52.96987500000006, "longitude": -113.37725149999994}, "106864242RR0003": {"name": "GERMAN CHURCH OF GOD", "designationCode": "C", "categoryCode": "39", "address": "265 BOWMAN STREET", "city": "HAMILTON", "province": "ON", "country": "CA", "postalCode": "L8S2T9", "twitter": "None", "instagram": "None", "facebook": "None", "youtube": "None", "website": "None", "summary": "None", "logo": "None", "latitude": 43.25013148819902, "longitude": -79.92037049497968}, "106864242RR0004": {"name": "GERMAN CHURCH OF GOD", "designationCode": "C", "categoryCode": "39", "address": "10135-85 AVENUE NW", "city": "EDMONTON", "province": "AB", "country": "CA", "postalCode": "T6E2K1", "twitter": "None", "instagram": "None", "facebook": "None", "youtube": "None", "website": "None", "summary": "None", "logo": "None", "latitude": 53.52092252120739, "longitude": -113.4931005}, "106864242RR0007": {"name": "GERMAN CHURCH OF GOD", "designationCode": "C", "categoryCode": "39", "address": "637 17 AVENUE N E", "city": "CALGARY", "province": "AB", "country": "CA", "postalCode": "T2E1M4", "twitter": "None", "instagram": "None", "facebook": "None", "youtube": "None", "website": "None", "summary": "None", "logo": "None", "latitude": 51.06780253370453, "longitude": -114.04947762439434}, "106864242RR0008": {"name": "GERMAN CHURCH OF GOD", "designationCode": "C", "categoryCode": "39", "address": "3705 MISSION SPRINGS DR.", "city": "KELOWNA", "province": "BC", "country": "CA", "postalCode": "V1W3L8", "twitter": "None", "instagram": "None", "facebook": "None", "youtube": "None", "website": "None", "summary": "None", "logo": "None", "latitude": 49.8511930993959, "longitude": -119.47903505876515}, "106864242RR0009": {"name": "GERMAN CHURCH OF GOD", "designationCode": "C", "categoryCode": "39", "address": "750 BRONX AVE", "city": "WINNIPEG", "province": "MB", "country": "CA", "postalCode": "R2K4E9", "twitter": "None", "instagram": "None", "facebook": "None", "youtube": "None", "website": "None", "summary": "None", "logo": "None", "latitude": 49.91877111183576, "longitude": -97.08051082321533}, "106864242RR0010": {"name": "GERMAN CHURCH OF GOD", "designationCode": "C", "categoryCode": "39", "address": "170 MIDDLEBURY DRIVE", "city": "WATERLOO", "province": "ON", "country": "CA", "postalCode": "N2T2M5", "twitter": "None", "instagram": "None", "facebook": "None", "youtube": "None", "website": "None", "summary": "None", "logo": "None", "latitude": 43.44285282405205, "longitude": -80.55301901797608}, "106864242RR0011": {"name": "GERMAN CHURCH OF GOD", "designationCode": "C", "categoryCode": "39", "address": "200 - 2928 29 ST", "city": "VERNON", "province": "BC", "country": "CA", "postalCode": "V1T5A6", "twitter": "None", "instagram": "None", "facebook": "None", "youtube": "None", "website": "None", "summary": "None", "logo": "None", "latitude": 50.263215878126104, "longitude": -119.26913999702613}, "106864242RR0012": {"name": "GERMAN CHURCH OF GOD", "designationCode": "C", "categoryCode": "39", "address": "5 BRADLEY ST.", "city": "AYLMER", "province": "ON", "country": "CA", "postalCode": "N5H2Y4", "twitter": "None", "instagram": "None", "facebook": "None", "youtube": "None", "website": "None", "summary": "None", "logo": "None", "latitude": 42.7617352694519, "longitude": -80.98319517005655}, "106864242RR0013": {"name": "GERMAN CHURCH OF GOD", "designationCode": "C", "categoryCode": "39", "address": "9 MCARTHUR ST", "city": "WESTON", "province": "ON", "country": "CA", "postalCode": "M9P3M6", "twitter": "None", "instagram": "None", "facebook": "None", "youtube": "None", "website": "None", "summary": "None", "logo": "None", "latitude": 43.698742763258096, "longitude": -79.54461141116064}, "106864242RR0015": {"name": "GERMAN CHURCH OF GOD (CHILLIWACK, B.C.)", "designationCode": "C", "categoryCode": "39", "address": "45814 LEWIS AVE", "city": "CHILLIWACK", "province": "BC", "country": "CA", "postalCode": "V2P3C4", "twitter": "None", "instagram": "None", "facebook": "None", "youtube": "None", "website": "None", "summary": "None", "logo": "None", "latitude": 49.177539549483924, "longitude": -121.95696349570083}, "118937762RR0001": {"name": "GERMAN EVANGELICAL ALLIANCE OF CALGARY", "designationCode": "C", "categoryCode": "49", "address": "1043-16A ST. NE", "city": "CALGARY", "province": "AB", "country": "CA", "postalCode": "T2E4T3", "twitter": "None", "instagram": "None", "facebook": "None", "youtube": "None", "website": "None", "summary": "None", "logo": "None", "latitude": 51.062164323619356, "longitude": -114.02049763364872}, "889453197RR0001": {"name": "GERMAN EVANGELICAL ALLIANCE OF KITCHENER", "designationCode": "C", "categoryCode": "47", "address": "94 FOXGLOVE CRES", "city": "KITCHENER", "province": "ON", "country": "CA", "postalCode": "N2E3Y8", "twitter": "None", "instagram": "None", "facebook": "None", "youtube": "None", "website": "None", "summary": "None", "logo": "None", "latitude": 43.41101045796058, "longitude": -80.52706194852551}, "853211167RR0001": {"name": "GERMAN EVANGELICAL MARTIN LUTHER CHURCH OF OTTAWA INC.", "designationCode": "C", "categoryCode": "32", "address": "499 PRESTON STREET", "city": "OTTAWA", "province": "ON", "country": "CA", "postalCode": "K1S4N7", "twitter": "None", "instagram": "None", "facebook": "None", "youtube": "None", "website": "None", "summary": "None", "logo": "None", "latitude": 45.39811605773555, "longitude": -75.70797047680205}, "893754432RR0001": {"name": "GERMAN GOSPEL CHURCH", "designationCode": "C", "categoryCode": "39", "address": "223 UNION ST.E", "city": "WATERLOO", "province": "ON", "country": "CA", "postalCode": "N2J1E1", "twitter": "None", "instagram": "None", "facebook": "None", "youtube": "None", "website": "None", "summary": "None", "logo": "None", "latitude": 43.46605643989852, "longitude": -80.50312024756195}, "886046192RR0001": {"name": "GERMAN HERITAGE LANGUAGE SCHOOL ASSOCIATION OF NOVA SCOTIA", "designationCode": "C", "categoryCode": "20", "address": "30 BOUTILIERS LANE", "city": "DARTMOUTH", "province": "NS", "country": "CA", "postalCode": "B2X2H7", "twitter": "None", "instagram": "None", "facebook": "None", "youtube": "None", "website": "None", "summary": "None", "logo": "None", "latitude": 44.69509453589391, "longitude": -63.549194764815944}, "887961043RR0001": {"name": "GERMAN HERITAGE LANGUAGE SCHOOL PARENT ASSOCIATION", "designationCode": "C", "categoryCode": "21", "address": "5846 PAGE CRESCENT", "city": "BURLINGTON", "province": "ON", "country": "CA", "postalCode": "L7L7P1", "twitter": "None", "instagram": "None", "facebook": "None", "youtube": "None", "website": "None", "summary": "None", "logo": "None", "latitude": 43.40509422038196, "longitude": -79.78255189399262}, "140650896RR0001": {"name": "GERMAN LADIES CHOIR OF CALGARY", "designationCode": "C", "categoryCode": "22", "address": "319-33 ARBOUR GROVE CLOSE NW", "city": "CALGARY", "province": "AB", "country": "CA", "postalCode": "T3G4K2", "twitter": "None", "instagram": "None", "facebook": "None", "youtube": "None", "website": "None", "summary": "None", "logo": "None", "latitude": 51.126965999999996, "longitude": -114.20880525}, "891604464RR0001": {"name": "GERMAN LANGUAGE SCHOOL LONDON", "designationCode": "C", "categoryCode": "20", "address": "592 MAITLAND ST", "city": "LONDON", "province": "ON", "country": "CA", "postalCode": "N6B2Z7", "twitter": "None", "instagram": "None", "facebook": "None", "youtube": "None", "website": "None", "summary": "None", "logo": "None", "latitude": 42.99269887122737, "longitude": -81.23967030665382}, "811666940RR0001": {"name": "GERMAN LANGUAGE SCHOOL LORELEY INC.", "designationCode": "C", "categoryCode": "20", "address": "1004 RIDGEMOUNT BOULEVARD", "city": "OSHAWA", "province": "ON", "country": "CA", "postalCode": "L1K2K6", "twitter": "None", "instagram": "None", "facebook": "None", "youtube": "None", "website": "None", "summary": "None", "logo": "None", "latitude": 43.933022151537905, "longitude": -78.83873494866975}, "866678717RR0001": {"name": "GERMAN MENNONITE BRETHREN CHURCH", "designationCode": "C", "categoryCode": "34", "address": "172 OLIVER TRAIL", "city": "SCHANZENFELD", "province": "MB", "country": "CA", "postalCode": "R6W0A2", "twitter": "None", "instagram": "None", "facebook": "None", "youtube": "None", "website": "None", "summary": "None", "logo": "None", "latitude": 49.145066537717724, "longitude": -97.9397219146657}, "863774832RR0001": {"name": "GERMAN SHEPHERD RESCUE OF B.C.", "designationCode": "C", "categoryCode": "54", "address": "127-86014 VEDDER ROAD", "city": "CHILLIWACK", "province": "BC", "country": "CA", "postalCode": "V2R5P5", "twitter": "None", "instagram": "None", "facebook": "None", "youtube": "None", "website": "None", "summary": "None", "logo": "None", "latitude": 49.12844968702378, "longitude": -121.96005626637218}, "118937531RR0001": {"name": "GERMAN-CANADIAN BENEVOLENT FUND INC.", "designationCode": "C", "categoryCode": "03", "address": "OFFICE - 33 EDMONTON ST", "city": "WINNIPEG", "province": "MB", "country": "CA", "postalCode": "R3C1P8", "twitter": "None", "instagram": "None", "facebook": "None", "youtube": "None", "website": "None", "summary": "None", "logo": "None", "latitude": 49.8843361357262, "longitude": -97.14279758448286}, "889502845RR0001": {"name": "GERMAN-CANADIAN BUSINESS AND PROFESSIONAL ASSOCIATION OF MANITOBA CHARITABLE TRUST", "designationCode": "C", "categoryCode": "21", "address": "67 RUTGERS BAY", "city": "WINNIPEG", "province": "MB", "country": "CA", "postalCode": "R3T3C9", "twitter": "None", "instagram": "None", "facebook": "None", "youtube": "None", "website": "None", "summary": "None", "logo": "None", "latitude": 49.79421507187382, "longitude": -97.14268160681543}, "860438209RR0001": {"name": "GERMAN-CANADIAN EDUCATION FUND", "designationCode": "C", "categoryCode": "21", "address": "56 PERIN PL", "city": "KITCHENER", "province": "ON", "country": "CA", "postalCode": "N2P1L5", "twitter": "None", "instagram": "None", "facebook": "None", "youtube": "None", "website": "None", "summary": "None", "logo": "None", "latitude": 43.39427302663174, "longitude": -80.4486933691499}, "118937572RR0001": {"name": "GERMAN-CANADIAN HISTORICAL ASSOCIATION", "designationCode": "C", "categoryCode": "50", "address": "UNIV. OF PRINCE EDWARD ISLAND", "city": "CHARLOTTETOWN", "province": "PE", "country": "CA", "postalCode": "C1A4P3", "twitter": "None", "instagram": "None", "facebook": "None", "youtube": "None", "website": "None", "summary": "None", "logo": "None", "latitude": 46.25683001110853, "longitude": -63.141939973887816}, "118937598RR0001": {"name": "GERMAN-CANADIAN SENIOR CITIZENS HOME OF METROPOLITAN TORONTO INC.", "designationCode": "C", "categoryCode": "01", "address": "1525 CORNWALL ROAD, UNIT 8", "city": "OAKVILLE", "province": "ON", "country": "CA", "postalCode": "L6J0B2", "twitter": "None", "instagram": "None", "facebook": "None", "youtube": "None", "website": "None", "summary": "None", "logo": "None", "latitude": 43.47876702472717, "longitude": -79.65902486363863}, "118937879RR0001": {"name": "GEROUSIA INC.", "designationCode": "C", "categoryCode": "53", "address": "81 WOOD ST., BOX 120", "city": "DRAYTON", "province": "ON", "country": "CA", "postalCode": "N0G1P0", "twitter": "None", "instagram": "None", "facebook": "None", "youtube": "None", "website": "None", "summary": "None", "logo": "None", "latitude": 43.753604348233246, "longitude": -80.66494294534348}}