{"853993079RR0001": {"name": "NORTH SIMCOE EMERGENCY AND TRANSITIONAL RESIDENTIAL PROJECTS", "designationCode": "C", "categoryCode": "09", "address": "102-850 HARTMAN DR", "city": "MIDLAND", "province": "ON", "country": "CA", "postalCode": "L4R0B6", "twitter": "None", "instagram": "None", "facebook": "None", "youtube": "None", "website": "None", "summary": "None", "logo": "None", "latitude": 44.74114633083752, "longitude": -79.89811932545383}, "135837748RR0001": {"name": "NORTH SIMCOE MUSKOKA HOSPICE PALLIATIVE CARE NETWORK", "designationCode": "C", "categoryCode": "01", "address": "169 FRONT ST S", "city": "ORILLIA", "province": "ON", "country": "CA", "postalCode": "L3V4S8", "twitter": "None", "instagram": "None", "facebook": "None", "youtube": "None", "website": "None", "summary": "None", "logo": "None", "latitude": 44.60573369804706, "longitude": -79.4109285}, "869764829RR0001": {"name": "NORTH SIMCOE VICTIM CRISIS SERVICES", "designationCode": "C", "categoryCode": "09", "address": "66 PETER STREET SOUTH", "city": "ORILLIA", "province": "ON", "country": "CA", "postalCode": "L3V5B1", "twitter": "None", "instagram": "None", "facebook": "None", "youtube": "None", "website": "None", "summary": "None", "logo": "None", "latitude": 44.60671691101606, "longitude": -79.41563998657352}, "890532179RR0001": {"name": "NORTH STAR CEMETERY CO", "designationCode": "C", "categoryCode": "59", "address": "BOX 65", "city": "NORTH STAR", "province": "AB", "country": "CA", "postalCode": "T0H2T0", "twitter": "None", "instagram": "None", "facebook": "None", "youtube": "None", "website": "None", "summary": "None", "logo": "None", "latitude": 52.298559525102526, "longitude": -114.10319313918865}, "837479559RR0001": {"name": "NORTH STAR FOUNDATION", "designationCode": "B", "categoryCode": "03", "address": "1102 - 40 BOTELER ST", "city": "OTTAWA", "province": "ON", "country": "CA", "postalCode": "K1N9C8", "twitter": "None", "instagram": "None", "facebook": "None", "youtube": "None", "website": "None", "summary": "None", "logo": "None", "latitude": 45.43486898884848, "longitude": -75.69587078192711}, "896726072RR0001": {"name": "NORTH STAR MONTESSORI ELEMENTARY SOCIETY", "designationCode": "C", "categoryCode": "20", "address": "1325 EAST KEITH ROAD", "city": "NORTH VANCOUVER", "province": "BC", "country": "CA", "postalCode": "V7J1J3", "twitter": "None", "instagram": "None", "facebook": "None", "youtube": "None", "website": "None", "summary": "None", "logo": "None", "latitude": 49.31325252005357, "longitude": -123.03764172300768}, "892969767RR0001": {"name": "NORTH STAR TOY LENDING LIBRARY", "designationCode": "C", "categoryCode": "50", "address": "185 OTTAWA AVE", "city": "ELLIOT LAKE", "province": "ON", "country": "CA", "postalCode": "P5A2N3", "twitter": "None", "instagram": "None", "facebook": "None", "youtube": "None", "website": "None", "summary": "None", "logo": "None", "latitude": 46.37806402801683, "longitude": -82.66542216824679}, "887456069RR0001": {"name": "NORTH SURREY GOSPEL CHAPEL,", "designationCode": "C", "categoryCode": "39", "address": "PO BOX 33553 CENTRAL CITY", "city": "SURREY", "province": "BC", "country": "CA", "postalCode": "V3T5R5", "twitter": "None", "instagram": "None", "facebook": "None", "youtube": "None", "website": "None", "summary": "None", "logo": "None", "latitude": 49.19459934321265, "longitude": -122.84818947275335}, "817398670RR0001": {"name": "NORTH SURREY VINEYARD CHURCH ASSOCIATION", "designationCode": "C", "categoryCode": "39", "address": "PO BOX 870                    STN FORT LANGLEY", "city": "LANGLEY", "province": "BC", "country": "CA", "postalCode": "V1M2S2", "twitter": "None", "instagram": "None", "facebook": "None", "youtube": "None", "website": "None", "summary": "None", "logo": "None", "latitude": 49.16854007718262, "longitude": -122.57416995556595}, "106831712RR0001": {"name": "NORTH SYDNEY CALVARY UNITED BAPTIST CHURCH", "designationCode": "C", "categoryCode": "31", "address": "P.O. BOX 1825", "city": "NORTH SYDNEY", "province": "NS", "country": "CA", "postalCode": "B2A3S9", "twitter": "None", "instagram": "None", "facebook": "None", "youtube": "None", "website": "None", "summary": "None", "logo": "None", "latitude": 46.20710400000006, "longitude": -60.25146199999993}, "891350241RR0001": {"name": "NORTH SYDNEY FOOD BANK SOCIETY", "designationCode": "C", "categoryCode": "09", "address": "P.O. BOX 254                  100 KING ST.", "city": "NORTH SYDNEY", "province": "NS", "country": "CA", "postalCode": "B2A3M3", "twitter": "None", "instagram": "None", "facebook": "None", "youtube": "None", "website": "None", "summary": "None", "logo": "None", "latitude": 46.21305241961477, "longitude": -60.26138610398722}, "119061679RR0001": {"name": "NORTH SYDNEY HISTORICAL SOCIETY", "designationCode": "C", "categoryCode": "50", "address": "PO BOX 163", "city": "NORTH SYDNEY", "province": "NS", "country": "CA", "postalCode": "B2A3M3", "twitter": "None", "instagram": "None", "facebook": "None", "youtube": "None", "website": "None", "summary": "None", "logo": "None", "latitude": 46.20710400000006, "longitude": -60.25146199999993}, "119288918RR0117": {"name": "NORTH SYDNEY NOVA SCOTIA CONGREGATION OF JEHOVAH'S WITNESSES,", "designationCode": "C", "categoryCode": "61", "address": "12 BEECH ST", "city": "NORTH SYDNEY", "province": "NS", "country": "CA", "postalCode": "B2A1H3", "twitter": "None", "instagram": "None", "facebook": "None", "youtube": "None", "website": "None", "summary": "None", "logo": "None", "latitude": 46.20323535607949, "longitude": -60.25785324522468}, "107669848RR0016": {"name": "NORTH SYDNEY SEVENTH-DAY ADVENTIST CHURCH", "designationCode": "C", "categoryCode": "41", "address": "121 SALISBURY RD", "city": "MONCTON", "province": "NB", "country": "CA", "postalCode": "E1E1A6", "twitter": "None", "instagram": "None", "facebook": "None", "youtube": "None", "website": "None", "summary": "None", "logo": "None", "latitude": 46.0711640413756, "longitude": -64.82144086984238}, "863184404RR0001": {"name": "NORTH THOMPSON COMMUNITIES FOUNDATION", "designationCode": "A", "categoryCode": "03", "address": "POST OFFICE BOX 121", "city": "CLEARWATER", "province": "BC", "country": "CA", "postalCode": "V0E1N0", "twitter": "None", "instagram": "None", "facebook": "None", "youtube": "None", "website": "None", "summary": "None", "logo": "None", "latitude": 51.650960000000055, "longitude": -120.03805999999997}, "119288918RR0579": {"name": "NORTH THOMPSON CONGREGATION OF JEHOVAH'S WITNESSES", "designationCode": "C", "categoryCode": "61", "address": "#803-525 NICOLA STREET", "city": "KAMLOOPS", "province": "BC", "country": "CA", "postalCode": "V2C6J5", "twitter": "None", "instagram": "None", "facebook": "None", "youtube": "None", "website": "None", "summary": "None", "logo": "None", "latitude": 50.672260499567315, "longitude": -120.32890038634658}, "108154311RR0001": {"name": "NORTH THOMPSON ECUMENICAL SHARED MINISTRY", "designationCode": "C", "categoryCode": "44", "address": "324 SCHMIDT ROAD", "city": "CLEARWATER", "province": "BC", "country": "CA", "postalCode": "V0E1N2", "twitter": "None", "instagram": "None", "facebook": "None", "youtube": "None", "website": "None", "summary": "None", "logo": "None", "latitude": 51.63404623503981, "longitude": -120.0952610499166}, "136403029RR0001": {"name": "NORTH THOMPSON RECREATION SOCIETY", "designationCode": "C", "categoryCode": "56", "address": "BOX 647", "city": "BARRIERE", "province": "BC", "country": "CA", "postalCode": "V0E1E0", "twitter": "None", "instagram": "None", "facebook": "None", "youtube": "None", "website": "None", "summary": "None", "logo": "None", "latitude": 51.29213204437867, "longitude": -119.92919375050194}, "859584872RR0001": {"name": "NORTH THOMPSON VOLUNTEER AND INFORMATION CENTRE", "designationCode": "C", "categoryCode": "59", "address": "4936 BARRIERE TOWN RD         PO BOX 1520", "city": "BARRIERE", "province": "BC", "country": "CA", "postalCode": "V0E1E0", "twitter": "None", "instagram": "None", "facebook": "None", "youtube": "None", "website": "None", "summary": "None", "logo": "None", "latitude": 51.18499400387444, "longitude": -120.123426775651}, "836079673RR0001": {"name": "NORTH TORONTO CAT RESCUE", "designationCode": "C", "categoryCode": "54", "address": "28 JOHN STIVER CRESCENT", "city": "MARKHAM", "province": "ON", "country": "CA", "postalCode": "L3R9A8", "twitter": "None", "instagram": "None", "facebook": "None", "youtube": "None", "website": "None", "summary": "None", "logo": "None", "latitude": 43.861329021640096, "longitude": -79.35452624704236}, "864677398RR0001": {"name": "NORTH TORONTO CHINESE ALLIANCE CHURCH", "designationCode": "C", "categoryCode": "39", "address": "11221 BAYVIEW AVENUE", "city": "RICHMOND HILL", "province": "ON", "country": "CA", "postalCode": "L4S1L8", "twitter": "None", "instagram": "None", "facebook": "None", "youtube": "None", "website": "None", "summary": "None", "logo": "None", "latitude": 43.904900932569596, "longitude": -79.42258638943458}, "131135972RR0001": {"name": "NORTH TORONTO CHINESE BAPTIST CHURCH", "designationCode": "C", "categoryCode": "31", "address": "88 FINCH AVE W", "city": "NORTH YORK", "province": "ON", "country": "CA", "postalCode": "M2N2H7", "twitter": "None", "instagram": "None", "facebook": "None", "youtube": "None", "website": "None", "summary": "None", "logo": "None", "latitude": 43.77808112519461, "longitude": -79.42326608993586}, "107785115RR0001": {"name": "NORTH TORONTO CHRISTIAN SCHOOL (INTERDENOMINATIONAL)", "designationCode": "C", "categoryCode": "20", "address": "255 YORKLAND BLVD", "city": "TORONTO", "province": "ON", "country": "CA", "postalCode": "M2J1S3", "twitter": "None", "instagram": "None", "facebook": "None", "youtube": "None", "website": "None", "summary": "None", "logo": "None", "latitude": 43.773461539269455, "longitude": -79.3365023802584}, "119061752RR0001": {"name": "NORTH TORONTO COLLEGIATE INSTITUTE FOUNDATION", "designationCode": "C", "categoryCode": "21", "address": "17 BROADWAY AVENUE", "city": "TORONTO", "province": "ON", "country": "CA", "postalCode": "M4P1T7", "twitter": "None", "instagram": "None", "facebook": "None", "youtube": "None", "website": "None", "summary": "None", "logo": "None", "latitude": 43.709870809308214, "longitude": -79.39726459893824}, "844266072RR0001": {"name": "NORTH TORONTO COMMUNITY BAND", "designationCode": "C", "categoryCode": "22", "address": "52 ELLSWORTH AVE", "city": "TORONTO", "province": "ON", "country": "CA", "postalCode": "M6G2K3", "twitter": "None", "instagram": "None", "facebook": "None", "youtube": "None", "website": "None", "summary": "None", "logo": "None", "latitude": 43.68167217236992, "longitude": -79.42133940397595}, "889342374RR0001": {"name": "NORTH TORONTO HISTORICAL SOCIETY", "designationCode": "C", "categoryCode": "50", "address": "283 DELORAINE AVE", "city": "TORONTO", "province": "ON", "country": "CA", "postalCode": "M5M2B2", "twitter": "None", "instagram": "None", "facebook": "None", "youtube": "None", "website": "None", "summary": "None", "logo": "None", "latitude": 43.731701802094854, "longitude": -79.41481762155928}, "136654175RR0001": {"name": "NORTH TORONTO PLAYERS", "designationCode": "C", "categoryCode": "22", "address": "1267 BRAMBLEWOOD LANE", "city": "MISSISSAUGA", "province": "ON", "country": "CA", "postalCode": "L5H1L9", "twitter": "None", "instagram": "None", "facebook": "None", "youtube": "None", "website": "None", "summary": "None", "logo": "None", "latitude": 43.529698760747934, "longitude": -79.61385359841864}, "119288918RR0647": {"name": "NORTH TRANSCONA CONGREGATION OF JEHOVAH'S WITNESSES", "designationCode": "C", "categoryCode": "61", "address": "127 SPRING MEADOW CRES", "city": "WINNIPEG", "province": "MB", "country": "CA", "postalCode": "R2C4M3", "twitter": "None", "instagram": "None", "facebook": "None", "youtube": "None", "website": "None", "summary": "None", "logo": "None", "latitude": 49.91093367138898, "longitude": -97.02364026614362}, "119061794RR0001": {"name": "NORTH TRYON PRESBYTERIAN CHURCH", "designationCode": "C", "categoryCode": "37", "address": "23509 TRANS CANADA HIGHWAY", "city": "BORDEN CARLETON", "province": "PE", "country": "CA", "postalCode": "C0B1X0", "twitter": "None", "instagram": "None", "facebook": "None", "youtube": "None", "website": "None", "summary": "None", "logo": "None", "latitude": 46.25572683484343, "longitude": -63.66006731903173}, "135849107RR0001": {"name": "NORTH VALLEY BAPTIST CHURCH", "designationCode": "C", "categoryCode": "31", "address": "PO BOX 20019 RPO HILLS", "city": "MISSION", "province": "BC", "country": "CA", "postalCode": "V2V7P8", "twitter": "None", "instagram": "None", "facebook": "None", "youtube": "None", "website": "None", "summary": "None", "logo": "None", "latitude": 49.149195679623936, "longitude": -122.30703133511139}, "119061943RR0001": {"name": "NORTH VANCOUVER CITY LIBRARY", "designationCode": "C", "categoryCode": "50", "address": "120 WEST 14TH STREET", "city": "NORTH VANCOUVER", "province": "BC", "country": "CA", "postalCode": "V7M1N9", "twitter": "None", "instagram": "None", "facebook": "None", "youtube": "None", "website": "None", "summary": "None", "logo": "None", "latitude": 49.3211540927445, "longitude": -123.0745167481451}, "131769713RR0001": {"name": "NORTH VANCOUVER COMMUNITY PLAYERS", "designationCode": "C", "categoryCode": "22", "address": "815 EAST 11TH ST", "city": "NORTH VANCOUVER", "province": "BC", "country": "CA", "postalCode": "V7L1L6", "twitter": "None", "instagram": "None", "facebook": "None", "youtube": "None", "website": "None", "summary": "None", "logo": "None", "latitude": 49.317664528420764, "longitude": -123.05140119317329}, "868886490RR0001": {"name": "NORTH VANCOUVER DISTRICT PUBLIC LIBRARY", "designationCode": "C", "categoryCode": "50", "address": "1277 LYNN VALLEY RD", "city": "NORTH VANCOUVER", "province": "BC", "country": "CA", "postalCode": "V7J0A2", "twitter": "None", "instagram": "None", "facebook": "None", "youtube": "None", "website": "None", "summary": "None", "logo": "None", "latitude": 49.33661381018311, "longitude": -123.03886393415115}, "119061976RR0001": {"name": "NORTH VANCOUVER KIWANIS FOUNDATION", "designationCode": "A", "categoryCode": "63", "address": "170 2ND ST W", "city": "NORTH VANCOUVER", "province": "BC", "country": "CA", "postalCode": "V7M1C4", "twitter": "None", "instagram": "None", "facebook": "None", "youtube": "None", "website": "None", "summary": "None", "logo": "None", "latitude": 49.313838403571914, "longitude": -123.08043032304245}, "866771496RR0001": {"name": "NORTH VANCOUVER KOREAN PRESBYTERIAN CHURCH", "designationCode": "C", "categoryCode": "39", "address": "403 - 1475 ESQUIMALT AVE", "city": "WEST VANCOUVER", "province": "BC", "country": "CA", "postalCode": "V7T1L2", "twitter": "None", "instagram": "None", "facebook": "None", "youtube": "None", "website": "None", "summary": "None", "logo": "None", "latitude": 49.33061151154121, "longitude": -123.15587986219631}, "140996216RR0001": {"name": "NORTH VANCOUVER OUTDOOR SCHOOL ALUMNI SOCIETY", "designationCode": "C", "categoryCode": "21", "address": "BOX 250", "city": "BRACKENDALE", "province": "BC", "country": "CA", "postalCode": "V0N1H0", "twitter": "None", "instagram": "None", "facebook": "None", "youtube": "None", "website": "None", "summary": "None", "logo": "None", "latitude": 49.765930000000026, "longitude": -123.13947999999999}, "119076008RR0002": {"name": "NORTH WELLINGTON HEALTH CARE CORPORATION", "designationCode": "C", "categoryCode": "10", "address": "630 DUBLIN ST", "city": "MOUNT FOREST", "province": "ON", "country": "CA", "postalCode": "N0G2L3", "twitter": "None", "instagram": "None", "facebook": "None", "youtube": "None", "website": "None", "summary": "None", "logo": "None", "latitude": 43.97465900907795, "longitude": -80.73819198621267}, "107786154RR0001": {"name": "NORTH WEST COLLEGE", "designationCode": "C", "categoryCode": "20", "address": "10702 DIEFENBAKER DR          BATTLEFORDS CAMPUS", "city": "NORTH BATTLEFORD", "province": "SK", "country": "CA", "postalCode": "S9A4A8", "twitter": "None", "instagram": "None", "facebook": "None", "youtube": "None", "website": "None", "summary": "None", "logo": "None", "latitude": 52.78269562807896, "longitude": -108.28847509885131}, "118822840RR0001": {"name": "NORTH WEST EDMONTON SENIORS SOCIETY", "designationCode": "C", "categoryCode": "01", "address": "12963-120 ST", "city": "EDMONTON", "province": "AB", "country": "CA", "postalCode": "T5E5N8", "twitter": "None", "instagram": "None", "facebook": "None", "youtube": "None", "website": "None", "summary": "None", "logo": "None", "latitude": 53.58962700000001, "longitude": -113.5288161990026}, "875180424RR0001": {"name": "NORTH WEST FAMILY CHURCH", "designationCode": "C", "categoryCode": "36", "address": "10307 EAMON ROAD NW", "city": "CALGARY", "province": "AB", "country": "CA", "postalCode": "T3G5H2", "twitter": "None", "instagram": "None", "facebook": "None", "youtube": "None", "website": "None", "summary": "None", "logo": "None", "latitude": 51.136373064660454, "longitude": -114.23727894699631}, "882418965RR0001": {"name": "NORTH WESTSIDE FELLOWSHIP CHURCH", "designationCode": "C", "categoryCode": "39", "address": "9800 WESTSIDE ROAD", "city": "VERNON", "province": "BC", "country": "CA", "postalCode": "V1H2G1", "twitter": "None", "instagram": "None", "facebook": "None", "youtube": "None", "website": "None", "summary": "None", "logo": "None", "latitude": 50.30597129203062, "longitude": -119.3852912330482}, "864785662RR0001": {"name": "NORTH WESTSIDE ROAD FIREFIGHTERS SOCIETY", "designationCode": "C", "categoryCode": "59", "address": "514 UDELL RD.", "city": "VERNON", "province": "BC", "country": "CA", "postalCode": "V1H2G2", "twitter": "None", "instagram": "None", "facebook": "None", "youtube": "None", "website": "None", "summary": "None", "logo": "None", "latitude": 50.1904706176059, "longitude": -119.50481628582087}, "895137537RR0001": {"name": "NORTH WIND HEALING CENTRE SOCIETY", "designationCode": "C", "categoryCode": "57", "address": "BOX 2480 STN A", "city": "DAWSON CREEK", "province": "BC", "country": "CA", "postalCode": "V1G4T9", "twitter": "None", "instagram": "None", "facebook": "None", "youtube": "None", "website": "None", "summary": "None", "logo": "None", "latitude": 55.76171100000006, "longitude": -120.23704249999994}, "840646566RR0001": {"name": "NORTH WINSLOE CEMETERY COMMITTEE", "designationCode": "C", "categoryCode": "59", "address": "20 BRAMWELL STREET", "city": "CHARLOTTETOWN", "province": "PE", "country": "CA", "postalCode": "C1E2L2", "twitter": "None", "instagram": "None", "facebook": "None", "youtube": "None", "website": "None", "summary": "None", "logo": "None", "latitude": 46.27738340022503, "longitude": -63.17018092241338}, "139468342RR0001": {"name": "NORTH WOODSIDE COMMUNITY ASSOCIATION", "designationCode": "C", "categoryCode": "56", "address": "230 PLEASANT STREET", "city": "DARTMOUTH", "province": "NS", "country": "CA", "postalCode": "B2Y3R5", "twitter": "None", "instagram": "None", "facebook": "None", "youtube": "None", "website": "None", "summary": "None", "logo": "None", "latitude": 44.65831970523408, "longitude": -63.55086136764934}, "895181840RR0001": {"name": "NORTH Y SENIORS MEMBERS CLUB FOR RETIRED AND SEMI-RETIRED PERSONS", "designationCode": "C", "categoryCode": "56", "address": "1578 PRITCHARD AVE", "city": "WINNIPEG", "province": "MB", "country": "CA", "postalCode": "R2X0H9", "twitter": "None", "instagram": "None", "facebook": "None", "youtube": "None", "website": "None", "summary": "None", "logo": "None", "latitude": 49.93022705355194, "longitude": -97.18901104622302}, "119062438RR0001": {"name": "NORTH YORK (CHINESE) BAPTIST CHURCH", "designationCode": "C", "categoryCode": "31", "address": "675 SHEPPARD AVE EAST", "city": "WILLOWDALE", "province": "ON", "country": "CA", "postalCode": "M2K1B6", "twitter": "None", "instagram": "None", "facebook": "None", "youtube": "None", "website": "None", "summary": "None", "logo": "None", "latitude": 43.768685812049526, "longitude": -79.37894515762609}, "891920670RR0001": {"name": "NORTH YORK CHRISTIAN COMMUNITY CHURCH", "designationCode": "C", "categoryCode": "39", "address": "32 KERN ROAD", "city": "NORTH YORK", "province": "ON", "country": "CA", "postalCode": "M3B1T1", "twitter": "None", "instagram": "None", "facebook": "None", "youtube": "None", "website": "None", "summary": "None", "logo": "None", "latitude": 43.74939750490475, "longitude": -79.35055100389513}, "888928462RR0001": {"name": "NORTH YORK CHURCH OF CHRIST", "designationCode": "C", "categoryCode": "39", "address": "38 ST REGIS CRESCENT SOUTH", "city": "NORTH YORK", "province": "ON", "country": "CA", "postalCode": "M3J1Y5", "twitter": "None", "instagram": "None", "facebook": "None", "youtube": "None", "website": "None", "summary": "None", "logo": "None", "latitude": 43.75500902305372, "longitude": -79.48646967958328}, "129469029RR0001": {"name": "NORTH YORK COMMUNITY HOUSE", "designationCode": "C", "categoryCode": "09", "address": "226-700 LAWRENCE AVE W", "city": "TORONTO", "province": "ON", "country": "CA", "postalCode": "M6A3B4", "twitter": "None", "instagram": "None", "facebook": "None", "youtube": "None", "website": "None", "summary": "None", "logo": "None", "latitude": 43.71565433017757, "longitude": -79.44657382397304}, "889455069RR0001": {"name": "NORTH YORK CONCERT BAND INC", "designationCode": "C", "categoryCode": "22", "address": "41 FOREST PARK CRES.", "city": "THORNHILL", "province": "ON", "country": "CA", "postalCode": "L3T2M5", "twitter": "None", "instagram": "None", "facebook": "None", "youtube": "None", "website": "None", "summary": "None", "logo": "None", "latitude": 43.81935483484345, "longitude": -79.41308592838598}, "136109972RR0001": {"name": "NORTH YORK CONCERT ORCHESTRA SOCIETY (NYCOS)", "designationCode": "C", "categoryCode": "22", "address": "48 RIDGEVALE DR.", "city": "TORONTO", "province": "ON", "country": "CA", "postalCode": "M6A1L1", "twitter": "None", "instagram": "None", "facebook": "None", "youtube": "None", "website": "None", "summary": "None", "logo": "None", "latitude": 43.72502411408612, "longitude": -79.43634618096827}, "119288918RR1027": {"name": "NORTH YORK CONGREGATION OF JEHOVAH'S WITNESSES", "designationCode": "C", "categoryCode": "61", "address": "PO BOX 4100 STN MAIN", "city": "GEORGETOWN", "province": "ON", "country": "CA", "postalCode": "L7G4Y4", "twitter": "None", "instagram": "None", "facebook": "None", "youtube": "None", "website": "None", "summary": "None", "logo": "None", "latitude": 43.676964428204535, "longitude": -79.92917582331788}, "107786683RR0001": {"name": "NORTH YORK CRISIS PREGNANCY CENTRE", "designationCode": "C", "categoryCode": "09", "address": "213-638A SHEPPARD AVENUE WEST", "city": "TORONTO", "province": "ON", "country": "CA", "postalCode": "M3H2S1", "twitter": "None", "instagram": "None", "facebook": "None", "youtube": "None", "website": "None", "summary": "None", "logo": "None", "latitude": 43.75509483614741, "longitude": -79.44092373252828}, "814859948RR0001": {"name": "NORTH YORK FELLOWSHIP INTERNATIONAL", "designationCode": "C", "categoryCode": "39", "address": "1804-2 FOREST LANEWAY", "city": "NORTH YORK", "province": "ON", "country": "CA", "postalCode": "M2N5X7", "twitter": "None", "instagram": "None", "facebook": "None", "youtube": "None", "website": "None", "summary": "None", "logo": "None", "latitude": 43.76301397336826, "longitude": -79.4093430328928}, "107786733RR0001": {"name": "NORTH YORK GENERAL HOSPITAL", "designationCode": "C", "categoryCode": "10", "address": "4001 LESLIE STREET            9TH FLOOR", "city": "TORONTO", "province": "ON", "country": "CA", "postalCode": "M2K1E1", "twitter": "None", "instagram": "None", "facebook": "None", "youtube": "None", "website": "None", "summary": "None", "logo": "None", "latitude": 43.7694693407383, "longitude": -79.36422415926172}, "888751245RR0001": {"name": "NORTH YORK GENERAL HOSPITAL FOUNDATION", "designationCode": "A", "categoryCode": "13", "address": "4001, LESLIE STREET", "city": "TORONTO", "province": "ON", "country": "CA", "postalCode": "M2K1E1", "twitter": "None", "instagram": "None", "facebook": "None", "youtube": "None", "website": "None", "summary": "None", "logo": "None", "latitude": 43.7694693407383, "longitude": -79.36422415926172}, "868904178RR0001": {"name": "NORTH YORK GENERAL HOSPITAL VOLUNTEER SERVICES", "designationCode": "C", "categoryCode": "09", "address": "4001 LESLIE STREET", "city": "TORONTO", "province": "ON", "country": "CA", "postalCode": "M2K1E1", "twitter": "None", "instagram": "None", "facebook": "None", "youtube": "None", "website": "None", "summary": "None", "logo": "None", "latitude": 43.7694693407383, "longitude": -79.36422415926172}, "119062495RR0001": {"name": "NORTH YORK HARVEST FOOD BANK", "designationCode": "C", "categoryCode": "09", "address": "116 INDUSTRY ST", "city": "YORK", "province": "ON", "country": "CA", "postalCode": "M6M4L8", "twitter": "None", "instagram": "None", "facebook": "None", "youtube": "None", "website": "None", "summary": "None", "logo": "None", "latitude": 43.69335274744639, "longitude": -79.49283912502172}, "873307557RR0001": {"name": "NORTH YORK HISTORICAL SOCIETY", "designationCode": "C", "categoryCode": "50", "address": "PO BOX 45045                  5845 YONGE ST.", "city": "TORONTO", "province": "ON", "country": "CA", "postalCode": "M2M4K3", "twitter": "None", "instagram": "None", "facebook": "None", "youtube": "None", "website": "None", "summary": "None", "logo": "None", "latitude": 43.78613214202448, "longitude": -79.41707514076265}, "894945633RR0059": {"name": "NORTH YORK MANDARIN ALLIANCE CHURCH OF THE CHRISTIAN AND MISSIONARY ALLIANCE", "designationCode": "C", "categoryCode": "39", "address": "3325 VICTORIA PARK AVE", "city": "SCARBROUGH", "province": "ON", "country": "CA", "postalCode": "M1W2R8", "twitter": "None", "instagram": "None", "facebook": "None", "youtube": "None", "website": "None", "summary": "None", "logo": "None", "latitude": 43.793984723296155, "longitude": -79.3317908378732}, "864172978RR0001": {"name": "NORTH YORK SANSUNG CHURCH", "designationCode": "C", "categoryCode": "39", "address": "145 CHARLTON BLVD.", "city": "TORONTO", "province": "ON", "country": "CA", "postalCode": "M2R2J2", "twitter": "None", "instagram": "None", "facebook": "None", "youtube": "None", "website": "None", "summary": "None", "logo": "None", "latitude": 43.78045003523009, "longitude": -79.43613290132156}, "119062545RR0001": {"name": "NORTH YORK SENIORS CENTRE", "designationCode": "C", "categoryCode": "56", "address": "21 HENDON AVENUE MEL LASTMAN P", "city": "NORTH YORK", "province": "ON", "country": "CA", "postalCode": "M2M4G8", "twitter": "None", "instagram": "None", "facebook": "None", "youtube": "None", "website": "None", "summary": "None", "logo": "None", "latitude": 43.78137697305113, "longitude": -79.41687568844142}, "894151935RR0001": {"name": "NORTH YORK SIKH TEMPLE", "designationCode": "C", "categoryCode": "62", "address": "2-7370 BRAMALEA ROAD", "city": "MISSISSAUGA", "province": "ON", "country": "CA", "postalCode": "L5S1N6", "twitter": "None", "instagram": "None", "facebook": "None", "youtube": "None", "website": "None", "summary": "None", "logo": "None", "latitude": 43.69162477182776, "longitude": -79.67265890567803}, "140263013RR0001": {"name": "NORTH YORK WOMEN'S RESOURCE CENTRE", "designationCode": "C", "categoryCode": "59", "address": "116 INDUSTRY ST", "city": "YORK", "province": "ON", "country": "CA", "postalCode": "M6M4L8", "twitter": "None", "instagram": "None", "facebook": "None", "youtube": "None", "website": "None", "summary": "None", "logo": "None", "latitude": 43.69335274744639, "longitude": -79.49283912502172}, "129819512RR0001": {"name": "NORTH YORK WOMEN'S SHELTER", "designationCode": "C", "categoryCode": "09", "address": "2-1140 SHEPPARD AVE W", "city": "NORTH YORK", "province": "ON", "country": "CA", "postalCode": "M3K2A2", "twitter": "None", "instagram": "None", "facebook": "None", "youtube": "None", "website": "None", "summary": "None", "logo": "None", "latitude": 43.75439857574398, "longitude": -79.4799197125512}, "120565239RR0001": {"name": "NORTH YORKERS FOR DISABLED PERSONS, INC", "designationCode": "C", "categoryCode": "01", "address": "2880 BAYVIEW AVE", "city": "NORTH YORK", "province": "ON", "country": "CA", "postalCode": "M2N5K3", "twitter": "None", "instagram": "None", "facebook": "None", "youtube": "None", "website": "None", "summary": "None", "logo": "None", "latitude": 43.76775499471988, "longitude": -79.38830892345165}, "893859462RR0001": {"name": "NORTH-END COMMUNITY HEALTH ASSOCIATION", "designationCode": "C", "categoryCode": "11", "address": "500 - 2131 GOTTINGEN ST", "city": "HALIFAX", "province": "NS", "country": "CA", "postalCode": "B3K5Z7", "twitter": "None", "instagram": "None", "facebook": "None", "youtube": "None", "website": "None", "summary": "None", "logo": "None", "latitude": 44.652220741618, "longitude": -63.583646984159635}, "890637580RR0001": {"name": "NORTH-WEST BARRIE UNITED CHURCH", "designationCode": "C", "categoryCode": "44", "address": "464 FERNDALE DR N             DRN", "city": "BARRIE", "province": "ON", "country": "CA", "postalCode": "L4N7X6", "twitter": "None", "instagram": "None", "facebook": "None", "youtube": "None", "website": "None", "summary": "None", "logo": "None", "latitude": 44.39329837079469, "longitude": -79.73505424689812}, "107786162RR0001": {"name": "NORTH-WEST REGIONAL LIBRARY", "designationCode": "C", "categoryCode": "50", "address": "BOX 999", "city": "SWAN RIVER", "province": "MB", "country": "CA", "postalCode": "R0L1Z0", "twitter": "None", "instagram": "None", "facebook": "None", "youtube": "None", "website": "None", "summary": "None", "logo": "None", "latitude": 52.11672730414978, "longitude": -101.25989472758229}, "883550816RR0001": {"name": "NORTHBREAST PASSAGE DRAGON BOAT SOCIETY", "designationCode": "C", "categoryCode": "11", "address": "109 NORTH PATTERSON ST", "city": "PRINCE GEORGE", "province": "BC", "country": "CA", "postalCode": "V2M3H9", "twitter": "None", "instagram": "None", "facebook": "None", "youtube": "None", "website": "None", "summary": "None", "logo": "None", "latitude": 53.92505754907582, "longitude": -122.79025519140168}, "119059350RR0001": {"name": "NORTHBROOK BIBLE CHAPEL INC.", "designationCode": "C", "categoryCode": "39", "address": "225 VICTORIA ROAD", "city": "DARTMOUTH", "province": "NS", "country": "CA", "postalCode": "B3A1W5", "twitter": "None", "instagram": "None", "facebook": "None", "youtube": "None", "website": "None", "summary": "None", "logo": "None", "latitude": 44.67717067164879, "longitude": -63.58040845311315}, "886702398RR0001": {"name": "NORTHCLIFFE EDUCATIONAL FOUNDATION", "designationCode": "B", "categoryCode": "21", "address": "D. GOLDSTICK                  PHILOSOPHY DEPARTMENT", "city": "C/O UNIVERSITY OF TORONTO", "province": "ON", "country": "CA", "postalCode": "M5R2M8", "twitter": "None", "instagram": "None", "facebook": "None", "youtube": "None", "website": "None", "summary": "None", "logo": "None", "latitude": 43.667547000000056, "longitude": -79.39989799999994}, "107780702RR0001": {"name": "NORTHDALE MANOR", "designationCode": "C", "categoryCode": "01", "address": "142-130 LAKESHORE ROAD PO", "city": "NEW LISKEARD", "province": "ON", "country": "CA", "postalCode": "P0J1P0", "twitter": "None", "instagram": "None", "facebook": "None", "youtube": "None", "website": "None", "summary": "None", "logo": "None", "latitude": 47.50512161780838, "longitude": -79.67840149789386}, "853084275RR0001": {"name": "NORTHEAST ASIA FOUNDATION FOR EDUCATION IN CANADA", "designationCode": "C", "categoryCode": "21", "address": "200 RACCO PARKWAY", "city": "THORNHILL", "province": "ON", "country": "CA", "postalCode": "L4J8X9", "twitter": "None", "instagram": "None", "facebook": "None", "youtube": "None", "website": "None", "summary": "None", "logo": "None", "latitude": 43.817426306162886, "longitude": -79.47285065436517}, "107780819RR0001": {"name": "NORTHEAST BIBLE CHURCH", "designationCode": "C", "categoryCode": "34", "address": "175 WHITEFIELD  DRIVE N.E.", "city": "CALGARY", "province": "AB", "country": "CA", "postalCode": "T1Y5X1", "twitter": "None", "instagram": "None", "facebook": "None", "youtube": "None", "website": "None", "summary": "None", "logo": "None", "latitude": 51.088352543424406, "longitude": -113.97845233236194}, "896649886RR0001": {"name": "NORTHEAST BURNABY COMMUNITY ASSOCIATION", "designationCode": "C", "categoryCode": "56", "address": "PO BOX 56505 LOUGHEED MALL PO", "city": "BURNABY", "province": "BC", "country": "CA", "postalCode": "V3J7W2", "twitter": "None", "instagram": "None", "facebook": "None", "youtube": "None", "website": "None", "summary": "None", "logo": "None", "latitude": 49.245867544286725, "longitude": -122.89280425271932}, "895127934RR0001": {"name": "NORTHEAST CALGARY EVANGELICAL FREE CHURCH", "designationCode": "C", "categoryCode": "39", "address": "3125 CATALINA BLVD NE", "city": "CALGARY", "province": "AB", "country": "CA", "postalCode": "T1Y6R1", "twitter": "None", "instagram": "None", "facebook": "None", "youtube": "None", "website": "None", "summary": "None", "logo": "None", "latitude": 51.08045168443073, "longitude": -113.93186245071857}, "108156332RR0001": {"name": "NORTHEAST CHRISTIAN COLLEGE", "designationCode": "C", "categoryCode": "20", "address": "PO 22017", "city": "FREDERICTON", "province": "NB", "country": "CA", "postalCode": "E3A5T6", "twitter": "None", "instagram": "None", "facebook": "None", "youtube": "None", "website": "None", "summary": "None", "logo": "None", "latitude": 45.96062100000006, "longitude": -66.63911299999994}, "131891517RR0001": {"name": "NORTHEAST CHRISTIAN FELLOWSHIP INC.", "designationCode": "C", "categoryCode": "47", "address": "BOX 3158", "city": "MELFORT", "province": "SK", "country": "CA", "postalCode": "S0E1A0", "twitter": "None", "instagram": "None", "facebook": "None", "youtube": "None", "website": "None", "summary": "None", "logo": "None", "latitude": 52.85637, "longitude": -104.63436225000001}, "897651394RR0001": {"name": "NORTHEAST REGIONAL VICTIM SERVICES INC.", "designationCode": "C", "categoryCode": "59", "address": "BOX 99", "city": "TISDALE", "province": "SK", "country": "CA", "postalCode": "S0E1T0", "twitter": "None", "instagram": "None", "facebook": "None", "youtube": "None", "website": "None", "summary": "None", "logo": "None", "latitude": 52.84785000000005, "longitude": -104.04749999999996}, "856036140RR0001": {"name": "NORTHEASTERN ONTARIO HEALTH EDUCATION ADVANCEMENT FOUNDATION", "designationCode": "C", "categoryCode": "21", "address": "1333 GARY AVE", "city": "SUDBURY", "province": "ON", "country": "CA", "postalCode": "P3A4G1", "twitter": "None", "instagram": "None", "facebook": "None", "youtube": "None", "website": "None", "summary": "None", "logo": "None", "latitude": 46.52614033268787, "longitude": -80.92384980557802}, "889785176RR0001": {"name": "NORTHERN ALBERTA DISTRICT OF THE APOSTOLIC CHURCH OF PENTECOST OF CANADA INCORPORATED", "designationCode": "C", "categoryCode": "39", "address": "9004 153 AVE NW", "city": "EDMONTON", "province": "AB", "country": "CA", "postalCode": "T5Z3L6", "twitter": "None", "instagram": "None", "facebook": "None", "youtube": "None", "website": "None", "summary": "None", "logo": "None", "latitude": 53.61523242498086, "longitude": -113.48041343715721}, "805961802RR0001": {"name": "NORTHERN ALBERTA HOME FOR WOMEN SOCIETY", "designationCode": "C", "categoryCode": "59", "address": "BOX 1474 STN MAIN", "city": "GRANDE PRAIRIE", "province": "AB", "country": "CA", "postalCode": "T8V4Z2", "twitter": "None", "instagram": "None", "facebook": "None", "youtube": "None", "website": "None", "summary": "None", "logo": "None", "latitude": 55.171122000000054, "longitude": -118.79491399999993}, "119059772RR0001": {"name": "NORTHERN ALBERTA HOME MINISTRIES, EVANGELISTIC (N.A.H.M.E.)", "designationCode": "C", "categoryCode": "39", "address": "PO BOX 334", "city": "HYTHE", "province": "AB", "country": "CA", "postalCode": "T0H2C0", "twitter": "None", "instagram": "None", "facebook": "None", "youtube": "None", "website": "None", "summary": "None", "logo": "None", "latitude": 55.32677000000007, "longitude": -119.55663999999996}, "107781205RR0001": {"name": "NORTHERN ALBERTA INSTITUTE OF TECHNOLOGY", "designationCode": "C", "categoryCode": "21", "address": "O101 - 11762 106 ST NW", "city": "EDMONTON", "province": "AB", "country": "CA", "postalCode": "T5G2R1", "twitter": "None", "instagram": "None", "facebook": "None", "youtube": "None", "website": "None", "summary": "None", "logo": "None", "latitude": 53.56825037836809, "longitude": -113.50307124326385}, "868699679RR0001": {"name": "NORTHERN ALBERTA SOCIETY FOR ANIMAL PROTECTION", "designationCode": "C", "categoryCode": "54", "address": "BOX 3236 STATION MAIN", "city": "SHERWOOD PARK", "province": "AB", "country": "CA", "postalCode": "T8H2T2", "twitter": "None", "instagram": "None", "facebook": "None", "youtube": "None", "website": "None", "summary": "None", "logo": "None", "latitude": 53.52731700000005, "longitude": -113.29574299999993}, "119059798RR0001": {"name": "NORTHERN ALBERTA UROLOGY FOUNDATION", "designationCode": "C", "categoryCode": "11", "address": "602-12303 JASPER AVENUE", "city": "EDMONTON", "province": "AB", "country": "CA", "postalCode": "T5N3K7", "twitter": "None", "instagram": "None", "facebook": "None", "youtube": "None", "website": "None", "summary": "None", "logo": "None", "latitude": 53.54139252452561, "longitude": -113.534712}, "884382623RR0001": {"name": "NORTHERN ARM PASTORAL CHARGE,", "designationCode": "C", "categoryCode": "44", "address": "P.O. BOX 2061                 279 MAIN STREET", "city": "NORTHERN ARM", "province": "NL", "country": "CA", "postalCode": "A0H1E0", "twitter": "None", "instagram": "None", "facebook": "None", "youtube": "None", "website": "None", "summary": "None", "logo": "None", "latitude": 49.005856526445534, "longitude": -55.50657725721548}, "119059814RR0001": {"name": "NORTHERN ARTS AND CULTURAL CENTRE", "designationCode": "C", "categoryCode": "56", "address": "PO BOX 1025", "city": "YELLOWKNIFE", "province": "NT", "country": "CA", "postalCode": "X1A2N7", "twitter": "None", "instagram": "None", "facebook": "None", "youtube": "None", "website": "None", "summary": "None", "logo": "None", "latitude": 62.45446200000005, "longitude": -114.37092349999993}, "865122212RR0001": {"name": "NORTHERN AVIATION HERITAGE FOUNDATION", "designationCode": "C", "categoryCode": "53", "address": "129 NIVEN DRIVE", "city": "YELLOWKNIFE", "province": "NT", "country": "CA", "postalCode": "X1A3W8", "twitter": "None", "instagram": "None", "facebook": "None", "youtube": "None", "website": "None", "summary": "None", "logo": "None", "latitude": 62.46285844823706, "longitude": -114.36329196352915}, "866418791RR0001": {"name": "NORTHERN B.C. FRIENDS OF CHILDREN SOCIETY", "designationCode": "C", "categoryCode": "19", "address": "PO BOX 2463 STN B", "city": "PRINCE GEORGE", "province": "BC", "country": "CA", "postalCode": "V2N2S6", "twitter": "None", "instagram": "None", "facebook": "None", "youtube": "None", "website": "None", "summary": "None", "logo": "None", "latitude": 53.91241800000006, "longitude": -122.74463149999994}, "873551501RR0001": {"name": "NORTHERN BOREAL RURAL CRIME WATCH ASSOCIATION", "designationCode": "C", "categoryCode": "59", "address": "BOX 29", "city": "HYLO", "province": "AB", "country": "CA", "postalCode": "T0A1Z0", "twitter": "None", "instagram": "None", "facebook": "None", "youtube": "None", "website": "None", "summary": "None", "logo": "None", "latitude": 54.67479000000003, "longitude": -112.20772999999997}, "830525564RR0001": {"name": "NORTHERN BREEZE CHARITABLE TRUST", "designationCode": "B", "categoryCode": "39", "address": "780 SASKATCHEWAN AVE WEST", "city": "PORTAGE LA PRAIRIE", "province": "MB", "country": "CA", "postalCode": "R1N0M7", "twitter": "None", "instagram": "None", "facebook": "None", "youtube": "None", "website": "None", "summary": "None", "logo": "None", "latitude": 49.97373494820344, "longitude": -98.30132080652011}, "107756231RR0001": {"name": "NORTHERN BRITISH COLUMBIA MUSEUM ASSOCIATION", "designationCode": "C", "categoryCode": "50", "address": "PO BOX 669", "city": "PRINCE RUPERT", "province": "BC", "country": "CA", "postalCode": "V8J3S1", "twitter": "None", "instagram": "None", "facebook": "None", "youtube": "None", "website": "None", "summary": "None", "logo": "None", "latitude": 54.313233000000054, "longitude": -130.32604249999994}, "890454648RR0001": {"name": "NORTHERN BRITISH COLUMBIA WINTER GAMES SCHOLARSHIP", "designationCode": "C", "categoryCode": "25", "address": "320 N. 2ND AVENUE", "city": "WILLIAMS LAKE", "province": "BC", "country": "CA", "postalCode": "V2G1Z9", "twitter": "None", "instagram": "None", "facebook": "None", "youtube": "None", "website": "None", "summary": "None", "logo": "None", "latitude": 52.13385018426723, "longitude": -122.14607844757465}, "107781296RR0001": {"name": "NORTHERN CANADA EVANGELICAL MISSION INC.", "designationCode": "C", "categoryCode": "47", "address": "BOX 3030", "city": "PRINCE ALBERT", "province": "SK", "country": "CA", "postalCode": "S6V7V4", "twitter": "None", "instagram": "None", "facebook": "None", "youtube": "None", "website": "None", "summary": "None", "logo": "None", "latitude": 53.199456000000055, "longitude": -105.74863099999993}, "890743024RR0001": {"name": "NORTHERN CHRISTIAN REVIVAL MINISTRIES", "designationCode": "C", "categoryCode": "39", "address": "PO BOX 868", "city": "MANNING", "province": "AB", "country": "CA", "postalCode": "T0H2M0", "twitter": "None", "instagram": "None", "facebook": "None", "youtube": "None", "website": "None", "summary": "None", "logo": "None", "latitude": 56.92804794843537, "longitude": -117.62848367126821}, "107781379RR0001": {"name": "NORTHERN COLLEGE OF APPLIED ARTS AND TECHNOLOGY", "designationCode": "C", "categoryCode": "20", "address": "BOX 3211", "city": "TIMMINS", "province": "ON", "country": "CA", "postalCode": "P4N8R6", "twitter": "None", "instagram": "None", "facebook": "None", "youtube": "None", "website": "None", "summary": "None", "logo": "None", "latitude": 48.47611200000006, "longitude": -81.32891299999993}, "107781403RR0001": {"name": "NORTHERN COMMUNITY DEVELOPMENT SERVICES", "designationCode": "C", "categoryCode": "09", "address": "304 SCOTT STREET", "city": "FORT FRANCES", "province": "ON", "country": "CA", "postalCode": "P9A1G9", "twitter": "None", "instagram": "None", "facebook": "None", "youtube": "None", "website": "None", "summary": "None", "logo": "None", "latitude": 48.61009546395482, "longitude": -93.39542963271631}}