{"107957805RR0001": {"name": "SATNAM EDUCATION SOCIETY OF BRITISH COLUMBIA", "designationCode": "C", "categoryCode": "20", "address": "10589 124 ST", "city": "SURREY", "province": "BC", "country": "CA", "postalCode": "V3V0B1", "twitter": "None", "instagram": "None", "facebook": "None", "youtube": "None", "website": "None", "summary": "None", "logo": "None", "latitude": 49.19435097890817, "longitude": -122.87851548006202}, "888226636RR0001": {"name": "SATURNA ISLAND FIRE PROTECTION SOCIETY", "designationCode": "C", "categoryCode": "59", "address": "BOX 168", "city": "SATURNA ISLAND", "province": "BC", "country": "CA", "postalCode": "V0N2Y0", "twitter": "None", "instagram": "None", "facebook": "None", "youtube": "None", "website": "None", "summary": "None", "logo": "None", "latitude": 48.78295000000003, "longitude": -123.15260999999998}, "890881865RR0001": {"name": "SATURNA RECREATION CENTRE SOCIETY", "designationCode": "C", "categoryCode": "56", "address": "BOX 171", "city": "SATURNA", "province": "BC", "country": "CA", "postalCode": "V0N2Y0", "twitter": "None", "instagram": "None", "facebook": "None", "youtube": "None", "website": "None", "summary": "None", "logo": "None", "latitude": 48.79394000000008, "longitude": -123.18707999999998}, "134852490RR0001": {"name": "SATYA SANATAN DHARMA CULTURAL SABHA OF CANADA", "designationCode": "C", "categoryCode": "39", "address": "2590 BROCK ROAD", "city": "PICKERING", "province": "ON", "country": "CA", "postalCode": "L1V2P8", "twitter": "None", "instagram": "None", "facebook": "None", "youtube": "None", "website": "None", "summary": "None", "logo": "None", "latitude": 43.875939638323274, "longitude": -79.08626362819479}, "835473802RR0001": {"name": "SATYAM SHIVAM DHRAMIC & CULTURAL SABHA", "designationCode": "C", "categoryCode": "48", "address": "501 PASSMORE AVE, UNIT 13", "city": "SCARBOROUGH", "province": "ON", "country": "CA", "postalCode": "M1V5G4", "twitter": "None", "instagram": "None", "facebook": "None", "youtube": "None", "website": "None", "summary": "None", "logo": "None", "latitude": 43.829779863696885, "longitude": -79.25397546834793}, "863678769RR0001": {"name": "SAUBLE AREA MEDICAL CLINIC INCORPORATED", "designationCode": "C", "categoryCode": "11", "address": "672A MAIN ST", "city": "SAUBLE BEACH", "province": "ON", "country": "CA", "postalCode": "N0H2G0", "twitter": "None", "instagram": "None", "facebook": "None", "youtube": "None", "website": "None", "summary": "None", "logo": "None", "latitude": 44.62977889846394, "longitude": -81.25780813838014}, "893820464RR0001": {"name": "SAUBLE BEACH COMMUNITY CHURCH BOARD OF MANAGEMENT", "designationCode": "C", "categoryCode": "39", "address": "135 NORTH DIAGONAL, RR#3", "city": "HEPWORTH", "province": "ON", "country": "CA", "postalCode": "N0H1P0", "twitter": "None", "instagram": "None", "facebook": "None", "youtube": "None", "website": "None", "summary": "None", "logo": "None", "latitude": 44.686783088743574, "longitude": -81.15095837032985}, "131468977RR0001": {"name": "SAUBLE BEACH PRECIOUS MOMENTS CHILDCARE CENTRE", "designationCode": "C", "categoryCode": "01", "address": "RR#1 555 SAUBLE FALLS PARKWAY", "city": "SAUBLE BEACH", "province": "ON", "country": "CA", "postalCode": "N0H2G0", "twitter": "None", "instagram": "None", "facebook": "None", "youtube": "None", "website": "None", "summary": "None", "logo": "None", "latitude": 44.652487622511565, "longitude": -81.25661755955414}, "867953770RR0001": {"name": "SAUBLE CHRISTIAN FELLOWSHIP CHURCH", "designationCode": "C", "categoryCode": "39", "address": "25 SOUTHAMPTON PARKWAY", "city": "SAUBLE BEACH", "province": "ON", "country": "CA", "postalCode": "N0H2G0", "twitter": "None", "instagram": "None", "facebook": "None", "youtube": "None", "website": "None", "summary": "None", "logo": "None", "latitude": 44.62724844853854, "longitude": -81.26487191010206}, "891753642RR0001": {"name": "SAUGEEN BACH CHOIR", "designationCode": "C", "categoryCode": "22", "address": "101 GREMIK CRES", "city": "SAUBLE BEACH", "province": "ON", "country": "CA", "postalCode": "N0H2G0", "twitter": "None", "instagram": "None", "facebook": "None", "youtube": "None", "website": "None", "summary": "None", "logo": "None", "latitude": 44.658452495672186, "longitude": -81.26822330682671}, "863633822RR0001": {"name": "SAUGEEN FELLOWSHIP BAPTIST CHURCH", "designationCode": "C", "categoryCode": "31", "address": "696 FRENCH BAY ROAD", "city": "SOUTHAMPTON", "province": "ON", "country": "CA", "postalCode": "N0H2L0", "twitter": "None", "instagram": "None", "facebook": "None", "youtube": "None", "website": "None", "summary": "None", "logo": "None", "latitude": 44.56401354509783, "longitude": -81.28918246335627}, "889811774RR0001": {"name": "SAUGEEN FIELD NATURALISTS", "designationCode": "C", "categoryCode": "29", "address": "P. O. BOX 20156", "city": "HANOVER", "province": "ON", "country": "CA", "postalCode": "N4N3T1", "twitter": "None", "instagram": "None", "facebook": "None", "youtube": "None", "website": "None", "summary": "None", "logo": "None", "latitude": 44.152395000000055, "longitude": -81.02554999999994}, "119141554RR0001": {"name": "SAUGEEN MEMORIAL HOSPITAL AUXILIARY", "designationCode": "C", "categoryCode": "19", "address": "331 MORPETH ST", "city": "SOUTHAMPTON", "province": "ON", "country": "CA", "postalCode": "N0H2L0", "twitter": "None", "instagram": "None", "facebook": "None", "youtube": "None", "website": "None", "summary": "None", "logo": "None", "latitude": 44.490181538144284, "longitude": -81.36858285027976}, "889599825RR0001": {"name": "SAUGEEN MEMORIAL HOSPITAL FOUNDATION", "designationCode": "A", "categoryCode": "13", "address": "340 HIGH STREET", "city": "SOUTHAMPTON", "province": "ON", "country": "CA", "postalCode": "N0H2L0", "twitter": "None", "instagram": "None", "facebook": "None", "youtube": "None", "website": "None", "summary": "None", "logo": "None", "latitude": 44.49340964521603, "longitude": -81.36583155843626}, "119141588RR0001": {"name": "SAUGEEN PASTORAL CHARGE", "designationCode": "C", "categoryCode": "44", "address": "6418 HIGHWAY 21", "city": "SOUTHAMPTON", "province": "ON", "country": "CA", "postalCode": "N0H2L0", "twitter": "None", "instagram": "None", "facebook": "None", "youtube": "None", "website": "None", "summary": "None", "logo": "None", "latitude": 44.512169196727456, "longitude": -81.33819790485373}, "107957987RR0001": {"name": "SAUGEEN VALLEY CONSERVATION AUTHORITY", "designationCode": "C", "categoryCode": "52", "address": "1078 BRUCE RD 12              PO BOX 150", "city": "FORMOSA", "province": "ON", "country": "CA", "postalCode": "N0G1W0", "twitter": "None", "instagram": "None", "facebook": "None", "youtube": "None", "website": "None", "summary": "None", "logo": "None", "latitude": 39.7438361250161, "longitude": -121.79268016009887}, "119141596RR0001": {"name": "SAUGEEN VALLEY CONSERVATION FOUNDATION", "designationCode": "C", "categoryCode": "52", "address": "1078 BRUCE ROAD 12            PO BOX 150", "city": "FORMOSA", "province": "ON", "country": "CA", "postalCode": "N0G1W0", "twitter": "None", "instagram": "None", "facebook": "None", "youtube": "None", "website": "None", "summary": "None", "logo": "None", "latitude": 39.7438361250161, "longitude": -121.79268016009887}, "119141604RR0001": {"name": "SAUL A. SILVERMAN FAMILY FOUNDATION", "designationCode": "B", "categoryCode": "03", "address": "300-23 LESMILL RD", "city": "TORONTO", "province": "ON", "country": "CA", "postalCode": "M3B3P6", "twitter": "None", "instagram": "None", "facebook": "None", "youtube": "None", "website": "None", "summary": "None", "logo": "None", "latitude": 43.756499388020025, "longitude": -79.35275909362946}, "119141638RR0001": {"name": "SAULT AND DISTRICT EVANGELICAL MINISTERIUM", "designationCode": "C", "categoryCode": "47", "address": "465 ALBERT ST. E.", "city": "SAULT STE. MARIE", "province": "ON", "country": "CA", "postalCode": "P6A2J9", "twitter": "None", "instagram": "None", "facebook": "None", "youtube": "None", "website": "None", "summary": "None", "logo": "None", "latitude": 46.51191045155528, "longitude": -84.33097963102298}, "107849804RR0001": {"name": "SAULT AREA HOSPITAL", "designationCode": "C", "categoryCode": "10", "address": "750 GREAT NORTHERN ROAD", "city": "SAULT-STE-MARIE", "province": "ON", "country": "CA", "postalCode": "P6B0A8", "twitter": "None", "instagram": "None", "facebook": "None", "youtube": "None", "website": "None", "summary": "None", "logo": "None", "latitude": 46.548045989592765, "longitude": -84.31930931096964}, "119095065RR0001": {"name": "SAULT AREA HOSPITALS FOUNDATION", "designationCode": "A", "categoryCode": "13", "address": "750 GREAT NORTHERN ROAD", "city": "SAULT STE. MARIE", "province": "ON", "country": "CA", "postalCode": "P6B0A8", "twitter": "None", "instagram": "None", "facebook": "None", "youtube": "None", "website": "None", "summary": "None", "logo": "None", "latitude": 46.548045989592765, "longitude": -84.31930931096964}, "888992542RR0001": {"name": "SAULT FINNISH SCHOOL - SOON SUOMI KOULU", "designationCode": "C", "categoryCode": "20", "address": "174 MARK ST", "city": "SAULT STE MARIE", "province": "ON", "country": "CA", "postalCode": "P6A3M6", "twitter": "None", "instagram": "None", "facebook": "None", "youtube": "None", "website": "None", "summary": "None", "logo": "None", "latitude": 46.505321474897464, "longitude": -84.29147983236193}, "127454288RR0001": {"name": "SAULT NORTH ROTARY CHARITABLE TRUST", "designationCode": "A", "categoryCode": "65", "address": "369 QUEEN STREET EAST         SUITE 302", "city": "SAULT STE MARIE", "province": "ON", "country": "CA", "postalCode": "P6A1Z4", "twitter": "None", "instagram": "None", "facebook": "None", "youtube": "None", "website": "None", "summary": "None", "logo": "None", "latitude": 46.51241470301238, "longitude": -84.3342426122971}, "119141661RR0001": {"name": "SAULT SEARCH AND RESCUE INC.", "designationCode": "C", "categoryCode": "59", "address": "BOX 961 246 INDUSTRIAL PK CRES", "city": "SAULT STE MARIE", "province": "ON", "country": "CA", "postalCode": "P6A5N5", "twitter": "None", "instagram": "None", "facebook": "None", "youtube": "None", "website": "None", "summary": "None", "logo": "None", "latitude": 46.52112648544629, "longitude": -84.26871130217688}, "141099085RR0001": {"name": "SAULT SHRINE CLUB BENEVOLENT TRUST FUND", "designationCode": "A", "categoryCode": "65", "address": "1445 QUEEN STREET EAST", "city": "SAULT STE MARIE", "province": "ON", "country": "CA", "postalCode": "P6A2G1", "twitter": "None", "instagram": "None", "facebook": "None", "youtube": "None", "website": "None", "summary": "None", "logo": "None", "latitude": 46.50096520618637, "longitude": -84.29122041814287}, "137105177RR0001": {"name": "SAULT STE MARIE AND DISTRICT FINNISH CANADIAN HISTORICAL SOCIETY (SAULT STE MARIE JA YMPARISTON KANADANSUOMALAINEN HIS", "designationCode": "C", "categoryCode": "50", "address": "4528 SECOND LINE WEST", "city": "PRINCE TOWNSHIP", "province": "ON", "country": "CA", "postalCode": "P6A6K4", "twitter": "None", "instagram": "None", "facebook": "None", "youtube": "None", "website": "None", "summary": "None", "logo": "None", "latitude": 46.52625450899189, "longitude": -84.56077992535832}, "871506846RR0001": {"name": "SAULT STE MARIE ZONTA FOUNDATION", "designationCode": "A", "categoryCode": "09", "address": "P.O. BOX 22073                RPO MCNABB", "city": "SAULT STE MARIE", "province": "ON", "country": "CA", "postalCode": "P6B6H4", "twitter": "None", "instagram": "None", "facebook": "None", "youtube": "None", "website": "None", "summary": "None", "logo": "None", "latitude": 46.521856043306926, "longitude": -84.29863144097386}, "104729819RR0001": {"name": "SAULT STE. MARIE & DISTRICT GROUP HEALTH ASSOCIATION", "designationCode": "C", "categoryCode": "11", "address": "240 MCNABB ST", "city": "SAULT STE MARIE", "province": "ON", "country": "CA", "postalCode": "P6B1Y5", "twitter": "None", "instagram": "None", "facebook": "None", "youtube": "None", "website": "None", "summary": "None", "logo": "None", "latitude": 46.521814533758196, "longitude": -84.31591147446477}, "119141687RR0001": {"name": "SAULT STE. MARIE ALCOHOL RECOVERY HOME INC.", "designationCode": "C", "categoryCode": "57", "address": "8 HERRICK STREET", "city": "SAULT STE MARIE", "province": "ON", "country": "CA", "postalCode": "P6A2T4", "twitter": "None", "instagram": "None", "facebook": "None", "youtube": "None", "website": "None", "summary": "None", "logo": "None", "latitude": 46.508031585636694, "longitude": -84.32450402885344}, "119141703RR0001": {"name": "SAULT STE. MARIE AND DISTRICT SOCIETY FOR PREVENTION OF CRUELTY TO ANIMALS", "designationCode": "C", "categoryCode": "54", "address": "962 SECOND LINE E", "city": "SAULT STE MARIE", "province": "ON", "country": "CA", "postalCode": "P6B4K4", "twitter": "None", "instagram": "None", "facebook": "None", "youtube": "None", "website": "None", "summary": "None", "logo": "None", "latitude": 46.539016497691385, "longitude": -84.30018066333889}, "107958449RR0001": {"name": "SAULT STE. MARIE AND 49TH FIELD REGIMENT RCA HISTORICAL SOCIETY", "designationCode": "C", "categoryCode": "50", "address": "690 QUEEN ST", "city": "SAULT STE MARIE", "province": "ON", "country": "CA", "postalCode": "P6A2A4", "twitter": "None", "instagram": "None", "facebook": "None", "youtube": "None", "website": "None", "summary": "None", "logo": "None", "latitude": 46.50787941355523, "longitude": -84.32812355923609}, "850433517RR0001": {"name": "SAULT STE. MARIE CHURCH OF THE NAZARENE", "designationCode": "C", "categoryCode": "39", "address": "369 PIM STREET,", "city": "SAULT STE. MARIE", "province": "ON", "country": "CA", "postalCode": "P6B2T9", "twitter": "None", "instagram": "None", "facebook": "None", "youtube": "None", "website": "None", "summary": "None", "logo": "None", "latitude": 46.516249675832384, "longitude": -84.3194504422931}, "871156808RR0001": {"name": "SAULT STE. MARIE DOWN SYNDROME SOCIETY", "designationCode": "C", "categoryCode": "11", "address": "99 NORTHERN AVENUE EAST       COMMUNITY LIVING ALGOMA", "city": "SAULT STE MARIE", "province": "ON", "country": "CA", "postalCode": "P6B4H5", "twitter": "None", "instagram": "None", "facebook": "None", "youtube": "None", "website": "None", "summary": "None", "logo": "None", "latitude": 46.53404154674263, "longitude": -84.33097183236194}, "119141828RR0001": {"name": "SAULT STE. MARIE PUBLIC LIBRARY", "designationCode": "C", "categoryCode": "50", "address": "50 EAST ST", "city": "SAULT STE MARIE", "province": "ON", "country": "CA", "postalCode": "P6A3C3", "twitter": "None", "instagram": "None", "facebook": "None", "youtube": "None", "website": "None", "summary": "None", "logo": "None", "latitude": 46.506680489596086, "longitude": -84.32950471692449}, "107958431RR0001": {"name": "SAULT STE. MARIE REGION CONSERVATION AUTHORITY", "designationCode": "C", "categoryCode": "52", "address": "1100 FIFTH LINE EAST", "city": "SAULT STE MARIE", "province": "ON", "country": "CA", "postalCode": "P6A6J8", "twitter": "None", "instagram": "None", "facebook": "None", "youtube": "None", "website": "None", "summary": "None", "logo": "None", "latitude": 46.582313443302716, "longitude": -84.29357432237862}, "119141836RR0001": {"name": "SAULT STE. MARIE RIVERSIDE CONGREGATION OF JEHOVAH'S WITNESSES", "designationCode": "C", "categoryCode": "61", "address": "742 THIRD LINE EAST", "city": "SAULT STE MARIE", "province": "ON", "country": "CA", "postalCode": "P6A6J8", "twitter": "None", "instagram": "None", "facebook": "None", "youtube": "None", "website": "None", "summary": "None", "logo": "None"}, "119141844RR0001": {"name": "SAULT STE. MARIE ROTARY CLUB CHARITABLE TRUST", "designationCode": "C", "categoryCode": "65", "address": "364 QUEEN STREET EAST", "city": "SAULT-ST-MARIE", "province": "ON", "country": "CA", "postalCode": "P6A1Z4", "twitter": "None", "instagram": "None", "facebook": "None", "youtube": "None", "website": "None", "summary": "None", "logo": "None", "latitude": 46.512641304200976, "longitude": -84.33444234442273}, "119141877RR0001": {"name": "SAULT THEATRE WORKSHOP", "designationCode": "C", "categoryCode": "22", "address": "P.O. BOX 94", "city": "SAULT STE MARIE", "province": "ON", "country": "CA", "postalCode": "P6A5L2", "twitter": "None", "instagram": "None", "facebook": "None", "youtube": "None", "website": "None", "summary": "None", "logo": "None", "latitude": 46.517883000000054, "longitude": -84.34795399999993}, "119141893RR0001": {"name": "SAUNDERS MEMORIAL TRUST", "designationCode": "C", "categoryCode": "21", "address": "800-65 ST. CLAIR AVENUE EAST", "city": "TORONTO", "province": "ON", "country": "CA", "postalCode": "M4T2Y3", "twitter": "None", "instagram": "None", "facebook": "None", "youtube": "None", "website": "None", "summary": "None", "logo": "None"}, "848199725RR0001": {"name": "SAUTI MOJA", "designationCode": "C", "categoryCode": "09", "address": "PO BOX 1272 STN MAIN", "city": "PEMBROKE", "province": "ON", "country": "CA", "postalCode": "K8A6Y6", "twitter": "None", "instagram": "None", "facebook": "None", "youtube": "None", "website": "None", "summary": "None", "logo": "None", "latitude": 45.826494000000054, "longitude": -77.11217449999994}, "873536114RR0001": {"name": "SAUVE SCHOLARS FOUNDATION - LA FONDATION DES BOURSIERS SAUVE", "designationCode": "B", "categoryCode": "21", "address": "1514 DOCTEUR PENFIELD AVENUE", "city": "MONTREAL", "province": "QC", "country": "CA", "postalCode": "H3G1B9", "twitter": "None", "instagram": "None", "facebook": "None", "youtube": "None", "website": "None", "summary": "None", "logo": "None", "latitude": 45.498310826533555, "longitude": -73.58501856852693}, "828464560RR0001": {"name": "SAUVE-GARDE NATURE", "designationCode": "C", "categoryCode": "52", "address": "685, AVENUE VENISE OUEST", "city": "VENISE-EN-QUEBEC", "province": "QC", "country": "CA", "postalCode": "J0J2K0", "twitter": "None", "instagram": "None", "facebook": "None", "youtube": "None", "website": "None", "summary": "None", "logo": "None", "latitude": 45.06021201001199, "longitude": -73.16148474106973}, "889094314RR0001": {"name": "SAUVETAGE A.G. INC.", "designationCode": "C", "categoryCode": "59", "address": "107, RUE ALBERT-RAYMOND", "city": "SAINT-COLOMBAN", "province": "QC", "country": "CA", "postalCode": "J5K1V8", "twitter": "None", "instagram": "None", "facebook": "None", "youtube": "None", "website": "None", "summary": "None", "logo": "None", "latitude": 45.75712100969488, "longitude": -74.10044048211083}, "889874590RR0001": {"name": "SAUVETAGE DE MONTREAL HATZOLOH/ HATZOLOH RESCUE SQUAD OF MONTREAL", "designationCode": "C", "categoryCode": "11", "address": "202 - 1090 AV PRATT", "city": "OUTREMONT", "province": "QC", "country": "CA", "postalCode": "H2V2V2", "twitter": "None", "instagram": "None", "facebook": "None", "youtube": "None", "website": "None", "summary": "None", "logo": "None", "latitude": 45.51688086620704, "longitude": -73.6262545849442}, "890277841RR0001": {"name": "SAUVETAGE ET RECHERCHE AERIENS DU QUEBEC (SERABEC) INC", "designationCode": "C", "categoryCode": "59", "address": "2680 RUE BLAINVILLE", "city": "LAVAL", "province": "QC", "country": "CA", "postalCode": "H7E1W6", "twitter": "None", "instagram": "None", "facebook": "None", "youtube": "None", "website": "None", "summary": "None", "logo": "None", "latitude": 45.59144166443542, "longitude": -73.67483528821639}, "141672253RR0001": {"name": "SAUVETAGE R\u00c9GION 02 INC.", "designationCode": "C", "categoryCode": "59", "address": "C.P. 8085 SUCCURSALE RACINE", "city": "CHICOUTIMI", "province": "QC", "country": "CA", "postalCode": "G7H5B5", "twitter": "None", "instagram": "None", "facebook": "None", "youtube": "None", "website": "None", "summary": "None", "logo": "None", "latitude": 48.42794086469511, "longitude": -71.05630255036941}, "806080222RR0001": {"name": "SAVAC - South Asian Visual Arts Centre", "designationCode": "C", "categoryCode": "22", "address": "401 RICHMOND STREET WEST      SUITE 450", "city": "TORONTO", "province": "ON", "country": "CA", "postalCode": "M5V3A8", "twitter": "None", "instagram": "None", "facebook": "None", "youtube": "None", "website": "None", "summary": "None", "logo": "None", "latitude": 43.64802194030256, "longitude": -79.39487429779568}, "119141901RR0001": {"name": "SAVANNA AGRICULTURAL SOCIETY", "designationCode": "C", "categoryCode": "56", "address": "BOX 118", "city": "SILVER VALLEY", "province": "AB", "country": "CA", "postalCode": "T0H3E0", "twitter": "None", "instagram": "None", "facebook": "None", "youtube": "None", "website": "None", "summary": "None", "logo": "None", "latitude": 56.03292000000005, "longitude": -119.59347999999994}, "862432192RR0001": {"name": "SAVANNA HOME AND SCHOOL ASSOCIATION", "designationCode": "C", "categoryCode": "21", "address": "BOX 48", "city": "SILVER VALLEY", "province": "AB", "country": "CA", "postalCode": "T0H3E0", "twitter": "None", "instagram": "None", "facebook": "None", "youtube": "None", "website": "None", "summary": "None", "logo": "None", "latitude": 56.03292000000005, "longitude": -119.59347999999994}, "888857596RR0001": {"name": "SAVANNA LIGHTHOUSE ASSEMBLY", "designationCode": "C", "categoryCode": "36", "address": "PO BOX 70", "city": "SILVER VALLEY", "province": "AB", "country": "CA", "postalCode": "T0H3E0", "twitter": "None", "instagram": "None", "facebook": "None", "youtube": "None", "website": "None", "summary": "None", "logo": "None", "latitude": 56.03292000000005, "longitude": -119.59347999999994}, "119141935RR0001": {"name": "SAVARY ISLAND CHRISTIAN FELLOWSHIP", "designationCode": "C", "categoryCode": "49", "address": "3436 CARIBOO AVENUE", "city": "POWELL RIVER", "province": "BC", "country": "CA", "postalCode": "V8A5H3", "twitter": "None", "instagram": "None", "facebook": "None", "youtube": "None", "website": "None", "summary": "None", "logo": "None", "latitude": 49.80867143825373, "longitude": -124.51535858350191}, "882032725RR0001": {"name": "SAVE A CHILD'S HEART FOUNDATION", "designationCode": "C", "categoryCode": "13", "address": "1491 YONGE ST SUITE 403", "city": "TORONTO", "province": "ON", "country": "CA", "postalCode": "M4T1Z4", "twitter": "None", "instagram": "None", "facebook": "None", "youtube": "None", "website": "None", "summary": "None", "logo": "None", "latitude": 43.688861067170606, "longitude": -79.3943813100007}, "871440269RR0001": {"name": "SAVE ANIMALS THROUGH RESCUE AND ADOPTION (S.A.R.A)", "designationCode": "C", "categoryCode": "54", "address": "14285 GROSVENOR RD", "city": "SURREY", "province": "BC", "country": "CA", "postalCode": "V3R5H3", "twitter": "None", "instagram": "None", "facebook": "None", "youtube": "None", "website": "None", "summary": "None", "logo": "None", "latitude": 49.20943201333021, "longitude": -122.82609674300298}, "899926471RR0001": {"name": "SAVE FANNING SCHOOL INC", "designationCode": "C", "categoryCode": "52", "address": "383 BASELINE RD               # R.R 1", "city": "MAPLEQUE", "province": "PE", "country": "CA", "postalCode": "C0B1M0", "twitter": "None", "instagram": "None", "facebook": "None", "youtube": "None", "website": "None", "summary": "None", "logo": "None", "latitude": 46.53816900000005, "longitude": -63.71270899999993}, "875238016RR0001": {"name": "SAVE OLD SOULS SENIOR K-9 RESCUE SOCIETY", "designationCode": "C", "categoryCode": "54", "address": "PO BOX 272", "city": "REDCLIFF", "province": "AB", "country": "CA", "postalCode": "T0J2P0", "twitter": "None", "instagram": "None", "facebook": "None", "youtube": "None", "website": "None", "summary": "None", "logo": "None", "latitude": 50.06256300000001, "longitude": -110.79354470271593}, "886164193RR0001": {"name": "SAVE ONTARIO SHIPWRECKS", "designationCode": "C", "categoryCode": "52", "address": "POST OFFICE BOX 2389", "city": "BLENHEIM", "province": "ON", "country": "CA", "postalCode": "N0P1A0", "twitter": "None", "instagram": "None", "facebook": "None", "youtube": "None", "website": "None", "summary": "None", "logo": "None", "latitude": 42.335210000000075, "longitude": -81.99768999999998}, "119141968RR0001": {"name": "SAVE OUR HERITAGE ORGANIZATION", "designationCode": "C", "categoryCode": "52", "address": "P.O. BOX 578", "city": "BRIGHTON", "province": "ON", "country": "CA", "postalCode": "K0K1H0", "twitter": "None", "instagram": "None", "facebook": "None", "youtube": "None", "website": "None", "summary": "None", "logo": "None", "latitude": 44.04197993003085, "longitude": -77.73788995224774}, "893996975RR0001": {"name": "SAVE OUR SEINE RIVER ENVIRONMENT INC.", "designationCode": "C", "categoryCode": "59", "address": "BOX 83, 208 PROVENCHER BLVD", "city": "WINNIPEG", "province": "MB", "country": "CA", "postalCode": "R2H3B4", "twitter": "None", "instagram": "None", "facebook": "None", "youtube": "None", "website": "None", "summary": "None", "logo": "None", "latitude": 49.89233089312724, "longitude": -97.12083313015762}, "856371968RR0001": {"name": "SAVE OUR SONGBIRDS", "designationCode": "C", "categoryCode": "29", "address": "324 FIRST AVENUE", "city": "THUNDER BAY", "province": "ON", "country": "CA", "postalCode": "P7B2M8", "twitter": "None", "instagram": "None", "facebook": "None", "youtube": "None", "website": "None", "summary": "None", "logo": "None", "latitude": 48.420419489324196, "longitude": -89.23445116763806}, "107958621RR0001": {"name": "SAVE THE CHILDREN CANADA/AIDE \u00c0 L'ENFANCE CANADA", "designationCode": "C", "categoryCode": "09", "address": "4141 YONGE ST SUITE 300", "city": "TORONTO", "province": "ON", "country": "CA", "postalCode": "M2P2A8", "twitter": "None", "instagram": "None", "facebook": "None", "youtube": "None", "website": "None", "summary": "None", "logo": "None", "latitude": 43.74646968971084, "longitude": -79.40722392042281}, "829748524RR0001": {"name": "SAVE THE RAIN, CANADA INC.", "designationCode": "C", "categoryCode": "09", "address": "159 ALFRED AVE", "city": "NORTH YORK", "province": "ON", "country": "CA", "postalCode": "M2N3J3", "twitter": "None", "instagram": "None", "facebook": "None", "youtube": "None", "website": "None", "summary": "None", "logo": "None", "latitude": 43.767295827630086, "longitude": -79.40029481181837}, "889866067RR0001": {"name": "SAVE THE RICHMOND STREET FOREST", "designationCode": "C", "categoryCode": "52", "address": "41 CARLTON STREET SOUTH       APT 8", "city": "THOROLD", "province": "ON", "country": "CA", "postalCode": "L2V1Z7", "twitter": "None", "instagram": "None", "facebook": "None", "youtube": "None", "website": "None", "summary": "None", "logo": "None", "latitude": 43.121825465722196, "longitude": -79.19765157372014}, "857756589RR0001": {"name": "SAVE YOUR SKIN FOUNDATION", "designationCode": "C", "categoryCode": "11", "address": "319-3600 WINDCREST DR", "city": "NORTH VANCOUVER", "province": "BC", "country": "CA", "postalCode": "V7G2S5", "twitter": "None", "instagram": "None", "facebook": "None", "youtube": "None", "website": "None", "summary": "None", "logo": "None", "latitude": 49.30614660711374, "longitude": -122.97119189288625}, "890892490RR0001": {"name": "SAVE-THE-CEDAR LEAGUE", "designationCode": "C", "categoryCode": "59", "address": "401 - 2120 2ND AVE W", "city": "VANCOUVER", "province": "BC", "country": "CA", "postalCode": "V6K1H6", "twitter": "None", "instagram": "None", "facebook": "None", "youtube": "None", "website": "None", "summary": "None", "logo": "None", "latitude": 49.26986948845882, "longitude": -123.15327130252754}, "858865140RR0001": {"name": "SAVING STATION FOUNDATION / FONDATION STATION SECOURS", "designationCode": "C", "categoryCode": "57", "address": "180, BRUNSWICK BLVD", "city": "POINTE-CLAIRE", "province": "QC", "country": "CA", "postalCode": "H9R5P9", "twitter": "None", "instagram": "None", "facebook": "None", "youtube": "None", "website": "None", "summary": "None", "logo": "None", "latitude": 45.471721007156056, "longitude": -73.82088816674403}, "119142016RR0001": {"name": "SAVIOUR LUTHERAN CHURCH SOCIETY", "designationCode": "C", "categoryCode": "32", "address": "4737-57ST", "city": "DELTA", "province": "BC", "country": "CA", "postalCode": "V4K4C7", "twitter": "None", "instagram": "None", "facebook": "None", "youtube": "None", "website": "None", "summary": "None", "logo": "None", "latitude": 49.08903370191587, "longitude": -123.06535336349441}, "870584562RR0001": {"name": "SAVIOUR OF THE WORLD CHINESE CATHOLIC PARISH", "designationCode": "C", "categoryCode": "38", "address": "30 BRISTOL RD. WEST", "city": "MISSISSAUGA", "province": "ON", "country": "CA", "postalCode": "L5R3K3", "twitter": "None", "instagram": "None", "facebook": "None", "youtube": "None", "website": "None", "summary": "None", "logo": "None", "latitude": 43.61361312281135, "longitude": -79.66446157745852}, "119142024RR0001": {"name": "SAVOY SOCIETY OF OTTAWA", "designationCode": "C", "categoryCode": "22", "address": "PO BOX 4355 STN E", "city": "OTTAWA", "province": "ON", "country": "CA", "postalCode": "K1S5B3", "twitter": "None", "instagram": "None", "facebook": "None", "youtube": "None", "website": "None", "summary": "None", "logo": "None", "latitude": 45.42177300000006, "longitude": -75.69115999999994}, "868056169RR0001": {"name": "SAVRIDI SINGERS ASSOCIATION", "designationCode": "C", "categoryCode": "22", "address": "P.O BOX 65023", "city": "CALGARY", "province": "AB", "country": "CA", "postalCode": "T2N4T6", "twitter": "None", "instagram": "None", "facebook": "None", "youtube": "None", "website": "None", "summary": "None", "logo": "None", "latitude": 51.065529000000055, "longitude": -114.12679849999994}, "867857641RR0001": {"name": "SAW VIDEO ASSOCIATION", "designationCode": "C", "categoryCode": "22", "address": "67 NICHOLAS ST", "city": "OTTAWA", "province": "ON", "country": "CA", "postalCode": "K1N7B9", "twitter": "None", "instagram": "None", "facebook": "None", "youtube": "None", "website": "None", "summary": "None", "logo": "None", "latitude": 45.425234240925526, "longitude": -75.68919354478071}, "847206240RR0001": {"name": "SAWA WORLD ASSOCIATION", "designationCode": "C", "categoryCode": "21", "address": "304 - 2180 6TH AVE W", "city": "VANCOUVER", "province": "BC", "country": "CA", "postalCode": "V6K1V6", "twitter": "None", "instagram": "None", "facebook": "None", "youtube": "None", "website": "None", "summary": "None", "logo": "None", "latitude": 49.2664224884588, "longitude": -123.1547924701656}, "119142073RR0001": {"name": "SAWYERVILLE BAPTIST CHURCH", "designationCode": "C", "categoryCode": "31", "address": "33 RUE COOKSHIRE", "city": "SAWYERVILLE", "province": "QC", "country": "CA", "postalCode": "J0B3A0", "twitter": "None", "instagram": "None", "facebook": "None", "youtube": "None", "website": "None", "summary": "None", "logo": "None", "latitude": 45.337990801517954, "longitude": -71.5682359632407}, "863901930RR0001": {"name": "SAWYERVILLE UNITED CHURCH", "designationCode": "C", "categoryCode": "44", "address": "110 ROUTE 253", "city": "SAINT-ISIDORE-DE-CLIFTON", "province": "QC", "country": "CA", "postalCode": "J0B2X0", "twitter": "None", "instagram": "None", "facebook": "None", "youtube": "None", "website": "None", "summary": "None", "logo": "None", "latitude": 45.28043802901558, "longitude": -71.56249226025741}, "888268331RR0001": {"name": "SAYAL CHARITABLE FOUNDATION", "designationCode": "B", "categoryCode": "03", "address": "72 SPRUCEWOOD DRIVE", "city": "THORNHILL", "province": "ON", "country": "CA", "postalCode": "L3T2R1", "twitter": "None", "instagram": "None", "facebook": "None", "youtube": "None", "website": "None", "summary": "None", "logo": "None", "latitude": 43.81215579793992, "longitude": -79.40385462839726}, "891379877RR0001": {"name": "SAYWARD CHRISTIAN FELLOWSHIP SOCIETY", "designationCode": "C", "categoryCode": "39", "address": "740 GENTRY RD", "city": "SAYWARD", "province": "BC", "country": "CA", "postalCode": "V0P1R0", "twitter": "None", "instagram": "None", "facebook": "None", "youtube": "None", "website": "None", "summary": "None", "logo": "None", "latitude": 50.30258153303718, "longitude": -125.89278509631858}, "804762870RR0001": {"name": "SAYWARD COMMUNITY EDUCATION TRUST", "designationCode": "C", "categoryCode": "25", "address": "1730 SMIT ROAD", "city": "SAYWARD", "province": "BC", "country": "CA", "postalCode": "V0P1R0", "twitter": "None", "instagram": "None", "facebook": "None", "youtube": "None", "website": "None", "summary": "None", "logo": "None", "latitude": 50.30331903669192, "longitude": -125.90078825330562}, "813206703RR0001": {"name": "SB Centre for Security Governance", "designationCode": "C", "categoryCode": "21", "address": "85 EDWIN ST", "city": "KITCHENER", "province": "ON", "country": "CA", "postalCode": "N2H4N7", "twitter": "None", "instagram": "None", "facebook": "None", "youtube": "None", "website": "None", "summary": "None", "logo": "None", "latitude": 43.46343584733691, "longitude": -80.48756996687605}, "857201412RR0001": {"name": "SBC GALLERY OF CONTEMPORARY ART / SBC GALERIE D'ART CONTEMPORAIN", "designationCode": "C", "categoryCode": "22", "address": "372 RUE ST CATHERINE WEST     SUITE 507", "city": "MONTREAL", "province": "QC", "country": "CA", "postalCode": "H3B1A2", "twitter": "None", "instagram": "None", "facebook": "None", "youtube": "None", "website": "None", "summary": "None", "logo": "None", "latitude": 45.505710294189015, "longitude": -73.56737639950389}, "107973349RR0001": {"name": "SCA INTERNATIONAL", "designationCode": "C", "categoryCode": "47", "address": "12-17665 LESLIE ST", "city": "NEWMARKET", "province": "ON", "country": "CA", "postalCode": "L3Y3E3", "twitter": "None", "instagram": "None", "facebook": "None", "youtube": "None", "website": "None", "summary": "None", "logo": "None", "latitude": 44.063867355879715, "longitude": -79.43142957352875}, "119142115RR0001": {"name": "SCADDING COURT COMMUNITY CENTRE INCORPORATED", "designationCode": "C", "categoryCode": "56", "address": "707 DUNDAS STREET WEST", "city": "TORONTO", "province": "ON", "country": "CA", "postalCode": "M5T2W6", "twitter": "None", "instagram": "None", "facebook": "None", "youtube": "None", "website": "None", "summary": "None", "logo": "None", "latitude": 43.652025829563314, "longitude": -79.40462500931949}, "863842761RR0001": {"name": "SCALABRINI CHARITIES FOR THE POOR", "designationCode": "C", "categoryCode": "99", "address": "980 LOUIS AVE.", "city": "WINDSOR", "province": "ON", "country": "CA", "postalCode": "N9A1X9", "twitter": "None", "instagram": "None", "facebook": "None", "youtube": "None", "website": "None", "summary": "None", "logo": "None", "latitude": 42.31279014502165, "longitude": -83.02409397778906}, "891224347RR0001": {"name": "SCANDIA CHURCH AND CEMETERY BOARD", "designationCode": "C", "categoryCode": "59", "address": "BOX 154", "city": "SHELL LAKE", "province": "SK", "country": "CA", "postalCode": "S0J2G0", "twitter": "None", "instagram": "None", "facebook": "None", "youtube": "None", "website": "None", "summary": "None", "logo": "None", "latitude": 53.20896929274782, "longitude": -105.8726550041055}, "891606261RR0001": {"name": "SCANDIA COMMUNITY CENTRE", "designationCode": "C", "categoryCode": "56", "address": "BOX 11", "city": "SCANDIA", "province": "AB", "country": "CA", "postalCode": "T0J2Z0", "twitter": "None", "instagram": "None", "facebook": "None", "youtube": "None", "website": "None", "summary": "None", "logo": "None", "latitude": 50.279453999999994, "longitude": -112.04646075}, "119142149RR0001": {"name": "SCANDIA LUTHERAN CHURCH", "designationCode": "C", "categoryCode": "32", "address": "BOX 27", "city": "ARMENA", "province": "AB", "country": "CA", "postalCode": "T0B0G0", "twitter": "None", "instagram": "None", "facebook": "None", "youtube": "None", "website": "None", "summary": "None", "logo": "None", "latitude": 53.12440183093935, "longitude": -112.95168517624268}, "890085442RR0001": {"name": "SCANDIA LUTHERAN CHURCH,", "designationCode": "C", "categoryCode": "32", "address": "BOX 217", "city": "CABRI", "province": "SK", "country": "CA", "postalCode": "S0N0J0", "twitter": "None", "instagram": "None", "facebook": "None", "youtube": "None", "website": "None", "summary": "None", "logo": "None", "latitude": 50.620695000000055, "longitude": -108.45713149999993}, "891460644RR0001": {"name": "SCANDIA LUTHERAN CHURCH,", "designationCode": "C", "categoryCode": "32", "address": "PO BOX 371", "city": "WADENA", "province": "SK", "country": "CA", "postalCode": "S0A4J0", "twitter": "None", "instagram": "None", "facebook": "None", "youtube": "None", "website": "None", "summary": "None", "logo": "None", "latitude": 51.94407000000007, "longitude": -103.79973999999999}, "887956241RR0001": {"name": "SCANDINAVIAN CANADIAN CHOIR", "designationCode": "C", "categoryCode": "22", "address": "764 ERIN ST", "city": "WINNIPEG", "province": "MB", "country": "CA", "postalCode": "R3G2W4", "twitter": "None", "instagram": "None", "facebook": "None", "youtube": "None", "website": "None", "summary": "None", "logo": "None", "latitude": 49.88851373910784, "longitude": -97.18486577479928}, "122415987RR0001": {"name": "SCANDINAVIAN CENTRE INC", "designationCode": "C", "categoryCode": "22", "address": "764 ERIN ST", "city": "WINNIPEG", "province": "MB", "country": "CA", "postalCode": "R3G2W4", "twitter": "None", "instagram": "None", "facebook": "None", "youtube": "None", "website": "None", "summary": "None", "logo": "None", "latitude": 49.88851373910784, "longitude": -97.18486577479928}, "855048922RR0001": {"name": "SCARAMELLA CONCERTS", "designationCode": "C", "categoryCode": "22", "address": "78 LAWS STREET", "city": "TORONTO", "province": "ON", "country": "CA", "postalCode": "M6P2Y7", "twitter": "None", "instagram": "None", "facebook": "None", "youtube": "None", "website": "None", "summary": "None", "logo": "None"}, "119142164RR0001": {"name": "SCARBORO FOREIGN MISSION SOCIETY", "designationCode": "C", "categoryCode": "47", "address": "2685 KINGSTON RD", "city": "SCARBOROUGH", "province": "ON", "country": "CA", "postalCode": "M1M1M4", "twitter": "None", "instagram": "None", "facebook": "None", "youtube": "None", "website": "None", "summary": "None", "logo": "None", "latitude": 43.717212861475176, "longitude": -79.24139338268257}, "107959678RR0001": {"name": "SCARBORO UNITED CHURCH", "designationCode": "C", "categoryCode": "44", "address": "134 SCARBORO AVENUE S W", "city": "CALGARY", "province": "AB", "country": "CA", "postalCode": "T3C2H1", "twitter": "None", "instagram": "None", "facebook": "None", "youtube": "None", "website": "None", "summary": "None", "logo": "None", "latitude": 51.03833089120167, "longitude": -114.09998532125505}, "132689704RR0001": {"name": "SCARBOROUGH ARTS", "designationCode": "C", "categoryCode": "22", "address": "1859 KINGSTON ROAD", "city": "SCARBOROUGH", "province": "ON", "country": "CA", "postalCode": "M1N1T3", "twitter": "None", "instagram": "None", "facebook": "None", "youtube": "None", "website": "None", "summary": "None", "logo": "None", "latitude": 43.695512896185676, "longitude": -79.25893380347983}, "889245643RR0001": {"name": "SCARBOROUGH BAPTIST CHURCH", "designationCode": "C", "categoryCode": "31", "address": "1597 KINGSTON ROAD", "city": "SCARBOROUGH", "province": "ON", "country": "CA", "postalCode": "M1N1S3", "twitter": "None", "instagram": "None", "facebook": "None", "youtube": "None", "website": "None", "summary": "None", "logo": "None", "latitude": 43.690491274193704, "longitude": -79.26650751898569}, "119142180RR0001": {"name": "SCARBOROUGH BAPTIST CHURCH, INC.", "designationCode": "C", "categoryCode": "31", "address": "2650 - 6TH AVENUE EAST", "city": "PRINCE ALBERT", "province": "SK", "country": "CA", "postalCode": "S6V2K8", "twitter": "None", "instagram": "None", "facebook": "None", "youtube": "None", "website": "None", "summary": "None", "logo": "None", "latitude": 53.188694999999996, "longitude": -105.73748510987386}, "108191446RR0001": {"name": "SCARBOROUGH BLUFFS UNITED CHURCH", "designationCode": "C", "categoryCode": "44", "address": "3739 KINGSTON ROAD", "city": "SCARBOROUGH", "province": "ON", "country": "CA", "postalCode": "M1J3H4", "twitter": "None", "instagram": "None", "facebook": "None", "youtube": "None", "website": "None", "summary": "None", "logo": "None", "latitude": 43.74604740354325, "longitude": -79.2091674390618}, "894945633RR0024": {"name": "SCARBOROUGH CHINESE ALLIANCE CHURCH OF THE CHRISTIAN AND MISSIONARY ALLIANCE IN CANADA", "designationCode": "C", "categoryCode": "39", "address": "139 SILVER STAR BLVD", "city": "SCARBOROUGH", "province": "ON", "country": "CA", "postalCode": "M1V4V8", "twitter": "None", "instagram": "None", "facebook": "None", "youtube": "None", "website": "None", "summary": "None", "logo": "None", "latitude": 43.808173637255415, "longitude": -79.29251380287425}, "107959355RR0001": {"name": "SCARBOROUGH CHINESE BAPTIST CHURCH", "designationCode": "C", "categoryCode": "31", "address": "3223 KENNEDY RD.", "city": "SCARBOROUGH", "province": "ON", "country": "CA", "postalCode": "M1V4Y1", "twitter": "None", "instagram": "None", "facebook": "None", "youtube": "None", "website": "None", "summary": "None", "logo": "None", "latitude": 43.815873843758894, "longitude": -79.30356792053838}, "876623901RR0001": {"name": "SCARBOROUGH CHURCH OF CHRIST", "designationCode": "C", "categoryCode": "39", "address": "300 BOROUGH DRIVE, BOX 47011", "city": "SCARBOROUGH", "province": "ON", "country": "CA", "postalCode": "M1P4Z7", "twitter": "None", "instagram": "None", "facebook": "None", "youtube": "None", "website": "None", "summary": "None", "logo": "None", "latitude": 43.775429849241476, "longitude": -79.25399839901728}, "119142248RR0001": {"name": "SCARBOROUGH CHURCH OF GOD", "designationCode": "C", "categoryCode": "39", "address": "3576 ST CLAIR AVENUE EAST", "city": "SCARBOROUGH", "province": "ON", "country": "CA", "postalCode": "M1K1M2", "twitter": "None", "instagram": "None", "facebook": "None", "youtube": "None", "website": "None", "summary": "None", "logo": "None", "latitude": 43.717355139621354, "longitude": -79.2578697320387}, "107797383RR0035": {"name": "SCARBOROUGH FILIPINO SEVENTH-DAY ADVENTIST CHURCH", "designationCode": "C", "categoryCode": "41", "address": "10 MID PINES RD", "city": "SCARBOROUGH", "province": "ON", "country": "CA", "postalCode": "M1G2L6", "twitter": "None", "instagram": "None", "facebook": "None", "youtube": "None", "website": "None", "summary": "None", "logo": "None", "latitude": 43.76921460782504, "longitude": -79.21146561062366}}