{"132390261RR0001": {"name": "LES DOMINICAINS OU FRERES PRECHEURS DE LA PROVINCE DE QUEBEC", "designationCode": "C", "categoryCode": "46", "address": "2200 RUE GIROUARD O           CP 128", "city": "SAINT-HYACINTHE", "province": "QC", "country": "CA", "postalCode": "J2S7B4", "twitter": "None", "instagram": "None", "facebook": "None", "youtube": "None", "website": "None", "summary": "None", "logo": "None", "latitude": 45.62283890010948, "longitude": -72.95016238167203}, "119015220RR0001": {"name": "LES DOMINICAINS OU FRERES PRECHEURSM D'OTTAWA/OTTAWA DOMINCANS OR FRIARS PREACHERS", "designationCode": "C", "categoryCode": "46", "address": "2715 CH. COTE-SAINTE-CATHERINEBUREAU APD", "city": "MONTREAL", "province": "QC", "country": "CA", "postalCode": "H3T1B6", "twitter": "None", "instagram": "None", "facebook": "None", "youtube": "None", "website": "None", "summary": "None", "logo": "None", "latitude": 45.50668659703366, "longitude": -73.62023772932606}, "119015261RR0001": {"name": "LES ECHOS DU PACIFIQUE", "designationCode": "C", "categoryCode": "22", "address": "1031 BRUNETTE AVE             PO BOX 57573 RPO MAILLARDVILLE", "city": "COQUITLAM", "province": "BC", "country": "CA", "postalCode": "V3K6S8", "twitter": "None", "instagram": "None", "facebook": "None", "youtube": "None", "website": "None", "summary": "None", "logo": "None", "latitude": 49.23830419069178, "longitude": -122.86455689676258}, "107534893RR0001": {"name": "LES ECOLES JUIVES POPULAIRES ET LES ECOLES PERETZ INC. / JEWISH PEOPLE'S SCHOOLS AND PERETZ SCHOOLS INC.", "designationCode": "C", "categoryCode": "20", "address": "6502 KILDARE", "city": "C\u00d4TE ST-LUC", "province": "QC", "country": "CA", "postalCode": "H4W3B8", "twitter": "None", "instagram": "None", "facebook": "None", "youtube": "None", "website": "None", "summary": "None", "logo": "None", "latitude": 45.4791083756624, "longitude": -73.65837201968614}, "103116448RR0001": {"name": "LES EDITIONS CAP-AUX-DIAMANTS INC.", "designationCode": "C", "categoryCode": "50", "address": "CP 26 SUCC HAUTE-VILLE", "city": "QUEBEC", "province": "QC", "country": "CA", "postalCode": "G1R4M8", "twitter": "None", "instagram": "None", "facebook": "None", "youtube": "None", "website": "None", "summary": "None", "logo": "None", "latitude": 46.81977000000006, "longitude": -71.23039999999997}, "121793921RR0001": {"name": "LES EDITIONS DU VERMILLON INC", "designationCode": "C", "categoryCode": "22", "address": "305 ST PATRICK ST", "city": "OTTAWA", "province": "ON", "country": "CA", "postalCode": "K1N5K4", "twitter": "None", "instagram": "None", "facebook": "None", "youtube": "None", "website": "None", "summary": "None", "logo": "None", "latitude": 45.43161932696624, "longitude": -75.69111288164336}, "119015329RR0001": {"name": "LES EDITIONS L'INTERLIGNE INC.", "designationCode": "C", "categoryCode": "22", "address": "117 - 435 DONALD ST", "city": "OTTAWA", "province": "ON", "country": "CA", "postalCode": "K1K4X5", "twitter": "None", "instagram": "None", "facebook": "None", "youtube": "None", "website": "None", "summary": "None", "logo": "None", "latitude": 45.42831747331002, "longitude": -75.64913597558996}, "103117347RR0001": {"name": "LES EDITIONS LE RENOUVEAU CHARLESBOURG INC.", "designationCode": "C", "categoryCode": "49", "address": "1645 BOULEVARD LOUIS-X1V      C.P. 87605 SUCC. CHARLESBOURG", "city": "QUEBEC", "province": "QC", "country": "CA", "postalCode": "G1G5W6", "twitter": "None", "instagram": "None", "facebook": "None", "youtube": "None", "website": "None", "summary": "None", "logo": "None", "latitude": 46.88150130532616, "longitude": -71.24289477909845}, "141119776RR0001": {"name": "LES EGLISES CONGREGATIONALISTES CHRETIENNES AU QUEBEC", "designationCode": "C", "categoryCode": "39", "address": "680 BOUL DES MONTS", "city": "SAINTE-AD\u00c8LE", "province": "QC", "country": "CA", "postalCode": "J8B1K4", "twitter": "None", "instagram": "None", "facebook": "None", "youtube": "None", "website": "None", "summary": "None", "logo": "None", "latitude": 45.93694283207347, "longitude": -74.10681696615488}, "802097345RR0001": {"name": "LES ENFANTS COMME LES AUTRES", "designationCode": "C", "categoryCode": "09", "address": "3521 RUE DU ROI-GEORGES", "city": "JONQUIERE", "province": "QC", "country": "CA", "postalCode": "G7X1V6", "twitter": "None", "instagram": "None", "facebook": "None", "youtube": "None", "website": "None", "summary": "None", "logo": "None", "latitude": 48.4227496122398, "longitude": -71.22782680558596}, "119015386RR0001": {"name": "LES ENFANTS D'AMOUR", "designationCode": "C", "categoryCode": "11", "address": "202 - 2625 CH SAINTE-FOY", "city": "QUEBEC", "province": "QC", "country": "CA", "postalCode": "G1V1T8", "twitter": "None", "instagram": "None", "facebook": "None", "youtube": "None", "website": "None", "summary": "None", "logo": "None", "latitude": 46.78240814458435, "longitude": -71.29489126060369}, "895336071RR0001": {"name": "LES ENFANTS DE L'ESPOIR DE HULL", "designationCode": "C", "categoryCode": "09", "address": "81 RUE SAINT-HENRI", "city": "GATINEAU", "province": "QC", "country": "CA", "postalCode": "J8X2Y1", "twitter": "None", "instagram": "None", "facebook": "None", "youtube": "None", "website": "None", "summary": "None", "logo": "None", "latitude": 45.43611092561603, "longitude": -75.72023073607808}, "882631567RR0001": {"name": "LES ENFANTS DE LA TERRE, ECOLE RUDOLF STEINER DE L'ESTRIE", "designationCode": "C", "categoryCode": "20", "address": "2000 CHEMIN VAL-ESTRIE", "city": "WATERVILLE", "province": "QC", "country": "CA", "postalCode": "J0B3H0", "twitter": "None", "instagram": "None", "facebook": "None", "youtube": "None", "website": "None", "summary": "None", "logo": "None", "latitude": 45.27975860113128, "longitude": -71.90319869871321}, "892838012RR0001": {"name": "LES ENFANTS PRECIEUX INC.", "designationCode": "C", "categoryCode": "01", "address": "209 KENNY ST", "city": "WINNIPEG", "province": "MB", "country": "CA", "postalCode": "R2H2E5", "twitter": "None", "instagram": "None", "facebook": "None", "youtube": "None", "website": "None", "summary": "None", "logo": "None", "latitude": 49.87795420399332, "longitude": -97.12002248842921}, "141361774RR0001": {"name": "LES ENSEMBLES MUSICAUX DU MONT SAINT-HILAIRE", "designationCode": "C", "categoryCode": "22", "address": "525 RUE JOLLIET", "city": "MONT-SAINT-HILAIRE", "province": "QC", "country": "CA", "postalCode": "J3H3N2", "twitter": "None", "instagram": "None", "facebook": "None", "youtube": "None", "website": "None", "summary": "None", "logo": "None", "latitude": 45.56817826080406, "longitude": -73.18328471794904}, "142371657RR0001": {"name": "LES ENTREPRISES D'INSERTION GODEFROY-LAVIOLETTE", "designationCode": "C", "categoryCode": "59", "address": "319, RUE SAINT-GEORGES", "city": "ST-JEROME", "province": "QC", "country": "CA", "postalCode": "J7Z5A2", "twitter": "None", "instagram": "None", "facebook": "None", "youtube": "None", "website": "None", "summary": "None", "logo": "None", "latitude": 45.77662267776561, "longitude": -74.0030553781236}, "144017225RR0001": {"name": "LES ENTREPRISES JEUNESSE DE LA MONTEREGIE", "designationCode": "C", "categoryCode": "59", "address": "3335 1RE RUE", "city": "SAINT-HUBERT", "province": "QC", "country": "CA", "postalCode": "J3Y8Y6", "twitter": "None", "instagram": "None", "facebook": "None", "youtube": "None", "website": "None", "summary": "None", "logo": "None", "latitude": 45.476202301950615, "longitude": -73.39221266605152}, "119015402RR0001": {"name": "LES EQUIPIERES SOCIALES", "designationCode": "C", "categoryCode": "09", "address": "7740 BOUL WILFRID-PELLETIER", "city": "ANJOU", "province": "QC", "country": "CA", "postalCode": "H1K1L4", "twitter": "None", "instagram": "None", "facebook": "None", "youtube": "None", "website": "None", "summary": "None", "logo": "None", "latitude": 45.60235986871721, "longitude": -73.55385963514928}, "119091304RR0001": {"name": "LES EUDISTES", "designationCode": "C", "categoryCode": "46", "address": "6125 1IERE AVENUE", "city": "CHARLESBOURG", "province": "QC", "country": "CA", "postalCode": "G1H2V9", "twitter": "None", "instagram": "None", "facebook": "None", "youtube": "None", "website": "None", "summary": "None", "logo": "None", "latitude": 46.851828000000054, "longitude": -71.25779599999993}, "899164040RR0001": {"name": "LES FANTASTIQUES DE MAGOG INC", "designationCode": "C", "categoryCode": "09", "address": "1525 RUE PRINCIPALE EST", "city": "MAGOG", "province": "QC", "country": "CA", "postalCode": "J1X1Z8", "twitter": "None", "instagram": "None", "facebook": "None", "youtube": "None", "website": "None", "summary": "None", "logo": "None", "latitude": 45.26226935821481, "longitude": -72.12481610594331}, "144397619RR0001": {"name": "LES FERMES SOLIDAR, INC.", "designationCode": "C", "categoryCode": "59", "address": "1888, RANG ST-JOSEPH", "city": "CHICOUTIMI", "province": "QC", "country": "CA", "postalCode": "G7H5A7", "twitter": "None", "instagram": "None", "facebook": "None", "youtube": "None", "website": "None", "summary": "None", "logo": "None", "latitude": 48.42976636329286, "longitude": -71.0109922409255}, "843080367RR0001": {"name": "LES FIDUCIAIRES DES OEUVRES CHARITABLES DU CLUB RICHELIEU ST-GEORGES", "designationCode": "C", "categoryCode": "09", "address": "C.P. 542", "city": "VILLE SAINT-GEORGES", "province": "QC", "country": "CA", "postalCode": "G5Y5C9", "twitter": "None", "instagram": "None", "facebook": "None", "youtube": "None", "website": "None", "summary": "None", "logo": "None", "latitude": 46.11928000000006, "longitude": -70.66946999999993}, "119015535RR0001": {"name": "LES FIDUCIAIRES DES OEUVRES CHARITABLES DU CLUB RICHELIEU ST-LAMBERT", "designationCode": "C", "categoryCode": "65", "address": "439 NOTRE-DAME", "city": "SAINT-LAMBERT", "province": "QC", "country": "CA", "postalCode": "J4P2K5", "twitter": "None", "instagram": "None", "facebook": "None", "youtube": "None", "website": "None", "summary": "None", "logo": "None", "latitude": 45.502667414363295, "longitude": -73.51223088732752}, "107616658RR0001": {"name": "LES FILLES DE J\u00c9SUS (TROIS-RIVI\u00c8RES)", "designationCode": "C", "categoryCode": "46", "address": "1193, BOUL. SAINT-LOUIS", "city": "TROIS-RIVI\u00c8RES", "province": "QC", "country": "CA", "postalCode": "G8Z2M8", "twitter": "None", "instagram": "None", "facebook": "None", "youtube": "None", "website": "None", "summary": "None", "logo": "None", "latitude": 46.348138059380325, "longitude": -72.5522534580179}, "119015550RR0001": {"name": "LES FILLES DE JESUS", "designationCode": "C", "categoryCode": "46", "address": "9411 88 AVE", "city": "EDMONTON", "province": "AB", "country": "CA", "postalCode": "T6C1M5", "twitter": "None", "instagram": "None", "facebook": "None", "youtube": "None", "website": "None", "summary": "None", "logo": "None", "latitude": 53.52345452842077, "longitude": -113.4719235}, "126012343RR0001": {"name": "LES FILLES DE LA CHARIT\u00c9 DU SACR\u00c9-COEUR DE J\u00c9SUS", "designationCode": "C", "categoryCode": "46", "address": "575 RUE ALLEN", "city": "SHERBROOKE", "province": "QC", "country": "CA", "postalCode": "J1G1Z1", "twitter": "None", "instagram": "None", "facebook": "None", "youtube": "None", "website": "None", "summary": "None", "logo": "None", "latitude": 45.394665504327826, "longitude": -71.87444061226844}, "888463247RR0001": {"name": "LES FILLES DE LA PROVIDENCE", "designationCode": "C", "categoryCode": "46", "address": "A60 - 331 CORNISH RD", "city": "SASKATOON", "province": "SK", "country": "CA", "postalCode": "S7T0T9", "twitter": "None", "instagram": "None", "facebook": "None", "youtube": "None", "website": "None", "summary": "None", "logo": "None", "latitude": 52.08652547994646, "longitude": -106.63019180682672}, "107616732RR0001": {"name": "LES FILLES DE MARIE-DE-L'ASSOMPTION", "designationCode": "C", "categoryCode": "46", "address": "PO BOX 37 STN MAIN", "city": "CAMPBELLTON", "province": "NB", "country": "CA", "postalCode": "E3N3G1", "twitter": "None", "instagram": "None", "facebook": "None", "youtube": "None", "website": "None", "summary": "None", "logo": "None", "latitude": 47.99757300000006, "longitude": -66.66103249999993}, "129336723RR0001": {"name": "LES FILLES DE SAINTE-MARIE DE LA PR\u00c9SENTATION (R\u00c9GION DU CANADA)", "designationCode": "C", "categoryCode": "46", "address": "1526, RUE DES ENGOULEVENTS", "city": "CHICOUTIMI", "province": "QC", "country": "CA", "postalCode": "G7H5R8", "twitter": "None", "instagram": "None", "facebook": "None", "youtube": "None", "website": "None", "summary": "None", "logo": "None", "latitude": 48.40110791035258, "longitude": -71.0509538272547}, "144756392RR0001": {"name": "LES FILLES ELECTRIQUES", "designationCode": "C", "categoryCode": "22", "address": "5445, AV. DE GASPE, PORTE 422", "city": "MONTREAL", "province": "QC", "country": "CA", "postalCode": "H2T3B2", "twitter": "None", "instagram": "None", "facebook": "None", "youtube": "None", "website": "None", "summary": "None", "logo": "None", "latitude": 45.52683526146908, "longitude": -73.59551934136431}, "120391180RR0001": {"name": "LES FILS DE MARIE-JOSEPH INC.", "designationCode": "C", "categoryCode": "49", "address": "626, ROUTE DU SANCTUAIRE", "city": "LAC-ETCHEMIN", "province": "QC", "country": "CA", "postalCode": "G0R1S0", "twitter": "None", "instagram": "None", "facebook": "None", "youtube": "None", "website": "None", "summary": "None", "logo": "None", "latitude": 46.38889625578277, "longitude": -70.50398658702751}, "864543020RR0001": {"name": "LES FONDS \"MARCHANT A TES COTES\"", "designationCode": "C", "categoryCode": "09", "address": "471 MELANCON", "city": "SAINT-JEROME", "province": "QC", "country": "CA", "postalCode": "J7Z4K3", "twitter": "None", "instagram": "None", "facebook": "None", "youtube": "None", "website": "None", "summary": "None", "logo": "None", "latitude": 45.78024785538702, "longitude": -73.99649795940381}, "118932227RR0001": {"name": "LES FR\u00c8RES DES \u00c9COLES CHR\u00c9TIENNES DU CANADA FRANCOPHONE", "designationCode": "C", "categoryCode": "46", "address": "270, BOUL DE NORMANDIE", "city": "LONGUEUIL", "province": "QC", "country": "CA", "postalCode": "J4H3P2", "twitter": "None", "instagram": "None", "facebook": "None", "youtube": "None", "website": "None", "summary": "None", "logo": "None", "latitude": 45.542622039673496, "longitude": -73.50295892189378}, "129000238RR0001": {"name": "LES FRANCISCAINES MISSIONNAIRES DE MARIE", "designationCode": "C", "categoryCode": "46", "address": "2516 AVENUE KALADAR", "city": "OTTAWA", "province": "ON", "country": "CA", "postalCode": "K1V8C5", "twitter": "None", "instagram": "None", "facebook": "None", "youtube": "None", "website": "None", "summary": "None", "logo": "None", "latitude": 45.37428744240867, "longitude": -75.67104129476591}, "119720423RR0001": {"name": "LES FRANCO-LIONS DE LACERTE INC.", "designationCode": "C", "categoryCode": "20", "address": "12 - 1101 AUTUMNWOOD DR", "city": "WINNIPEG", "province": "MB", "country": "CA", "postalCode": "R2J1C8", "twitter": "None", "instagram": "None", "facebook": "None", "youtube": "None", "website": "None", "summary": "None", "logo": "None", "latitude": 49.86046505871779, "longitude": -97.07828546869567}, "853865004RR0001": {"name": "LES FRATERNITES MONASTIQUES DES FRERES DE JERUSALEM - MONTREAL", "designationCode": "C", "categoryCode": "46", "address": "530 AV. MONT ROYAL E.", "city": "MONTREAL", "province": "QC", "country": "CA", "postalCode": "H2J1W5", "twitter": "None", "instagram": "None", "facebook": "None", "youtube": "None", "website": "None", "summary": "None", "logo": "None", "latitude": 45.52504706105377, "longitude": -73.58188029695896}, "854001708RR0001": {"name": "LES FRATERNITES MONASTIQUES DES SOEURS DE JERUSALEM - MONTREAL", "designationCode": "C", "categoryCode": "46", "address": "500 AVENUE MONT-ROYAL EST", "city": "MONTREAL", "province": "QC", "country": "CA", "postalCode": "H2J1W5", "twitter": "None", "instagram": "None", "facebook": "None", "youtube": "None", "website": "None", "summary": "None", "logo": "None", "latitude": 45.52527419926146, "longitude": -73.5816664938545}, "131711244RR0001": {"name": "LES FRERES DE L'INSTRUCTION CHRETIENNE (NB)", "designationCode": "C", "categoryCode": "46", "address": "3466 ROUTE 134", "city": "SHEDIAC CAPE", "province": "NB", "country": "CA", "postalCode": "E4P3J4", "twitter": "None", "instagram": "None", "facebook": "None", "youtube": "None", "website": "None", "summary": "None", "logo": "None", "latitude": 46.24111322194855, "longitude": -64.56795260317564}, "107406787RR0001": {"name": "LES FRERES DE LA CHARITE", "designationCode": "C", "categoryCode": "46", "address": "1445 RUE NOTRE-DAME", "city": "ST-SULPHICE", "province": "QC", "country": "CA", "postalCode": "J5W3V8", "twitter": "None", "instagram": "None", "facebook": "None", "youtube": "None", "website": "None", "summary": "None", "logo": "None", "latitude": 45.83143002363063, "longitude": -73.33660906691081}, "119015667RR0001": {"name": "LES FRERES DES ECOLES CHRETIENNES D'OTTAWA", "designationCode": "C", "categoryCode": "46", "address": "270, BOUL. DE NORMANDIE", "city": "LONGUEUIL", "province": "QC", "country": "CA", "postalCode": "J4H3P2", "twitter": "None", "instagram": "None", "facebook": "None", "youtube": "None", "website": "None", "summary": "None", "logo": "None", "latitude": 45.542622039673496, "longitude": -73.50295892189378}, "107617227RR0001": {"name": "LES FRERES DU SACRE-COEUR", "designationCode": "C", "categoryCode": "46", "address": "129 FR\u00c8RE TH\u00c9ODE", "city": "SHERBROOKE", "province": "QC", "country": "CA", "postalCode": "J1C0S3", "twitter": "None", "instagram": "None", "facebook": "None", "youtube": "None", "website": "None", "summary": "None", "logo": "None", "latitude": 45.472621968446404, "longitude": -71.95136015854378}, "870677408RR0001": {"name": "LES FRERES MARISTES", "designationCode": "C", "categoryCode": "49", "address": "751, CH. DES PATRIOTES EST", "city": "SAINT-JEAN-SUR-RICHELIEU", "province": "QC", "country": "CA", "postalCode": "J2X4J3", "twitter": "None", "instagram": "None", "facebook": "None", "youtube": "None", "website": "None", "summary": "None", "logo": "None", "latitude": 45.380582927549284, "longitude": -73.24656745856616}, "864878384RR0001": {"name": "LES FRIGOS PLEINS", "designationCode": "C", "categoryCode": "09", "address": "197, RUE PRINCIPALE", "city": "SAINT-LAZARE-DE-BELLECHASSE", "province": "QC", "country": "CA", "postalCode": "G0R3J0", "twitter": "None", "instagram": "None", "facebook": "None", "youtube": "None", "website": "None", "summary": "None", "logo": "None", "latitude": 46.657008619193334, "longitude": -70.7986018988114}, "861478758RR0001": {"name": "LES GARDIENS DU PHARE DE L'ILE VERTE", "designationCode": "C", "categoryCode": "52", "address": "2802 CH DU PHARE", "city": "NOTRE-DAME-DES-SEPTS-DOULEURS", "province": "QC", "country": "CA", "postalCode": "G0L1K0", "twitter": "None", "instagram": "None", "facebook": "None", "youtube": "None", "website": "None", "summary": "None", "logo": "None", "latitude": 48.05205035136082, "longitude": -69.42072911808337}, "103193496RR0001": {"name": "LES GENS OUBLIES DE NOTRE-DAME-D'HEBERTVILLE INC.", "designationCode": "C", "categoryCode": "01", "address": "408 RACINE", "city": "HEBERTVILLE", "province": "QC", "country": "CA", "postalCode": "G8N1R1", "twitter": "None", "instagram": "None", "facebook": "None", "youtube": "None", "website": "None", "summary": "None", "logo": "None", "latitude": 48.397391948092846, "longitude": -71.67812005756265}, "893441469RR0001": {"name": "LES GIROUETTES DE CHUTE-AUX-OUTARDES", "designationCode": "C", "categoryCode": "09", "address": "37 RUE DE L'EGLIST", "city": "CHUTE AUX OUTARDES", "province": "QC", "country": "CA", "postalCode": "G0H1C0", "twitter": "None", "instagram": "None", "facebook": "None", "youtube": "None", "website": "None", "summary": "None", "logo": "None", "latitude": 49.12424883790186, "longitude": -68.3908099228174}, "889673497RR0001": {"name": "LES GRANDS AMIS DE LA REGION DE MATANE", "designationCode": "C", "categoryCode": "09", "address": "216-235 AV. SAINT-JEROME", "city": "MATANE", "province": "QC", "country": "CA", "postalCode": "G4W3A7", "twitter": "None", "instagram": "None", "facebook": "None", "youtube": "None", "website": "None", "summary": "None", "logo": "None", "latitude": 48.84353149154589, "longitude": -67.53095180463366}, "119015790RR0001": {"name": "LES GRANDS AMIS DE RIMOUSKI", "designationCode": "C", "categoryCode": "09", "address": "215 RUE TESSIER", "city": "RIMOUSKI", "province": "QC", "country": "CA", "postalCode": "G5L8X9", "twitter": "None", "instagram": "None", "facebook": "None", "youtube": "None", "website": "None", "summary": "None", "logo": "None", "latitude": 48.44190126449883, "longitude": -68.53436279395785}, "131959405RR0001": {"name": "LES GRANDS AMIS DU KRTB", "designationCode": "C", "categoryCode": "09", "address": "26 RUE JOLY", "city": "RIVI\u00c8RE-DU-LOUP", "province": "QC", "country": "CA", "postalCode": "G5R3H2", "twitter": "None", "instagram": "None", "facebook": "None", "youtube": "None", "website": "None", "summary": "None", "logo": "None", "latitude": 47.835144817646764, "longitude": -69.54243731585774}, "103199196RR0001": {"name": "LES GRANDS BALLETS CANADIENS", "designationCode": "C", "categoryCode": "22", "address": "4816 RIVARD", "city": "MONTREAL", "province": "QC", "country": "CA", "postalCode": "H2J2N6", "twitter": "None", "instagram": "None", "facebook": "None", "youtube": "None", "website": "None", "summary": "None", "logo": "None", "latitude": 45.5264037352127, "longitude": -73.58675557092153}, "132198672RR0001": {"name": "LES GRANDS FR\u00c8RES ET GRANDES SOEURS DE L'OUTAOUAIS INC.", "designationCode": "C", "categoryCode": "09", "address": "195, REU DEVEAULT             UNITE 3", "city": "GATINEAU", "province": "QC", "country": "CA", "postalCode": "J8Z1S7", "twitter": "None", "instagram": "None", "facebook": "None", "youtube": "None", "website": "None", "summary": "None", "logo": "None", "latitude": 45.46253441776749, "longitude": -75.73691734664443}, "141945782RR0001": {"name": "LES GRANDS FR\u00c8RES ET GRANDES SOEURS DE LA PORTE DU NORD", "designationCode": "C", "categoryCode": "09", "address": "770 RUE LABELLE", "city": "SAINT-JEROME", "province": "QC", "country": "CA", "postalCode": "J7Z5M3", "twitter": "None", "instagram": "None", "facebook": "None", "youtube": "None", "website": "None", "summary": "None", "logo": "None", "latitude": 45.78743245322873, "longitude": -74.0046561848634}, "107600934RR0001": {"name": "LES GRANDS FRERES ET GRANDES SOEURS DE L'ABITIBI-OUEST", "designationCode": "C", "categoryCode": "09", "address": "CP 460", "city": "LA SARRE", "province": "QC", "country": "CA", "postalCode": "J9Z1M4", "twitter": "None", "instagram": "None", "facebook": "None", "youtube": "None", "website": "None", "summary": "None", "logo": "None", "latitude": 48.80323500000006, "longitude": -79.20437749999994}, "119015840RR0001": {"name": "LES GRANDS FRERES ET GRANDES SOEURS DE QUEBEC INC.", "designationCode": "C", "categoryCode": "09", "address": "2380 AVE DUMONT-THABOR        BUREAU 201", "city": "QUEBEC", "province": "QC", "country": "CA", "postalCode": "G1J3W7", "twitter": "None", "instagram": "None", "facebook": "None", "youtube": "None", "website": "None", "summary": "None", "logo": "None", "latitude": 46.838364000000055, "longitude": -71.23125049999993}, "107617581RR0001": {"name": "LES GRANDS FRERES ET LES GRANDES SOEURS DE L'ESTRIE INC.", "designationCode": "C", "categoryCode": "09", "address": "1265, RUE BELV\u00c9D\u00c8RE SUD", "city": "SHERBROOKE", "province": "QC", "country": "CA", "postalCode": "J1H4E2", "twitter": "None", "instagram": "None", "facebook": "None", "youtube": "None", "website": "None", "summary": "None", "logo": "None", "latitude": 45.387105841797, "longitude": -71.89628018890276}, "119015881RR0001": {"name": "LES GRANDS FRERES ET LES GRANDES SOEURS DE L'OUEST DE L'ILE BIG BROTHERS AN BIG SISTERS OF WEST ISLAND", "designationCode": "C", "categoryCode": "09", "address": "16711 TRANS-CANADA HIGHWAY", "city": "KIRKLAND", "province": "QC", "country": "CA", "postalCode": "H9H3L1", "twitter": "None", "instagram": "None", "facebook": "None", "youtube": "None", "website": "None", "summary": "None", "logo": "None", "latitude": 45.45685291587517, "longitude": -73.84261925578029}, "119015899RR0001": {"name": "LES GRANDS FRERES ET LES GRANDES SOEURS DE SAINT-HYACINTHE INC.", "designationCode": "C", "categoryCode": "09", "address": "204-1195 RUE SAINT-ANTOINE", "city": "SAINT-HYACINTHE", "province": "QC", "country": "CA", "postalCode": "J2S3K6", "twitter": "None", "instagram": "None", "facebook": "None", "youtube": "None", "website": "None", "summary": "None", "logo": "None", "latitude": 45.625280134601034, "longitude": -72.94288513737098}, "120512157RR0001": {"name": "LES GRANDS FRERES,GRANDES SOEURS DE LANAUDIERE", "designationCode": "C", "categoryCode": "09", "address": "144 ST-JOSEPH", "city": "JOLIETTE", "province": "QC", "country": "CA", "postalCode": "J6E5C4", "twitter": "None", "instagram": "None", "facebook": "None", "youtube": "None", "website": "None", "summary": "None", "logo": "None", "latitude": 46.026606530122855, "longitude": -73.44158207325879}, "107447351RR0001": {"name": "LES GRANDS-MERES/CARESSES INC.", "designationCode": "C", "categoryCode": "09", "address": "2348 JEAN-TALON EAST STE 202", "city": "MONTREAL", "province": "QC", "country": "CA", "postalCode": "H2E1V7", "twitter": "None", "instagram": "None", "facebook": "None", "youtube": "None", "website": "None", "summary": "None", "logo": "None", "latitude": 45.552173312510874, "longitude": -73.60325585232857}, "881577415RR0001": {"name": "LES GRENIERS DE JOSEPH", "designationCode": "C", "categoryCode": "09", "address": "2550 RUE JENSENS", "city": "SAINT-HUBERT", "province": "QC", "country": "CA", "postalCode": "J3Y3W3", "twitter": "None", "instagram": "None", "facebook": "None", "youtube": "None", "website": "None", "summary": "None", "logo": "None", "latitude": 45.506723939782944, "longitude": -73.4338289046971}, "138170956RR0001": {"name": "LES HABITATIONS A CIEL OUVERT", "designationCode": "C", "categoryCode": "09", "address": "10-10000 BOUL SAINT-LAURENT", "city": "MONTREAL", "province": "QC", "country": "CA", "postalCode": "H3L2N7", "twitter": "None", "instagram": "None", "facebook": "None", "youtube": "None", "website": "None", "summary": "None", "logo": "None", "latitude": 45.54739110794063, "longitude": -73.661331838623}, "862470085RR0001": {"name": "LES HABITATIONS ADAPTEES DE BELLECHASSE", "designationCode": "C", "categoryCode": "09", "address": "84, BOUL. B\u00c9GIN APP.#12", "city": "SAINTE-CLAIRE", "province": "QC", "country": "CA", "postalCode": "G0R2V0", "twitter": "None", "instagram": "None", "facebook": "None", "youtube": "None", "website": "None", "summary": "None", "logo": "None", "latitude": 46.601000817209965, "longitude": -70.86907180834778}, "132470048RR0001": {"name": "LES HABITATIONS D'ARAGON-JOGUES", "designationCode": "C", "categoryCode": "09", "address": "1751 RUE RICHARDSON           BUREAU 4.120", "city": "MONTR\u00c9AL", "province": "QC", "country": "CA", "postalCode": "H3K1G6", "twitter": "None", "instagram": "None", "facebook": "None", "youtube": "None", "website": "None", "summary": "None", "logo": "None", "latitude": 45.48405242659698, "longitude": -73.56187541646942}, "887393031RR0001": {"name": "LES HABITATIONS JULES-\u00c9DOUARD", "designationCode": "C", "categoryCode": "01", "address": "470, RUE DES VENTS", "city": "POHENEGAMOOK", "province": "QC", "country": "CA", "postalCode": "G0L1J0", "twitter": "None", "instagram": "None", "facebook": "None", "youtube": "None", "website": "None", "summary": "None", "logo": "None", "latitude": 47.45811111685607, "longitude": -69.14981649818232}, "869849117RR0001": {"name": "LES HABITATIONS LE FLEURON", "designationCode": "C", "categoryCode": "09", "address": "481 DU DOMAINE                LOCAL NO. 7", "city": "STE-TH\u00c9R\u00c8SE", "province": "QC", "country": "CA", "postalCode": "J7E4S4", "twitter": "None", "instagram": "None", "facebook": "None", "youtube": "None", "website": "None", "summary": "None", "logo": "None", "latitude": 45.64668549708583, "longitude": -73.82611466997534}, "879890168RR0001": {"name": "LES HABITATIONS NOUVEAU DEPART", "designationCode": "C", "categoryCode": "09", "address": "165 BOUL MALONEY O", "city": "GATINEAU", "province": "QC", "country": "CA", "postalCode": "J8P3V6", "twitter": "None", "instagram": "None", "facebook": "None", "youtube": "None", "website": "None", "summary": "None", "logo": "None", "latitude": 45.4837235115412, "longitude": -75.65187450152922}, "126555994RR0001": {"name": "LES HABITATIONS OASIS DE POINTE ST-CHARLES INC", "designationCode": "C", "categoryCode": "01", "address": "7 - 2035 CENTRE", "city": "MONTR\u00c9AL", "province": "QC", "country": "CA", "postalCode": "H3K1J1", "twitter": "None", "instagram": "None", "facebook": "None", "youtube": "None", "website": "None", "summary": "None", "logo": "None", "latitude": 45.48161236831317, "longitude": -73.56429913517793}, "141139592RR0001": {"name": "LES HABITATIONS PANET INC", "designationCode": "C", "categoryCode": "01", "address": "29 RUE PRINCIPALE EST         #15", "city": "ST-FABIEN-DE-PANET", "province": "QC", "country": "CA", "postalCode": "G0R2J0", "twitter": "None", "instagram": "None", "facebook": "None", "youtube": "None", "website": "None", "summary": "None", "logo": "None", "latitude": 46.655961996970234, "longitude": -70.14496975385168}, "133937623RR0001": {"name": "LES HABITATIONS PARTAGEES DE L'OUTAOUAIS URBAIN", "designationCode": "C", "categoryCode": "09", "address": "331 BOUL CITE DES JEUNES #109", "city": "HULL", "province": "QC", "country": "CA", "postalCode": "J8Y6T3", "twitter": "None", "instagram": "None", "facebook": "None", "youtube": "None", "website": "None", "summary": "None", "logo": "None", "latitude": 45.45790048153392, "longitude": -75.76677589266497}, "876762725RR0001": {"name": "LES HABITATIONS PREVOST DEROSBY", "designationCode": "C", "categoryCode": "09", "address": "625, BOUL. LAFLECHE           LOCAL 301", "city": "BAIE-COMEAU", "province": "QC", "country": "CA", "postalCode": "G5C1C5", "twitter": "None", "instagram": "None", "facebook": "None", "youtube": "None", "website": "None", "summary": "None", "logo": "None", "latitude": 49.202829273412064, "longitude": -68.2555528550817}, "103201836RR0001": {"name": "LES HABITATIONS R.E.G. INC.", "designationCode": "C", "categoryCode": "09", "address": "11000 STE-JULIE", "city": "POINTE-AUX-TREMBLES", "province": "QC", "country": "CA", "postalCode": "H1B0A7", "twitter": "None", "instagram": "None", "facebook": "None", "youtube": "None", "website": "None", "summary": "None", "logo": "None", "latitude": 45.62872223091354, "longitude": -73.49704710378568}, "141777508RR0001": {"name": "LES HABITATIONS SAINT-EPIPHANE", "designationCode": "C", "categoryCode": "01", "address": "212 RUE DU COUVENT", "city": "SAINT-\u00c9PIPHANE", "province": "QC", "country": "CA", "postalCode": "G0L2X0", "twitter": "None", "instagram": "None", "facebook": "None", "youtube": "None", "website": "None", "summary": "None", "logo": "None", "latitude": 47.899048169311506, "longitude": -69.33012245380564}, "143100360RR0001": {"name": "LES HABITATIONS SANSCARTIER INC.", "designationCode": "C", "categoryCode": "09", "address": "94 RUE SAINT-DENIS #427", "city": "GATINEAU", "province": "QC", "country": "CA", "postalCode": "J8P4T7", "twitter": "None", "instagram": "None", "facebook": "None", "youtube": "None", "website": "None", "summary": "None", "logo": "None", "latitude": 45.48001362698362, "longitude": -75.64328459025393}, "140763319RR0001": {"name": "LES HABITATIONS ST-VALLIER", "designationCode": "C", "categoryCode": "01", "address": "475 RUE MONETTE", "city": "POHONEGAMOOK", "province": "QC", "country": "CA", "postalCode": "G0L1J0", "twitter": "None", "instagram": "None", "facebook": "None", "youtube": "None", "website": "None", "summary": "None", "logo": "None", "latitude": 47.489785540423284, "longitude": -69.28177853635526}, "890397193RR0001": {"name": "LES HANDICAPES DE SAINT-LAURENT INC", "designationCode": "C", "categoryCode": "09", "address": "1375 RUE GRENET", "city": "SAINT-LAURENT", "province": "QC", "country": "CA", "postalCode": "H4L5K3", "twitter": "None", "instagram": "None", "facebook": "None", "youtube": "None", "website": "None", "summary": "None", "logo": "None", "latitude": 45.51392004082733, "longitude": -73.69102675627587}, "132489428RR0001": {"name": "LES HEBERGEMENTS DE L'ENVOL", "designationCode": "C", "categoryCode": "01", "address": "6984 RUE FABRE", "city": "MONTREAL", "province": "QC", "country": "CA", "postalCode": "H2E2B2", "twitter": "None", "instagram": "None", "facebook": "None", "youtube": "None", "website": "None", "summary": "None", "logo": "None", "latitude": 45.54544572410419, "longitude": -73.60533464031383}, "103202750RR0001": {"name": "LES HEURES CLAIRES INC", "designationCode": "C", "categoryCode": "01", "address": "320, AV DE LA CATH\u00c9DRALE", "city": "SAINT-BONIFACE", "province": "MB", "country": "CA", "postalCode": "R2H0J4", "twitter": "None", "instagram": "None", "facebook": "None", "youtube": "None", "website": "None", "summary": "None", "logo": "None", "latitude": 49.889649973311, "longitude": -97.12234995614286}, "891479644RR0001": {"name": "LES HIBOUX DE MONTREAL", "designationCode": "C", "categoryCode": "56", "address": "1330 GIRARD", "city": "ST-HUBERT", "province": "QC", "country": "CA", "postalCode": "J4T1H5", "twitter": "None", "instagram": "None", "facebook": "None", "youtube": "None", "website": "None", "summary": "None", "logo": "None", "latitude": 45.49828232915928, "longitude": -73.45741587065044}, "135562130RR0001": {"name": "LES IDEES HEUREUSES", "designationCode": "C", "categoryCode": "22", "address": "300, DE MAISONNEUVE EST", "city": "MONTREAL", "province": "QC", "country": "CA", "postalCode": "H2X3X6", "twitter": "None", "instagram": "None", "facebook": "None", "youtube": "None", "website": "None", "summary": "None", "logo": "None", "latitude": 45.51385351289752, "longitude": -73.56236553147917}, "864367503RR0001": {"name": "LES JARDINS DE LA TERRE", "designationCode": "C", "categoryCode": "59", "address": "305 RUE PRINCIPALE OUEST", "city": "ST PAUL DE ABBOTSFORD", "province": "QC", "country": "CA", "postalCode": "J0E1A0", "twitter": "None", "instagram": "None", "facebook": "None", "youtube": "None", "website": "None", "summary": "None", "logo": "None", "latitude": 45.437259929453894, "longitude": -72.88456004775222}, "879942118RR0001": {"name": "LES JARDINS DE LA VALLEE LIMITEE", "designationCode": "C", "categoryCode": "09", "address": "600 CH MONT FARLAGNE          APT 24", "city": "ST JACQUES", "province": "NB", "country": "CA", "postalCode": "E7B3A1", "twitter": "None", "instagram": "None", "facebook": "None", "youtube": "None", "website": "None", "summary": "None", "logo": "None", "latitude": 47.42623006179201, "longitude": -68.39163786234138}, "871988978RR0001": {"name": "LES JARDINS DU COIN L.J.C.", "designationCode": "C", "categoryCode": "01", "address": "129 JACQUES CARTIER EST", "city": "CHICOUTIMI", "province": "QC", "country": "CA", "postalCode": "G7H1Y4", "twitter": "None", "instagram": "None", "facebook": "None", "youtube": "None", "website": "None", "summary": "None", "logo": "None", "latitude": 48.42653148268775, "longitude": -71.06470247155058}, "825985476RR0001": {"name": "LES JARDINS LAMBERT", "designationCode": "C", "categoryCode": "09", "address": "290, BOULEVARD GAUDREAU,      BUREAU 100", "city": "DONNACONA", "province": "QC", "country": "CA", "postalCode": "G3M1L7", "twitter": "None", "instagram": "None", "facebook": "None", "youtube": "None", "website": "None", "summary": "None", "logo": "None", "latitude": 46.67660938354796, "longitude": -71.72912881998403}, "119017119RR0001": {"name": "LES JESUITES DE SUDBURY", "designationCode": "C", "categoryCode": "46", "address": "4951 LONG LAKE RD", "city": "SUDBURY", "province": "ON", "country": "CA", "postalCode": "P3G1K9", "twitter": "None", "instagram": "None", "facebook": "None", "youtube": "None", "website": "None", "summary": "None", "logo": "None", "latitude": 46.403516408966674, "longitude": -81.00961692662564}, "103232286RR0001": {"name": "LES JEUNES DU COIN D'ASCOT", "designationCode": "C", "categoryCode": "09", "address": "494 THIBAULT", "city": "SHERBROOKE", "province": "QC", "country": "CA", "postalCode": "J1H6G7", "twitter": "None", "instagram": "None", "facebook": "None", "youtube": "None", "website": "None", "summary": "None", "logo": "None", "latitude": 45.375059994819345, "longitude": -71.8914274102981}, "123027963RR0001": {"name": "LES JEUNES ENTREPRISES DU QUEBEC METROPOLITAIN INC", "designationCode": "C", "categoryCode": "59", "address": "766 RUE KIROUAC               BUR 201", "city": "QUEBEC", "province": "QC", "country": "CA", "postalCode": "G1N2J4", "twitter": "None", "instagram": "None", "facebook": "None", "youtube": "None", "website": "None", "summary": "None", "logo": "None", "latitude": 46.80491563419698, "longitude": -71.24081717943905}, "119016046RR0001": {"name": "LES JEUNES HANDICAPES DE CHARLESBOURG", "designationCode": "C", "categoryCode": "56", "address": "C.P. 87153", "city": "QUEBEC", "province": "QC", "country": "CA", "postalCode": "G1G5E5", "twitter": "None", "instagram": "None", "facebook": "None", "youtube": "None", "website": "None", "summary": "None", "logo": "None", "latitude": 46.87673100000005, "longitude": -71.28341899999994}, "119016145RR0001": {"name": "LES LOISIRS DE ST-GERVAIS INC.", "designationCode": "C", "categoryCode": "56", "address": "176 NADEAU", "city": "ST GERVAIS", "province": "QC", "country": "CA", "postalCode": "G0R3C0", "twitter": "None", "instagram": "None", "facebook": "None", "youtube": "None", "website": "None", "summary": "None", "logo": "None", "latitude": 46.716507367736256, "longitude": -70.8874318795659}, "120596382RR0001": {"name": "LES LOISIRS ECOLE ST-ANTOINE INC", "designationCode": "C", "categoryCode": "21", "address": "16 RUE CHURCH", "city": "SHERBROOKE", "province": "QC", "country": "CA", "postalCode": "J1M1S9", "twitter": "None", "instagram": "None", "facebook": "None", "youtube": "None", "website": "None", "summary": "None", "logo": "None", "latitude": 45.36758149711447, "longitude": -71.85840180544173}, "119016160RR0001": {"name": "LES LOISIRS LE GRILLON", "designationCode": "C", "categoryCode": "56", "address": "6420A RUE LAURIN", "city": "MONTREAL", "province": "QC", "country": "CA", "postalCode": "H4K2K9", "twitter": "None", "instagram": "None", "facebook": "None", "youtube": "None", "website": "None", "summary": "None", "logo": "None", "latitude": 45.527072563030636, "longitude": -73.72154991713737}, "119023356RR0001": {"name": "LES LOISIRS MARIA-GORETTI INC.", "designationCode": "C", "categoryCode": "56", "address": "7475 PAUL-COMTOIS", "city": "QU\u00c9BEC", "province": "QC", "country": "CA", "postalCode": "G1H5X6", "twitter": "None", "instagram": "None", "facebook": "None", "youtube": "None", "website": "None", "summary": "None", "logo": "None", "latitude": 46.85517318457495, "longitude": -71.27192721057152}, "103376091RR0001": {"name": "LES LOISIRS 12-15 SAINT-FRANCOIS INC.", "designationCode": "C", "categoryCode": "21", "address": "825 BOWEN SUD", "city": "SHERBROOKE", "province": "QC", "country": "CA", "postalCode": "J1G2G2", "twitter": "None", "instagram": "None", "facebook": "None", "youtube": "None", "website": "None", "summary": "None", "logo": "None", "latitude": 45.39532167323532, "longitude": -71.8776011077544}, "898188446RR0001": {"name": "LES LUCIOLES DE ST-HUBERT", "designationCode": "C", "categoryCode": "09", "address": "2060 RUE HOLMES", "city": "ST-HUBERT", "province": "QC", "country": "CA", "postalCode": "J4T1R8", "twitter": "None", "instagram": "None", "facebook": "None", "youtube": "None", "website": "None", "summary": "None", "logo": "None", "latitude": 45.49320563751521, "longitude": -73.47445274519602}, "130228992RR0001": {"name": "LES MAISONS BUTTERS INC /BUTTERS HOMES INC", "designationCode": "C", "categoryCode": "01", "address": "127 PRINCIPALE, SUITE 105", "city": "COWANSVILLE", "province": "QC", "country": "CA", "postalCode": "J2K1J3", "twitter": "None", "instagram": "None", "facebook": "None", "youtube": "None", "website": "None", "summary": "None", "logo": "None", "latitude": 45.20770304527071, "longitude": -72.74698908133753}, "881117766RR0001": {"name": "LES MAISONS D'A COTE LANAUDIERE", "designationCode": "C", "categoryCode": "01", "address": "639 RUE HENRI-CHALIN", "city": "JOLIETTE", "province": "QC", "country": "CA", "postalCode": "J6E0A4", "twitter": "None", "instagram": "None", "facebook": "None", "youtube": "None", "website": "None", "summary": "None", "logo": "None", "latitude": 46.02707688787579, "longitude": -73.45997566030914}, "103236436RR0001": {"name": "LES MAISONS DE L'ANCRE INC.", "designationCode": "C", "categoryCode": "01", "address": "7930 BOUL PIE-IX", "city": "MONTREAL", "province": "QC", "country": "CA", "postalCode": "H1Z3T3", "twitter": "None", "instagram": "None", "facebook": "None", "youtube": "None", "website": "None", "summary": "None", "logo": "None", "latitude": 45.5708421942698, "longitude": -73.60136642604871}, "896869641RR0001": {"name": "LES MAISONS DES JEUNES DU PONTIAC", "designationCode": "C", "categoryCode": "59", "address": "298A RUE PRINCIPALE", "city": "MANSFIELD", "province": "QC", "country": "CA", "postalCode": "J0X1R0", "twitter": "None", "instagram": "None", "facebook": "None", "youtube": "None", "website": "None", "summary": "None", "logo": "None", "latitude": 45.86045636025078, "longitude": -76.73934238450416}, "131189482RR0001": {"name": "LES MAISONS FAMILIALES PARAMOUR INC.", "designationCode": "C", "categoryCode": "09", "address": "4015 CH DE CHAMBLY", "city": "SAINT-HUBERT", "province": "QC", "country": "CA", "postalCode": "J3Y3M4", "twitter": "None", "instagram": "None", "facebook": "None", "youtube": "None", "website": "None", "summary": "None", "logo": "None", "latitude": 45.51156064028516, "longitude": -73.43936152804538}, "888633625RR0001": {"name": "LES MAISONS NOTRE DAME DE LA RENAISSANCE INC", "designationCode": "C", "categoryCode": "09", "address": "10950 BOUL PERRAS", "city": "MONTREAL", "province": "QC", "country": "CA", "postalCode": "H1C1B3", "twitter": "None", "instagram": "None", "facebook": "None", "youtube": "None", "website": "None", "summary": "None", "logo": "None", "latitude": 45.669151917621605, "longitude": -73.54679558895856}, "718086093RR0001": {"name": "LES MARA\u00ceCHERS DU COEUR", "designationCode": "C", "categoryCode": "59", "address": "208 - 133 RUE JULIEN-REHEL", "city": "RIMOUSKI", "province": "QC", "country": "CA", "postalCode": "G5L9B1", "twitter": "None", "instagram": "None", "facebook": "None", "youtube": "None", "website": "None", "summary": "None", "logo": "None", "latitude": 48.45668670439736, "longitude": -68.52126869597191}}