{"119067692RR0001": {"name": "ONTARIO CREDIT UNION FOUNDATION", "designationCode": "A", "categoryCode": "23", "address": "418 WILLIS DR", "city": "OAKVILLE", "province": "ON", "country": "CA", "postalCode": "L6L4V4", "twitter": "None", "instagram": "None", "facebook": "None", "youtube": "None", "website": "None", "summary": "None", "logo": "None", "latitude": 43.424732965577974, "longitude": -79.69821843686876}, "132409418RR0001": {"name": "ONTARIO CULTURAL SOCIETY OF THE DEAF", "designationCode": "C", "categoryCode": "22", "address": "736 BERMUDA AVE", "city": "OSHAWA", "province": "ON", "country": "CA", "postalCode": "L1J6A8", "twitter": "None", "instagram": "None", "facebook": "None", "youtube": "None", "website": "None", "summary": "None", "logo": "None", "latitude": 43.91229992757793, "longitude": -78.89964667043668}, "870929916RR0001": {"name": "ONTARIO DEAF FOUNDATION", "designationCode": "C", "categoryCode": "01", "address": "PO BOX 71080 RPO MAPLEHURST", "city": "BURLINGTON", "province": "ON", "country": "CA", "postalCode": "L7T4J8", "twitter": "None", "instagram": "None", "facebook": "None", "youtube": "None", "website": "None", "summary": "None", "logo": "None", "latitude": 43.32070599602086, "longitude": -79.83834821669564}, "133465641RR0001": {"name": "ONTARIO DEAF SPORTS ASSOCIATION", "designationCode": "C", "categoryCode": "56", "address": "140 FRANK RIVERS DR", "city": "SCARBOROUGH", "province": "ON", "country": "CA", "postalCode": "M1W3N4", "twitter": "None", "instagram": "None", "facebook": "None", "youtube": "None", "website": "None", "summary": "None", "logo": "None", "latitude": 43.81775411376899, "longitude": -79.32520761740435}, "890947542RR0001": {"name": "ONTARIO DEMOLAY FOUNDATION", "designationCode": "C", "categoryCode": "59", "address": "59 HOLITMAN DR", "city": "NEPEAN", "province": "ON", "country": "CA", "postalCode": "K2J2S5", "twitter": "None", "instagram": "None", "facebook": "None", "youtube": "None", "website": "None", "summary": "None", "logo": "None", "latitude": 45.28875081349181, "longitude": -75.74629407559605}, "889232443RR0002": {"name": "ONTARIO DISTRICT ASSOCIATION OF CHAPTERS SPEBSQSA", "designationCode": "C", "categoryCode": "22", "address": "44 SQUIRE BAKER'S LANE", "city": "MARKHAM", "province": "ON", "country": "CA", "postalCode": "L3P3G9", "twitter": "None", "instagram": "None", "facebook": "None", "youtube": "None", "website": "None", "summary": "None", "logo": "None", "latitude": 43.87174609686077, "longitude": -79.24681611215287}, "130189152RR0001": {"name": "ONTARIO EARLY YEARS CENTRE - SIMCOE NORTH", "designationCode": "C", "categoryCode": "59", "address": "356 KING ST", "city": "MIDLAND", "province": "ON", "country": "CA", "postalCode": "L4R3M8", "twitter": "None", "instagram": "None", "facebook": "None", "youtube": "None", "website": "None", "summary": "None", "logo": "None", "latitude": 44.74755933328571, "longitude": -79.88351274053264}, "119283992RR0001": {"name": "ONTARIO EARLY YEARS CENTRE HALIBURTON VICTORIA BROCK INC.", "designationCode": "C", "categoryCode": "09", "address": "106-55 MARY ST W", "city": "LINDSAY", "province": "ON", "country": "CA", "postalCode": "K9V5Z6", "twitter": "None", "instagram": "None", "facebook": "None", "youtube": "None", "website": "None", "summary": "None", "logo": "None", "latitude": 44.34572340969201, "longitude": -78.736554072046}, "129767695RR0001": {"name": "ONTARIO EDUCATIONAL LEADERSHIP CENTRE-CENTRE D'ANNIMATION SCOLAIRE DE L'ONTARIO", "designationCode": "C", "categoryCode": "21", "address": "7098  RAMA RD", "city": "LONGFORD MILLS", "province": "ON", "country": "CA", "postalCode": "L0K1L0", "twitter": "None", "instagram": "None", "facebook": "None", "youtube": "None", "website": "None", "summary": "None", "logo": "None", "latitude": 44.669249308888595, "longitude": -79.34980988681919}, "854475365RR0001": {"name": "ONTARIO EMPLOYMENT EDUCATION AND RESEARCH CENTRE", "designationCode": "C", "categoryCode": "59", "address": "720 SPADINA AVENUE            SUITE 223", "city": "TORONTO", "province": "ON", "country": "CA", "postalCode": "M5S2T9", "twitter": "None", "instagram": "None", "facebook": "None", "youtube": "None", "website": "None", "summary": "None", "logo": "None", "latitude": 43.665348604766635, "longitude": -79.40317238804866}, "867334104RR0001": {"name": "ONTARIO FARMLAND TRUST", "designationCode": "C", "categoryCode": "52", "address": "SCHOOL OF ENVIRONMENTAL DESIGN& RURAL DEVELOPMENT", "city": "GUELPH", "province": "ON", "country": "CA", "postalCode": "N1G2W1", "twitter": "None", "instagram": "None", "facebook": "None", "youtube": "None", "website": "None", "summary": "None", "logo": "None", "latitude": 43.52785800000005, "longitude": -80.22319099999993}, "104000211RR0001": {"name": "ONTARIO FEDERATION OF SCHOOL ATHLETIC ASSOCIATIONS", "designationCode": "C", "categoryCode": "21", "address": "204-3 CONCORDE GATE", "city": "TORONTO", "province": "ON", "country": "CA", "postalCode": "M3C3N7", "twitter": "None", "instagram": "None", "facebook": "None", "youtube": "None", "website": "None", "summary": "None", "logo": "None", "latitude": 43.72934956506449, "longitude": -79.32858174271452}, "119067783RR0001": {"name": "ONTARIO FIELD ORNITHOLOGISTS", "designationCode": "C", "categoryCode": "52", "address": "3269 DOBSON RD", "city": "SPRINGWATER", "province": "ON", "country": "CA", "postalCode": "L9X1T6", "twitter": "None", "instagram": "None", "facebook": "None", "youtube": "None", "website": "None", "summary": "None", "logo": "None", "latitude": 44.394851439927194, "longitude": -79.75720681900307}, "119067817RR0001": {"name": "ONTARIO FOUNDATION FOR THE KOREAN BLIND", "designationCode": "C", "categoryCode": "21", "address": "7181 WOODBINE AVENUE          SUITE 236", "city": "MARKHAM", "province": "ON", "country": "CA", "postalCode": "L3R1A3", "twitter": "None", "instagram": "None", "facebook": "None", "youtube": "None", "website": "None", "summary": "None", "logo": "None", "latitude": 43.81833715127811, "longitude": -79.34978603485565}, "119067866RR0001": {"name": "ONTARIO HANDWEAVERS AND SPINNERS", "designationCode": "C", "categoryCode": "22", "address": "732 FORBES RIVER RD           RR 2", "city": "KAMINISTIQUIA", "province": "ON", "country": "CA", "postalCode": "P0T1X0", "twitter": "None", "instagram": "None", "facebook": "None", "youtube": "None", "website": "None", "summary": "None", "logo": "None", "latitude": 48.64091849823543, "longitude": -89.62758676288138}, "860546506RR0001": {"name": "ONTARIO HEADWATERS INSTITUTE", "designationCode": "C", "categoryCode": "59", "address": "2227 NIGHTENGALE WAY", "city": "OAKVILLE", "province": "ON", "country": "CA", "postalCode": "L6M3S1", "twitter": "None", "instagram": "None", "facebook": "None", "youtube": "None", "website": "None", "summary": "None", "logo": "None", "latitude": 43.44214916931151, "longitude": -79.74567248943976}, "867955965RR0001": {"name": "ONTARIO HEALTHY COMMUNITIES COALITION", "designationCode": "C", "categoryCode": "29", "address": "1810-2 CARLTON ST", "city": "TORONTO", "province": "ON", "country": "CA", "postalCode": "M5B1J3", "twitter": "None", "instagram": "None", "facebook": "None", "youtube": "None", "website": "None", "summary": "None", "logo": "None", "latitude": 43.66142348211082, "longitude": -79.38282201832186}, "859478414RR0001": {"name": "ONTARIO HERITAGE FAIRS ASSOCIATION", "designationCode": "C", "categoryCode": "21", "address": "181 GARSON-CONISTON ROAD", "city": "GARSON", "province": "ON", "country": "CA", "postalCode": "P3L1G3", "twitter": "None", "instagram": "None", "facebook": "None", "youtube": "None", "website": "None", "summary": "None", "logo": "None", "latitude": 46.54199130085409, "longitude": -80.85431716948439}, "119067882RR0001": {"name": "ONTARIO HIGH SCHOOL GERMAN CONTEST", "designationCode": "C", "categoryCode": "21", "address": "548 MANNING AVENUE", "city": "TORONTO", "province": "ON", "country": "CA", "postalCode": "M6G2V9", "twitter": "None", "instagram": "None", "facebook": "None", "youtube": "None", "website": "None", "summary": "None", "logo": "None", "latitude": 43.6608814612788, "longitude": -79.41484355081064}, "890978042RR0001": {"name": "ONTARIO HOLSTEIN DAIRY YOUTH TRUST FUND", "designationCode": "C", "categoryCode": "21", "address": "285 FOUNTAIN ST. SOUTH", "city": "CAMBRIDGE", "province": "ON", "country": "CA", "postalCode": "N3H1J2", "twitter": "None", "instagram": "None", "facebook": "None", "youtube": "None", "website": "None", "summary": "None", "logo": "None", "latitude": 43.39750731721406, "longitude": -80.37143269049024}, "874135502RR0001": {"name": "ONTARIO HOME FOR CHILDREN AND YOUTH", "designationCode": "C", "categoryCode": "09", "address": "8 MELANIE DRIVE               UNIT 1", "city": "BRAMPTON", "province": "ON", "country": "CA", "postalCode": "L6T4L2", "twitter": "None", "instagram": "None", "facebook": "None", "youtube": "None", "website": "None", "summary": "None", "logo": "None", "latitude": 43.70901480457635, "longitude": -79.68207104056752}, "137254066RR0001": {"name": "ONTARIO HORTICULTURAL ASSOCIATION", "designationCode": "C", "categoryCode": "56", "address": "246 ALLEN ST", "city": "THAMESFORD", "province": "ON", "country": "CA", "postalCode": "N0M2M0", "twitter": "None", "instagram": "None", "facebook": "None", "youtube": "None", "website": "None", "summary": "None", "logo": "None", "latitude": 43.06714792118577, "longitude": -81.00161401402568}, "874560303RR0001": {"name": "ONTARIO HORTICULTURAL TRADES FOUNDATION", "designationCode": "B", "categoryCode": "21", "address": "7856 FIFTH LINE SOUTH         RR 4", "city": "MILTON", "province": "ON", "country": "CA", "postalCode": "L9T2X8", "twitter": "None", "instagram": "None", "facebook": "None", "youtube": "None", "website": "None", "summary": "None", "logo": "None", "latitude": 43.53838792071973, "longitude": -79.92389155735691}, "133064303RR0001": {"name": "ONTARIO INTERDENOMINATIONAL HOLINESS ASSOCIATION", "designationCode": "C", "categoryCode": "47", "address": "1483 COUNTRY ROAD 11, RR#7", "city": "NAPANEE", "province": "ON", "country": "CA", "postalCode": "K7R3L2", "twitter": "None", "instagram": "None", "facebook": "None", "youtube": "None", "website": "None", "summary": "None", "logo": "None", "latitude": 44.30708123384126, "longitude": -76.91549635903846}, "855489134RR0001": {"name": "ONTARIO JUSTICE EDUCATION NETWORK / R\u00c9SEAU ONTARIEN D'\u00c9DUCATION JURIDIQUE", "designationCode": "C", "categoryCode": "20", "address": "505 - 180 DUNDAS ST W", "city": "TORONTO", "province": "ON", "country": "CA", "postalCode": "M5G1Z8", "twitter": "None", "instagram": "None", "facebook": "None", "youtube": "None", "website": "None", "summary": "None", "logo": "None", "latitude": 43.65505800000001, "longitude": -79.38679049999999}, "119067981RR0001": {"name": "ONTARIO KHALSA DARBAR", "designationCode": "C", "categoryCode": "62", "address": "7080 DIXIE ROAD", "city": "MISSISSAUGA", "province": "ON", "country": "CA", "postalCode": "L5S1B7", "twitter": "None", "instagram": "None", "facebook": "None", "youtube": "None", "website": "None", "summary": "None", "logo": "None", "latitude": 43.67698079736299, "longitude": -79.67708999671044}, "888936465RR0001": {"name": "ONTARIO LACROSSE HALL OF FAME & MUSEUM", "designationCode": "C", "categoryCode": "50", "address": "33 BOON AVE", "city": "TORONTO", "province": "ON", "country": "CA", "postalCode": "M6E3Z2", "twitter": "None", "instagram": "None", "facebook": "None", "youtube": "None", "website": "None", "summary": "None", "logo": "None", "latitude": 43.67798873189447, "longitude": -79.4464795912922}, "869437517RR0001": {"name": "ONTARIO LAND TRUST ALLIANCE INC.", "designationCode": "C", "categoryCode": "29", "address": "401-10 ADELAIDE ST E", "city": "TORONTO", "province": "ON", "country": "CA", "postalCode": "M5C1J3", "twitter": "None", "instagram": "None", "facebook": "None", "youtube": "None", "website": "None", "summary": "None", "logo": "None", "latitude": 43.65106129336214, "longitude": -79.3754558860496}, "821048543RR0001": {"name": "ONTARIO LEARNING DEVELOPMENT FOUNDATION INC. (O.L.D.F.)", "designationCode": "C", "categoryCode": "03", "address": "42 SUNFOREST DR", "city": "BRAMPTON", "province": "ON", "country": "CA", "postalCode": "L6Z2W7", "twitter": "None", "instagram": "None", "facebook": "None", "youtube": "None", "website": "None", "summary": "None", "logo": "None", "latitude": 43.71149726282539, "longitude": -79.78773489275187}, "863279162RR0001": {"name": "ONTARIO LEARNING PARTNERSHIP GROUP/GROUPE DE PARTENARIATS D'APPRENTISSAGE DE L'ONTARIO", "designationCode": "C", "categoryCode": "21", "address": "217 - 225 KING WILLIAM ST", "city": "HAMILTON", "province": "ON", "country": "CA", "postalCode": "L8R1B1", "twitter": "None", "instagram": "None", "facebook": "None", "youtube": "None", "website": "None", "summary": "None", "logo": "None", "latitude": 43.25533113962134, "longitude": -79.86085359310985}, "107798159RR0001": {"name": "ONTARIO LIBRARY ASSOCIATION", "designationCode": "C", "categoryCode": "50", "address": "3 - 2 TORONTO ST", "city": "TORONTO", "province": "ON", "country": "CA", "postalCode": "M5C2B6", "twitter": "None", "instagram": "None", "facebook": "None", "youtube": "None", "website": "None", "summary": "None", "logo": "None"}, "891405391RR0001": {"name": "ONTARIO LONG TERM CARE PHYSICIANSMEDECINS DE SOIN DE LONGUE DUREE DE L'ONTARIO", "designationCode": "C", "categoryCode": "19", "address": "202-1143 WENTWORTH ST WEST", "city": "OSHAWA", "province": "ON", "country": "CA", "postalCode": "L1J8P7", "twitter": "None", "instagram": "None", "facebook": "None", "youtube": "None", "website": "None", "summary": "None", "logo": "None", "latitude": 43.86930616118233, "longitude": -78.85453149314962}, "124046368RR0002": {"name": "ONTARIO LUNG ASSOCIATION", "designationCode": "C", "categoryCode": "11", "address": "401-18 WYNFORD DRIVE", "city": "TORONTO", "province": "ON", "country": "CA", "postalCode": "M3C0K8", "twitter": "None", "instagram": "None", "facebook": "None", "youtube": "None", "website": "None", "summary": "None", "logo": "None", "latitude": 43.723443224017295, "longitude": -79.33708793049212}, "119068047RR0001": {"name": "ONTARIO MANITOBA AND SASKATCHEWAN SWISS COMMUNITIES ASSISTANCE FUND O.M.S.C.A.F.", "designationCode": "C", "categoryCode": "09", "address": "5 MARLBOROUGH AVE", "city": "OTTAWA", "province": "ON", "country": "CA", "postalCode": "K1N8E6", "twitter": "None", "instagram": "None", "facebook": "None", "youtube": "None", "website": "None", "summary": "None", "logo": "None", "latitude": 45.42801000251018, "longitude": -75.67507765664513}, "130620552RR0001": {"name": "ONTARIO MEDICAL FOUNDATION", "designationCode": "C", "categoryCode": "11", "address": "900-150 BLOOR ST WEST", "city": "TORONTO", "province": "ON", "country": "CA", "postalCode": "M5S3C1", "twitter": "None", "instagram": "None", "facebook": "None", "youtube": "None", "website": "None", "summary": "None", "logo": "None", "latitude": 43.66889522012214, "longitude": -79.39337913809213}, "892473737RR0001": {"name": "ONTARIO MENNONITE RELIEF SALE INC.", "designationCode": "A", "categoryCode": "47", "address": "PO BOX 97", "city": "NEW DUNDEE", "province": "ON", "country": "CA", "postalCode": "N0B2E0", "twitter": "None", "instagram": "None", "facebook": "None", "youtube": "None", "website": "None", "summary": "None", "logo": "None", "latitude": 43.404130000000066, "longitude": -80.60290999999995}, "119068104RR0001": {"name": "ONTARIO MUNICIPAL MANAGEMENT INSTITUTE", "designationCode": "C", "categoryCode": "59", "address": "618 BALMORAL DRIVE", "city": "OSHAWA", "province": "ON", "country": "CA", "postalCode": "L1J3A7", "twitter": "None", "instagram": "None", "facebook": "None", "youtube": "None", "website": "None", "summary": "None", "logo": "None", "latitude": 43.906059176265074, "longitude": -78.8923876737549}, "107798522RR0001": {"name": "ONTARIO MUSEUM ASSOCIATION", "designationCode": "C", "categoryCode": "50", "address": "50 BALDWIN STREET", "city": "TORONTO", "province": "ON", "country": "CA", "postalCode": "M5T1L4", "twitter": "None", "instagram": "None", "facebook": "None", "youtube": "None", "website": "None", "summary": "None", "logo": "None", "latitude": 43.65563021622701, "longitude": -79.39536851041602}, "119248755RR0001": {"name": "ONTARIO MUSIC EDUCATORS ASSOCIATION, INC.", "designationCode": "C", "categoryCode": "21", "address": "1938 CONFEDERATION DR", "city": "ORILLIA", "province": "ON", "country": "CA", "postalCode": "L3V7L1", "twitter": "None", "instagram": "None", "facebook": "None", "youtube": "None", "website": "None", "summary": "None", "logo": "None", "latitude": 44.6184503308614, "longitude": -79.49700403194052}, "129787834RR0001": {"name": "ONTARIO MUSIC FESTIVALS ASSOCIATION INC./CORPORATION L'ASSOCIATION DES FESTIVALS DE MUSIQUE DE L'ONTARIO", "designationCode": "C", "categoryCode": "22", "address": "17 PINEMORE CRES", "city": "NORTH YORK", "province": "ON", "country": "CA", "postalCode": "M3A1W5", "twitter": "None", "instagram": "None", "facebook": "None", "youtube": "None", "website": "None", "summary": "None", "logo": "None", "latitude": 43.75696276934627, "longitude": -79.31712592700102}, "107798563RR0001": {"name": "ONTARIO NATIVE EDUCATION COUNSELLING ASSOCIATION", "designationCode": "C", "categoryCode": "59", "address": "PO 220                        37A RESERVE RD", "city": "NAUGHTON", "province": "ON", "country": "CA", "postalCode": "P0M2M0", "twitter": "None", "instagram": "None", "facebook": "None", "youtube": "None", "website": "None", "summary": "None", "logo": "None", "latitude": 46.39663502556081, "longitude": -81.17759314925391}, "131054496RR0001": {"name": "ONTARIO NATIVE LITERACY COALITION", "designationCode": "C", "categoryCode": "20", "address": "PO BOX 550", "city": "OHSWEKEN", "province": "ON", "country": "CA", "postalCode": "N0A1M0", "twitter": "None", "instagram": "None", "facebook": "None", "youtube": "None", "website": "None", "summary": "None", "logo": "None", "latitude": 43.06907000000007, "longitude": -80.11879999999996}, "896384427RR0001": {"name": "ONTARIO NEUROTRAUMA FOUNDATION", "designationCode": "A", "categoryCode": "13", "address": "90 EGLINTON AVENUE EAST       SUITE 601", "city": "TORONTO", "province": "ON", "country": "CA", "postalCode": "M4P2Y3", "twitter": "None", "instagram": "None", "facebook": "None", "youtube": "None", "website": "None", "summary": "None", "logo": "None", "latitude": 43.707294238444014, "longitude": -79.39578841938362}, "876092107RR0001": {"name": "ONTARIO NURSING HOME ASSOCIATION TRUST", "designationCode": "C", "categoryCode": "11", "address": "500 - 425 UNIVERSITY AVE", "city": "TORONTO", "province": "ON", "country": "CA", "postalCode": "M5G1T6", "twitter": "None", "instagram": "None", "facebook": "None", "youtube": "None", "website": "None", "summary": "None", "logo": "None", "latitude": 43.65418292506776, "longitude": -79.3878401967513}, "892761768RR0001": {"name": "ONTARIO ODD FELLOWS AND REBEKAHS HUMANITARIAN SERVICE COMMITTEE", "designationCode": "C", "categoryCode": "65", "address": "157 FREDERICK ST", "city": "STRATFORD", "province": "ON", "country": "CA", "postalCode": "N5A3V6", "twitter": "None", "instagram": "None", "facebook": "None", "youtube": "None", "website": "None", "summary": "None", "logo": "None", "latitude": 43.36524952510255, "longitude": -80.9604407514571}, "851678359RR0001": {"name": "ONTARIO OLD ROMAN CATHOLIC CHURCH", "designationCode": "C", "categoryCode": "38", "address": "67 LILLY MCKEOWAN CRES", "city": "MOUNT ALBERT", "province": "ON", "country": "CA", "postalCode": "L0G1M0", "twitter": "None", "instagram": "None", "facebook": "None", "youtube": "None", "website": "None", "summary": "None", "logo": "None", "latitude": 44.14116124176224, "longitude": -79.30574723342369}, "869836635RR0001": {"name": "ONTARIO ORGANIZED SNOWMOBILERS' CHARITABLE CORPORATION", "designationCode": "C", "categoryCode": "21", "address": "9-501 WELHAM ROAD", "city": "BARRIE", "province": "ON", "country": "CA", "postalCode": "L4N8Z6", "twitter": "None", "instagram": "None", "facebook": "None", "youtube": "None", "website": "None", "summary": "None", "logo": "None", "latitude": 44.345589590339905, "longitude": -79.66973254382842}, "119068187RR0001": {"name": "ONTARIO P.I.R.G.", "designationCode": "C", "categoryCode": "21", "address": "24 TRENT LANE", "city": "GUELPH", "province": "ON", "country": "CA", "postalCode": "N1G2W1", "twitter": "None", "instagram": "None", "facebook": "None", "youtube": "None", "website": "None", "summary": "None", "logo": "None", "latitude": 43.533833562871436, "longitude": -80.22872290423575}, "863428199RR0001": {"name": "ONTARIO PARAPLEGIC FOUNDATION", "designationCode": "A", "categoryCode": "15", "address": "520 SUTHERLAND DR", "city": "TORONTO", "province": "ON", "country": "CA", "postalCode": "M4G3V9", "twitter": "None", "instagram": "None", "facebook": "None", "youtube": "None", "website": "None", "summary": "None", "logo": "None", "latitude": 43.718298410785266, "longitude": -79.36936555470578}, "846324168RR0001": {"name": "ONTARIO PARENTS ADVOCATING FOR CHILDREN WITH CANCER", "designationCode": "C", "categoryCode": "11", "address": "PO BOX 20005                  RPO BAYFIELD NORTH", "city": "BARRIE", "province": "ON", "country": "CA", "postalCode": "L4M6E9", "twitter": "None", "instagram": "None", "facebook": "None", "youtube": "None", "website": "None", "summary": "None", "logo": "None", "latitude": 44.40331622897633, "longitude": -79.70228076086146}, "140213570RR0001": {"name": "ONTARIO PARISH CELESTIAL CHURCH OF CHRIST CANADA", "designationCode": "C", "categoryCode": "39", "address": "1322 WESTON ROAD", "city": "TORONTO", "province": "ON", "country": "CA", "postalCode": "M6M4R5", "twitter": "None", "instagram": "None", "facebook": "None", "youtube": "None", "website": "None", "summary": "None", "logo": "None", "latitude": 43.68981363307182, "longitude": -79.4974333348721}, "127257509RR0001": {"name": "ONTARIO PARKS ASSOCIATION", "designationCode": "C", "categoryCode": "52", "address": "7856 5TH LINE S               RR 4", "city": "MILTON", "province": "ON", "country": "CA", "postalCode": "L9T2X8", "twitter": "None", "instagram": "None", "facebook": "None", "youtube": "None", "website": "None", "summary": "None", "logo": "None", "latitude": 43.53838792071973, "longitude": -79.92389155735691}, "119070845RR0001": {"name": "ONTARIO PHILHARMONIC", "designationCode": "C", "categoryCode": "22", "address": "BOX 444", "city": "OSHAWA", "province": "ON", "country": "CA", "postalCode": "L1H7L5", "twitter": "None", "instagram": "None", "facebook": "None", "youtube": "None", "website": "None", "summary": "None", "logo": "None", "latitude": 43.88868600000005, "longitude": -78.85951999999993}, "868395575RR0001": {"name": "ONTARIO POLICE MEMORIAL FOUNDATION", "designationCode": "C", "categoryCode": "59", "address": "6730 DAVAND DRIVE             UNIT 1", "city": "MISSISSAUGA", "province": "ON", "country": "CA", "postalCode": "L5T2K8", "twitter": "None", "instagram": "None", "facebook": "None", "youtube": "None", "website": "None", "summary": "None", "logo": "None", "latitude": 43.66815266636865, "longitude": -79.66809057372015}, "800734527RR0001": {"name": "ONTARIO POPS ORCHESTRA INC.", "designationCode": "C", "categoryCode": "22", "address": "1047 CALDWELL AVENUE,", "city": "MISSISSAUGA", "province": "ON", "country": "CA", "postalCode": "L5H1Z2", "twitter": "None", "instagram": "None", "facebook": "None", "youtube": "None", "website": "None", "summary": "None", "logo": "None", "latitude": 43.54214405190716, "longitude": -79.61912718445937}, "864546817RR0001": {"name": "ONTARIO POWER GENERATION EMPLOYEES' AND PENSIONERS' CHARITY TRUST FUND", "designationCode": "B", "categoryCode": "05", "address": "700 UNIVERSITY AVENUE         ROOM H7C27", "city": "TORONTO", "province": "ON", "country": "CA", "postalCode": "M5G1X6", "twitter": "None", "instagram": "None", "facebook": "None", "youtube": "None", "website": "None", "summary": "None", "logo": "None"}, "119068203RR0001": {"name": "ONTARIO PRADER-WILLI SYNDROME ASSOCIATION", "designationCode": "C", "categoryCode": "11", "address": "20 JALLAN DR", "city": "AJAX", "province": "ON", "country": "CA", "postalCode": "L1S6J2", "twitter": "None", "instagram": "None", "facebook": "None", "youtube": "None", "website": "None", "summary": "None", "logo": "None", "latitude": 43.8500020552254, "longitude": -79.04459512701229}, "104001573RR0001": {"name": "ONTARIO PROFESSIONAL ENGINEERS FOUNDATION FOR EDUCATION", "designationCode": "C", "categoryCode": "23", "address": "101 - 40 SHEPPARD AVE W", "city": "NORTH YORK", "province": "ON", "country": "CA", "postalCode": "M2N6K9", "twitter": "None", "instagram": "None", "facebook": "None", "youtube": "None", "website": "None", "summary": "None", "logo": "None", "latitude": 43.76107350000001, "longitude": -79.41280275}, "862426483RR0001": {"name": "ONTARIO PROVINCIAL FEDERATION OF CHAPTERS OF THE COUNCIL FOR EXCEPTIONAL CHILDREN", "designationCode": "C", "categoryCode": "09", "address": "26-5155 SPECTRUM WAY", "city": "MISSISSAUGA", "province": "ON", "country": "CA", "postalCode": "L4W5A1", "twitter": "None", "instagram": "None", "facebook": "None", "youtube": "None", "website": "None", "summary": "None", "logo": "None", "latitude": 43.649806471579254, "longitude": -79.60971813765944}, "802844878RR0001": {"name": "ONTARIO PROVINCIAL POLICE YOUTH FOUNDATION", "designationCode": "C", "categoryCode": "56", "address": "777 MEMORIAL AVE", "city": "ORILLIA", "province": "ON", "country": "CA", "postalCode": "L3V7V3", "twitter": "None", "instagram": "None", "facebook": "None", "youtube": "None", "website": "None", "summary": "None", "logo": "None", "latitude": 44.58127265103198, "longitude": -79.42940276829859}, "119068260RR0001": {"name": "ONTARIO PUPPETRY ASSOCIATION", "designationCode": "C", "categoryCode": "22", "address": "27 NELLO ST", "city": "ST CATHARINES", "province": "ON", "country": "CA", "postalCode": "L2N1G5", "twitter": "None", "instagram": "None", "facebook": "None", "youtube": "None", "website": "None", "summary": "None", "logo": "None", "latitude": 43.18409237050621, "longitude": -79.23398056451622}, "119068286RR0001": {"name": "ONTARIO REALTORS CARE FOUNDATION", "designationCode": "A", "categoryCode": "03", "address": "99 DUNCAN MILL RD", "city": "DON MILLS", "province": "ON", "country": "CA", "postalCode": "M9B1Z2", "twitter": "None", "instagram": "None", "facebook": "None", "youtube": "None", "website": "None", "summary": "None", "logo": "None", "latitude": 43.761427976369376, "longitude": -79.35635275823776}, "119068302RR0001": {"name": "ONTARIO REGISTERED MUSIC TEACHERS' ASSOCIATION, HAMILTON BRANCH, SCHOLARSHIP FUND", "designationCode": "C", "categoryCode": "21", "address": "611 HOLLY HILL CRES", "city": "BURLINGTON", "province": "ON", "country": "CA", "postalCode": "L7L3Z8", "twitter": "None", "instagram": "None", "facebook": "None", "youtube": "None", "website": "None", "summary": "None", "logo": "None", "latitude": 43.37251049016091, "longitude": -79.75815334205679}, "890178999RR0001": {"name": "ONTARIO RETT SYNDROME ASSOCIATION", "designationCode": "C", "categoryCode": "09", "address": "BOX 50030", "city": "LONDON", "province": "ON", "country": "CA", "postalCode": "N6A6H8", "twitter": "None", "instagram": "None", "facebook": "None", "youtube": "None", "website": "None", "summary": "None", "logo": "None", "latitude": 42.98689500000006, "longitude": -81.24624349999993}, "107800542RR0001": {"name": "ONTARIO SAFETY LEAGUE", "designationCode": "C", "categoryCode": "59", "address": "212-2595 SKYMARK AVE.", "city": "MISSISSAUGA", "province": "ON", "country": "CA", "postalCode": "L4W4L5", "twitter": "None", "instagram": "None", "facebook": "None", "youtube": "None", "website": "None", "summary": "None", "logo": "None", "latitude": 43.65899468415485, "longitude": -79.59815021637617}, "131363087RR0001": {"name": "ONTARIO SCARLET NOBLES & LADIES (WINDSOR)", "designationCode": "C", "categoryCode": "65", "address": "440 MAPLE AVE", "city": "WINDSOR", "province": "ON", "country": "CA", "postalCode": "N9J1P4", "twitter": "None", "instagram": "None", "facebook": "None", "youtube": "None", "website": "None", "summary": "None", "logo": "None", "latitude": 42.2328651688588, "longitude": -83.09222483828599}, "107800559RR0001": {"name": "ONTARIO SCHOOL OF BALLET AND RELATED ARTS", "designationCode": "C", "categoryCode": "22", "address": "1133 ST CLAIR AVENUE W", "city": "TORONTO", "province": "ON", "country": "CA", "postalCode": "M6E1B1", "twitter": "None", "instagram": "None", "facebook": "None", "youtube": "None", "website": "None", "summary": "None", "logo": "None", "latitude": 43.67822477655964, "longitude": -79.44130898528482}, "869255349RR0001": {"name": "ONTARIO SEARCH AND RESCUE VOLUNTEER ASSOCIATION", "designationCode": "C", "categoryCode": "59", "address": "3859 WOOD AVENUE              RR #3", "city": "ORILLIA", "province": "ON", "country": "CA", "postalCode": "L3V6H3", "twitter": "None", "instagram": "None", "facebook": "None", "youtube": "None", "website": "None", "summary": "None", "logo": "None", "latitude": 44.6782775029142, "longitude": -79.39149533720936}, "835559824RR0001": {"name": "ONTARIO SHORES FOUNDATION FOR MENTAL HEALTH", "designationCode": "A", "categoryCode": "03", "address": "700 GORDON STREET", "city": "WHITBY", "province": "ON", "country": "CA", "postalCode": "L1N5S9", "twitter": "None", "instagram": "None", "facebook": "None", "youtube": "None", "website": "None", "summary": "None", "logo": "None", "latitude": 43.8511541182363, "longitude": -78.94063984975112}, "857335335RR0001": {"name": "ONTARIO SOCIETY FOR CHINESE EDUCATION", "designationCode": "C", "categoryCode": "21", "address": "35 STONEHEATH CRES", "city": "MARKHAM", "province": "ON", "country": "CA", "postalCode": "L6C2K9", "twitter": "None", "instagram": "None", "facebook": "None", "youtube": "None", "website": "None", "summary": "None", "logo": "None", "latitude": 43.88044422344037, "longitude": -79.36633856618965}, "119068377RR0001": {"name": "ONTARIO SOCIETY FOR CRIPPLED CHILDREN", "designationCode": "C", "categoryCode": "11", "address": "1 CONCORDE GATE               SUITE 700", "city": "TORONTO", "province": "ON", "country": "CA", "postalCode": "M3C3N6", "twitter": "None", "instagram": "None", "facebook": "None", "youtube": "None", "website": "None", "summary": "None", "logo": "None", "latitude": 43.728676500432684, "longitude": -79.32906055886072}, "889691044RR0002": {"name": "ONTARIO SOCIETY FOR THE PREVENTION OF CRUELTY TO ANIMALS", "designationCode": "C", "categoryCode": "54", "address": "16586 WOODBINE AVE", "city": "STOUFFVILLE", "province": "ON", "country": "CA", "postalCode": "L4A2W3", "twitter": "None", "instagram": "None", "facebook": "None", "youtube": "None", "website": "None", "summary": "None", "logo": "None", "latitude": 44.04761269158675, "longitude": -79.40233933045361}, "885026351RR0001": {"name": "ONTARIO SOCIETY OF SENIOR CITIZENS ORGANIZATIONS/LA SOCIETE DES CITOYENS AINES DE L'ONTARIO", "designationCode": "C", "categoryCode": "59", "address": "406-333 WILSON AVE.", "city": "TORONTO", "province": "ON", "country": "CA", "postalCode": "M3H1T2", "twitter": "None", "instagram": "None", "facebook": "None", "youtube": "None", "website": "None", "summary": "None", "logo": "None", "latitude": 43.737049856483516, "longitude": -79.43551650109652}, "888345667RR0001": {"name": "ONTARIO STANDARDBRED ADOPTION SOCIETY", "designationCode": "C", "categoryCode": "54", "address": "9685 FIRST LINE NASSAGAWEYA", "city": "MOFFAT", "province": "ON", "country": "CA", "postalCode": "L0P1J0", "twitter": "None", "instagram": "None", "facebook": "None", "youtube": "None", "website": "None", "summary": "None", "logo": "None", "latitude": 43.50730200000005, "longitude": -80.09119699999994}, "107800914RR0001": {"name": "ONTARIO STREET BAPTIST CHURCH", "designationCode": "C", "categoryCode": "31", "address": "230 ONTARIO ST", "city": "STRATFORD", "province": "ON", "country": "CA", "postalCode": "N5A3H4", "twitter": "None", "instagram": "None", "facebook": "None", "youtube": "None", "website": "None", "summary": "None", "logo": "None", "latitude": 43.37135650822299, "longitude": -80.97699188773154}, "119068476RR0001": {"name": "ONTARIO STUDENT DEBATING UNION", "designationCode": "C", "categoryCode": "21", "address": "4221 LONGMOOR DR", "city": "BURLINGTON", "province": "ON", "country": "CA", "postalCode": "L7L5C7", "twitter": "None", "instagram": "None", "facebook": "None", "youtube": "None", "website": "None", "summary": "None", "logo": "None", "latitude": 43.36034217707314, "longitude": -79.77152943883065}, "837393404RR0001": {"name": "ONTARIO THINKING FORWARD LEADERSHIP CENTRE", "designationCode": "C", "categoryCode": "21", "address": "160-3219 YONGE STREET", "city": "TORONTO", "province": "ON", "country": "CA", "postalCode": "M4N3S1", "twitter": "None", "instagram": "None", "facebook": "None", "youtube": "None", "website": "None", "summary": "None", "logo": "None", "latitude": 43.72822237330483, "longitude": -79.40298575587182}, "119068526RR0001": {"name": "ONTARIO TRACK 3 SKI ASSOCIATION FOR THE DISABLED", "designationCode": "C", "categoryCode": "56", "address": "4 - 61 ADVANCE RD", "city": "ETOBICOKE", "province": "ON", "country": "CA", "postalCode": "M8Z2S6", "twitter": "None", "instagram": "None", "facebook": "None", "youtube": "None", "website": "None", "summary": "None", "logo": "None"}, "892994963RR0001": {"name": "ONTARIO TRAILS COUNCIL, INC.", "designationCode": "C", "categoryCode": "56", "address": "PO BOX 500", "city": "DESERONTO", "province": "ON", "country": "CA", "postalCode": "K0K1X0", "twitter": "None", "instagram": "None", "facebook": "None", "youtube": "None", "website": "None", "summary": "None", "logo": "None", "latitude": 44.24640750000001, "longitude": -77.06454975}, "119068534RR0001": {"name": "ONTARIO TURFGRASS RESEARCH FOUNDATION", "designationCode": "A", "categoryCode": "23", "address": "328 VICTORIA ROAD S.R.R.#2", "city": "GUELPH", "province": "ON", "country": "CA", "postalCode": "N1H6H8", "twitter": "None", "instagram": "None", "facebook": "None", "youtube": "None", "website": "None", "summary": "None", "logo": "None", "latitude": 43.588466291498335, "longitude": -80.27468702488737}, "873656219RR0001": {"name": "ONTARIO VIPASSANA FOUNDATION", "designationCode": "C", "categoryCode": "35", "address": "6486 SIMCOE ROAD 56", "city": "EGBERT", "province": "ON", "country": "CA", "postalCode": "L0L1N0", "twitter": "None", "instagram": "None", "facebook": "None", "youtube": "None", "website": "None", "summary": "None", "logo": "None", "latitude": 44.4557270341704, "longitude": -79.49626217327335}, "133892414RR0001": {"name": "ONTARIO VOCAL FESTIVAL", "designationCode": "C", "categoryCode": "22", "address": "40 BOTFIELD AVE", "city": "ETOBICOKE", "province": "ON", "country": "CA", "postalCode": "M9B4E1", "twitter": "None", "instagram": "None", "facebook": "None", "youtube": "None", "website": "None", "summary": "None", "logo": "None", "latitude": 43.64528286871721, "longitude": -79.5400037169195}, "892978560RR0001": {"name": "ONTARIO VOLUNTEER EMERGENCY RESPONSE TEAM (OVERT) INC", "designationCode": "C", "categoryCode": "59", "address": "8 KING ST EAST                P.O BOX 54062", "city": "OSHAWA", "province": "ON", "country": "CA", "postalCode": "L1H1A9", "twitter": "None", "instagram": "None", "facebook": "None", "youtube": "None", "website": "None", "summary": "None", "logo": "None", "latitude": 43.897707114086124, "longitude": -78.86323968096826}, "889283412RR0001": {"name": "ONTARIO WILDLIFE FOUNDATION", "designationCode": "C", "categoryCode": "53", "address": "BOX 1598", "city": "PETERBOROUGH", "province": "ON", "country": "CA", "postalCode": "K9J7S4", "twitter": "None", "instagram": "None", "facebook": "None", "youtube": "None", "website": "None", "summary": "None", "logo": "None", "latitude": 44.30591700000005, "longitude": -78.31950199999993}, "891772246RR0001": {"name": "ONTARIO WOMEN'S HISTORY NETWORK", "designationCode": "C", "categoryCode": "21", "address": "62 GLENDALE AVE", "city": "OTTAWA", "province": "ON", "country": "CA", "postalCode": "K1S1W6", "twitter": "None", "instagram": "None", "facebook": "None", "youtube": "None", "website": "None", "summary": "None", "logo": "None", "latitude": 45.40500347986047, "longitude": -75.6983305331526}, "887382992RR0001": {"name": "ONTARIO WOODCARVERS ASSOCIATION", "designationCode": "C", "categoryCode": "22", "address": "51 CEDARVIEW DR.", "city": "WEST HILL", "province": "ON", "country": "CA", "postalCode": "M1C2K5", "twitter": "None", "instagram": "None", "facebook": "None", "youtube": "None", "website": "None", "summary": "None", "logo": "None", "latitude": 43.78957939661835, "longitude": -79.15505971215897}, "832503346RR0001": {"name": "ONTARIO WOUND CARE", "designationCode": "C", "categoryCode": "11", "address": "555 FINCH AVE WEST            2ND FLOOR", "city": "TORONTO", "province": "ON", "country": "CA", "postalCode": "M2R1N5", "twitter": "None", "instagram": "None", "facebook": "None", "youtube": "None", "website": "None", "summary": "None", "logo": "None", "latitude": 43.77290082474549, "longitude": -79.44794701826454}, "119068583RR0001": {"name": "ONTARIO YOUTH PARLIAMENT ASSOCIATION INC.", "designationCode": "C", "categoryCode": "29", "address": "204 STRATAS COURT", "city": "OTTAWA", "province": "ON", "country": "CA", "postalCode": "K2L3K5", "twitter": "None", "instagram": "None", "facebook": "None", "youtube": "None", "website": "None", "summary": "None", "logo": "None", "latitude": 45.30694926230581, "longitude": -75.88193177722346}, "857299135RR0001": {"name": "ONTARIO ZOROASTRIAN COMMUNITY FOUNDATION", "designationCode": "C", "categoryCode": "39", "address": "4244 TAFFEY CRESCENT", "city": "MISSISSAUGA", "province": "ON", "country": "CA", "postalCode": "L5L2J2", "twitter": "None", "instagram": "None", "facebook": "None", "youtube": "None", "website": "None", "summary": "None", "logo": "None", "latitude": 43.542414608921554, "longitude": -79.7046111829015}, "135887727RR0001": {"name": "ONTARIO 4-H COUNCIL", "designationCode": "C", "categoryCode": "29", "address": "111 MAIN STREET NORTH         P.O. BOX 212", "city": "ROCKWOOD", "province": "ON", "country": "CA", "postalCode": "N0B2K0", "twitter": "None", "instagram": "None", "facebook": "None", "youtube": "None", "website": "None", "summary": "None", "logo": "None", "latitude": 43.619023699117236, "longitude": -80.14453168307439}, "888880226RR0001": {"name": "ONTARIO 4-H FOUNDATION", "designationCode": "A", "categoryCode": "59", "address": "111 MAIN STREET NORTH         PO BOX 212", "city": "ROCKWOOD", "province": "ON", "country": "CA", "postalCode": "N0B2K0", "twitter": "None", "instagram": "None", "facebook": "None", "youtube": "None", "website": "None", "summary": "None", "logo": "None", "latitude": 43.619023699117236, "longitude": -80.14453168307439}, "867999765RR0001": {"name": "ONTARIO-LESOTHO EDUCATIONAL SUSTAINING FUND", "designationCode": "C", "categoryCode": "21", "address": "1300 YONGE STREET             SUITE 200", "city": "TORONTO", "province": "ON", "country": "CA", "postalCode": "M4T1X3", "twitter": "None", "instagram": "None", "facebook": "None", "youtube": "None", "website": "None", "summary": "None", "logo": "None", "latitude": 43.68412817790985, "longitude": -79.3929670994865}, "863314282RR0001": {"name": "ONTRACK INSTITUTE OF CHRISTIAN LEADERSHIP (CANADA)", "designationCode": "C", "categoryCode": "49", "address": "8391 ROSEBANK CRES", "city": "RICHMOND", "province": "BC", "country": "CA", "postalCode": "V7A2K8", "twitter": "None", "instagram": "None", "facebook": "None", "youtube": "None", "website": "None", "summary": "None", "logo": "None", "latitude": 49.1344144565756, "longitude": -123.13255066763807}, "119068609RR0001": {"name": "ONWARD GOSPEL CHURCH", "designationCode": "C", "categoryCode": "39", "address": "165 GALT AVE", "city": "VERDUN", "province": "QC", "country": "CA", "postalCode": "H4G2P3", "twitter": "None", "instagram": "None", "facebook": "None", "youtube": "None", "website": "None", "summary": "None", "logo": "None", "latitude": 45.46187346047075, "longitude": -73.56580269164407}, "888997939RR0001": {"name": "OOKNAKANE FRIENDSHIP CENTRE", "designationCode": "C", "categoryCode": "56", "address": "146 ELLIS ST", "city": "PENTICTON", "province": "BC", "country": "CA", "postalCode": "V2A4L5", "twitter": "None", "instagram": "None", "facebook": "None", "youtube": "None", "website": "None", "summary": "None", "logo": "None", "latitude": 49.50120402687104, "longitude": -119.59051147696613}, "830411963RR0001": {"name": "OOPSADAZY RESCUE AND SANTUARY SOCIETY", "designationCode": "C", "categoryCode": "54", "address": "PO BOX 57089", "city": "CALGARY", "province": "AB", "country": "CA", "postalCode": "T1Y6R4", "twitter": "None", "instagram": "None", "facebook": "None", "youtube": "None", "website": "None", "summary": "None", "logo": "None", "latitude": 51.07813800000005, "longitude": -113.95846699999993}, "807556071RR0001": {"name": "OORAH CHARITABLE ORGANIZATION", "designationCode": "C", "categoryCode": "49", "address": "189 DELL PARK AVENUE", "city": "TORONTO", "province": "ON", "country": "CA", "postalCode": "M6B2V5", "twitter": "None", "instagram": "None", "facebook": "None", "youtube": "None", "website": "None", "summary": "None", "logo": "None", "latitude": 43.71420491144912, "longitude": -79.44541720246411}, "890886666RR0001": {"name": "OOTSA LAKE BIBLE CAMP SOCIETY", "designationCode": "C", "categoryCode": "49", "address": "BOX 1119", "city": "BURNS LAKE", "province": "BC", "country": "CA", "postalCode": "V0J1E0", "twitter": "None", "instagram": "None", "facebook": "None", "youtube": "None", "website": "None", "summary": "None", "logo": "None", "latitude": 54.22723000000008, "longitude": -125.76009999999997}, "104004569RR0001": {"name": "OP\u00c9RA DE MONTR\u00c9AL", "designationCode": "C", "categoryCode": "22", "address": "260 BOUL DE MAISONNEUVE OUEST", "city": "MONTREAL", "province": "QC", "country": "CA", "postalCode": "H2X1Y9", "twitter": "None", "instagram": "None", "facebook": "None", "youtube": "None", "website": "None", "summary": "None", "logo": "None", "latitude": 45.508406327708435, "longitude": -73.56812827526383}, "867572166RR0001": {"name": "OP\u00c9RATION JEUNESSE VILLE-\u00c9MARD/COTE ST-PAUL", "designationCode": "C", "categoryCode": "09", "address": "5785- BOULEVARD MONK", "city": "MONTREAL", "province": "QC", "country": "CA", "postalCode": "H4E3H2", "twitter": "None", "instagram": "None", "facebook": "None", "youtube": "None", "website": "None", "summary": "None", "logo": "None", "latitude": 45.46045862891686, "longitude": -73.59682780088275}}