{"803671460RR0001": {"name": "Chartwell Baptist Church (Clarkson Village) Inc.", "designationCode": "C", "categoryCode": "31", "address": "1880 LAKESHORE ROAD WEST,", "city": "MISSISSAUGA", "province": "ON", "country": "CA", "postalCode": "L5J1J7", "twitter": "None", "instagram": "None", "facebook": "None", "youtube": "None", "website": "None", "summary": "None", "logo": "None", "latitude": 43.51438718564282, "longitude": -79.62623943415704}, "842203689RR0001": {"name": "Chartwell Global Foundation", "designationCode": "B", "categoryCode": "03", "address": "137 CHARTWELL ROAD", "city": "OAKVILLE", "province": "ON", "country": "CA", "postalCode": "L6J3Z7", "twitter": "None", "instagram": "None", "facebook": "None", "youtube": "None", "website": "None", "summary": "None", "logo": "None", "latitude": 43.45514867943906, "longitude": -79.66033732333091}, "805488921RR0001": {"name": "Chary-t", "designationCode": "C", "categoryCode": "59", "address": "1390 BOUL LAURIER", "city": "QUEBEC", "province": "QC", "country": "CA", "postalCode": "G1S1L9", "twitter": "None", "instagram": "None", "facebook": "None", "youtube": "None", "website": "None", "summary": "None", "logo": "None", "latitude": 46.788231980581635, "longitude": -71.24840484944305}, "816208193RR0001": {"name": "Chasam", "designationCode": "C", "categoryCode": "01", "address": "4560 RUE DE L'EMISSAIRE", "city": "LEVIS", "province": "QC", "country": "CA", "postalCode": "G6X1A4", "twitter": "None", "instagram": "None", "facebook": "None", "youtube": "None", "website": "None", "summary": "None", "logo": "None", "latitude": 46.721874434935536, "longitude": -71.27916960629584}, "834010951RR0001": {"name": "Chasdei Avraham Studies Institute", "designationCode": "B", "categoryCode": "43", "address": "40 REGINA AVE", "city": "TORONTO", "province": "ON", "country": "CA", "postalCode": "M6A1R3", "twitter": "None", "instagram": "None", "facebook": "None", "youtube": "None", "website": "None", "summary": "None", "logo": "None", "latitude": 43.72723421622702, "longitude": -79.43464820358929}, "831871389RR0001": {"name": "Chasdei Kaduri", "designationCode": "C", "categoryCode": "09", "address": "178 GESHER CRES", "city": "MAPLE", "province": "ON", "country": "CA", "postalCode": "L6A0X1", "twitter": "None", "instagram": "None", "facebook": "None", "youtube": "None", "website": "None", "summary": "None", "logo": "None", "latitude": 43.85747779819971, "longitude": -79.46526677087547}, "817430614RR0001": {"name": "Chasdei Levy Yitzcok", "designationCode": "C", "categoryCode": "09", "address": "5655 PARK AVE #308A", "city": "MONTR\u00c9AL", "province": "QC", "country": "CA", "postalCode": "H2V4H2", "twitter": "None", "instagram": "None", "facebook": "None", "youtube": "None", "website": "None", "summary": "None", "logo": "None", "latitude": 45.52295926868244, "longitude": -73.60387142518334}, "823931357RR0001": {"name": "Chasdei Shlomo Tzedakah", "designationCode": "C", "categoryCode": "21", "address": "1-5965 HUTCHISON", "city": "MONTR\u00c9AL", "province": "QC", "country": "CA", "postalCode": "H2V4B7", "twitter": "None", "instagram": "None", "facebook": "None", "youtube": "None", "website": "None", "summary": "None", "logo": "None"}, "887640662RR0001": {"name": "Chase Christmas Hamper Society", "designationCode": "C", "categoryCode": "09", "address": "124B CHASE ST                 PO BOX 137", "city": "CHASE", "province": "BC", "country": "CA", "postalCode": "V0E1M0", "twitter": "None", "instagram": "None", "facebook": "None", "youtube": "None", "website": "None", "summary": "None", "logo": "None", "latitude": 50.82035233851087, "longitude": -119.68881316394224}, "765760897RR0001": {"name": "Chase McEachern (AED) Memorial Fund Inc.", "designationCode": "C", "categoryCode": "11", "address": "P.O. BOX 27087                567 CUNDLES RD E", "city": "BARRIE", "province": "ON", "country": "CA", "postalCode": "L4M0G9", "twitter": "None", "instagram": "None", "facebook": "None", "youtube": "None", "website": "None", "summary": "None", "logo": "None", "latitude": 44.41562161793673, "longitude": -79.67356755552122}, "119288918RR0019": {"name": "Chase River Congregation of Jehovah's Witnesses, Nanaimo, British Columbia", "designationCode": "C", "categoryCode": "61", "address": "1064 OLD VICTORIA RD", "city": "NANAIMO", "province": "BC", "country": "CA", "postalCode": "V9R6R4", "twitter": "None", "instagram": "None", "facebook": "None", "youtube": "None", "website": "None", "summary": "None", "logo": "None", "latitude": 49.13695052568162, "longitude": -123.92480130991237}, "850160888RR0001": {"name": "Chasing Zebra Society", "designationCode": "B", "categoryCode": "11", "address": "9460 SYMS ROAD", "city": "PRINCE GEORGE", "province": "BC", "country": "CA", "postalCode": "V2K5J2", "twitter": "None", "instagram": "None", "facebook": "None", "youtube": "None", "website": "None", "summary": "None", "logo": "None", "latitude": 54.01497465889548, "longitude": -122.85497376331634}, "808517007RR0001": {"name": "Chatham Kent Down Syndrome Association", "designationCode": "C", "categoryCode": "11", "address": "62 HOLLAND AVE", "city": "CHATHAM", "province": "ON", "country": "CA", "postalCode": "N7M2C7", "twitter": "None", "instagram": "None", "facebook": "None", "youtube": "None", "website": "None", "summary": "None", "logo": "None", "latitude": 42.3805245098391, "longitude": -82.17764503523009}, "887983849RR0001": {"name": "Chatham Kent Drug Awareness Council", "designationCode": "C", "categoryCode": "59", "address": "PO BOX 23006                  RPO THAME LEA PLAZA", "city": "CHATHAM", "province": "ON", "country": "CA", "postalCode": "N7L0B1", "twitter": "None", "instagram": "None", "facebook": "None", "youtube": "None", "website": "None", "summary": "None", "logo": "None", "latitude": 42.404613000000055, "longitude": -82.18960099999994}, "843944430RR0001": {"name": "Chatham Kent Hospice Inc.", "designationCode": "C", "categoryCode": "01", "address": "99 PARK ST,", "city": "CHATHAM", "province": "ON", "country": "CA", "postalCode": "N7M3R5", "twitter": "None", "instagram": "None", "facebook": "None", "youtube": "None", "website": "None", "summary": "None", "logo": "None", "latitude": 42.40235910355453, "longitude": -82.17924800181767}, "852128701RR0001": {"name": "Chatham-Kent Animal Rescue", "designationCode": "C", "categoryCode": "54", "address": "266 INSHES AVENUE,", "city": "CHATHAM", "province": "ON", "country": "CA", "postalCode": "N7M2Z7", "twitter": "None", "instagram": "None", "facebook": "None", "youtube": "None", "website": "None", "summary": "None", "logo": "None", "latitude": 42.394112340816065, "longitude": -82.18708995089145}, "836192427RR0001": {"name": "Chatham-Kent Community Health Centres", "designationCode": "C", "categoryCode": "11", "address": "150 RICHMOND ST", "city": "CHATHAM", "province": "ON", "country": "CA", "postalCode": "N7M1N9", "twitter": "None", "instagram": "None", "facebook": "None", "youtube": "None", "website": "None", "summary": "None", "logo": "None", "latitude": 42.397902724652475, "longitude": -82.18838439353127}, "873551907RR0001": {"name": "Chatham-Kent Dickens Fellowship", "designationCode": "C", "categoryCode": "22", "address": "P.O. BOX 413", "city": "CHATHAM", "province": "ON", "country": "CA", "postalCode": "N7M5K5", "twitter": "None", "instagram": "None", "facebook": "None", "youtube": "None", "website": "None", "summary": "None", "logo": "None", "latitude": 42.404613000000055, "longitude": -82.18960099999994}, "809001597RR0001": {"name": "Chatham-Kent Hospice Foundation", "designationCode": "A", "categoryCode": "13", "address": "34 WELLINGTON ST E", "city": "CHATHAM", "province": "ON", "country": "CA", "postalCode": "N7M3N7", "twitter": "None", "instagram": "None", "facebook": "None", "youtube": "None", "website": "None", "summary": "None", "logo": "None", "latitude": 42.40362190423576, "longitude": -82.17950356036128}, "826551293RR0001": {"name": "Cheakamus Foundation for Environmental Learning", "designationCode": "A", "categoryCode": "03", "address": "2121 LONSDALE AVENUE", "city": "NORTH VANCOUVER", "province": "BC", "country": "CA", "postalCode": "V7M2K6", "twitter": "None", "instagram": "None", "facebook": "None", "youtube": "None", "website": "None", "summary": "None", "logo": "None", "latitude": 49.32853802914844, "longitude": -123.07225095612553}, "119028256RR0001": {"name": "Chebucto Community Development Association", "designationCode": "C", "categoryCode": "56", "address": "531 HERRING COVE ROAD         STE 101", "city": "HALIFAX", "province": "NS", "country": "CA", "postalCode": "B3R1X3", "twitter": "None", "instagram": "None", "facebook": "None", "youtube": "None", "website": "None", "summary": "None", "logo": "None", "latitude": 44.60123084122009, "longitude": -63.60830883919993}, "118850924RR0001": {"name": "Chebucto Orchestral Society of Nova Scotia", "designationCode": "C", "categoryCode": "22", "address": "PO BOX 27024                  5595 FENWICK STREET", "city": "HALIFAX", "province": "NS", "country": "CA", "postalCode": "B3H4M8", "twitter": "None", "instagram": "None", "facebook": "None", "youtube": "None", "website": "None", "summary": "None", "logo": "None", "latitude": 44.63779507080594, "longitude": -63.5744677460614}, "878618321RR0001": {"name": "Check Your Head: The Youth Global Education Network", "designationCode": "C", "categoryCode": "21", "address": "2455 FRASER ST", "city": "VANCOUVER", "province": "BC", "country": "CA", "postalCode": "V5T0E6", "twitter": "None", "instagram": "None", "facebook": "None", "youtube": "None", "website": "None", "summary": "None", "logo": "None", "latitude": 49.262871108093286, "longitude": -123.0892040047463}, "810432591RR0001": {"name": "Cheder Achei Temimim", "designationCode": "C", "categoryCode": "20", "address": "102-15 TORRESDALE AVENUE,", "city": "TORONTO", "province": "ON", "country": "CA", "postalCode": "M2R3X4", "twitter": "None", "instagram": "None", "facebook": "None", "youtube": "None", "website": "None", "summary": "None", "logo": "None", "latitude": 43.77326284598059, "longitude": -79.45151922116135}, "808522957RR0001": {"name": "Cheers the Church", "designationCode": "C", "categoryCode": "36", "address": "639 MAIN ST", "city": "PENTICTON", "province": "BC", "country": "CA", "postalCode": "V2A5C9", "twitter": "None", "instagram": "None", "facebook": "None", "youtube": "None", "website": "None", "summary": "None", "logo": "None", "latitude": 49.49348701748514, "longitude": -119.58979675451552}, "865136824RR0001": {"name": "Cheetah Conservation Fund Canada / Fonds canadien de pr\u00e9servation des gu\u00e9pards", "designationCode": "C", "categoryCode": "54", "address": "443 TATLOCK ROAD", "city": "CARLETON PLACE", "province": "ON", "country": "CA", "postalCode": "K7C0C5", "twitter": "None", "instagram": "None", "facebook": "None", "youtube": "None", "website": "None", "summary": "None", "logo": "None", "latitude": 45.12029183426652, "longitude": -76.23175429972892}, "106911076RR0001": {"name": "Chelsea Cooperative Nursery School", "designationCode": "C", "categoryCode": "01", "address": "23 CH CECIL", "city": "CHELSEA", "province": "QC", "country": "CA", "postalCode": "J9B0A5", "twitter": "None", "instagram": "None", "facebook": "None", "youtube": "None", "website": "None", "summary": "None", "logo": "None", "latitude": 45.505715489324196, "longitude": -75.78961164363206}, "898179213RR0002": {"name": "Chemainus Community Schools Association", "designationCode": "C", "categoryCode": "20", "address": "3172 GARNER STREET", "city": "CHEMAINUS", "province": "BC", "country": "CA", "postalCode": "V0R1K2", "twitter": "None", "instagram": "None", "facebook": "None", "youtube": "None", "website": "None", "summary": "None", "logo": "None", "latitude": 48.930956488458804, "longitude": -123.7334217485429}, "821045713RR0001": {"name": "Chemin Neuf Community (Manitoba) Inc.", "designationCode": "C", "categoryCode": "39", "address": "323 ST. CHARLES STREET", "city": "WINNIPEG", "province": "MB", "country": "CA", "postalCode": "R3K1T6", "twitter": "None", "instagram": "None", "facebook": "None", "youtube": "None", "website": "None", "summary": "None", "logo": "None", "latitude": 49.873450914507536, "longitude": -97.32084187878743}, "833096035RR0001": {"name": "Chenail roule pour l'espoir", "designationCode": "A", "categoryCode": "03", "address": "104 BOUL SAINT-R\u00c9MI", "city": "SAINT-R\u00c9MI", "province": "QC", "country": "CA", "postalCode": "J0L2L0", "twitter": "None", "instagram": "None", "facebook": "None", "youtube": "None", "website": "None", "summary": "None", "logo": "None", "latitude": 45.27032868796607, "longitude": -73.61424485279908}, "810362061RR0001": {"name": "Cherish Integrated Services", "designationCode": "C", "categoryCode": "09", "address": "10-431 ALDEN ROAD", "city": "MARKHAM", "province": "ON", "country": "CA", "postalCode": "L3R3L4", "twitter": "None", "instagram": "None", "facebook": "None", "youtube": "None", "website": "None", "summary": "None", "logo": "None", "latitude": 43.83457224447488, "longitude": -79.33347592801155}, "820591212RR0001": {"name": "Cherished Wings Parrot and Bird Rescue Inc.", "designationCode": "B", "categoryCode": "54", "address": "806 - 659 NORTHCLIFFE BLVD", "city": "YORK", "province": "ON", "country": "CA", "postalCode": "M6E5B3", "twitter": "None", "instagram": "None", "facebook": "None", "youtube": "None", "website": "None", "summary": "None", "logo": "None", "latitude": 43.695744977523205, "longitude": -79.44743045348852}, "821101250RR0001": {"name": "Cherry Brook United Baptist Church Society", "designationCode": "C", "categoryCode": "31", "address": "292 CHERRY BROOK RD", "city": "CHERRY BROOK", "province": "NS", "country": "CA", "postalCode": "B2Z1A6", "twitter": "None", "instagram": "None", "facebook": "None", "youtube": "None", "website": "None", "summary": "None", "logo": "None", "latitude": 44.70881463056165, "longitude": -63.483069133216034}, "785238114RR0001": {"name": "Cherry Point Park Committee (CPPC)", "designationCode": "C", "categoryCode": "56", "address": "GD", "city": "OAK LAKE", "province": "MB", "country": "CA", "postalCode": "R0M1P0", "twitter": "None", "instagram": "None", "facebook": "None", "youtube": "None", "website": "None", "summary": "None", "logo": "None", "latitude": 49.76430756929151, "longitude": -100.63254783087561}, "823444591RR0001": {"name": "Cherryfield Baptist Church Limited", "designationCode": "C", "categoryCode": "31", "address": "PO BOX 23127", "city": "MONCTON", "province": "NB", "country": "CA", "postalCode": "E1A6S8", "twitter": "None", "instagram": "None", "facebook": "None", "youtube": "None", "website": "None", "summary": "None", "logo": "None", "latitude": 46.08835000000005, "longitude": -64.77823999999998}, "802780650RR0001": {"name": "Cherryville Community Food Bank", "designationCode": "C", "categoryCode": "09", "address": "1392-HWY 6", "city": "CHERRYVILLE", "province": "BC", "country": "CA", "postalCode": "V0E2G1", "twitter": "None", "instagram": "None", "facebook": "None", "youtube": "None", "website": "None", "summary": "None", "logo": "None", "latitude": 50.245400988299274, "longitude": -118.65786969559161}, "816203418RR0001": {"name": "Chesley Community Church", "designationCode": "C", "categoryCode": "39", "address": "PO BOX 565", "city": "CHESLEY", "province": "ON", "country": "CA", "postalCode": "N0G1L0", "twitter": "None", "instagram": "None", "facebook": "None", "youtube": "None", "website": "None", "summary": "None", "logo": "None", "latitude": 44.30228000000005, "longitude": -81.09649999999993}, "818840274RR0001": {"name": "Chess Institute of Canada", "designationCode": "C", "categoryCode": "21", "address": "41 NINA STREET", "city": "TORONTO", "province": "ON", "country": "CA", "postalCode": "M5R1Z5", "twitter": "None", "instagram": "None", "facebook": "None", "youtube": "None", "website": "None", "summary": "None", "logo": "None", "latitude": 43.68016682763008, "longitude": -79.41499706618966}, "119246635RR0082": {"name": "Chester Branch of the Nova Scotia Mainland Division of the Navy League of Canada", "designationCode": "C", "categoryCode": "29", "address": "CHESTER BRANCH OF NAVY LEAGUE P.O. BOX 901", "city": "CHESTER", "province": "NS", "country": "CA", "postalCode": "B0J1J0", "twitter": "None", "instagram": "None", "facebook": "None", "youtube": "None", "website": "None", "summary": "None", "logo": "None", "latitude": 44.58177600000006, "longitude": -64.19364649999993}, "869568188RR0001": {"name": "Chester Volunteer Fire Department", "designationCode": "C", "categoryCode": "59", "address": "P.O. BOX 564                  149 CENTRAL STREET", "city": "CHESTER", "province": "NS", "country": "CA", "postalCode": "B0J1J0", "twitter": "None", "instagram": "None", "facebook": "None", "youtube": "None", "website": "None", "summary": "None", "logo": "None", "latitude": 44.54209892200936, "longitude": -64.24257901015622}, "810050807RR0001": {"name": "Chesterfield Cemetery", "designationCode": "B", "categoryCode": "59", "address": "816794 OXFORD RD 22           RR 1", "city": "BRIGHT", "province": "ON", "country": "CA", "postalCode": "N0J1B0", "twitter": "None", "instagram": "None", "facebook": "None", "youtube": "None", "website": "None", "summary": "None", "logo": "None", "latitude": 43.30582115763772, "longitude": -80.67103550842408}, "119288918RR1073": {"name": "Chestermere Congregation of Jehovah's Witnesses, Calgary, Alberta", "designationCode": "C", "categoryCode": "61", "address": "109 SIENNA PASSAGE", "city": "CHESTERMERE", "province": "AB", "country": "CA", "postalCode": "T1X0B6", "twitter": "None", "instagram": "None", "facebook": "None", "youtube": "None", "website": "None", "summary": "None", "logo": "None", "latitude": 51.03018149956732, "longitude": -113.8342725}, "859417396RR0001": {"name": "Chestermere Hispanic Mennonite Fellowship", "designationCode": "C", "categoryCode": "34", "address": "556 SANDY BEACH COVE", "city": "CHESTERMERE", "province": "AB", "country": "CA", "postalCode": "T1X1H8", "twitter": "None", "instagram": "None", "facebook": "None", "youtube": "None", "website": "None", "summary": "None", "logo": "None", "latitude": 51.03379631115455, "longitude": -113.8236575040107}, "822107132RR0001": {"name": "Chestermere Regional Community Development Foundation", "designationCode": "A", "categoryCode": "03", "address": "281 LAKESIDE GREENS CRES", "city": "CHESTERMERE", "province": "AB", "country": "CA", "postalCode": "T1X1C3", "twitter": "None", "instagram": "None", "facebook": "None", "youtube": "None", "website": "None", "summary": "None", "logo": "None", "latitude": 51.04492954371287, "longitude": -113.82688050066383}, "810933770RR0001": {"name": "Chestermere Therapy Dogs Society", "designationCode": "C", "categoryCode": "21", "address": "151 HAWKMERE VIEW", "city": "CHESTERMERE", "province": "AB", "country": "CA", "postalCode": "T1X1T8", "twitter": "None", "instagram": "None", "facebook": "None", "youtube": "None", "website": "None", "summary": "None", "logo": "None", "latitude": 51.05205930226774, "longitude": -113.83382875212092}, "858860422RR0001": {"name": "Chetwynd Community Foundation", "designationCode": "A", "categoryCode": "03", "address": "BOX 2256", "city": "CHETWYND", "province": "BC", "country": "CA", "postalCode": "V0C1J0", "twitter": "None", "instagram": "None", "facebook": "None", "youtube": "None", "website": "None", "summary": "None", "logo": "None", "latitude": 55.13200336111122, "longitude": -121.00608273128003}, "133005710RR0001": {"name": "Chetwynd Senior Citizens Housing Society", "designationCode": "C", "categoryCode": "09", "address": "5109 49TH AVE                 PO 1679", "city": "CHETWYND", "province": "BC", "country": "CA", "postalCode": "V0C1J0", "twitter": "None", "instagram": "None", "facebook": "None", "youtube": "None", "website": "None", "summary": "None", "logo": "None", "latitude": 55.69988247781828, "longitude": -121.63297188643809}, "854167053RR0001": {"name": "Chi Heng Foundation Canada", "designationCode": "C", "categoryCode": "09", "address": "202-255 DUNCAN MILL RD", "city": "NORTH YORK", "province": "ON", "country": "CA", "postalCode": "M3B3H9", "twitter": "None", "instagram": "None", "facebook": "None", "youtube": "None", "website": "None", "summary": "None", "logo": "None", "latitude": 43.76163150000001, "longitude": -79.35144299999999}, "820522308RR0001": {"name": "Chikondi One Heart Angels Orphanage", "designationCode": "C", "categoryCode": "01", "address": "244 TWILLINGATE ROAD", "city": "CAMPBELL RIVER", "province": "BC", "country": "CA", "postalCode": "V9W1V2", "twitter": "None", "instagram": "None", "facebook": "None", "youtube": "None", "website": "None", "summary": "None", "logo": "None", "latitude": 49.956282471002325, "longitude": -125.2115896902591}, "119208791RR0001": {"name": "Chilcotin Christian Centre Society", "designationCode": "C", "categoryCode": "39", "address": "PO BOX 20", "city": "NIMPO LAKE", "province": "BC", "country": "CA", "postalCode": "V0L1R0", "twitter": "None", "instagram": "None", "facebook": "None", "youtube": "None", "website": "None", "summary": "None", "logo": "None", "latitude": 52.35549749999999, "longitude": -125.1540315}, "138656632RR0001": {"name": "Child & Community Resources Ressources pour l'enfance et la communaut\u00e9", "designationCode": "C", "categoryCode": "11", "address": "662 FALCONBRIDGE ROAD", "city": "SUDBURY", "province": "ON", "country": "CA", "postalCode": "P3A4S4", "twitter": "None", "instagram": "None", "facebook": "None", "youtube": "None", "website": "None", "summary": "None", "logo": "None", "latitude": 46.51386041352659, "longitude": -80.92839205811092}, "838550945RR0001": {"name": "Child and Family all Nations Coordinated Response Network Inc.", "designationCode": "C", "categoryCode": "01", "address": "835 PORTAGE AVENUE", "city": "WINNIPEG", "province": "MB", "country": "CA", "postalCode": "R3G0N6", "twitter": "None", "instagram": "None", "facebook": "None", "youtube": "None", "website": "None", "summary": "None", "logo": "None", "latitude": 49.8864641795833, "longitude": -97.16658985152053}, "128016383RR0001": {"name": "Child and Family Centre / Centre de l'enfant et de la famille", "designationCode": "C", "categoryCode": "11", "address": "62 FROOD DR                   UNIT 100", "city": "SUDBURY", "province": "ON", "country": "CA", "postalCode": "P3C4Z3", "twitter": "None", "instagram": "None", "facebook": "None", "youtube": "None", "website": "None", "summary": "None", "logo": "None", "latitude": 46.49444006955415, "longitude": -80.99884349658589}, "812127496RR0001": {"name": "Child and Nature Alliance Society", "designationCode": "C", "categoryCode": "21", "address": "411 CORKSTOWN RD", "city": "KANATA", "province": "ON", "country": "CA", "postalCode": "K2K0J5", "twitter": "None", "instagram": "None", "facebook": "None", "youtube": "None", "website": "None", "summary": "None", "logo": "None", "latitude": 45.33060266666534, "longitude": -75.8634198502588}, "849269485RR0001": {"name": "Child of Mine Society", "designationCode": "C", "categoryCode": "09", "address": "201 - 2307 ENTERPRISE WAY", "city": "KELOWNA", "province": "BC", "country": "CA", "postalCode": "V1X7E1", "twitter": "None", "instagram": "None", "facebook": "None", "youtube": "None", "website": "None", "summary": "None", "logo": "None", "latitude": 49.88317252038872, "longitude": -119.43449531267606}, "811538057RR0001": {"name": "Child Aid International Fund Society", "designationCode": "A", "categoryCode": "03", "address": "1500 WEST GEORGIA STREET      SUITE 1250   BOX 62", "city": "VANCOUVER", "province": "BC", "country": "CA", "postalCode": "V6G2Z6", "twitter": "None", "instagram": "None", "facebook": "None", "youtube": "None", "website": "None", "summary": "None", "logo": "None", "latitude": 49.2900638104334, "longitude": -123.12989899362336}, "107958308RR0001": {"name": "Child Care Algoma", "designationCode": "C", "categoryCode": "20", "address": "148 DACEY ROAD", "city": "SAULT STE MARIE", "province": "ON", "country": "CA", "postalCode": "P6A5J7", "twitter": "None", "instagram": "None", "facebook": "None", "youtube": "None", "website": "None", "summary": "None", "logo": "None", "latitude": 46.52179811604802, "longitude": -84.25274810473796}, "821939642RR0001": {"name": "Child Hunger Brantford", "designationCode": "C", "categoryCode": "09", "address": "45 RICHMOND ST", "city": "BRANTFORD", "province": "ON", "country": "CA", "postalCode": "N3T3Y4", "twitter": "None", "instagram": "None", "facebook": "None", "youtube": "None", "website": "None", "summary": "None", "logo": "None", "latitude": 43.14519000109653, "longitude": -80.27137179848816}, "815591201RR0001": {"name": "Child Lifeline Inc.", "designationCode": "C", "categoryCode": "01", "address": "300A WILSON AVE", "city": "TORONTO", "province": "ON", "country": "CA", "postalCode": "M3H1S8", "twitter": "None", "instagram": "None", "facebook": "None", "youtube": "None", "website": "None", "summary": "None", "logo": "None", "latitude": 43.737125821841914, "longitude": -79.43561299493338}, "840864094RR0001": {"name": "Child Nutrition Council of Manitoba, Inc.", "designationCode": "C", "categoryCode": "21", "address": "191 PROVENCHER BLVD", "city": "WINNIPEG", "province": "MB", "country": "CA", "postalCode": "R2H0G4", "twitter": "None", "instagram": "None", "facebook": "None", "youtube": "None", "website": "None", "summary": "None", "logo": "None", "latitude": 49.89236614683472, "longitude": -97.12173737705574}, "832092456RR0001": {"name": "Childhood for Children Foundation", "designationCode": "B", "categoryCode": "03", "address": "2986 7TH AVE W", "city": "VANCOUVER", "province": "BC", "country": "CA", "postalCode": "V6K1Z8", "twitter": "None", "instagram": "None", "facebook": "None", "youtube": "None", "website": "None", "summary": "None", "logo": "None", "latitude": 49.26579848124546, "longitude": -123.17186105398464}, "840514954RR0001": {"name": "Childhood Now", "designationCode": "C", "categoryCode": "09", "address": "UNIT 2                        25 LESMILL ROAD", "city": "TORONTO", "province": "ON", "country": "CA", "postalCode": "M3B2T3", "twitter": "None", "instagram": "None", "facebook": "None", "youtube": "None", "website": "None", "summary": "None", "logo": "None", "latitude": 43.75699940634188, "longitude": -79.35297955309059}, "831978325RR0001": {"name": "Childlife Network International Inc.", "designationCode": "C", "categoryCode": "09", "address": "515 RICHMOND STREET           PO BOX 1141", "city": "LONDON", "province": "ON", "country": "CA", "postalCode": "N6A5K2", "twitter": "None", "instagram": "None", "facebook": "None", "youtube": "None", "website": "None", "summary": "None", "logo": "None", "latitude": 42.98709600000001, "longitude": -81.25073856261164}, "824951925RR0001": {"name": "Children of the World Anesthesia Foundation / Fondation Anesth\u00e9sie enfants du monde", "designationCode": "C", "categoryCode": "23", "address": "1360 AV DE GRAND-MERE", "city": "SHAWINIGAN", "province": "QC", "country": "CA", "postalCode": "G9T2J6", "twitter": "None", "instagram": "None", "facebook": "None", "youtube": "None", "website": "None", "summary": "None", "logo": "None", "latitude": 46.60858805135891, "longitude": -72.70122948739095}, "840384879RR0001": {"name": "Children of Hope", "designationCode": "C", "categoryCode": "21", "address": "1825 MARKHAM ROAD             SUITE # B-06", "city": "TORONTO", "province": "ON", "country": "CA", "postalCode": "M1B4Z9", "twitter": "None", "instagram": "None", "facebook": "None", "youtube": "None", "website": "None", "summary": "None", "logo": "None", "latitude": 43.79595772468112, "longitude": -79.23995804353997}, "844613885RR0001": {"name": "Children of Hope Uganda", "designationCode": "C", "categoryCode": "01", "address": "HOUSE 8,70 SHAFTESBURY AVENUE", "city": "TORONTO", "province": "ON", "country": "CA", "postalCode": "M4T1A3", "twitter": "None", "instagram": "None", "facebook": "None", "youtube": "None", "website": "None", "summary": "None", "logo": "None", "latitude": 43.682586274510825, "longitude": -79.38867650750183}, "835083379RR0001": {"name": "Children of Vietnam Benevolent Foundation", "designationCode": "C", "categoryCode": "01", "address": "POST OFFICE BOX 1079", "city": "CALMAR", "province": "AB", "country": "CA", "postalCode": "T0C0V0", "twitter": "None", "instagram": "None", "facebook": "None", "youtube": "None", "website": "None", "summary": "None", "logo": "None", "latitude": 53.265040000000056, "longitude": -113.80454999999995}, "875146912RR0001": {"name": "Children First Family Services Association", "designationCode": "C", "categoryCode": "09", "address": "CENTER 170 - SUITE 145        10403 - 172 STREET NW", "city": "EDMONTON", "province": "AB", "country": "CA", "postalCode": "T5S1K9", "twitter": "None", "instagram": "None", "facebook": "None", "youtube": "None", "website": "None", "summary": "None", "logo": "None", "latitude": 53.54708400000001, "longitude": -113.61782522179652}, "852081959RR0001": {"name": "Children First Society", "designationCode": "C", "categoryCode": "01", "address": "PO BOX 3277", "city": "INUVIK", "province": "NT", "country": "CA", "postalCode": "X0E0T0", "twitter": "None", "instagram": "None", "facebook": "None", "youtube": "None", "website": "None", "summary": "None", "logo": "None", "latitude": 68.36105000000003, "longitude": -133.73492999999996}, "847241098RR0001": {"name": "Children First: Community Child Care Network Society", "designationCode": "C", "categoryCode": "01", "address": "285 SANDPIPER RD", "city": "FORT MCMURRAY", "province": "AB", "country": "CA", "postalCode": "T9K0K9", "twitter": "None", "instagram": "None", "facebook": "None", "youtube": "None", "website": "None", "summary": "None", "logo": "None", "latitude": 56.750282046627035, "longitude": -111.44428382861103}, "818501041RR0001": {"name": "Children International Canada", "designationCode": "C", "categoryCode": "09", "address": "SUITE 701                     130 ADELAIDE STREET WEST", "city": "TORONTO", "province": "ON", "country": "CA", "postalCode": "M5H2K4", "twitter": "None", "instagram": "None", "facebook": "None", "youtube": "None", "website": "None", "summary": "None", "logo": "None", "latitude": 43.64931314741162, "longitude": -79.38362708272251}, "119059756RR0001": {"name": "Children's Ability Fund", "designationCode": "C", "categoryCode": "13", "address": "103 - 18304 105 AVE", "city": "EDMONTON", "province": "AB", "country": "CA", "postalCode": "T5S0C6", "twitter": "None", "instagram": "None", "facebook": "None", "youtube": "None", "website": "None", "summary": "None", "logo": "None", "latitude": 53.54865600000005, "longitude": -113.63777449999994}, "108076480RR0001": {"name": "Children's Aid Foundation of Canada", "designationCode": "A", "categoryCode": "03", "address": "25 SPADINA RD", "city": "TORONTO", "province": "ON", "country": "CA", "postalCode": "M5R2S9", "twitter": "None", "instagram": "None", "facebook": "None", "youtube": "None", "website": "None", "summary": "None", "logo": "None", "latitude": 43.668196061342215, "longitude": -79.40441707005614}, "772614699RR0001": {"name": "Children's Birthday Miracles Ltd.", "designationCode": "B", "categoryCode": "09", "address": "230 CORAL SPRINGS PL NE", "city": "CALGARY", "province": "AB", "country": "CA", "postalCode": "T3J3M6", "twitter": "None", "instagram": "None", "facebook": "None", "youtube": "None", "website": "None", "summary": "None", "logo": "None", "latitude": 51.10055660560335, "longitude": -113.92368656991191}, "876458209RR0001": {"name": "Children's Community Network/R\u00e9seau communautaire pour Enfants", "designationCode": "C", "categoryCode": "09", "address": "319 LASALLE BLVD              UNIT 2", "city": "SUDBURY", "province": "ON", "country": "CA", "postalCode": "P3A1W7", "twitter": "None", "instagram": "None", "facebook": "None", "youtube": "None", "website": "None", "summary": "None", "logo": "None", "latitude": 46.52181936663973, "longitude": -80.98032407545183}, "132431578RR0001": {"name": "Children's Den Inc.", "designationCode": "C", "categoryCode": "01", "address": "535 PARK ST", "city": "BRANDON", "province": "MB", "country": "CA", "postalCode": "R7A6M6", "twitter": "None", "instagram": "None", "facebook": "None", "youtube": "None", "website": "None", "summary": "None", "logo": "None", "latitude": 49.84111838773157, "longitude": -99.93343043926428}, "803594589RR0001": {"name": "Children's Foundation of Canada", "designationCode": "A", "categoryCode": "03", "address": "433 BANK ST", "city": "OTTAWA", "province": "ON", "country": "CA", "postalCode": "K2P1Y7", "twitter": "None", "instagram": "None", "facebook": "None", "youtube": "None", "website": "None", "summary": "None", "logo": "None", "latitude": 45.41229491286276, "longitude": -75.69369550911794}, "898638291RR0001": {"name": "Children's Health Foundation of Vancouver Island", "designationCode": "A", "categoryCode": "19", "address": "2390 ARBUTUS ROAD", "city": "VICTORIA", "province": "BC", "country": "CA", "postalCode": "V8N1V7", "twitter": "None", "instagram": "None", "facebook": "None", "youtube": "None", "website": "None", "summary": "None", "logo": "None", "latitude": 48.46993278409011, "longitude": -123.30161624629254}, "119282044RR0001": {"name": "Children's Hearing and Speech Centre of BC Inc.", "designationCode": "C", "categoryCode": "20", "address": "3575 KASLO ST", "city": "VANCOUVER", "province": "BC", "country": "CA", "postalCode": "V5M3H4", "twitter": "None", "instagram": "None", "facebook": "None", "youtube": "None", "website": "None", "summary": "None", "logo": "None", "latitude": 49.25235599999999, "longitude": -123.04711307672031}, "842113482RR0001": {"name": "Children's HopeChest Canada Inc.", "designationCode": "C", "categoryCode": "01", "address": "68 AMBERGATE DR", "city": "WINNIPEG", "province": "MB", "country": "CA", "postalCode": "R2P2R7", "twitter": "None", "instagram": "None", "facebook": "None", "youtube": "None", "website": "None", "summary": "None", "logo": "None", "latitude": 49.96019089312726, "longitude": -97.1617703982918}, "825438708RR0001": {"name": "Children's Joy Foundation", "designationCode": "C", "categoryCode": "09", "address": "P.O. BOX 33552                CENTRAL CITY PO", "city": "SURREY", "province": "BC", "country": "CA", "postalCode": "V3T5R5", "twitter": "None", "instagram": "None", "facebook": "None", "youtube": "None", "website": "None", "summary": "None", "logo": "None", "latitude": 49.19459934321265, "longitude": -122.84818947275335}, "896698495RR0001": {"name": "Children's Mental Health of Leeds and Grenville", "designationCode": "C", "categoryCode": "09", "address": "779 CHELSEA STREET            SUITE B - U", "city": "BROCKVILLE", "province": "ON", "country": "CA", "postalCode": "K6V6J8", "twitter": "None", "instagram": "None", "facebook": "None", "youtube": "None", "website": "None", "summary": "None", "logo": "None", "latitude": 44.60306026060371, "longitude": -75.71031169354866}, "844792044RR0001": {"name": "Children's Multicultural Society", "designationCode": "C", "categoryCode": "21", "address": "6495 GLADSTONE ST", "city": "VANCOUVER", "province": "BC", "country": "CA", "postalCode": "V5P4E4", "twitter": "None", "instagram": "None", "facebook": "None", "youtube": "None", "website": "None", "summary": "None", "logo": "None", "latitude": 49.225249089647406, "longitude": -123.06236405998591}, "801305004RR0001": {"name": "Children's Music Foundation International", "designationCode": "C", "categoryCode": "22", "address": "17 HADDEN CRES", "city": "BARRIE", "province": "ON", "country": "CA", "postalCode": "L4M6G6", "twitter": "None", "instagram": "None", "facebook": "None", "youtube": "None", "website": "None", "summary": "None", "logo": "None", "latitude": 44.41383820344506, "longitude": -79.69507037662305}, "898381801RR0001": {"name": "Children's Organ Transplant Society of BC", "designationCode": "C", "categoryCode": "11", "address": "7671 ACHESON ROAD", "city": "RICHMOND", "province": "BC", "country": "CA", "postalCode": "V6Y1N1", "twitter": "None", "instagram": "None", "facebook": "None", "youtube": "None", "website": "None", "summary": "None", "logo": "None", "latitude": 49.16017251875454, "longitude": -123.13831410935425}, "891056897RR0001": {"name": "Children's Peace Theatre", "designationCode": "C", "categoryCode": "47", "address": "305 DAWES ROAD", "city": "TORONTO", "province": "ON", "country": "CA", "postalCode": "M4B2E2", "twitter": "None", "instagram": "None", "facebook": "None", "youtube": "None", "website": "None", "summary": "None", "logo": "None", "latitude": 43.698402, "longitude": -79.29699415854546}, "890338437RR0001": {"name": "Children's Primary Centre", "designationCode": "C", "categoryCode": "20", "address": "33 ROSEMARY LANE", "city": "TORONTO", "province": "ON", "country": "CA", "postalCode": "M5P3E7", "twitter": "None", "instagram": "None", "facebook": "None", "youtube": "None", "website": "None", "summary": "None", "logo": "None", "latitude": 43.700345139621355, "longitude": -79.42478632015691}, "104455811RR0001": {"name": "Children's Rehabilitation Foundation Inc.", "designationCode": "A", "categoryCode": "11", "address": "1155 NOTRE DAME AVE", "city": "WINNIPEG", "province": "MB", "country": "CA", "postalCode": "R3E3G1", "twitter": "None", "instagram": "None", "facebook": "None", "youtube": "None", "website": "None", "summary": "None", "logo": "None", "latitude": 49.90767095423834, "longitude": -97.17853377113528}, "824828354RR0001": {"name": "Children's Treatment Centre Foundation of Chatham-Kent", "designationCode": "A", "categoryCode": "03", "address": "355 LARK STREET", "city": "CHATHAM", "province": "ON", "country": "CA", "postalCode": "N7L5B2", "twitter": "None", "instagram": "None", "facebook": "None", "youtube": "None", "website": "None", "summary": "None", "logo": "None", "latitude": 42.40282793579401, "longitude": -82.2113360933621}, "819040072RR0001": {"name": "Childrens Camps International Inc.", "designationCode": "C", "categoryCode": "49", "address": "300-571 MAIN ST", "city": "WINKLER", "province": "MB", "country": "CA", "postalCode": "R6W1G3", "twitter": "None", "instagram": "None", "facebook": "None", "youtube": "None", "website": "None", "summary": "None", "logo": "None", "latitude": 49.18682800686936, "longitude": -97.93922141556834}, "822981858RR0001": {"name": "Chill Foundation of Canada / Fondation Chill du Canada", "designationCode": "C", "categoryCode": "09", "address": "900-1959 UPPER WATER STREET   PO BOX 997", "city": "HALIFAX", "province": "NS", "country": "CA", "postalCode": "B3J2X2", "twitter": "None", "instagram": "None", "facebook": "None", "youtube": "None", "website": "None", "summary": "None", "logo": "None", "latitude": 44.65116830396986, "longitude": -63.57483644359211}, "805742897RR0001": {"name": "Chilliwack Arts & Cultural Centre Society", "designationCode": "C", "categoryCode": "22", "address": "9201 CORBOULD ST", "city": "CHILLIWACK", "province": "BC", "country": "CA", "postalCode": "V2P4A6", "twitter": "None", "instagram": "None", "facebook": "None", "youtube": "None", "website": "None", "summary": "None", "logo": "None", "latitude": 49.16952809810233, "longitude": -121.96419463915772}, "849847082RR0001": {"name": "Chilliwack Bowls of Hope Society", "designationCode": "C", "categoryCode": "09", "address": "45914 ROWAT AVENUE", "city": "CHILLIWACK", "province": "BC", "country": "CA", "postalCode": "V2P1J3", "twitter": "None", "instagram": "None", "facebook": "None", "youtube": "None", "website": "None", "summary": "None", "logo": "None", "latitude": 49.161955574442224, "longitude": -121.95427666446407}, "891259145RR0001": {"name": "Chilliwack Children's Foundation", "designationCode": "C", "categoryCode": "63", "address": "PO BOX 316", "city": "CHILLIWACK", "province": "BC", "country": "CA", "postalCode": "V2P6J1", "twitter": "None", "instagram": "None", "facebook": "None", "youtube": "None", "website": "None", "summary": "None", "logo": "None"}, "130565963RR0030": {"name": "Chilliwack Chinese Alliance Church", "designationCode": "C", "categoryCode": "39", "address": "44582 MONTE VISTA DR", "city": "CHILLIWACK", "province": "BC", "country": "CA", "postalCode": "V2R5T2", "twitter": "None", "instagram": "None", "facebook": "None", "youtube": "None", "website": "None", "summary": "None", "logo": "None", "latitude": 49.10591248514061, "longitude": -121.99049983236193}, "890842198RR0001": {"name": "Chilliwack Crime Prevention Society", "designationCode": "C", "categoryCode": "59", "address": "8550 YOUNG RD", "city": "CHILLIWACK", "province": "BC", "country": "CA", "postalCode": "V2P8A4", "twitter": "None", "instagram": "None", "facebook": "None", "youtube": "None", "website": "None", "summary": "None", "logo": "None", "latitude": 49.15694429522926, "longitude": -121.95141859613254}, "845499409RR0001": {"name": "Chilliwack Hospital Foundation", "designationCode": "A", "categoryCode": "13", "address": "201-46093 YALE RD", "city": "CHILLIWACK", "province": "BC", "country": "CA", "postalCode": "V2P2L8", "twitter": "None", "instagram": "None", "facebook": "None", "youtube": "None", "website": "None", "summary": "None", "logo": "None", "latitude": 49.170771023882, "longitude": -121.95309677306103}, "130565963RR0025": {"name": "Chilliwack House Churches", "designationCode": "B", "categoryCode": "39", "address": "47440 WITTENBERG PL", "city": "CHILLIWACK", "province": "BC", "country": "CA", "postalCode": "V2R0L3", "twitter": "None", "instagram": "None", "facebook": "None", "youtube": "None", "website": "None", "summary": "None", "logo": "None", "latitude": 49.112736000000055, "longitude": -121.91200999999992}, "810647800RR0001": {"name": "Chilliwack Housing For Homeless Foundation", "designationCode": "C", "categoryCode": "59", "address": "1-7300 VEDDER ROAD", "city": "CHILLIWACK", "province": "BC", "country": "CA", "postalCode": "V2T4G6", "twitter": "None", "instagram": "None", "facebook": "None", "youtube": "None", "website": "None", "summary": "None", "logo": "None", "latitude": 49.13543502080336, "longitude": -121.9592878897517}, "823055819RR0001": {"name": "Chilliwack Joyful Church", "designationCode": "C", "categoryCode": "39", "address": "57 - 45545 TAMIHI WAY", "city": "CHILLIWACK", "province": "BC", "country": "CA", "postalCode": "V2R0G2", "twitter": "None", "instagram": "None", "facebook": "None", "youtube": "None", "website": "None", "summary": "None", "logo": "None", "latitude": 49.107448524023084, "longitude": -121.96471530099085}}