{"892693565RR0001": {"name": "THE ELIM FOUNDATION", "designationCode": "A", "categoryCode": "53", "address": "9025 160 ST", "city": "SURREY", "province": "BC", "country": "CA", "postalCode": "V4N2X7", "twitter": "None", "instagram": "None", "facebook": "None", "youtube": "None", "website": "None", "summary": "None", "logo": "None", "latitude": 49.16673900000001, "longitude": -122.77892302132109}, "891323149RR0001": {"name": "THE ELIZABETH BISHOP SOCIETY OF NOVA SCOTIA", "designationCode": "C", "categoryCode": "50", "address": "P.O. BOX 138", "city": "GREAT VILLAGE", "province": "NS", "country": "CA", "postalCode": "B0M1L0", "twitter": "None", "instagram": "None", "facebook": "None", "youtube": "None", "website": "None", "summary": "None", "logo": "None", "latitude": 45.416480000000035, "longitude": -63.599489999999946}, "107294415RR0001": {"name": "THE ELIZABETH FRY SOCIETY OF CALGARY ALBERTA", "designationCode": "C", "categoryCode": "59", "address": "1731 10TH AVE SW", "city": "CALGARY", "province": "AB", "country": "CA", "postalCode": "T3C0K1", "twitter": "None", "instagram": "None", "facebook": "None", "youtube": "None", "website": "None", "summary": "None", "logo": "None", "latitude": 51.044350528420765, "longitude": -114.10101233097696}, "107294498RR0001": {"name": "THE ELIZABETH FRY SOCIETY OF CAPE BRETON", "designationCode": "C", "categoryCode": "59", "address": "16 C. LEVATTE CRES.", "city": "SYDNEY", "province": "NS", "country": "CA", "postalCode": "B1N3K3", "twitter": "None", "instagram": "None", "facebook": "None", "youtube": "None", "website": "None", "summary": "None", "logo": "None", "latitude": 46.17153459059971, "longitude": -60.16581957646144}, "107294381RR0001": {"name": "THE ELIZABETH FRY SOCIETY OF EDMONTON ALBERTA", "designationCode": "C", "categoryCode": "59", "address": "10523-100 AVENUE NW", "city": "EDMONTON", "province": "AB", "country": "CA", "postalCode": "T5J0A8", "twitter": "None", "instagram": "None", "facebook": "None", "youtube": "None", "website": "None", "summary": "None", "logo": "None", "latitude": 53.53878449235396, "longitude": -113.50239202553523}, "124394701RR0001": {"name": "THE ELIZABETH FRY SOCIETY OF GREATER VANCOUVER", "designationCode": "C", "categoryCode": "59", "address": "402 EAST COLUMBIA STREET", "city": "NEW WESTMINSTER", "province": "BC", "country": "CA", "postalCode": "V3L3X1", "twitter": "None", "instagram": "None", "facebook": "None", "youtube": "None", "website": "None", "summary": "None", "logo": "None", "latitude": 49.22804609281072, "longitude": -122.89277371412655}, "889630224RR0001": {"name": "THE ELIZABETH FRY SOCIETY OF KITCHENER-WATERLOO", "designationCode": "C", "categoryCode": "59", "address": "58 QUEEN ST SOUTH", "city": "KITCHENER", "province": "ON", "country": "CA", "postalCode": "N2G1V6", "twitter": "None", "instagram": "None", "facebook": "None", "youtube": "None", "website": "None", "summary": "None", "logo": "None", "latitude": 43.44912837108313, "longitude": -80.48987097835992}, "108080490RR0001": {"name": "THE ELIZABETH FRY SOCIETY OF MANITOBA", "designationCode": "C", "categoryCode": "59", "address": "544 SELKIRK AVE", "city": "WINNIPEG", "province": "MB", "country": "CA", "postalCode": "R2W2M9", "twitter": "None", "instagram": "None", "facebook": "None", "youtube": "None", "website": "None", "summary": "None", "logo": "None", "latitude": 49.916217060765305, "longitude": -97.14685229046675}, "107294456RR0001": {"name": "THE ELIZABETH FRY SOCIETY OF OTTAWA", "designationCode": "C", "categoryCode": "59", "address": "211 BRONSON AVENUE            SUITE 311", "city": "OTTAWA", "province": "ON", "country": "CA", "postalCode": "K1R6H5", "twitter": "None", "instagram": "None", "facebook": "None", "youtube": "None", "website": "None", "summary": "None", "logo": "None", "latitude": 45.41349725618897, "longitude": -75.7068905103587}, "129863379RR0001": {"name": "THE ELIZABETH FRY SOCIETY OF PETERBOROUGH", "designationCode": "C", "categoryCode": "59", "address": "233 AYLMER ST N", "city": "PETERBOROUGH", "province": "ON", "country": "CA", "postalCode": "K9J3K3", "twitter": "None", "instagram": "None", "facebook": "None", "youtube": "None", "website": "None", "summary": "None", "logo": "None", "latitude": 44.300284278990134, "longitude": -78.32304332438959}, "119231280RR0001": {"name": "THE ELIZABETH FRY SOCIETY OF SASKATCHEWAN INC", "designationCode": "C", "categoryCode": "59", "address": "205 - 1120 20TH ST W", "city": "SASKATOON", "province": "SK", "country": "CA", "postalCode": "S7M0Y8", "twitter": "None", "instagram": "None", "facebook": "None", "youtube": "None", "website": "None", "summary": "None", "logo": "None", "latitude": 52.12620000000001, "longitude": -106.68661166203282}, "119231298RR0001": {"name": "THE ELIZABETH FRY SOCIETY SUDBURY BRANCH", "designationCode": "C", "categoryCode": "59", "address": "204 ELM STREET WEST", "city": "SUDBURY", "province": "ON", "country": "CA", "postalCode": "P3C1V3", "twitter": "None", "instagram": "None", "facebook": "None", "youtube": "None", "website": "None", "summary": "None", "logo": "None", "latitude": 46.493191985670514, "longitude": -81.0031727540552}, "119231306RR0001": {"name": "THE ELIZABETH FRY SOCIETY, TORONTO BRANCH", "designationCode": "C", "categoryCode": "59", "address": "215 WELLESLEY STREET EAST", "city": "TORONTO", "province": "ON", "country": "CA", "postalCode": "M4X1G1", "twitter": "None", "instagram": "None", "facebook": "None", "youtube": "None", "website": "None", "summary": "None", "logo": "None", "latitude": 43.66737890755397, "longitude": -79.37305765860704}, "131580607RR0001": {"name": "THE ELIZABETH GREENSHIELDS FOUNDATION / LA FONDATION ELIZABETH GREENSHIELDS", "designationCode": "C", "categoryCode": "22", "address": "1814 SHERBROOKE ST WEST", "city": "MONTREAL", "province": "QC", "country": "CA", "postalCode": "H3H1E4", "twitter": "None", "instagram": "None", "facebook": "None", "youtube": "None", "website": "None", "summary": "None", "logo": "None", "latitude": 45.49540635247283, "longitude": -73.58273879736299}, "894717222RR0001": {"name": "THE ELIZABETH HOUSE FOUNDATION/LA FONDATION MAISON ELIZABETH", "designationCode": "A", "categoryCode": "03", "address": "2131 MARLOWE AVE.", "city": "MONTREAL", "province": "QC", "country": "CA", "postalCode": "H4A3L4", "twitter": "None", "instagram": "None", "facebook": "None", "youtube": "None", "website": "None", "summary": "None", "logo": "None", "latitude": 45.47503418486342, "longitude": -73.60706069926147}, "119231355RR0001": {"name": "THE ELIZABETH M CROWE MEMORIAL HOSPITAL GUILD", "designationCode": "C", "categoryCode": "19", "address": "BOX 474", "city": "ERIKSDALE", "province": "MB", "country": "CA", "postalCode": "R0C0W0", "twitter": "None", "instagram": "None", "facebook": "None", "youtube": "None", "website": "None", "summary": "None", "logo": "None", "latitude": 50.86375000000004, "longitude": -98.11142999999998}, "892799560RR0001": {"name": "THE ELK ISLAND PUBLIC SCHOOLS REGIONAL DIVISION NO. 14", "designationCode": "C", "categoryCode": "21", "address": "683 WYE ROAD", "city": "SHERWOOD PARK", "province": "AB", "country": "CA", "postalCode": "T8B1N2", "twitter": "None", "instagram": "None", "facebook": "None", "youtube": "None", "website": "None", "summary": "None", "logo": "None", "latitude": 53.51195096477484, "longitude": -113.27361003522516}, "852555473RR0001": {"name": "THE ELLA AND ARTHUR HOSACK FOUNDATION", "designationCode": "B", "categoryCode": "05", "address": "1402 - 1 KING ST W", "city": "HAMILTON", "province": "ON", "country": "CA", "postalCode": "L8P1A4", "twitter": "None", "instagram": "None", "facebook": "None", "youtube": "None", "website": "None", "summary": "None", "logo": "None", "latitude": 43.26019321073324, "longitude": -79.88135629363086}, "895612240RR0001": {"name": "THE ELLA MANUEL TRUST", "designationCode": "B", "categoryCode": "25", "address": "3 PRINCE ST.", "city": "WOLFVILLE", "province": "NS", "country": "CA", "postalCode": "B4P1P7", "twitter": "None", "instagram": "None", "facebook": "None", "youtube": "None", "website": "None", "summary": "None", "logo": "None", "latitude": 45.08671560892157, "longitude": -64.37414762891687}, "890253263RR0001": {"name": "THE ELLIOT LAKE PALLIATIVE CARE PROGRAM", "designationCode": "C", "categoryCode": "09", "address": "70 SPINE ROAD", "city": "ELLIOT LAKE", "province": "ON", "country": "CA", "postalCode": "P5A1X2", "twitter": "None", "instagram": "None", "facebook": "None", "youtube": "None", "website": "None", "summary": "None", "logo": "None", "latitude": 46.384222570120436, "longitude": -82.66114913455425}, "131454621RR0001": {"name": "THE ELLIOTT", "designationCode": "C", "categoryCode": "01", "address": "170 METCALFE ST", "city": "GUELPH", "province": "ON", "country": "CA", "postalCode": "N1E4Y3", "twitter": "None", "instagram": "None", "facebook": "None", "youtube": "None", "website": "None", "summary": "None", "logo": "None", "latitude": 43.558279538973, "longitude": -80.25144152265963}, "119231405RR0001": {"name": "THE ELMER ISELER SINGERS", "designationCode": "C", "categoryCode": "22", "address": "16428 THE GORE RD.", "city": "CALEDON EAST", "province": "ON", "country": "CA", "postalCode": "L7C3E6", "twitter": "None", "instagram": "None", "facebook": "None", "youtube": "None", "website": "None", "summary": "None", "logo": "None", "latitude": 43.90633870301238, "longitude": -79.84592935403069}, "890627540RR0001": {"name": "THE ELMIRA KIWANIS CLUB TRUST", "designationCode": "C", "categoryCode": "65", "address": "10 ANITA DRIVE", "city": "ST CLEMENTS", "province": "ON", "country": "CA", "postalCode": "N0B2M0", "twitter": "None", "instagram": "None", "facebook": "None", "youtube": "None", "website": "None", "summary": "None", "logo": "None", "latitude": 43.52437086565879, "longitude": -80.64417294930492}, "869480327RR0001": {"name": "THE ELORA AND FERGUS UNITARIAN UNIVERSALIST CHURCH", "designationCode": "C", "categoryCode": "39", "address": "BOX 3", "city": "FERGUS", "province": "ON", "country": "CA", "postalCode": "N1M2W7", "twitter": "None", "instagram": "None", "facebook": "None", "youtube": "None", "website": "None", "summary": "None", "logo": "None", "latitude": 43.705428000000055, "longitude": -80.37816199999993}, "138373196RR0001": {"name": "THE ELORA CENTRE FOR ENVIRONMENTAL EXCELLENCE", "designationCode": "C", "categoryCode": "59", "address": "75 MELVILLE ST.", "city": "ELORA", "province": "ON", "country": "CA", "postalCode": "N0B1S0", "twitter": "None", "instagram": "None", "facebook": "None", "youtube": "None", "website": "None", "summary": "None", "logo": "None", "latitude": 43.68345118483464, "longitude": -80.42725584615418}, "105210082RR0001": {"name": "THE ELORA CO-OPERATIVE PRE-SCHOOL INC.", "designationCode": "C", "categoryCode": "20", "address": "75A GEDDES STREET", "city": "ELORA", "province": "ON", "country": "CA", "postalCode": "N0B1S0", "twitter": "None", "instagram": "None", "facebook": "None", "youtube": "None", "website": "None", "summary": "None", "logo": "None", "latitude": 43.68273109238849, "longitude": -80.4293528975606}, "118898295RR0001": {"name": "THE ELSA WILD ANIMAL APPEAL OF CANADA", "designationCode": "C", "categoryCode": "52", "address": "BOX 45051 2482 YONGE STREET", "city": "TORONTO", "province": "ON", "country": "CA", "postalCode": "M4P3E3", "twitter": "None", "instagram": "None", "facebook": "None", "youtube": "None", "website": "None", "summary": "None", "logo": "None", "latitude": 43.71162704440534, "longitude": -79.39943792910715}, "870584745RR0001": {"name": "THE ELSTON CHARITABLE FOUNDATION", "designationCode": "B", "categoryCode": "03", "address": "6 TORONTO STREET              SUITE 1201", "city": "BARRIE", "province": "ON", "country": "CA", "postalCode": "L4N9R2", "twitter": "None", "instagram": "None", "facebook": "None", "youtube": "None", "website": "None", "summary": "None", "logo": "None", "latitude": 44.385755480148916, "longitude": -79.69161450556858}, "869228932RR0001": {"name": "THE ELVIS SIGHTING SOCIETY", "designationCode": "A", "categoryCode": "03", "address": "58 CLEGG STREET", "city": "OTTAWA", "province": "ON", "country": "CA", "postalCode": "K1S0H8", "twitter": "None", "instagram": "None", "facebook": "None", "youtube": "None", "website": "None", "summary": "None", "logo": "None", "latitude": 45.40573158921474, "longitude": -75.67759330723074}, "871498341RR0001": {"name": "THE EMBASSY OF THE KINGDOM OF GOD", "designationCode": "C", "categoryCode": "36", "address": "416 TAUNTON ROAD WEST R.R.# 1", "city": "OSHAWA", "province": "ON", "country": "CA", "postalCode": "L1H7K4", "twitter": "None", "instagram": "None", "facebook": "None", "youtube": "None", "website": "None", "summary": "None", "logo": "None", "latitude": 43.939988542400975, "longitude": -78.84745428799515}, "866510746RR0001": {"name": "THE EMBODIED CHURCH OF CHRIST", "designationCode": "C", "categoryCode": "39", "address": "910-1268 BROADWAY W", "city": "VANCOUVER", "province": "BC", "country": "CA", "postalCode": "V6H1G6", "twitter": "None", "instagram": "None", "facebook": "None", "youtube": "None", "website": "None", "summary": "None", "logo": "None", "latitude": 49.263445521207395, "longitude": -123.13279205398464}, "869067199RR0001": {"name": "THE EMILY LAUREN TRUST FOR WORLD HUNGER INC", "designationCode": "B", "categoryCode": "03", "address": "1 APPEL BY DRIVE", "city": "ST.CATHARINES", "province": "ON", "country": "CA", "postalCode": "L2M3A5", "twitter": "None", "instagram": "None", "facebook": "None", "youtube": "None", "website": "None", "summary": "None", "logo": "None"}, "122307150RR0001": {"name": "THE EMPRESS THEATRE SOCIETY", "designationCode": "C", "categoryCode": "22", "address": "BOX 99", "city": "FORT MACLEOD", "province": "AB", "country": "CA", "postalCode": "T0L0Z0", "twitter": "None", "instagram": "None", "facebook": "None", "youtube": "None", "website": "None", "summary": "None", "logo": "None", "latitude": 49.72081000000003, "longitude": -113.42989999999998}, "843090747RR0001": {"name": "THE EN ROUTE FOUNDATION/LA FONDATION EN ROUTE", "designationCode": "C", "categoryCode": "39", "address": "1857 DE MAISONNEUVE BLVD. WESTSUITE 314", "city": "MONTREAL", "province": "QC", "country": "CA", "postalCode": "H3H1J9", "twitter": "None", "instagram": "None", "facebook": "None", "youtube": "None", "website": "None", "summary": "None", "logo": "None", "latitude": 45.49389958979164, "longitude": -73.58138263878462}, "119231496RR0001": {"name": "THE ENDOWMENT COMMITTEE OF THE ANGLICAN CHURCH OF CANADA", "designationCode": "C", "categoryCode": "49", "address": "625 CHURCH STREET, SUITE 401", "city": "TORONTO", "province": "ON", "country": "CA", "postalCode": "M4Y2G1", "twitter": "None", "instagram": "None", "facebook": "None", "youtube": "None", "website": "None", "summary": "None", "logo": "None", "latitude": 43.66983358979165, "longitude": -79.38260997082944}, "893356964RR0001": {"name": "THE ENDOWMENT FOUNDATION OF THE CHILLIWACK FAMILY YMCA", "designationCode": "B", "categoryCode": "43", "address": "45855 HOCKING AVENUE", "city": "CHILLIWACK", "province": "BC", "country": "CA", "postalCode": "V2P1B4", "twitter": "None", "instagram": "None", "facebook": "None", "youtube": "None", "website": "None", "summary": "None", "logo": "None", "latitude": 49.158756801281555, "longitude": -121.9557088553203}, "867572281RR0001": {"name": "THE ENDOWMENT FUND OF THE UNITED WAY OF CENTRAL N.B. INC./FONDS DE DOTATON DE LA CENTRAIDE-REGION DU CENTRE DU N-B. INC.", "designationCode": "A", "categoryCode": "03", "address": "1-385 ROUTE WILSEY ROAD", "city": "FREDERICTON", "province": "NB", "country": "CA", "postalCode": "E3B5N6", "twitter": "None", "instagram": "None", "facebook": "None", "youtube": "None", "website": "None", "summary": "None", "logo": "None", "latitude": 45.91996098831772, "longitude": -66.61994486219359}, "859920019RR0001": {"name": "THE ENGINEERING INSTITUTE OF CANADA FUND", "designationCode": "C", "categoryCode": "21", "address": "PO BOX 40140                  RPO BANK HUNT CLUB", "city": "OTTAWA", "province": "ON", "country": "CA", "postalCode": "K1V0W8", "twitter": "None", "instagram": "None", "facebook": "None", "youtube": "None", "website": "None", "summary": "None", "logo": "None", "latitude": 45.342552216481316, "longitude": -75.6737003404187}, "896064730RR0001": {"name": "THE ENGINEERING TECHNOLOGY SCHOLARSHIP FOUNDATION OF ALBERTA", "designationCode": "C", "categoryCode": "21", "address": "1630 10020 101A AVE NW", "city": "EDMONTON", "province": "AB", "country": "CA", "postalCode": "T5J3G2", "twitter": "None", "instagram": "None", "facebook": "None", "youtube": "None", "website": "None", "summary": "None", "logo": "None", "latitude": 53.54220282138859, "longitude": -113.49142139891461}, "867203481RR0001": {"name": "THE ENGLEHART GOSPEL HALL", "designationCode": "C", "categoryCode": "47", "address": "P.O. BOX 902", "city": "ENGLEHART", "province": "ON", "country": "CA", "postalCode": "P0J1H0", "twitter": "None", "instagram": "None", "facebook": "None", "youtube": "None", "website": "None", "summary": "None", "logo": "None", "latitude": 47.81686000000008, "longitude": -79.86639999999994}, "119231538RR0001": {"name": "THE ENGLEHART HIGH SCHOOL FUND", "designationCode": "C", "categoryCode": "21", "address": "PO BOX 130", "city": "ENGLEHART", "province": "ON", "country": "CA", "postalCode": "P0J1H0", "twitter": "None", "instagram": "None", "facebook": "None", "youtube": "None", "website": "None", "summary": "None", "logo": "None", "latitude": 47.81686000000008, "longitude": -79.86639999999994}, "119272862RR0001": {"name": "THE ENOCH TURNER SCHOOLHOUSE FOUNDATION", "designationCode": "C", "categoryCode": "52", "address": "106 TRINITY STREET", "city": "TORONTO", "province": "ON", "country": "CA", "postalCode": "M5A3C6", "twitter": "None", "instagram": "None", "facebook": "None", "youtube": "None", "website": "None", "summary": "None", "logo": "None", "latitude": 43.65298176712458, "longitude": -79.36133223760729}, "852066778RR0001": {"name": "THE ENVIRONMENTAL ARTWORKS FOUNDATION OF ALBERTA", "designationCode": "C", "categoryCode": "21", "address": "#102, 2528 ELLWOOD DRIVE SW", "city": "EDMONTON", "province": "AB", "country": "CA", "postalCode": "T6X0A9", "twitter": "None", "instagram": "None", "facebook": "None", "youtube": "None", "website": "None", "summary": "None", "logo": "None", "latitude": 53.43010442052661, "longitude": -113.4734041760523}, "860591395RR0001": {"name": "THE EPICURE FOUNDATION INC.", "designationCode": "B", "categoryCode": "03", "address": "10555 WEST SAANICH RD", "city": "VICTORIA", "province": "BC", "country": "CA", "postalCode": "V8L6A8", "twitter": "None", "instagram": "None", "facebook": "None", "youtube": "None", "website": "None", "summary": "None", "logo": "None", "latitude": 48.66897270854042, "longitude": -123.45779370854042}, "119231553RR0001": {"name": "THE EPILEPSY ASSOCIATION OF NOVA SCOTIA", "designationCode": "C", "categoryCode": "11", "address": "5880 SPRING GARDEN ROAD       SUITE 306", "city": "HALIFAX", "province": "NS", "country": "CA", "postalCode": "B3H1Y1", "twitter": "None", "instagram": "None", "facebook": "None", "youtube": "None", "website": "None", "summary": "None", "logo": "None", "latitude": 44.64101495862442, "longitude": -63.58434437870052}, "893503888RR0001": {"name": "THE EQUINE FOUNDATION OF CANADA", "designationCode": "C", "categoryCode": "54", "address": "P.O. BOX 2018", "city": "WINDSOR", "province": "NS", "country": "CA", "postalCode": "B0N2T0", "twitter": "None", "instagram": "None", "facebook": "None", "youtube": "None", "website": "None", "summary": "None", "logo": "None", "latitude": 44.990170000000035, "longitude": -64.12904999999995}, "864989207RR0001": {"name": "THE ERAMOSA INSTITUTE", "designationCode": "B", "categoryCode": "59", "address": "14254-1ST LINE                NASSAGAWEYA", "city": "GUELPH", "province": "ON", "country": "CA", "postalCode": "N1H6H8", "twitter": "None", "instagram": "None", "facebook": "None", "youtube": "None", "website": "None", "summary": "None", "logo": "None", "latitude": 43.58550300000006, "longitude": -80.17301599999993}, "889997375RR0001": {"name": "THE ERIC AND JACK WELLS FOUNDATION", "designationCode": "C", "categoryCode": "21", "address": "245 RITA ST", "city": "WINNIPEG", "province": "MB", "country": "CA", "postalCode": "R3J2Y3", "twitter": "None", "instagram": "None", "facebook": "None", "youtube": "None", "website": "None", "summary": "None", "logo": "None", "latitude": 49.87727817707313, "longitude": -97.2576308162331}, "119231603RR0001": {"name": "THE ERIN UNION CEMETERY IMPROVEMENT FUND", "designationCode": "C", "categoryCode": "59", "address": "BOX 734", "city": "ERIN", "province": "ON", "country": "CA", "postalCode": "N0B1T0", "twitter": "None", "instagram": "None", "facebook": "None", "youtube": "None", "website": "None", "summary": "None", "logo": "None", "latitude": 43.758004500000006, "longitude": -80.07697350000001}, "875714222RR0001": {"name": "THE ERNEST AND HELEN SINGER FAMILY FOUNDATION", "designationCode": "B", "categoryCode": "05", "address": "369 RIMROCK ROAD", "city": "TORONTO", "province": "ON", "country": "CA", "postalCode": "M3J3G2", "twitter": "None", "instagram": "None", "facebook": "None", "youtube": "None", "website": "None", "summary": "None", "logo": "None", "latitude": 43.75643484147987, "longitude": -79.47066539895562}, "119231611RR0001": {"name": "THE ERNEST ANGLEY EVANGELISTIC CRUSADES INC", "designationCode": "C", "categoryCode": "47", "address": "BOX 970, STATION U", "city": "TORONTO", "province": "ON", "country": "CA", "postalCode": "M8Z5P9", "twitter": "None", "instagram": "None", "facebook": "None", "youtube": "None", "website": "None", "summary": "None", "logo": "None", "latitude": 43.64439900000005, "longitude": -79.56714049999994}, "119720522RR0001": {"name": "THE ERNST HANSCH FOUNDATION INC", "designationCode": "B", "categoryCode": "03", "address": "ONE TERRACON PLACE", "city": "WINNIPEG", "province": "MB", "country": "CA", "postalCode": "R2J4B3", "twitter": "None", "instagram": "None", "facebook": "None", "youtube": "None", "website": "None", "summary": "None", "logo": "None", "latitude": 49.890321000000014, "longitude": -97.0596765}, "891579948RR0001": {"name": "THE ERROL BARROW MEMORIAL TRUST OF CANADA", "designationCode": "C", "categoryCode": "21", "address": "P.O. BOX 51056", "city": "BILBERRY VILLAGE", "province": "ON", "country": "CA", "postalCode": "K1E3W4", "twitter": "None", "instagram": "None", "facebook": "None", "youtube": "None", "website": "None", "summary": "None", "logo": "None", "latitude": 50.40749000000005, "longitude": -4.788469999999961}, "861356178RR0001": {"name": "THE ESCH FOUNDATION", "designationCode": "B", "categoryCode": "03", "address": "3 RESTWELL CRESCENT", "city": "TORONTO", "province": "ON", "country": "CA", "postalCode": "M2K2A1", "twitter": "None", "instagram": "None", "facebook": "None", "youtube": "None", "website": "None", "summary": "None", "logo": "None", "latitude": 43.78049891144912, "longitude": -79.38004570246412}, "123796070RR0001": {"name": "THE ESPANOLA PUBLIC LIBRARY BOARD", "designationCode": "C", "categoryCode": "50", "address": "245 AVERY DR", "city": "ESPANOLA", "province": "ON", "country": "CA", "postalCode": "P5E1S4", "twitter": "None", "instagram": "None", "facebook": "None", "youtube": "None", "website": "None", "summary": "None", "logo": "None", "latitude": 46.26000590361622, "longitude": -81.76850597951345}, "122584782RR0001": {"name": "THE ESPRIT ORCHESTRA / L'ORCHESTRE ESPRIT", "designationCode": "C", "categoryCode": "22", "address": "511-174 SPADINA AVE", "city": "TORONTO", "province": "ON", "country": "CA", "postalCode": "M5T2C2", "twitter": "None", "instagram": "None", "facebook": "None", "youtube": "None", "website": "None", "summary": "None", "logo": "None", "latitude": 43.64938821036998, "longitude": -79.3967658597435}, "810167270RR0001": {"name": "THE ESQUIRE CHARITABLE FOUNDATION", "designationCode": "B", "categoryCode": "05", "address": "4116 BATHURST STREET", "city": "TORONTO", "province": "ON", "country": "CA", "postalCode": "M3H3P2", "twitter": "None", "instagram": "None", "facebook": "None", "youtube": "None", "website": "None", "summary": "None", "logo": "None", "latitude": 43.74644801304175, "longitude": -79.43630741897958}, "888398864RR0001": {"name": "THE ESSEX AND KENT SCOTTISH REGIMENT ASSOCIATION", "designationCode": "C", "categoryCode": "51", "address": "4007 SANDWICH ST.", "city": "WINDSOR", "province": "ON", "country": "CA", "postalCode": "N9C1C3", "twitter": "None", "instagram": "None", "facebook": "None", "youtube": "None", "website": "None", "summary": "None", "logo": "None", "latitude": 42.287397776986, "longitude": -83.08452714687456}, "864062252RR0001": {"name": "THE ESTERHAZY & DISTRICT CHARITY GOLF CLASSIC INC.", "designationCode": "A", "categoryCode": "13", "address": "P.O. BOX 820", "city": "ESTERHAZY", "province": "SK", "country": "CA", "postalCode": "S0A0X0", "twitter": "None", "instagram": "None", "facebook": "None", "youtube": "None", "website": "None", "summary": "None", "logo": "None", "latitude": 50.65157000000005, "longitude": -102.05784999999997}, "119231702RR0001": {"name": "THE ESTEVAN AND DISTRICT MUSIC FESTIVAL ASSOCIATION", "designationCode": "C", "categoryCode": "22", "address": "2012 NICHOLSON RD", "city": "ESTEVAN", "province": "SK", "country": "CA", "postalCode": "S4A2W3", "twitter": "None", "instagram": "None", "facebook": "None", "youtube": "None", "website": "None", "summary": "None", "logo": "None", "latitude": 49.155278085161655, "longitude": -102.99637926243902}, "886938398RR0001": {"name": "THE ESTHER AND BERNARD BESNER FAMILY FOUNDATION/LA FONDATION FAMILIALE ESTHER ET BERNARD BESNER", "designationCode": "B", "categoryCode": "53", "address": "50 PRINCE ARTHER AVE          UNIT 1004", "city": "TORONTO", "province": "ON", "country": "CA", "postalCode": "M5R1B5", "twitter": "None", "instagram": "None", "facebook": "None", "youtube": "None", "website": "None", "summary": "None", "logo": "None", "latitude": 43.669146161838356, "longitude": -79.39848752873787}, "130238975RR0001": {"name": "THE ESTHER HONENS INTERNATIONAL PIANO COMPETITION FOUNDATION", "designationCode": "C", "categoryCode": "22", "address": "888 10 ST SW", "city": "CALGARY", "province": "AB", "country": "CA", "postalCode": "T2P2X1", "twitter": "None", "instagram": "None", "facebook": "None", "youtube": "None", "website": "None", "summary": "None", "logo": "None", "latitude": 51.04532988252603, "longitude": -114.08615182392457}, "119231710RR0001": {"name": "THE ESTHERELKE TANENBAUM CHARITABLE FOUNDATION", "designationCode": "B", "categoryCode": "03", "address": "1051 TAPSCOTT ROAD", "city": "SCARBOROUGH", "province": "ON", "country": "CA", "postalCode": "M1X1A1", "twitter": "None", "instagram": "None", "facebook": "None", "youtube": "None", "website": "None", "summary": "None", "logo": "None", "latitude": 43.82487783461231, "longitude": -79.24262752622865}, "108081563RR0001": {"name": "THE ETERNITY CLUB", "designationCode": "C", "categoryCode": "47", "address": "5608 INMAN AVE", "city": "BURNABY", "province": "BC", "country": "CA", "postalCode": "V5H2L7", "twitter": "None", "instagram": "None", "facebook": "None", "youtube": "None", "website": "None", "summary": "None", "logo": "None", "latitude": 49.233765214078865, "longitude": -123.01576136700972}, "107352411RR0001": {"name": "THE ETOBICOKE CHILDREN'S CENTRE", "designationCode": "C", "categoryCode": "21", "address": "65 HARTSDALE DRIVE", "city": "ETOBICOKE", "province": "ON", "country": "CA", "postalCode": "M9R2S8", "twitter": "None", "instagram": "None", "facebook": "None", "youtube": "None", "website": "None", "summary": "None", "logo": "None", "latitude": 43.68348150011556, "longitude": -79.54551690671725}, "870790318RR0001": {"name": "THE ETOBICOKE CHURCH OF GOD (SEVENTH DAY)", "designationCode": "C", "categoryCode": "39", "address": "46 - 8500 TORBRAM RD", "city": "BRAMPTON", "province": "ON", "country": "CA", "postalCode": "L6T5C6", "twitter": "None", "instagram": "None", "facebook": "None", "youtube": "None", "website": "None", "summary": "None", "logo": "None", "latitude": 43.724002873968665, "longitude": -79.69310875538089}, "861010338RR0001": {"name": "THE ETTA I. JACKSON CHARITABLE FOUNDATION", "designationCode": "B", "categoryCode": "05", "address": "1789 SHERWOOD FORREST CIRCLE", "city": "MISSISSAUGA", "province": "ON", "country": "CA", "postalCode": "L5K2H7", "twitter": "None", "instagram": "None", "facebook": "None", "youtube": "None", "website": "None", "summary": "None", "logo": "None", "latitude": 43.53964740769821, "longitude": -79.65672000141365}, "119231777RR0001": {"name": "THE EUGENE AND EVA KOHN FAMILY FOUNDATION", "designationCode": "B", "categoryCode": "03", "address": "272 LAWRENCE AVENUE WEST      3RD FLOOR", "city": "TORONTO", "province": "ON", "country": "CA", "postalCode": "M5M4M1", "twitter": "None", "instagram": "None", "facebook": "None", "youtube": "None", "website": "None", "summary": "None", "logo": "None", "latitude": 43.72258909576425, "longitude": -79.41416779753588}, "891161879RR0001": {"name": "THE EUGENE AND IRENE LARUE MEMORIAL TRUST FUND", "designationCode": "C", "categoryCode": "21", "address": "BOX 1485", "city": "GOLDEN", "province": "BC", "country": "CA", "postalCode": "V0A1H0", "twitter": "None", "instagram": "None", "facebook": "None", "youtube": "None", "website": "None", "summary": "None", "logo": "None", "latitude": 51.30019925579286, "longitude": -117.05412925860504}, "132479452RR0001": {"name": "THE EVA LEFLAR FOUNDATION", "designationCode": "B", "categoryCode": "03", "address": "245 STRAUSBURG ROAD           P.O. BOX 46028", "city": "KITCHENER", "province": "ON", "country": "CA", "postalCode": "N2E4J3", "twitter": "None", "instagram": "None", "facebook": "None", "youtube": "None", "website": "None", "summary": "None", "logo": "None", "latitude": 43.42534503364262, "longitude": -80.49033277938784}, "108081597RR0001": {"name": "THE EVANGELICAL ALLIANCE MISSION OF CANADA, INC.", "designationCode": "C", "categoryCode": "47", "address": "372 - 16 MIDLAKE BLVD SE", "city": "CALGARY", "province": "AB", "country": "CA", "postalCode": "T2X2X7", "twitter": "None", "instagram": "None", "facebook": "None", "youtube": "None", "website": "None", "summary": "None", "logo": "None", "latitude": 50.91340186908539, "longitude": -114.06756765524156}, "893397364RR0001": {"name": "THE EVANGELICAL CHRISTIAN ASSOCIATION OF DURHAM", "designationCode": "C", "categoryCode": "20", "address": "162 ROSSLAND RD EAST", "city": "AJAX", "province": "ON", "country": "CA", "postalCode": "L1T4V2", "twitter": "None", "instagram": "None", "facebook": "None", "youtube": "None", "website": "None", "summary": "None", "logo": "None", "latitude": 43.88031720295414, "longitude": -79.0250374883719}, "130929862RR0001": {"name": "THE EVANGELICAL CHRISTIAN EDUCATION ASSOCIATION OF SCARBOROUGH", "designationCode": "C", "categoryCode": "20", "address": "675 SHEPPARD AVE E", "city": "NORTH YORK", "province": "ON", "country": "CA", "postalCode": "M2K1B6", "twitter": "None", "instagram": "None", "facebook": "None", "youtube": "None", "website": "None", "summary": "None", "logo": "None", "latitude": 43.768685812049526, "longitude": -79.37894515762609}, "118781699RR0001": {"name": "THE EVANGELICAL COVENANT CHURCH OF CANADA", "designationCode": "C", "categoryCode": "39", "address": "PO BOX 23117                  RPO MCGILLIVRAY", "city": "WINNIPEG", "province": "MB", "country": "CA", "postalCode": "R3T5S3", "twitter": "None", "instagram": "None", "facebook": "None", "youtube": "None", "website": "None", "summary": "None", "logo": "None", "latitude": 49.829843329955445, "longitude": -97.18019128324278}, "107353773RR0001": {"name": "THE EVANGELICAL COVENANT CHURCH OF MINNEDOSA, MANITOBA", "designationCode": "C", "categoryCode": "39", "address": "BOX 828", "city": "MINNEDOSA", "province": "MB", "country": "CA", "postalCode": "R0J1E0", "twitter": "None", "instagram": "None", "facebook": "None", "youtube": "None", "website": "None", "summary": "None", "logo": "None", "latitude": 50.35204290882316, "longitude": -100.20187636199029}, "107353922RR0001": {"name": "THE EVANGELICAL FELLOWSHIP OF CANADA/ALLIANCE \u00c9VANG\u00c9LIQUE DU CANADA", "designationCode": "C", "categoryCode": "39", "address": "103-9821 LESLIE ST", "city": "RICHMOND HILL", "province": "ON", "country": "CA", "postalCode": "L4B3Y4", "twitter": "None", "instagram": "None", "facebook": "None", "youtube": "None", "website": "None", "summary": "None", "logo": "None", "latitude": 43.87586799085341, "longitude": -79.39031800989734}, "119231835RR0001": {"name": "THE EVANGELICAL FREE CHURCH OF BIG RIVER INC.", "designationCode": "C", "categoryCode": "39", "address": "BOX 148", "city": "BIG RIVER", "province": "SK", "country": "CA", "postalCode": "S0J0E0", "twitter": "None", "instagram": "None", "facebook": "None", "youtube": "None", "website": "None", "summary": "None", "logo": "None", "latitude": 53.83341000000007, "longitude": -107.01782999999995}, "118903467RR0001": {"name": "THE EVANGELICAL FREE CHURCH OF CANADA - EGLISE EVANGELIQUE LIBRE DE CANADA", "designationCode": "C", "categoryCode": "39", "address": "PO BOX 850 LANGLEY STN LCDI", "city": "LANGLEY", "province": "BC", "country": "CA", "postalCode": "V3A8S6", "twitter": "None", "instagram": "None", "facebook": "None", "youtube": "None", "website": "None", "summary": "None", "logo": "None", "latitude": 49.10435700000005, "longitude": -122.65652149999994}, "890265531RR0001": {"name": "THE EVANGELICAL FREE CHURCH OF CANADA-CANADIAN PACIFIC DISTRICT", "designationCode": "C", "categoryCode": "39", "address": "1132 8TH ST", "city": "KAMLOOPS", "province": "BC", "country": "CA", "postalCode": "V2B2Y2", "twitter": "None", "instagram": "None", "facebook": "None", "youtube": "None", "website": "None", "summary": "None", "logo": "None", "latitude": 50.706633729672795, "longitude": -120.36418932636067}, "108081647RR0001": {"name": "THE EVANGELICAL FREE CHURCH OF LAC LA BICHE", "designationCode": "C", "categoryCode": "39", "address": "BOX 1139", "city": "LAC LA BICHE", "province": "AB", "country": "CA", "postalCode": "T0A2C0", "twitter": "None", "instagram": "None", "facebook": "None", "youtube": "None", "website": "None", "summary": "None", "logo": "None", "latitude": 54.768200000000036, "longitude": -111.98244999999997}, "107354250RR0001": {"name": "THE EVANGELICAL FREE CHURCH OF LETHBRIDGE", "designationCode": "C", "categoryCode": "39", "address": "4717 24 AVE S", "city": "LETHBRIDGE", "province": "AB", "country": "CA", "postalCode": "T1K7C1", "twitter": "None", "instagram": "None", "facebook": "None", "youtube": "None", "website": "None", "summary": "None", "logo": "None", "latitude": 49.66902346970144, "longitude": -112.7694323978591}, "107354268RR0001": {"name": "THE EVANGELICAL FREE CHURCH OF ONOWAY", "designationCode": "C", "categoryCode": "39", "address": "BOX 505", "city": "ONOWAY", "province": "AB", "country": "CA", "postalCode": "T0E1V0", "twitter": "None", "instagram": "None", "facebook": "None", "youtube": "None", "website": "None", "summary": "None", "logo": "None", "latitude": 53.70302000000004, "longitude": -114.19152999999994}, "107354094RR0001": {"name": "THE EVANGELICAL FREE CHURCH OF SMITHERS", "designationCode": "C", "categoryCode": "39", "address": "PO BOX 3490", "city": "SMITHERS", "province": "BC", "country": "CA", "postalCode": "V0J2N0", "twitter": "None", "instagram": "None", "facebook": "None", "youtube": "None", "website": "None", "summary": "None", "logo": "None", "latitude": 54.78312000000005, "longitude": -127.16847999999999}, "107354029RR0001": {"name": "THE EVANGELICAL FREE CHURCH OF TABER, ALBERTA", "designationCode": "C", "categoryCode": "39", "address": "5431 48TH AVE", "city": "TABER", "province": "AB", "country": "CA", "postalCode": "T1G1S6", "twitter": "None", "instagram": "None", "facebook": "None", "youtube": "None", "website": "None", "summary": "None", "logo": "None", "latitude": 49.785429288937536, "longitude": -112.1407190985342}, "129395612RR0001": {"name": "THE EVANGELICAL LUTHERAN BROADCAST ASSOCIATION", "designationCode": "C", "categoryCode": "47", "address": "PO BOX 1717  STN MAIN", "city": "PRINCE ALBERT", "province": "SK", "country": "CA", "postalCode": "S6V5T3", "twitter": "None", "instagram": "None", "facebook": "None", "youtube": "None", "website": "None", "summary": "None", "logo": "None", "latitude": 53.199456000000055, "longitude": -105.74863099999993}, "107386906RR0001": {"name": "THE EVANGELICAL LUTHERAN CHURCH", "designationCode": "C", "categoryCode": "32", "address": "688 ELM ST", "city": "PORT COLBORNE", "province": "ON", "country": "CA", "postalCode": "L3K4R1", "twitter": "None", "instagram": "None", "facebook": "None", "youtube": "None", "website": "None", "summary": "None", "logo": "None", "latitude": 42.8965377485429, "longitude": -79.25489804154847}, "891798589RR0001": {"name": "THE EVANGELICAL LUTHERAN CHURCH OF LATVIA ABROAD", "designationCode": "C", "categoryCode": "39", "address": "5460 YONGE ST # 811", "city": "NORTH YORK", "province": "ON", "country": "CA", "postalCode": "M2N6K7", "twitter": "None", "instagram": "None", "facebook": "None", "youtube": "None", "website": "None", "summary": "None", "logo": "None"}, "130624364RR0001": {"name": "THE EVANGELICAL LUTHERAN CHURCH OF THE CROSS OF LAC DU BONNET, MANITOBA, INC.", "designationCode": "C", "categoryCode": "32", "address": "P.O. BOX 265", "city": "LAC DU BONNET", "province": "MB", "country": "CA", "postalCode": "R0E1A0", "twitter": "None", "instagram": "None", "facebook": "None", "youtube": "None", "website": "None", "summary": "None", "logo": "None", "latitude": 50.25160000000005, "longitude": -96.06180999999998}, "119231876RR0001": {"name": "THE EVANGELICAL LUTHERAN CHURCH OF THE GOOD SHEPHERD (NORTH YORK)", "designationCode": "C", "categoryCode": "32", "address": "200-1630 LAWRENCE AVENUE WEST", "city": "NORTH YORK", "province": "ON", "country": "CA", "postalCode": "M6L1C5", "twitter": "None", "instagram": "None", "facebook": "None", "youtube": "None", "website": "None", "summary": "None", "logo": "None", "latitude": 43.7055975, "longitude": -79.49102625}, "119231884RR0002": {"name": "THE EVANGELICAL LUTHERAN CHURCH OF THE REFORMATION", "designationCode": "C", "categoryCode": "32", "address": "456 KRUG ST", "city": "KITCHENER", "province": "ON", "country": "CA", "postalCode": "N2B1L1", "twitter": "None", "instagram": "None", "facebook": "None", "youtube": "None", "website": "None", "summary": "None", "logo": "None", "latitude": 43.45562847354114, "longitude": -80.46371432532146}, "130162654RR0001": {"name": "THE EVANGELICAL MENNONITE CONFERENCE", "designationCode": "C", "categoryCode": "47", "address": "440 MAIN ST", "city": "STEINBACH", "province": "MB", "country": "CA", "postalCode": "R5G1Z5", "twitter": "None", "instagram": "None", "facebook": "None", "youtube": "None", "website": "None", "summary": "None", "logo": "None", "latitude": 49.52292081272895, "longitude": -96.67953305439771}, "887240398RR0001": {"name": "THE EVANGELICAL MINISTERIAL ASSOCIATION OF KELOWNA AND DISTRICT", "designationCode": "C", "categoryCode": "47", "address": "2240 RICHTER ST", "city": "KELOWNA", "province": "BC", "country": "CA", "postalCode": "V1Y2P2", "twitter": "None", "instagram": "None", "facebook": "None", "youtube": "None", "website": "None", "summary": "None", "logo": "None", "latitude": 49.87384183236193, "longitude": -119.48826413618754}, "890790546RR0001": {"name": "THE EVANGELICAL MISSION OF CANADA", "designationCode": "C", "categoryCode": "39", "address": "1155 COLLEGE ST", "city": "TORONTO", "province": "ON", "country": "CA", "postalCode": "M6H1B7", "twitter": "None", "instagram": "None", "facebook": "None", "youtube": "None", "website": "None", "summary": "None", "logo": "None", "latitude": 43.65206882763008, "longitude": -79.43478709172489}, "119231942RR0001": {"name": "THE EVANGELICAL SISTERHOOD OF MARY", "designationCode": "C", "categoryCode": "47", "address": "RR 1", "city": "MILLET", "province": "AB", "country": "CA", "postalCode": "T0C1Z0", "twitter": "None", "instagram": "None", "facebook": "None", "youtube": "None", "website": "None", "summary": "None", "logo": "None", "latitude": 53.09068000000008, "longitude": -113.46958999999998}, "848837563RR0001": {"name": "THE EVELYN SUTHERLAND FOUNDATION", "designationCode": "A", "categoryCode": "03", "address": "POST OFFICE BOX 39", "city": "CLAIRMONT", "province": "AB", "country": "CA", "postalCode": "T0H0W0", "twitter": "None", "instagram": "None", "facebook": "None", "youtube": "None", "website": "None", "summary": "None", "logo": "None", "latitude": 55.24281600000006, "longitude": -118.80011149999993}, "118904416RR0001": {"name": "THE EVENING LIGHT TABERNACLE", "designationCode": "C", "categoryCode": "39", "address": "7500, 5TH LINE, RR3", "city": "MILTON", "province": "ON", "country": "CA", "postalCode": "L9T3X7", "twitter": "None", "instagram": "None", "facebook": "None", "youtube": "None", "website": "None", "summary": "None", "logo": "None", "latitude": 43.53340996004803, "longitude": -79.92901805700207}, "119232007RR0001": {"name": "THE EVENING TIMES-GLOBE EMPTY STOCKING FUND", "designationCode": "C", "categoryCode": "05", "address": "PO BOX 5888", "city": "SAINT JOHN", "province": "NB", "country": "CA", "postalCode": "E2L4L4", "twitter": "None", "instagram": "None", "facebook": "None", "youtube": "None", "website": "None", "summary": "None", "logo": "None", "latitude": 45.27342600000006, "longitude": -66.06407149999993}, "119232023RR0001": {"name": "THE EVERGREEN CEMETERY COMPANY", "designationCode": "C", "categoryCode": "59", "address": "8 EVERGREEN LANE              RR 1 LYNEDOCH", "city": "DELHI", "province": "ON", "country": "CA", "postalCode": "N4B2W4", "twitter": "None", "instagram": "None", "facebook": "None", "youtube": "None", "website": "None", "summary": "None", "logo": "None", "latitude": 42.800144720237725, "longitude": -80.50848000415493}, "889378469RR0001": {"name": "THE EVERGREEN FOUNDATION OF MANITOBA INC", "designationCode": "A", "categoryCode": "21", "address": "BOX 1200", "city": "GIMLI", "province": "MB", "country": "CA", "postalCode": "R0C1B0", "twitter": "None", "instagram": "None", "facebook": "None", "youtube": "None", "website": "None", "summary": "None", "logo": "None", "latitude": 50.30677349294383, "longitude": -96.92898988377391}, "886542190RR0001": {"name": "THE EVERGREEN PHILANTHROPHIC FOUNDATION", "designationCode": "B", "categoryCode": "03", "address": "50 BUCKINGHAM AVENUE", "city": "TORONTO", "province": "ON", "country": "CA", "postalCode": "M4N1R2", "twitter": "None", "instagram": "None", "facebook": "None", "youtube": "None", "website": "None", "summary": "None", "logo": "None", "latitude": 43.7262951468347, "longitude": -79.391747571614}}