{"869762179RR0001": {"name": "CARIBOO COMMUNITY CHURCH", "designationCode": "C", "categoryCode": "39", "address": "PO BOX 4625", "city": "WILLIAMS LAKE", "province": "BC", "country": "CA", "postalCode": "V2G2V6", "twitter": "None", "instagram": "None", "facebook": "None", "youtube": "None", "website": "None", "summary": "None", "logo": "None", "latitude": 52.12864500000006, "longitude": -122.14108249999992}, "816257976RR0001": {"name": "CARIBOO COUNTRY CONGREGATION", "designationCode": "C", "categoryCode": "34", "address": "8250 HWY 97 S", "city": "QUESNEL", "province": "BC", "country": "CA", "postalCode": "V2J6M4", "twitter": "None", "instagram": "None", "facebook": "None", "youtube": "None", "website": "None", "summary": "None", "logo": "None", "latitude": 53.1157719941006, "longitude": -122.35217603707655}, "133269134RR0001": {"name": "CARIBOO ELDERS BUILDING AND RECREATIONAL SOCIETY", "designationCode": "C", "categoryCode": "56", "address": "BOX 418", "city": "100 MILE HOUSE", "province": "BC", "country": "CA", "postalCode": "V0K2E0", "twitter": "None", "instagram": "None", "facebook": "None", "youtube": "None", "website": "None", "summary": "None", "logo": "None", "latitude": 51.642130000000066, "longitude": -121.29735}, "118838564RR0001": {"name": "CARIBOO FESTIVAL SOCIETY", "designationCode": "C", "categoryCode": "22", "address": "629 PINCHBECK STREET", "city": "WILLIAMS LAKE", "province": "BC", "country": "CA", "postalCode": "V2G1E6", "twitter": "None", "instagram": "None", "facebook": "None", "youtube": "None", "website": "None", "summary": "None", "logo": "None", "latitude": 52.12408177378966, "longitude": -122.13717048892016}, "118838572RR0001": {"name": "CARIBOO FOUNDATION SOCIETY", "designationCode": "C", "categoryCode": "23", "address": "201-35 SECOND AVE S", "city": "WILLIAMS LAKE", "province": "BC", "country": "CA", "postalCode": "V2G3W3", "twitter": "None", "instagram": "None", "facebook": "None", "youtube": "None", "website": "None", "summary": "None", "logo": "None", "latitude": 52.12787341326677, "longitude": -122.14392522387307}, "118838580RR0001": {"name": "CARIBOO FRIENDSHIP SOCIETY", "designationCode": "C", "categoryCode": "59", "address": "99 SOUTH 3RD AVE.", "city": "WILLIAMS LAKE", "province": "BC", "country": "CA", "postalCode": "V2G1J1", "twitter": "None", "instagram": "None", "facebook": "None", "youtube": "None", "website": "None", "summary": "None", "logo": "None", "latitude": 52.12712456924808, "longitude": -122.14233508508843}, "118838598RR0001": {"name": "CARIBOO GUR SIKH TEMPLE SOCIETY (1979)", "designationCode": "C", "categoryCode": "62", "address": "431 LEWIS DR", "city": "QUESNEL", "province": "BC", "country": "CA", "postalCode": "V2J1K4", "twitter": "None", "instagram": "None", "facebook": "None", "youtube": "None", "website": "None", "summary": "None", "logo": "None", "latitude": 52.97881704302037, "longitude": -122.51538631450141}, "890880644RR0001": {"name": "CARIBOO MEMORIAL HOSPITAL AUXILIARY", "designationCode": "C", "categoryCode": "19", "address": "BOX 4192", "city": "WILLIAMS LAKE", "province": "BC", "country": "CA", "postalCode": "V2G2V3", "twitter": "None", "instagram": "None", "facebook": "None", "youtube": "None", "website": "None", "summary": "None", "logo": "None", "latitude": 52.12864500000006, "longitude": -122.14108249999992}, "864157011RR0001": {"name": "CARIBOO PARK HOME SOCIETY", "designationCode": "C", "categoryCode": "09", "address": "564 OLIVER ST", "city": "WILLIAMS LAKE", "province": "BC", "country": "CA", "postalCode": "V2G1M6", "twitter": "None", "instagram": "None", "facebook": "None", "youtube": "None", "website": "None", "summary": "None", "logo": "None", "latitude": 52.12829945772945, "longitude": -122.138811}, "889905998RR0001": {"name": "CARIBOO PIONEER CENTRE, LAC LA HACHE, B.C. O.A.P.O. #176", "designationCode": "C", "categoryCode": "56", "address": "PO BOX 358", "city": "LAC LA HACHE", "province": "BC", "country": "CA", "postalCode": "V0K1T0", "twitter": "None", "instagram": "None", "facebook": "None", "youtube": "None", "website": "None", "summary": "None", "logo": "None", "latitude": 51.79343022298423, "longitude": -121.47023582588706}, "131603581RR0001": {"name": "CARIBOO PRESBYTERIAN CHURCH", "designationCode": "C", "categoryCode": "37", "address": "301 - 19 FIRST AVE N", "city": "WILLIAMS LAKE", "province": "BC", "country": "CA", "postalCode": "V2G4T6", "twitter": "None", "instagram": "None", "facebook": "None", "youtube": "None", "website": "None", "summary": "None", "logo": "None", "latitude": 52.131830989328996, "longitude": -122.1463665741735}, "118904010RR0001": {"name": "CARIBOO ROAD CHRISTIAN FELLOWSHIP SOCIETY", "designationCode": "C", "categoryCode": "39", "address": "7200 CARIBOO RD", "city": "BURNABY", "province": "BC", "country": "CA", "postalCode": "V3N4A7", "twitter": "None", "instagram": "None", "facebook": "None", "youtube": "None", "website": "None", "summary": "None", "logo": "None", "latitude": 49.24379569340032, "longitude": -122.90975529213488}, "864693890RR0001": {"name": "CARIBOU BETHEL CHURCH", "designationCode": "C", "categoryCode": "34", "address": "833 WESTERN AVE", "city": "WILLIAMS LAKE", "province": "BC", "country": "CA", "postalCode": "V2G2J5", "twitter": "None", "instagram": "None", "facebook": "None", "youtube": "None", "website": "None", "summary": "None", "logo": "None", "latitude": 52.14331778100302, "longitude": -122.14523844895821}, "130313224RR0001": {"name": "CARIBOU DISTRICT FIRE DEPARTMENT", "designationCode": "C", "categoryCode": "59", "address": "512 THREE BROOKS ROAD, RR#3", "city": "PICTOU", "province": "NS", "country": "CA", "postalCode": "B0K1H0", "twitter": "None", "instagram": "None", "facebook": "None", "youtube": "None", "website": "None", "summary": "None", "logo": "None", "latitude": 45.72263252842076, "longitude": -62.748902970165595}, "118838663RR0001": {"name": "CARIBOU RIVER COMMUNITY CLUB", "designationCode": "C", "categoryCode": "56", "address": "5980 HIGHWAY 6                RR # 3", "city": "PICTOU", "province": "NS", "country": "CA", "postalCode": "B0K1H0", "twitter": "None", "instagram": "None", "facebook": "None", "youtube": "None", "website": "None", "summary": "None", "logo": "None", "latitude": 45.75330058413293, "longitude": -62.829328648363365}, "118838689RR0001": {"name": "CARIEVALE UNITED CHURCH", "designationCode": "C", "categoryCode": "44", "address": "BOX 29", "city": "CARIEVALE", "province": "SK", "country": "CA", "postalCode": "S0C0P0", "twitter": "None", "instagram": "None", "facebook": "None", "youtube": "None", "website": "None", "summary": "None", "logo": "None", "latitude": 49.16674000000006, "longitude": -101.63417999999996}, "894217785RR0001": {"name": "CARING AND SHARING - ANGEL TREE", "designationCode": "C", "categoryCode": "09", "address": "2-50 OLD ENFIELD RD", "city": "ENFIELD", "province": "NS", "country": "CA", "postalCode": "B2T1C9", "twitter": "None", "instagram": "None", "facebook": "None", "youtube": "None", "website": "None", "summary": "None", "logo": "None", "latitude": 44.945164524017066, "longitude": -63.53715521246447}, "138983697RR0001": {"name": "CARING FRIENDS ACTIVITY CENTRE", "designationCode": "C", "categoryCode": "09", "address": "24 PRINCESS STREET", "city": "MIRAMICHI", "province": "NB", "country": "CA", "postalCode": "E1N2K2", "twitter": "None", "instagram": "None", "facebook": "None", "youtube": "None", "website": "None", "summary": "None", "logo": "None", "latitude": 47.03344921980502, "longitude": -65.46385387067909}, "896312956RR0001": {"name": "CARING HANDS OF JESUS CHARITABLE SOCIETY OF CALGARY", "designationCode": "C", "categoryCode": "49", "address": "1043 COVENTRY DR NE", "city": "CALGARY", "province": "AB", "country": "CA", "postalCode": "T3K4P2", "twitter": "None", "instagram": "None", "facebook": "None", "youtube": "None", "website": "None", "summary": "None", "logo": "None", "latitude": 51.16415525728547, "longitude": -114.04299358924338}, "859324279RR0001": {"name": "CARING KINDNESS CHARITABLE ORGANIZATION", "designationCode": "C", "categoryCode": "09", "address": "201 BRIDGELAND AVENUE", "city": "TORONTO", "province": "ON", "country": "CA", "postalCode": "M6A1Y7", "twitter": "None", "instagram": "None", "facebook": "None", "youtube": "None", "website": "None", "summary": "None", "logo": "None", "latitude": 43.724679896445465, "longitude": -79.46720435899367}, "828221960RR0001": {"name": "CARING PARTNERS GLOBAL INC.", "designationCode": "C", "categoryCode": "11", "address": "470 ANNDALE ROAD", "city": "WATERLOO", "province": "ON", "country": "CA", "postalCode": "N2K1W8", "twitter": "None", "instagram": "None", "facebook": "None", "youtube": "None", "website": "None", "summary": "None", "logo": "None", "latitude": 43.49597203970214, "longitude": -80.51394327780038}, "896773777RR0001": {"name": "CARING, HELPING AND NURTURING CHILDREN EVERY STEP (C.H.A.N.C.E.S.) INC.", "designationCode": "C", "categoryCode": "09", "address": "77 UPPER PRINCE STREET", "city": "CHARLOTTETOWN", "province": "PE", "country": "CA", "postalCode": "C1A4S6", "twitter": "None", "instagram": "None", "facebook": "None", "youtube": "None", "website": "None", "summary": "None", "logo": "None", "latitude": 46.241235419095176, "longitude": -63.12985836456225}, "895388288RR0001": {"name": "CARISBROOKE PARENTS' ADVISORY COUNCIL", "designationCode": "C", "categoryCode": "21", "address": "510 E CARISBROOKE RD", "city": "NORTH VANCOUVER", "province": "BC", "country": "CA", "postalCode": "V7N1N5", "twitter": "None", "instagram": "None", "facebook": "None", "youtube": "None", "website": "None", "summary": "None", "logo": "None", "latitude": 49.341039504327846, "longitude": -123.06288994113928}, "119097301RR0001": {"name": "CARISMA PENTECOSTAL CHURCH", "designationCode": "C", "categoryCode": "36", "address": "8401 114 AVE", "city": "EDMONTON", "province": "AB", "country": "CA", "postalCode": "T5B0K2", "twitter": "None", "instagram": "None", "facebook": "None", "youtube": "None", "website": "None", "summary": "None", "logo": "None", "latitude": 53.56422749235396, "longitude": -113.47073966472387}, "892135146RR0001": {"name": "CARISMA PENTECOSTAL CHURCH", "designationCode": "C", "categoryCode": "36", "address": "16 WEST AVENUE S", "city": "HAMILTON", "province": "ON", "country": "CA", "postalCode": "L8N2S1", "twitter": "None", "instagram": "None", "facebook": "None", "youtube": "None", "website": "None", "summary": "None", "logo": "None", "latitude": 43.2522416991459, "longitude": -79.85865374496488}, "133977819RR0001": {"name": "CARITAL CONTINUING CARE SOCIETY", "designationCode": "C", "categoryCode": "09", "address": "3050 PENTICTON ST", "city": "VANCOUVER", "province": "BC", "country": "CA", "postalCode": "V5M4W2", "twitter": "None", "instagram": "None", "facebook": "None", "youtube": "None", "website": "None", "summary": "None", "logo": "None", "latitude": 49.25654941326678, "longitude": -123.05288889168494}, "119042190RR0001": {"name": "CARITAS HEALTH GROUP - EMPLOYEE'S CHARITY TRUST", "designationCode": "C", "categoryCode": "75", "address": "9R,11111 JASPER AVENUE", "city": "EDMONTON", "province": "AB", "country": "CA", "postalCode": "T5K0L4", "twitter": "None", "instagram": "None", "facebook": "None", "youtube": "None", "website": "None", "summary": "None", "logo": "None", "latitude": 53.54089750836813, "longitude": -113.51300302553523}, "888584398RR0001": {"name": "CARITAS ST. JEROME OF WINDSOR ONTARIO CHARITABLE TRUST", "designationCode": "A", "categoryCode": "65", "address": "3739 YPRES AVE", "city": "WINDSOR", "province": "ON", "country": "CA", "postalCode": "N8W1S9", "twitter": "None", "instagram": "None", "facebook": "None", "youtube": "None", "website": "None", "summary": "None", "logo": "None", "latitude": 42.302461540885574, "longitude": -82.9771529117089}, "866643976RR0001": {"name": "CARITATE FOUNDATION", "designationCode": "B", "categoryCode": "03", "address": "8 - 95 SUMMERHILL AVE", "city": "TORONTO", "province": "ON", "country": "CA", "postalCode": "M4T1B1", "twitter": "None", "instagram": "None", "facebook": "None", "youtube": "None", "website": "None", "summary": "None", "logo": "None", "latitude": 43.68386883484344, "longitude": -79.38813678628314}, "106880115RR0001": {"name": "CARIZON FAMILY AND COMMUNITY SERVICES", "designationCode": "C", "categoryCode": "59", "address": "400 QUEEN ST S", "city": "KITCHENER", "province": "ON", "country": "CA", "postalCode": "N2G1W7", "twitter": "None", "instagram": "None", "facebook": "None", "youtube": "None", "website": "None", "summary": "None", "logo": "None", "latitude": 43.44548752957461, "longitude": -80.4936331808527}, "118838739RR0001": {"name": "CARKE INC.", "designationCode": "C", "categoryCode": "59", "address": "270 VICTORIA STREET", "city": "KNOWLTON", "province": "QC", "country": "CA", "postalCode": "J0E1V0", "twitter": "None", "instagram": "None", "facebook": "None", "youtube": "None", "website": "None", "summary": "None", "logo": "None", "latitude": 45.21917522896372, "longitude": -72.52728768096387}, "892079260RR0001": {"name": "CARL J HANSON MEMORIAL FOUNDATION", "designationCode": "C", "categoryCode": "09", "address": "4702 NORTHMOUNT DR", "city": "WETASKIWIN", "province": "AB", "country": "CA", "postalCode": "T9A3T3", "twitter": "None", "instagram": "None", "facebook": "None", "youtube": "None", "website": "None", "summary": "None", "logo": "None", "latitude": 52.98449160048135, "longitude": -113.36837997070096}, "100815067RR0001": {"name": "CARLETON - VICTORIA COMMUNITY VOCATIONAL BOARD INC.", "designationCode": "C", "categoryCode": "11", "address": "344 EAST RIVERSIDE DRIVE", "city": "PERTH-ANDOVER", "province": "NB", "country": "CA", "postalCode": "E7H1Y5", "twitter": "None", "instagram": "None", "facebook": "None", "youtube": "None", "website": "None", "summary": "None", "logo": "None", "latitude": 46.717141739589586, "longitude": -67.71775769855267}, "886508399RR0001": {"name": "CARLETON BAPTIST CHURCH", "designationCode": "C", "categoryCode": "31", "address": "PO BOX 91544", "city": "ORLEANS", "province": "ON", "country": "CA", "postalCode": "K1W1K9", "twitter": "None", "instagram": "None", "facebook": "None", "youtube": "None", "website": "None", "summary": "None", "logo": "None", "latitude": 45.453570000000056, "longitude": -75.50971099999994}, "861742591RR0001": {"name": "CARLETON BRANCH SCHOLARSHIP TRUST FUND (NEW BRUNSWICK SOCIETY OF RETIRED TEACHERS)", "designationCode": "C", "categoryCode": "21", "address": "380 BEARDSLEY ROAD", "city": "BEARDSLEY", "province": "NB", "country": "CA", "postalCode": "E7M4G7", "twitter": "None", "instagram": "None", "facebook": "None", "youtube": "None", "website": "None", "summary": "None", "logo": "None", "latitude": 46.12062330294842, "longitude": -67.63149811602197}, "890172596RR0001": {"name": "CARLETON CEMETERY COMPANY", "designationCode": "C", "categoryCode": "59", "address": "4374 HWY 340", "city": "CARLETON", "province": "NS", "country": "CA", "postalCode": "B5A5P9", "twitter": "None", "instagram": "None", "facebook": "None", "youtube": "None", "website": "None", "summary": "None", "logo": "None", "latitude": 44.02179323622785, "longitude": -65.9255071699616}, "119288918RR0114": {"name": "CARLETON CONGREGATION OF JEHOVAH'S WITNESSES, OTTAWA, ONTARIO", "designationCode": "C", "categoryCode": "61", "address": "81 BRADFORD ST", "city": "OTTAWA", "province": "ON", "country": "CA", "postalCode": "K2B5Y7", "twitter": "None", "instagram": "None", "facebook": "None", "youtube": "None", "website": "None", "summary": "None", "logo": "None"}, "119288918RR1092": {"name": "CARLETON CONGREGATION OF JEHOVAH'S WITNESSES, SAINT JOHN, NEW BRUNSWICK", "designationCode": "C", "categoryCode": "61", "address": "18 THOMAS AVENUE", "city": "SAINT JOHN", "province": "NB", "country": "CA", "postalCode": "E2M2T3", "twitter": "None", "instagram": "None", "facebook": "None", "youtube": "None", "website": "None", "summary": "None", "logo": "None", "latitude": 45.25231502054358, "longitude": -66.07816885775293}, "140653387RR0001": {"name": "CARLETON COUNTY ANIMAL SHELTER INC", "designationCode": "C", "categoryCode": "54", "address": "177 BEDELL SETTLEMENT ROAD", "city": "BEDELL", "province": "NB", "country": "CA", "postalCode": "E7M4S1", "twitter": "None", "instagram": "None", "facebook": "None", "youtube": "None", "website": "None", "summary": "None", "logo": "None"}, "107484057RR0001": {"name": "CARLETON COUNTY HISTORICAL SOCIETY INC.", "designationCode": "C", "categoryCode": "50", "address": "128 CONNELL STREET", "city": "WOODSTOCK", "province": "NB", "country": "CA", "postalCode": "E7M1L5", "twitter": "None", "instagram": "None", "facebook": "None", "youtube": "None", "website": "None", "summary": "None", "logo": "None", "latitude": 46.150680990305126, "longitude": -67.57529529488149}, "118838762RR0001": {"name": "CARLETON ECUMENICAL CHAPLAINCY", "designationCode": "C", "categoryCode": "49", "address": "CARLETON UNIVERSITY", "city": "OTTAWA", "province": "ON", "country": "CA", "postalCode": "K1S5B6", "twitter": "None", "instagram": "None", "facebook": "None", "youtube": "None", "website": "None", "summary": "None", "logo": "None", "latitude": 45.38353007487125, "longitude": -75.69717003289185}, "868955238RR0001": {"name": "CARLETON HEIGHTS SCHOOL COUNCIL", "designationCode": "C", "categoryCode": "21", "address": "1660 PRINCE OF WALES DR", "city": "OTTAWA", "province": "ON", "country": "CA", "postalCode": "K2C1P4", "twitter": "None", "instagram": "None", "facebook": "None", "youtube": "None", "website": "None", "summary": "None", "logo": "None", "latitude": 45.36026161864508, "longitude": -75.70004005282986}, "885282160RR0001": {"name": "CARLETON MANOR FOUNDATION INC.", "designationCode": "A", "categoryCode": "03", "address": "130 BURTT STREET", "city": "WOODSTOCK", "province": "NB", "country": "CA", "postalCode": "E7M5G6", "twitter": "None", "instagram": "None", "facebook": "None", "youtube": "None", "website": "None", "summary": "None", "logo": "None", "latitude": 46.16770164792446, "longitude": -67.59143344856082}, "130922842RR0001": {"name": "CARLETON MANOR INC", "designationCode": "C", "categoryCode": "01", "address": "130 BURTT ST", "city": "WOODSTOCK", "province": "NB", "country": "CA", "postalCode": "E7M5G6", "twitter": "None", "instagram": "None", "facebook": "None", "youtube": "None", "website": "None", "summary": "None", "logo": "None", "latitude": 46.16770164792446, "longitude": -67.59143344856082}, "106874365RR0001": {"name": "CARLETON MEMORIAL DAY CARE CENTRE INC.", "designationCode": "C", "categoryCode": "01", "address": "740 MELFA CRESCENT", "city": "OTTAWA", "province": "ON", "country": "CA", "postalCode": "K2C0P2", "twitter": "None", "instagram": "None", "facebook": "None", "youtube": "None", "website": "None", "summary": "None", "logo": "None", "latitude": 45.36585705969744, "longitude": -75.69982017236993}, "106874399RR0001": {"name": "CARLETON MEMORIAL UNITED CHURCH", "designationCode": "C", "categoryCode": "44", "address": "740 MELFA CRES", "city": "OTTAWA", "province": "ON", "country": "CA", "postalCode": "K2C0P2", "twitter": "None", "instagram": "None", "facebook": "None", "youtube": "None", "website": "None", "summary": "None", "logo": "None", "latitude": 45.36585705969744, "longitude": -75.69982017236993}, "108075813RR0001": {"name": "CARLETON PLACE AND BECKWITH HISTORICAL SOCIETYY", "designationCode": "C", "categoryCode": "52", "address": "267 EDMUND ST", "city": "CARLETON PLACE", "province": "ON", "country": "CA", "postalCode": "K7C3E8", "twitter": "None", "instagram": "None", "facebook": "None", "youtube": "None", "website": "None", "summary": "None", "logo": "None", "latitude": 45.14348195839329, "longitude": -76.14737441364214}, "886318880RR0001": {"name": "CARLETON PLACE AND DISTRICT HORTICULTURAL SOCIETY", "designationCode": "C", "categoryCode": "56", "address": "P.O. BOX 167", "city": "CARLETON PLACE", "province": "ON", "country": "CA", "postalCode": "K7C3P3", "twitter": "None", "instagram": "None", "facebook": "None", "youtube": "None", "website": "None", "summary": "None", "logo": "None", "latitude": 45.14044200000005, "longitude": -76.14679399999993}, "118838820RR0001": {"name": "CARLETON PLACE AND DISTRICT MEMORIAL HOSPITAL", "designationCode": "C", "categoryCode": "10", "address": "211 LAKE AVE EAST", "city": "CARLETON PLACE", "province": "ON", "country": "CA", "postalCode": "K7C1J4", "twitter": "None", "instagram": "None", "facebook": "None", "youtube": "None", "website": "None", "summary": "None", "logo": "None", "latitude": 45.140804346759836, "longitude": -76.1361375606458}, "866105398RR0001": {"name": "CARLETON PLACE AND DISTRICT MEMORIAL HOSPITAL FOUNDATION", "designationCode": "A", "categoryCode": "13", "address": "211 LAKE AVENUE EAST", "city": "CARLETON PLACE", "province": "ON", "country": "CA", "postalCode": "K7C1J4", "twitter": "None", "instagram": "None", "facebook": "None", "youtube": "None", "website": "None", "summary": "None", "logo": "None", "latitude": 45.140804346759836, "longitude": -76.1361375606458}, "118838838RR0001": {"name": "CARLETON PLACE BAPTIST CHURCH", "designationCode": "C", "categoryCode": "31", "address": "299 BRIDGE STREET", "city": "CARLETON PLACE", "province": "ON", "country": "CA", "postalCode": "K7C3H7", "twitter": "None", "instagram": "None", "facebook": "None", "youtube": "None", "website": "None", "summary": "None", "logo": "None", "latitude": 45.143052778245725, "longitude": -76.14994298216473}, "882077027RR0001": {"name": "CARLETON PLACE CHRISTMAS BASKET PROGRAM", "designationCode": "C", "categoryCode": "09", "address": "296 GARDINER SHORE RD", "city": "CARLETON PLACE", "province": "ON", "country": "CA", "postalCode": "K7C0C4", "twitter": "None", "instagram": "None", "facebook": "None", "youtube": "None", "website": "None", "summary": "None", "logo": "None", "latitude": 45.09399327615561, "longitude": -76.1505977852153}, "107406316RR0010": {"name": "CARLETON PLACE FREE METHODIST CHURCH", "designationCode": "C", "categoryCode": "39", "address": "355 MOFFATT", "city": "CARLETON PLACE", "province": "ON", "country": "CA", "postalCode": "K7C3L6", "twitter": "None", "instagram": "None", "facebook": "None", "youtube": "None", "website": "None", "summary": "None", "logo": "None", "latitude": 45.141914939575926, "longitude": -76.15448795504807}, "118838887RR0001": {"name": "CARLETON PLACE PUBLIC LIBRARY", "designationCode": "C", "categoryCode": "50", "address": "101 BECKWITH ST", "city": "CARLETON PLACE", "province": "ON", "country": "CA", "postalCode": "K7C2T3", "twitter": "None", "instagram": "None", "facebook": "None", "youtube": "None", "website": "None", "summary": "None", "logo": "None", "latitude": 45.13922978471042, "longitude": -76.14381760770202}, "107797383RR0057": {"name": "CARLETON PLACE SEVENTH-DAY ADVENTIST CHURCH", "designationCode": "C", "categoryCode": "41", "address": "117 VICTORIA STREET", "city": "CARLETON PLACE", "province": "ON", "country": "CA", "postalCode": "K7C2W7", "twitter": "None", "instagram": "None", "facebook": "None", "youtube": "None", "website": "None", "summary": "None", "logo": "None", "latitude": 45.13871460580229, "longitude": -76.14585173397803}, "119288918RR0592": {"name": "CARLETON PLACE, ONTARIO, CONGREGATION OF JEHOVAH'S WITNESSES", "designationCode": "C", "categoryCode": "61", "address": "197 SPRUCE CR., R.R. #1", "city": "CARLETON PLACE", "province": "ON", "country": "CA", "postalCode": "K7C3P1", "twitter": "None", "instagram": "None", "facebook": "None", "youtube": "None", "website": "None", "summary": "None", "logo": "None", "latitude": 45.14305248615778, "longitude": -76.20702228887255}, "100814854RR0001": {"name": "CARLETON PRESCHOOL", "designationCode": "C", "categoryCode": "20", "address": "63 EVELYN AVE", "city": "OTTAWA", "province": "ON", "country": "CA", "postalCode": "K1S0C6", "twitter": "None", "instagram": "None", "facebook": "None", "youtube": "None", "website": "None", "summary": "None", "logo": "None"}, "107891020RR0001": {"name": "CARLETON ROAD INDUSTRIES ASSOCIATION", "designationCode": "C", "categoryCode": "09", "address": "PO BOX 10,                    11 PRINCE STREET", "city": "LAWRENCETOWN", "province": "NS", "country": "CA", "postalCode": "B0S1M0", "twitter": "None", "instagram": "None", "facebook": "None", "youtube": "None", "website": "None", "summary": "None", "logo": "None", "latitude": 44.88318634696155, "longitude": -65.15811485726292}, "118838929RR0001": {"name": "CARLETON UNITED BAPTIST CHURCH", "designationCode": "C", "categoryCode": "31", "address": "RR 1", "city": "CARLETON YARMOUTH CO", "province": "NS", "country": "CA", "postalCode": "B5A5R2", "twitter": "None", "instagram": "None", "facebook": "None", "youtube": "None", "website": "None", "summary": "None", "logo": "None", "latitude": 43.83535822292281, "longitude": -66.11590382004842}, "118838937RR0001": {"name": "CARLETON UNIVERSITY", "designationCode": "C", "categoryCode": "20", "address": "1125 COLONEL BY DRIVE", "city": "OTTAWA", "province": "ON", "country": "CA", "postalCode": "K1S5B6", "twitter": "None", "instagram": "None", "facebook": "None", "youtube": "None", "website": "None", "summary": "None", "logo": "None", "latitude": 45.38847501361867, "longitude": -75.70004668749007}, "118838945RR0001": {"name": "CARLETON VICTORIA ARTS COUNCIL", "designationCode": "C", "categoryCode": "22", "address": "7172 ROUTE 130", "city": "WICKLOW", "province": "NB", "country": "CA", "postalCode": "E7L4H2", "twitter": "None", "instagram": "None", "facebook": "None", "youtube": "None", "website": "None", "summary": "None", "logo": "None", "latitude": 46.542795229384836, "longitude": -67.68024252502816}, "118838952RR0001": {"name": "CARLETON VICTORIA UNITED PENTECOSTAL CHILDRENS CAMP", "designationCode": "C", "categoryCode": "56", "address": "150 CURTIS RD", "city": "FLORENCEVILLE BRISTOL", "province": "NB", "country": "CA", "postalCode": "E7L2H6", "twitter": "None", "instagram": "None", "facebook": "None", "youtube": "None", "website": "None", "summary": "None", "logo": "None", "latitude": 46.461434459057116, "longitude": -67.56844739555049}, "890548795RR0001": {"name": "CARLETON VOLUNTEER FIRE DEPARTMENT", "designationCode": "C", "categoryCode": "59", "address": "20 HIGHWAY 203", "city": "CARLETON YAR. CO.", "province": "NS", "country": "CA", "postalCode": "B5A5R2", "twitter": "None", "instagram": "None", "facebook": "None", "youtube": "None", "website": "None", "summary": "None", "logo": "None", "latitude": 44.0068044373934, "longitude": -65.926683657097}, "118838788RR0001": {"name": "CARLETON-KIRK COMPLEX INC.", "designationCode": "C", "categoryCode": "01", "address": "2 CARLETON KIRK PL", "city": "SAINT JOHN WEST", "province": "NB", "country": "CA", "postalCode": "E2M5B8", "twitter": "None", "instagram": "None", "facebook": "None", "youtube": "None", "website": "None", "summary": "None", "logo": "None", "latitude": 45.25712959004775, "longitude": -66.0777332645201}, "141065516RR0001": {"name": "CARLINGTON COMMUNITY CHAPLAINCY", "designationCode": "C", "categoryCode": "47", "address": "102-1465 CALDWELL AVE", "city": "OTTAWA", "province": "ON", "country": "CA", "postalCode": "K1Z8L9", "twitter": "None", "instagram": "None", "facebook": "None", "youtube": "None", "website": "None", "summary": "None", "logo": "None", "latitude": 45.37236024291606, "longitude": -75.73660908078926}, "118839000RR0001": {"name": "CARLISLE UNITED CHURCH", "designationCode": "C", "categoryCode": "44", "address": "40320 HURON STREET   RR#3", "city": "EXETER", "province": "ON", "country": "CA", "postalCode": "N0M1S5", "twitter": "None", "instagram": "None", "facebook": "None", "youtube": "None", "website": "None", "summary": "None", "logo": "None", "latitude": 43.345797420508795, "longitude": -81.45978450305842}, "135177707RR0001": {"name": "CARLISLE UNITED CHURCH", "designationCode": "C", "categoryCode": "44", "address": "1432 CENTRE ROAD", "city": "CARLISLE", "province": "ON", "country": "CA", "postalCode": "L0R1H1", "twitter": "None", "instagram": "None", "facebook": "None", "youtube": "None", "website": "None", "summary": "None", "logo": "None", "latitude": 43.39162136637994, "longitude": -79.97684641185313}, "119288918RR0380": {"name": "CARLTON CONGREGATION OF JEHOVAH'S WITNESSES, TORONTO, ONTARIO", "designationCode": "C", "categoryCode": "61", "address": "1005 GERRARD ST. E", "city": "TORONTO", "province": "ON", "country": "CA", "postalCode": "M4M1Z4", "twitter": "None", "instagram": "None", "facebook": "None", "youtube": "None", "website": "None", "summary": "None", "logo": "None", "latitude": 43.66866783484345, "longitude": -79.33792620537831}, "893133066RR0001": {"name": "CARLTON INFANT CARE CENTRE INC", "designationCode": "C", "categoryCode": "01", "address": "665 28TH STREET EAST", "city": "PRINCE ALBERT", "province": "SK", "country": "CA", "postalCode": "S6V6E9", "twitter": "None", "instagram": "None", "facebook": "None", "youtube": "None", "website": "None", "summary": "None", "logo": "None", "latitude": 53.187681470136944, "longitude": -105.73551955536962}, "890665342RR0001": {"name": "CARLTON PLACE AND DISTRICT YOUTH CENTRE", "designationCode": "C", "categoryCode": "09", "address": "360 EDMUND STREET", "city": "CARLETON PLACE", "province": "ON", "country": "CA", "postalCode": "K7C3Y7", "twitter": "None", "instagram": "None", "facebook": "None", "youtube": "None", "website": "None", "summary": "None", "logo": "None", "latitude": 45.14569035779169, "longitude": -76.1504052784746}, "890982176RR0001": {"name": "CARLTON TRAIL HEALTH FOUNDATION INC", "designationCode": "C", "categoryCode": "19", "address": "PO BOX 940", "city": "LANIGAN", "province": "SK", "country": "CA", "postalCode": "S0K2M0", "twitter": "None", "instagram": "None", "facebook": "None", "youtube": "None", "website": "None", "summary": "None", "logo": "None", "latitude": 51.84617000000003, "longitude": -105.03797999999995}, "130901168RR0001": {"name": "CARLTON-KIRK UNITED CHURCH", "designationCode": "C", "categoryCode": "44", "address": "1 CARLETON KIRK PLACE", "city": "SAINT JOHN", "province": "NB", "country": "CA", "postalCode": "E2M5B8", "twitter": "None", "instagram": "None", "facebook": "None", "youtube": "None", "website": "None", "summary": "None", "logo": "None", "latitude": 45.25700973547989, "longitude": -66.07781059004776}, "899472997RR0001": {"name": "CARLYLE & DISTRICT LEISURE COMPLEX BOARD", "designationCode": "C", "categoryCode": "56", "address": "BOX 826", "city": "CARLYLE", "province": "SK", "country": "CA", "postalCode": "S0C0R0", "twitter": "None", "instagram": "None", "facebook": "None", "youtube": "None", "website": "None", "summary": "None", "logo": "None", "latitude": 49.628016, "longitude": -102.26315694795335}, "118839067RR0001": {"name": "CARLYLE AND DISTRICT DONORS CHOICE", "designationCode": "A", "categoryCode": "05", "address": "BOX 10", "city": "CARLYLE", "province": "SK", "country": "CA", "postalCode": "S0C0R0", "twitter": "None", "instagram": "None", "facebook": "None", "youtube": "None", "website": "None", "summary": "None", "logo": "None", "latitude": 49.628016, "longitude": -102.26315694795335}, "118839075RR0001": {"name": "CARLYLE GLEN MORRIS CEMETERY TRUST FUND", "designationCode": "C", "categoryCode": "59", "address": "BOX 10 TOWN OFFICE", "city": "CARLYLE", "province": "SK", "country": "CA", "postalCode": "S0C0R0", "twitter": "None", "instagram": "None", "facebook": "None", "youtube": "None", "website": "None", "summary": "None", "logo": "None", "latitude": 49.628016, "longitude": -102.26315694795335}, "892152844RR0001": {"name": "CARLYLE MURRAY EDUCATIONAL FOUNDATION", "designationCode": "C", "categoryCode": "21", "address": "170 BOTHWELL CRESCENT", "city": "REGINA", "province": "SK", "country": "CA", "postalCode": "S4R6E7", "twitter": "None", "instagram": "None", "facebook": "None", "youtube": "None", "website": "None", "summary": "None", "logo": "None", "latitude": 50.49289718290152, "longitude": -104.5961297220554}, "106875248RR0001": {"name": "CARLYLE PASTORAL CHARGE", "designationCode": "C", "categoryCode": "44", "address": "BOX 119", "city": "CARLYLE", "province": "SK", "country": "CA", "postalCode": "S0C0R0", "twitter": "None", "instagram": "None", "facebook": "None", "youtube": "None", "website": "None", "summary": "None", "logo": "None", "latitude": 49.628016, "longitude": -102.26315694795335}, "119288918RR0120": {"name": "CARLYLE SASKATCHEWAN CONGREGATION OF JEHOVAH'S WITNESSES", "designationCode": "C", "categoryCode": "61", "address": "PO BOX 475", "city": "CARLYLE", "province": "SK", "country": "CA", "postalCode": "S0C0R0", "twitter": "None", "instagram": "None", "facebook": "None", "youtube": "None", "website": "None", "summary": "None", "logo": "None", "latitude": 49.628016, "longitude": -102.26315694795335}, "864540323RR0001": {"name": "CARMAN & COMMUNITY ACTIVE LIVING CENTRE INC.", "designationCode": "C", "categoryCode": "56", "address": "BOX 2224", "city": "CARMAN", "province": "MB", "country": "CA", "postalCode": "R0G0J0", "twitter": "None", "instagram": "None", "facebook": "None", "youtube": "None", "website": "None", "summary": "None", "logo": "None", "latitude": 49.50860000000006, "longitude": -98.00231999999994}, "118839133RR0001": {"name": "CARMAN & DISTRICT CHRISTMAS CHEER BOARD", "designationCode": "C", "categoryCode": "09", "address": "P.O. BOX 1420", "city": "CARMAN", "province": "MB", "country": "CA", "postalCode": "R0G0J0", "twitter": "None", "instagram": "None", "facebook": "None", "youtube": "None", "website": "None", "summary": "None", "logo": "None", "latitude": 49.50860000000006, "longitude": -98.00231999999994}, "891183675RR0001": {"name": "CARMAN AND BEATRICE JOSE MEMORIAL FUND", "designationCode": "B", "categoryCode": "21", "address": "1121 COLLEGE DRIVE            UNIVERSITY OF SASKATCHEWAN", "city": "SASKATOON", "province": "SK", "country": "CA", "postalCode": "S7N0W3", "twitter": "None", "instagram": "None", "facebook": "None", "youtube": "None", "website": "None", "summary": "None", "logo": "None", "latitude": 52.128962474897484, "longitude": -106.64203066763807}, "868184193RR0001": {"name": "CARMAN AREA FOUNDATION INC", "designationCode": "A", "categoryCode": "03", "address": "BOX 880", "city": "CARMAN", "province": "MB", "country": "CA", "postalCode": "R0G0J0", "twitter": "None", "instagram": "None", "facebook": "None", "youtube": "None", "website": "None", "summary": "None", "logo": "None", "latitude": 49.50860000000006, "longitude": -98.00231999999994}, "118859743RR0001": {"name": "CARMAN CHURCH OF CHRIST", "designationCode": "C", "categoryCode": "39", "address": "BOX 955", "city": "CARMEN", "province": "MB", "country": "CA", "postalCode": "R0G0J0", "twitter": "None", "instagram": "None", "facebook": "None", "youtube": "None", "website": "None", "summary": "None", "logo": "None", "latitude": 49.91673245235513, "longitude": -97.11783371732463}, "898216957RR0001": {"name": "CARMAN COMMUNITY SENIORS RESOURCE COUNCIL INC.", "designationCode": "C", "categoryCode": "09", "address": "BOX 2142", "city": "CARMAN", "province": "MB", "country": "CA", "postalCode": "R0G0J0", "twitter": "None", "instagram": "None", "facebook": "None", "youtube": "None", "website": "None", "summary": "None", "logo": "None", "latitude": 49.50860000000006, "longitude": -98.00231999999994}, "894125863RR0001": {"name": "CARMAN FAMILY RESOURCE CENTRE, INC.", "designationCode": "C", "categoryCode": "09", "address": "BOX 124", "city": "CARMAN", "province": "MB", "country": "CA", "postalCode": "R0G0J0", "twitter": "None", "instagram": "None", "facebook": "None", "youtube": "None", "website": "None", "summary": "None", "logo": "None", "latitude": 49.50860000000006, "longitude": -98.00231999999994}, "118839174RR0001": {"name": "CARMAN HANDI-VAN CORP.", "designationCode": "C", "categoryCode": "09", "address": "PO BOX 1294", "city": "CARMAN", "province": "MB", "country": "CA", "postalCode": "R0G0J0", "twitter": "None", "instagram": "None", "facebook": "None", "youtube": "None", "website": "None", "summary": "None", "logo": "None", "latitude": 49.50860000000006, "longitude": -98.00231999999994}, "118839182RR0001": {"name": "CARMAN HEALTH AUXILIARY", "designationCode": "A", "categoryCode": "19", "address": "BOX 274", "city": "CARMAN", "province": "MB", "country": "CA", "postalCode": "R0G0J0", "twitter": "None", "instagram": "None", "facebook": "None", "youtube": "None", "website": "None", "summary": "None", "logo": "None", "latitude": 49.50860000000006, "longitude": -98.00231999999994}, "127061208RR0001": {"name": "CARMAN M.C.C. COMMUNITY ASSISTANCE CENTRE INC.", "designationCode": "A", "categoryCode": "09", "address": "PO BOX 352", "city": "CARMAN", "province": "MB", "country": "CA", "postalCode": "R0G0J0", "twitter": "None", "instagram": "None", "facebook": "None", "youtube": "None", "website": "None", "summary": "None", "logo": "None", "latitude": 49.50860000000006, "longitude": -98.00231999999994}, "119288918RR0208": {"name": "CARMAN MANITOBA CONGREGATION OF JEHOVAH'S WITNESSES", "designationCode": "C", "categoryCode": "61", "address": "47 - 159 1ST AVE NW           RR 3", "city": "CARMAN", "province": "MB", "country": "CA", "postalCode": "R0G0J0", "twitter": "None", "instagram": "None", "facebook": "None", "youtube": "None", "website": "None", "summary": "None", "logo": "None", "latitude": 49.50944036292872, "longitude": -98.00720106458425}, "118839216RR0001": {"name": "CARMAN MENNONITE CHURCH", "designationCode": "C", "categoryCode": "34", "address": "BOX 267", "city": "CARMAN", "province": "MB", "country": "CA", "postalCode": "R0G0J0", "twitter": "None", "instagram": "None", "facebook": "None", "youtube": "None", "website": "None", "summary": "None", "logo": "None", "latitude": 49.50860000000006, "longitude": -98.00231999999994}, "118839224RR0001": {"name": "CARMAN PENTECOSTAL ASSEMBLY", "designationCode": "C", "categoryCode": "36", "address": "PO BOX 837", "city": "CARMAN", "province": "MB", "country": "CA", "postalCode": "R0G0J0", "twitter": "None", "instagram": "None", "facebook": "None", "youtube": "None", "website": "None", "summary": "None", "logo": "None", "latitude": 49.50860000000006, "longitude": -98.00231999999994}, "106875495RR0001": {"name": "CARMAN UNITED CHURCH", "designationCode": "C", "categoryCode": "44", "address": "7258 VEDDER RD", "city": "CHILLIWACK", "province": "BC", "country": "CA", "postalCode": "V2R4E4", "twitter": "None", "instagram": "None", "facebook": "None", "youtube": "None", "website": "None", "summary": "None", "logo": "None", "latitude": 49.13420417560511, "longitude": -121.95982784692377}, "118839232RR0001": {"name": "CARMAN UNITED CHURCH", "designationCode": "C", "categoryCode": "44", "address": "11 RICHARD STREET", "city": "SYDNEY MINES", "province": "NS", "country": "CA", "postalCode": "B1V2H4", "twitter": "None", "instagram": "None", "facebook": "None", "youtube": "None", "website": "None", "summary": "None", "logo": "None", "latitude": 46.23590075465975, "longitude": -60.224018538288504}, "118839240RR0001": {"name": "CARMAN UNITED CHURCH", "designationCode": "C", "categoryCode": "44", "address": "23 JANE'S COURT", "city": "COLBORNE", "province": "ON", "country": "CA", "postalCode": "K0K1S0", "twitter": "None", "instagram": "None", "facebook": "None", "youtube": "None", "website": "None", "summary": "None", "logo": "None", "latitude": 44.00879583935831, "longitude": -77.87134970118501}, "118839257RR0001": {"name": "CARMAN UNITED CHURCH", "designationCode": "C", "categoryCode": "44", "address": "BOX 1177", "city": "CARMAN", "province": "MB", "country": "CA", "postalCode": "R0G0J0", "twitter": "None", "instagram": "None", "facebook": "None", "youtube": "None", "website": "None", "summary": "None", "logo": "None", "latitude": 49.50860000000006, "longitude": -98.00231999999994}, "140208380RR0001": {"name": "CARMANAH FORESTRY SOCIETY", "designationCode": "C", "categoryCode": "52", "address": "1431 RICHARDSON ST", "city": "VICTORIA", "province": "BC", "country": "CA", "postalCode": "V8S1R1", "twitter": "None", "instagram": "None", "facebook": "None", "youtube": "None", "website": "None", "summary": "None", "logo": "None", "latitude": 48.416438579491206, "longitude": -123.34259672176692}, "890855398RR0001": {"name": "CARMANGAY AND DISTRICT MUNICIPAL LIBRARY", "designationCode": "C", "categoryCode": "50", "address": "PO BOX 67", "city": "CARMANGAY", "province": "AB", "country": "CA", "postalCode": "T0L0N0", "twitter": "None", "instagram": "None", "facebook": "None", "youtube": "None", "website": "None", "summary": "None", "logo": "None", "latitude": 50.12684000000007, "longitude": -113.11334999999997}, "139024814RR0001": {"name": "CARMANGAY CHARITABLE TRUST", "designationCode": "B", "categoryCode": "39", "address": "3425 2ND AVENUE SOUTH", "city": "LETHBRIDGE", "province": "AB", "country": "CA", "postalCode": "T1J4V1", "twitter": "None", "instagram": "None", "facebook": "None", "youtube": "None", "website": "None", "summary": "None", "logo": "None", "latitude": 49.696839530439966, "longitude": -112.78914308381903}, "135654176RR0001": {"name": "CARMANGAY SENIOR CITIZENS CLUB", "designationCode": "C", "categoryCode": "56", "address": "PO BOX 98", "city": "CARMANGAY", "province": "AB", "country": "CA", "postalCode": "T0L0N0", "twitter": "None", "instagram": "None", "facebook": "None", "youtube": "None", "website": "None", "summary": "None", "logo": "None", "latitude": 50.12684000000007, "longitude": -113.11334999999997}, "118839265RR0001": {"name": "CARMANVILLE PASTORAL CHARGE", "designationCode": "C", "categoryCode": "44", "address": "7 HARRIS POINT ROAD", "city": "GANDER BAY SOUTH", "province": "NL", "country": "CA", "postalCode": "A0G2H0", "twitter": "None", "instagram": "None", "facebook": "None", "youtube": "None", "website": "None", "summary": "None", "logo": "None", "latitude": 49.29690760549771, "longitude": -54.48089627431711}}