{"889228847RR0001": {"name": "Sandwich First Baptist Church", "designationCode": "C", "categoryCode": "31", "address": "3652 PETER ST", "city": "WINDSOR", "province": "ON", "country": "CA", "postalCode": "N9C1J7", "twitter": "None", "instagram": "None", "facebook": "None", "youtube": "None", "website": "None", "summary": "None", "logo": "None", "latitude": 42.29177916181312, "longitude": -83.08002542485627}, "119288918RR1630": {"name": "Sandy Beach Congregation of Jehovah's Witnesses, Pickering, Ontario", "designationCode": "C", "categoryCode": "61", "address": "539 MCLEOD CRES", "city": "PICKERING", "province": "ON", "country": "CA", "postalCode": "L1W3M4", "twitter": "None", "instagram": "None", "facebook": "None", "youtube": "None", "website": "None", "summary": "None", "logo": "None", "latitude": 43.80569809270584, "longitude": -79.12278982442741}, "848250304RR0001": {"name": "Sangat Sar Guru Ghar, Canada", "designationCode": "C", "categoryCode": "62", "address": "30 PEARSON RD", "city": "BRAMPTON", "province": "ON", "country": "CA", "postalCode": "L6Y2N1", "twitter": "None", "instagram": "None", "facebook": "None", "youtube": "None", "website": "None", "summary": "None", "logo": "None", "latitude": 43.65760383790186, "longitude": -79.75656066377158}, "800752354RR0001": {"name": "Sanguen Health Centre Foundation", "designationCode": "C", "categoryCode": "11", "address": "314 WINTERBURG COURT,", "city": "WATERLOO", "province": "ON", "country": "CA", "postalCode": "N2V2S8", "twitter": "None", "instagram": "None", "facebook": "None", "youtube": "None", "website": "None", "summary": "None", "logo": "None", "latitude": 43.45680190533227, "longitude": -80.58701987662305}, "803888882RR0001": {"name": "Sankat Mochan Hanuman Mandir & Cultural Centre Inc.", "designationCode": "C", "categoryCode": "48", "address": "119 BENNETT AVENUE", "city": "AJAX", "province": "ON", "country": "CA", "postalCode": "L1T3R8", "twitter": "None", "instagram": "None", "facebook": "None", "youtube": "None", "website": "None", "summary": "None", "logo": "None", "latitude": 43.8752855059726, "longitude": -79.03745071937234}, "834865990RR0001": {"name": "Sans Signal Playshed", "designationCode": "C", "categoryCode": "22", "address": "1186 RUE BEAUDRY", "city": "MONTREAL", "province": "QC", "country": "CA", "postalCode": "H2L3E4", "twitter": "None", "instagram": "None", "facebook": "None", "youtube": "None", "website": "None", "summary": "None", "logo": "None", "latitude": 45.517893800709885, "longitude": -73.55393359215758}, "847821634RR0001": {"name": "Sansar Foundation", "designationCode": "C", "categoryCode": "11", "address": "301-3 CONESTOGA DRIVE", "city": "BRAMPTON", "province": "ON", "country": "CA", "postalCode": "L6Z4N5", "twitter": "None", "instagram": "None", "facebook": "None", "youtube": "None", "website": "None", "summary": "None", "logo": "None", "latitude": 43.72993630472059, "longitude": -79.79660061665452}, "843768607RR0001": {"name": "Sant\u00e9 de base pour les communaut\u00e9s (SBC)", "designationCode": "C", "categoryCode": "11", "address": "2180 CHEMIN SAINTE-FOY        PAVILLON DE L'EST, 3E \u00c9TAGE", "city": "QU\u00c9BEC", "province": "QC", "country": "CA", "postalCode": "G1V0A6", "twitter": "None", "instagram": "None", "facebook": "None", "youtube": "None", "website": "None", "summary": "None", "logo": "None", "latitude": 46.78017900000006, "longitude": -71.27544499999993}, "118792233RR0001": {"name": "Sant\u00e9 mentale Qu\u00e9bec - Bas-St-Laurent", "designationCode": "C", "categoryCode": "11", "address": "315 AVENUE ROULEAU", "city": "RIMOUSKI", "province": "QC", "country": "CA", "postalCode": "G5L5V5", "twitter": "None", "instagram": "None", "facebook": "None", "youtube": "None", "website": "None", "summary": "None", "logo": "None", "latitude": 48.44249694142774, "longitude": -68.52543999751849}, "893125955RR0001": {"name": "Sant\u00e9 mentale Qu\u00e9bec - Chaudi\u00e8re-Appalaches", "designationCode": "C", "categoryCode": "11", "address": "5935 RUE ST-GEORGES           BUREAU 110", "city": "LEVIS", "province": "QC", "country": "CA", "postalCode": "G6V4K8", "twitter": "None", "instagram": "None", "facebook": "None", "youtube": "None", "website": "None", "summary": "None", "logo": "None", "latitude": 46.80473902859366, "longitude": -71.17975786557187}, "118792266RR0001": {"name": "Sant\u00e9 mentale Qu\u00e9bec - Pierre-De Saurel", "designationCode": "C", "categoryCode": "11", "address": "105, RUE DU PRINCE, PORTE 107", "city": "SOREL-TRACY", "province": "QC", "country": "CA", "postalCode": "J3P4J9", "twitter": "None", "instagram": "None", "facebook": "None", "youtube": "None", "website": "None", "summary": "None", "logo": "None"}, "889558367RR0001": {"name": "Sant\u00e9 mentale Qu\u00e9bec / Haut-Richelieu", "designationCode": "C", "categoryCode": "09", "address": "CP 114 SUCC BUREAU-CHEF", "city": "SAINT-JEAN-SUR-RICHELIEU", "province": "QC", "country": "CA", "postalCode": "J3B6Z1", "twitter": "None", "instagram": "None", "facebook": "None", "youtube": "None", "website": "None", "summary": "None", "logo": "None", "latitude": 45.30610500000006, "longitude": -73.25031049999993}, "139536502RR0001": {"name": "Sant\u00e9 mentale Qu\u00e9bec-C\u00f4te-Nord", "designationCode": "C", "categoryCode": "11", "address": "CASE POSTALE 323", "city": "PORT-CARTIER", "province": "QC", "country": "CA", "postalCode": "G5B2G9", "twitter": "None", "instagram": "None", "facebook": "None", "youtube": "None", "website": "None", "summary": "None", "logo": "None", "latitude": 50.01875700000005, "longitude": -66.87499399999993}, "106683436RR0001": {"name": "Sant\u00e9 Mentale Qu\u00e9bec-Lac St-Jean", "designationCode": "C", "categoryCode": "11", "address": "962, RUE PARADIS              C.P. 214", "city": "ROBERVAL", "province": "QC", "country": "CA", "postalCode": "G8H2N6", "twitter": "None", "instagram": "None", "facebook": "None", "youtube": "None", "website": "None", "summary": "None", "logo": "None", "latitude": 48.52130383236195, "longitude": -72.22200902285218}, "728631524RR0001": {"name": "Santa Claus without borders - P\u00e8re No\u00ebl sans fronti\u00e8res", "designationCode": "C", "categoryCode": "09", "address": "219 RUE D'AMBOISE", "city": "DRUMMONDVILLE", "province": "QC", "country": "CA", "postalCode": "J2A2K9", "twitter": "None", "instagram": "None", "facebook": "None", "youtube": "None", "website": "None", "summary": "None", "logo": "None", "latitude": 45.833118484880785, "longitude": -72.42066627670386}, "107910259RR0009": {"name": "Santa Cruz Parish", "designationCode": "C", "categoryCode": "38", "address": "142 ARGYLE STREET", "city": "TORONTO", "province": "ON", "country": "CA", "postalCode": "M6J1P1", "twitter": "None", "instagram": "None", "facebook": "None", "youtube": "None", "website": "None", "summary": "None", "logo": "None", "latitude": 43.64611924897561, "longitude": -79.42388581724272}, "838998243RR0001": {"name": "Santa Maria Foundation Inc.", "designationCode": "A", "categoryCode": "03", "address": "4215 REGINA AVE", "city": "REGINA", "province": "SK", "country": "CA", "postalCode": "S4S0J5", "twitter": "None", "instagram": "None", "facebook": "None", "youtube": "None", "website": "None", "summary": "None", "logo": "None", "latitude": 50.43486449509524, "longitude": -104.64205305107045}, "839145786RR0001": {"name": "Santa's Angels - Project Love", "designationCode": "C", "categoryCode": "50", "address": "21 SELKIRK CRESCENT", "city": "CHARLOTTETOWN", "province": "PE", "country": "CA", "postalCode": "C1A3R7", "twitter": "None", "instagram": "None", "facebook": "None", "youtube": "None", "website": "None", "summary": "None", "logo": "None", "latitude": 46.24473605190717, "longitude": -63.144018942552904}, "740938923RR0001": {"name": "Santovas Foundation Fondation Santovas", "designationCode": "B", "categoryCode": "03", "address": "6580 DE LA ROCHE ST", "city": "MONTREAL", "province": "QC", "country": "CA", "postalCode": "H2S2E3", "twitter": "None", "instagram": "None", "facebook": "None", "youtube": "None", "website": "None", "summary": "None", "logo": "None", "latitude": 45.53923970578235, "longitude": -73.60233260035189}, "803395169RR0001": {"name": "Sapera Foundation", "designationCode": "C", "categoryCode": "03", "address": "1250-1500 GEORGIA W ST        PO BOX 62", "city": "VANCOUVER", "province": "BC", "country": "CA", "postalCode": "V6G2Z6", "twitter": "None", "instagram": "None", "facebook": "None", "youtube": "None", "website": "None", "summary": "None", "logo": "None", "latitude": 49.29013479542975, "longitude": -123.1300069287031}, "119043461RR0001": {"name": "Sara for Women Society", "designationCode": "C", "categoryCode": "09", "address": "P.O. BOX 3044", "city": "MISSION", "province": "BC", "country": "CA", "postalCode": "V2V4J3", "twitter": "None", "instagram": "None", "facebook": "None", "youtube": "None", "website": "None", "summary": "None", "logo": "None", "latitude": 49.13294100000006, "longitude": -122.32108249999993}, "810743716RR0001": {"name": "Sarah Faith Hogan Memorial Foundation", "designationCode": "C", "categoryCode": "09", "address": "5 CHRISTIE ESTATE GROVE S.W.", "city": "CALGARY", "province": "AB", "country": "CA", "postalCode": "T3H2Z4", "twitter": "None", "instagram": "None", "facebook": "None", "youtube": "None", "website": "None", "summary": "None", "logo": "None", "latitude": 51.04026916763806, "longitude": -114.1788320409429}, "805192119RR0001": {"name": "Sarah McLachlan School of Music Society", "designationCode": "C", "categoryCode": "22", "address": "200-138 7TH AVE E", "city": "VANCOUVER", "province": "BC", "country": "CA", "postalCode": "V5T1M6", "twitter": "None", "instagram": "None", "facebook": "None", "youtube": "None", "website": "None", "summary": "None", "logo": "None", "latitude": 49.264587503462465, "longitude": -123.1013705029142}, "866044209RR0001": {"name": "Sarana Institute", "designationCode": "C", "categoryCode": "11", "address": "146-2 HILTON AVENUE", "city": "TORONTO", "province": "ON", "country": "CA", "postalCode": "M5R3E9", "twitter": "None", "instagram": "None", "facebook": "None", "youtube": "None", "website": "None", "summary": "None", "logo": "None", "latitude": 43.67856270859167, "longitude": -79.41532131121669}, "824073860RR0001": {"name": "Sarcoma Cancer Foundation of Canada", "designationCode": "A", "categoryCode": "03", "address": "2 ST.CLAIR AVE.WEST 18TH FLOOR", "city": "TORONTO", "province": "ON", "country": "CA", "postalCode": "M4V1L5", "twitter": "None", "instagram": "None", "facebook": "None", "youtube": "None", "website": "None", "summary": "None", "logo": "None", "latitude": 43.688045209013644, "longitude": -79.39437622621033}, "814882718RR0001": {"name": "Sarnia Justice Film Festival", "designationCode": "C", "categoryCode": "21", "address": "6090 BRIGDEN ROAD", "city": "SARNIA", "province": "ON", "country": "CA", "postalCode": "N7T7H2", "twitter": "None", "instagram": "None", "facebook": "None", "youtube": "None", "website": "None", "summary": "None", "logo": "None", "latitude": 43.00051480099833, "longitude": -82.27592592512602}, "858332364RR0001": {"name": "Sarnia-Lambton Family Counselling Centre Foundation", "designationCode": "A", "categoryCode": "03", "address": "1086 MODELAND ROAD", "city": "SARNIA", "province": "ON", "country": "CA", "postalCode": "N7S6L2", "twitter": "None", "instagram": "None", "facebook": "None", "youtube": "None", "website": "None", "summary": "None", "logo": "None", "latitude": 42.97219249710436, "longitude": -82.34461187408675}, "823444633RR0001": {"name": "Sask Central Victim Service Inc.", "designationCode": "C", "categoryCode": "09", "address": "PO BOX 179", "city": "MARTENSVILLE", "province": "SK", "country": "CA", "postalCode": "S0K2T0", "twitter": "None", "instagram": "None", "facebook": "None", "youtube": "None", "website": "None", "summary": "None", "logo": "None", "latitude": 52.28949000000006, "longitude": -106.66201999999998}, "844905737RR0001": {"name": "Sask. Valley Hospital Foundation Inc.", "designationCode": "A", "categoryCode": "13", "address": "PO BOX 93", "city": "ROSTHERN", "province": "SK", "country": "CA", "postalCode": "S0K3R0", "twitter": "None", "instagram": "None", "facebook": "None", "youtube": "None", "website": "None", "summary": "None", "logo": "None", "latitude": 52.663230000000055, "longitude": -106.32952999999998}, "139026942RR0001": {"name": "Saskatchewan periOperative Registered Nurses' Group", "designationCode": "C", "categoryCode": "11", "address": "60 MCCAUL CRES", "city": "REGINA", "province": "SK", "country": "CA", "postalCode": "S4R3X1", "twitter": "None", "instagram": "None", "facebook": "None", "youtube": "None", "website": "None", "summary": "None", "logo": "None", "latitude": 50.48326235111649, "longitude": -104.63963775021635}, "863420675RR0001": {"name": "Saskatchewan African Canadian Heritage Museum Inc.", "designationCode": "C", "categoryCode": "50", "address": "POST OFFICE BOX 1171", "city": "REGINA", "province": "SK", "country": "CA", "postalCode": "S4P3B4", "twitter": "None", "instagram": "None", "facebook": "None", "youtube": "None", "website": "None", "summary": "None", "logo": "None", "latitude": 50.448246000000054, "longitude": -104.59517299999993}, "887267060RR0001": {"name": "Saskatchewan Alternative Initiatives Inc.", "designationCode": "C", "categoryCode": "09", "address": "308-115 2ND AVE N", "city": "SASKATOON", "province": "SK", "country": "CA", "postalCode": "S7K2B1", "twitter": "None", "instagram": "None", "facebook": "None", "youtube": "None", "website": "None", "summary": "None", "logo": "None", "latitude": 52.14924009004674, "longitude": -106.65915546164099}, "858734783RR0001": {"name": "Saskatchewan Aviation Historical Society Inc.", "designationCode": "C", "categoryCode": "50", "address": "HANGAR 5 BAY 5                SASKATOON AIRPORT", "city": "SASKATOON", "province": "SK", "country": "CA", "postalCode": "S7L5X4", "twitter": "None", "instagram": "None", "facebook": "None", "youtube": "None", "website": "None", "summary": "None", "logo": "None", "latitude": 52.17005000000006, "longitude": -106.68978999999996}, "896418316RR0001": {"name": "Saskatchewan Cancer Agency", "designationCode": "C", "categoryCode": "11", "address": "#200-4545 PARLIAMENT AVENUE", "city": "REGINA", "province": "SK", "country": "CA", "postalCode": "S4W0G3", "twitter": "None", "instagram": "None", "facebook": "None", "youtube": "None", "website": "None", "summary": "None", "logo": "None", "latitude": 50.41724037223243, "longitude": -104.64572297041983}, "119288918RR1256": {"name": "Saskatchewan Circuit 1A of Jehovah's Witnesses", "designationCode": "C", "categoryCode": "61", "address": "385 MEIGHEN CRES", "city": "SASKATOON", "province": "SK", "country": "CA", "postalCode": "S7L4W6", "twitter": "None", "instagram": "None", "facebook": "None", "youtube": "None", "website": "None", "summary": "None", "logo": "None", "latitude": 52.140426539529265, "longitude": -106.74380266763806}, "119288918RR1255": {"name": "Saskatchewan Circuit 1B of Jehovah's Witnesses", "designationCode": "C", "categoryCode": "61", "address": "PO BOX 517", "city": "QUILL LAKE", "province": "SK", "country": "CA", "postalCode": "S0A3E0", "twitter": "None", "instagram": "None", "facebook": "None", "youtube": "None", "website": "None", "summary": "None", "logo": "None", "latitude": 51.6962132372117, "longitude": -103.71097337442652}, "119288918RR0946": {"name": "Saskatchewan Circuit 2A of Jehovah's Witnesses", "designationCode": "C", "categoryCode": "61", "address": "POST OFFICE BOX 719           113 LARSON STREET", "city": "CREIGHTON", "province": "SK", "country": "CA", "postalCode": "S0P0A0", "twitter": "None", "instagram": "None", "facebook": "None", "youtube": "None", "website": "None", "summary": "None", "logo": "None", "latitude": 54.754513271163944, "longitude": -101.88708408964742}, "119288918RR0957": {"name": "Saskatchewan Circuit 2B of Jehovah's Witnesses", "designationCode": "C", "categoryCode": "61", "address": "115 JAN CRESCENT", "city": "SASKATOON", "province": "SK", "country": "CA", "postalCode": "S7L4W6", "twitter": "None", "instagram": "None", "facebook": "None", "youtube": "None", "website": "None", "summary": "None", "logo": "None", "latitude": 52.09772152596791, "longitude": -106.58180266763806}, "119288918RR1642": {"name": "Saskatchewan Circuit 2C of Jehovah's Witnesses", "designationCode": "C", "categoryCode": "61", "address": "315 BERINI DR APT 306", "city": "SASKATOON", "province": "SK", "country": "CA", "postalCode": "S7L4W6", "twitter": "None", "instagram": "None", "facebook": "None", "youtube": "None", "website": "None", "summary": "None", "logo": "None", "latitude": 52.141531137399646, "longitude": -106.58017233605553}, "119288918RR1063": {"name": "Saskatchewan Circuit 3A of Jehovah's Witnesses", "designationCode": "C", "categoryCode": "61", "address": "105 - 345 MORRISON DR", "city": "YORKTON", "province": "SK", "country": "CA", "postalCode": "S3N3C4", "twitter": "None", "instagram": "None", "facebook": "None", "youtube": "None", "website": "None", "summary": "None", "logo": "None", "latitude": 51.21933966388716, "longitude": -102.43936592561603}, "119288918RR1046": {"name": "Saskatchewan Circuit 3B of Jehovah's Witnesses", "designationCode": "C", "categoryCode": "61", "address": "10 RUTLEY ST", "city": "REGINA", "province": "SK", "country": "CA", "postalCode": "S4R5Y6", "twitter": "None", "instagram": "None", "facebook": "None", "youtube": "None", "website": "None", "summary": "None", "logo": "None", "latitude": 50.49240266472387, "longitude": -104.60024569680863}, "119288918RR1407": {"name": "Saskatchewan Circuit 3C of Jehovah's Witnesses", "designationCode": "C", "categoryCode": "61", "address": "303 TRIFUNOV CRES.", "city": "REGINA", "province": "SK", "country": "CA", "postalCode": "S4R7C8", "twitter": "None", "instagram": "None", "facebook": "None", "youtube": "None", "website": "None", "summary": "None", "logo": "None", "latitude": 50.49221948124545, "longitude": -104.63680235789717}, "889508420RR0001": {"name": "Saskatchewan Festival of Words Inc.", "designationCode": "C", "categoryCode": "22", "address": "217 MAIN STREET NORTH", "city": "MOOSE JAW", "province": "SK", "country": "CA", "postalCode": "S6H0W1", "twitter": "None", "instagram": "None", "facebook": "None", "youtube": "None", "website": "None", "summary": "None", "logo": "None", "latitude": 50.39183588778486, "longitude": -105.53454387927476}, "815142823RR0001": {"name": "Saskatchewan German Culture Assistance Fund Inc.", "designationCode": "C", "categoryCode": "21", "address": "510 CYNTHIA STREET", "city": "SASKATOON", "province": "SK", "country": "CA", "postalCode": "S7L7K7", "twitter": "None", "instagram": "None", "facebook": "None", "youtube": "None", "website": "None", "summary": "None", "logo": "None", "latitude": 52.15972629672783, "longitude": -106.67143512796457}, "841713613RR0001": {"name": "Saskatchewan House of Prayer Inc.", "designationCode": "C", "categoryCode": "49", "address": "PO BOX 37037", "city": "REGINA", "province": "SK", "country": "CA", "postalCode": "S4S7K3", "twitter": "None", "instagram": "None", "facebook": "None", "youtube": "None", "website": "None", "summary": "None", "logo": "None", "latitude": 50.448246000000054, "longitude": -104.59517299999993}, "118812817RR0001": {"name": "Saskatchewan Impaired Driver Treatment Centre Board of Governors", "designationCode": "C", "categoryCode": "57", "address": "61 NORTH INDUSTRIAL DRIVE     PO BOX 1600", "city": "PRINCE ALBERT", "province": "SK", "country": "CA", "postalCode": "S6V5T2", "twitter": "None", "instagram": "None", "facebook": "None", "youtube": "None", "website": "None", "summary": "None", "logo": "None", "latitude": 53.217130684142255, "longitude": -105.7495278486359}, "107957540RR0001": {"name": "Saskatchewan Polytechnic", "designationCode": "C", "categoryCode": "20", "address": "400-119 4TH AVE S", "city": "SASKATOON", "province": "SK", "country": "CA", "postalCode": "S7K5X2", "twitter": "None", "instagram": "None", "facebook": "None", "youtube": "None", "website": "None", "summary": "None", "logo": "None", "latitude": 52.12791, "longitude": -106.66051424999999}, "118978907RR0001": {"name": "Saskatchewan Polytechnic Foundation, Inc.", "designationCode": "A", "categoryCode": "23", "address": "400-119 4TH AVE. S.", "city": "SASKATOON", "province": "SK", "country": "CA", "postalCode": "S7K5X2", "twitter": "None", "instagram": "None", "facebook": "None", "youtube": "None", "website": "None", "summary": "None", "logo": "None", "latitude": 52.12791, "longitude": -106.66051424999999}, "119140358RR0001": {"name": "Saskatchewan Railroad Historical Association Inc.", "designationCode": "C", "categoryCode": "50", "address": "BOX 21117", "city": "SASKATOON", "province": "SK", "country": "CA", "postalCode": "S7H5N9", "twitter": "None", "instagram": "None", "facebook": "None", "youtube": "None", "website": "None", "summary": "None", "logo": "None", "latitude": 52.13049000000005, "longitude": -106.65926449999994}, "818738064RR0001": {"name": "Saskatchewan Riverkeeper", "designationCode": "C", "categoryCode": "52", "address": "15625 WHITEMUD ROAD", "city": "EDMONTON", "province": "AB", "country": "CA", "postalCode": "T6H4N3", "twitter": "None", "instagram": "None", "facebook": "None", "youtube": "None", "website": "None", "summary": "None", "logo": "None", "latitude": 53.497670502885526, "longitude": -113.588613}, "814621421RR0001": {"name": "Saskatchewan Rivers School Division No. 119 - Charity & Scholarship Fund", "designationCode": "C", "categoryCode": "25", "address": "545 - 11TH STREET EAST", "city": "PRINCE ALBERT", "province": "SK", "country": "CA", "postalCode": "S6V1B1", "twitter": "None", "instagram": "None", "facebook": "None", "youtube": "None", "website": "None", "summary": "None", "logo": "None", "latitude": 53.20302848124546, "longitude": -105.73934408381903}, "119262848RR0001": {"name": "Saskatchewan Women's Missionary Society", "designationCode": "A", "categoryCode": "47", "address": "1108-514 23RD ST E", "city": "SASKATOON", "province": "SK", "country": "CA", "postalCode": "S7K0J8", "twitter": "None", "instagram": "None", "facebook": "None", "youtube": "None", "website": "None", "summary": "None", "logo": "None", "latitude": 52.13030643611579, "longitude": -106.66302657815133}, "848300166RR0001": {"name": "Saskatoon Burmese Buddhist Association Inc.", "designationCode": "C", "categoryCode": "35", "address": "115 WITNEY AVENUE SOUTH", "city": "SASKATOON", "province": "SK", "country": "CA", "postalCode": "S7M3K1", "twitter": "None", "instagram": "None", "facebook": "None", "youtube": "None", "website": "None", "summary": "None", "logo": "None", "latitude": 52.12856666472388, "longitude": -106.71040775662165}, "118859834RR0001": {"name": "Saskatoon Church of Christ", "designationCode": "C", "categoryCode": "39", "address": "134 CARDINAL CRES", "city": "SASKATOON", "province": "SK", "country": "CA", "postalCode": "S7L6H6", "twitter": "None", "instagram": "None", "facebook": "None", "youtube": "None", "website": "None", "summary": "None", "logo": "None", "latitude": 52.15308364083344, "longitude": -106.68574129886353}, "118959402RR0001": {"name": "Saskatoon Community Bands Inc.", "designationCode": "C", "categoryCode": "22", "address": "8B-379 3110 8TH ST E", "city": "SASKATOON", "province": "SK", "country": "CA", "postalCode": "S7H0W2", "twitter": "None", "instagram": "None", "facebook": "None", "youtube": "None", "website": "None", "summary": "None", "logo": "None", "latitude": 52.1146810318711, "longitude": -106.60901193813994}, "107957003RR0001": {"name": "Saskatoon Evangelical Free Church Inc.", "designationCode": "C", "categoryCode": "39", "address": "3102 LAURIER DRIVE", "city": "SASKATOON", "province": "SK", "country": "CA", "postalCode": "S7L5J7", "twitter": "None", "instagram": "None", "facebook": "None", "youtube": "None", "website": "None", "summary": "None", "logo": "None", "latitude": 52.134736406659, "longitude": -106.71858649734561}, "815595095RR0001": {"name": "Saskatoon Monthly Meeting of the Religious Society of Friends (Quakers)", "designationCode": "C", "categoryCode": "39", "address": "104 - 27TH STREET WEST", "city": "SASKATOON", "province": "SK", "country": "CA", "postalCode": "S7L0J3", "twitter": "None", "instagram": "None", "facebook": "None", "youtube": "None", "website": "None", "summary": "None", "logo": "None"}, "859350951RR0001": {"name": "Saskatoon Native Circle Ministry", "designationCode": "C", "categoryCode": "37", "address": "450 20TH ST W", "city": "SASKATOON", "province": "SK", "country": "CA", "postalCode": "S7M0X4", "twitter": "None", "instagram": "None", "facebook": "None", "youtube": "None", "website": "None", "summary": "None", "logo": "None", "latitude": 52.1261825115412, "longitude": -106.67648233236193}, "138094834RR0001": {"name": "Saskatoon New Life Community Fellowship Inc.", "designationCode": "C", "categoryCode": "39", "address": "3532 FAIRLIGHT DRIVE", "city": "SASKATOON", "province": "SK", "country": "CA", "postalCode": "S7M4T3", "twitter": "None", "instagram": "None", "facebook": "None", "youtube": "None", "website": "None", "summary": "None", "logo": "None", "latitude": 52.12489230532616, "longitude": -106.73491509134952}, "856919410RR0001": {"name": "Saskatoon Pets in the Park", "designationCode": "A", "categoryCode": "03", "address": "47-1035 BOYCHUK DR", "city": "SASKATOON", "province": "SK", "country": "CA", "postalCode": "S7H5B2", "twitter": "None", "instagram": "None", "facebook": "None", "youtube": "None", "website": "None", "summary": "None", "logo": "None", "latitude": 52.11539447493939, "longitude": -106.57501577365352}, "886526078RR0001": {"name": "Saskatoon Philharmonic Orchestra Inc.", "designationCode": "C", "categoryCode": "22", "address": "238 AVENUE V N", "city": "SASKATOON", "province": "SK", "country": "CA", "postalCode": "S7L3E6", "twitter": "None", "instagram": "None", "facebook": "None", "youtube": "None", "website": "None", "summary": "None", "logo": "None", "latitude": 52.13156425145709, "longitude": -106.7041472722318}, "849086491RR0001": {"name": "Saskatoon Public Schools Foundation Corp.", "designationCode": "A", "categoryCode": "23", "address": "310-21ST STREET EAST", "city": "SASKATOON", "province": "SK", "country": "CA", "postalCode": "S7K1M7", "twitter": "None", "instagram": "None", "facebook": "None", "youtube": "None", "website": "None", "summary": "None", "logo": "None", "latitude": 52.126806329476395, "longitude": -106.66223803675929}, "844638288RR0001": {"name": "Saskatoon Restorative Action Program Inc.", "designationCode": "C", "categoryCode": "09", "address": "28 - 103 POHORECKY CRES", "city": "SASKATOON", "province": "SK", "country": "CA", "postalCode": "S7W0X6", "twitter": "None", "instagram": "None", "facebook": "None", "youtube": "None", "website": "None", "summary": "None", "logo": "None", "latitude": 52.16341968030445, "longitude": -106.57408911919428}, "815992615RR0001": {"name": "Saskatoon Search and Rescue Inc.", "designationCode": "C", "categoryCode": "59", "address": "PO BOX 28077 RPO WESTGATE", "city": "SASKATOON", "province": "SK", "country": "CA", "postalCode": "S7M5V8", "twitter": "None", "instagram": "None", "facebook": "None", "youtube": "None", "website": "None", "summary": "None", "logo": "None", "latitude": 52.13049000000005, "longitude": -106.65926449999994}, "899751812RR0001": {"name": "Saskatoon Spanish Alliance Church", "designationCode": "C", "categoryCode": "39", "address": "3532 FAIRLIGHT DRIVE", "city": "SASKATOON", "province": "SK", "country": "CA", "postalCode": "S7M4T3", "twitter": "None", "instagram": "None", "facebook": "None", "youtube": "None", "website": "None", "summary": "None", "logo": "None", "latitude": 52.12489230532616, "longitude": -106.73491509134952}, "815343090RR0001": {"name": "Saskatoon Trades and Skills Centre Inc.", "designationCode": "C", "categoryCode": "20", "address": "2220 RUSHOLME RD", "city": "SASKATOON", "province": "SK", "country": "CA", "postalCode": "S7L4A4", "twitter": "None", "instagram": "None", "facebook": "None", "youtube": "None", "website": "None", "summary": "None", "logo": "None", "latitude": 52.13344804294774, "longitude": -106.70456300715794}, "810373043RR0001": {"name": "Saskatoon Vision Korean Church", "designationCode": "C", "categoryCode": "31", "address": "401 4 AVE N", "city": "SASKATOON", "province": "SK", "country": "CA", "postalCode": "S7K2M4", "twitter": "None", "instagram": "None", "facebook": "None", "youtube": "None", "website": "None", "summary": "None", "logo": "None", "latitude": 52.13320243963874, "longitude": -106.65840939733951}, "887124287RR0001": {"name": "Satellite organisme en pr\u00e9vention des d\u00e9pendances", "designationCode": "C", "categoryCode": "57", "address": "515 AVENUE ROBERT", "city": "ST-HYACINTHE", "province": "QC", "country": "CA", "postalCode": "J2S4L7", "twitter": "None", "instagram": "None", "facebook": "None", "youtube": "None", "website": "None", "summary": "None", "logo": "None", "latitude": 45.62688238605812, "longitude": -72.9432096170003}, "806844932RR0001": {"name": "Satguru Ram Singh Satsang Calgary Society", "designationCode": "C", "categoryCode": "62", "address": "1250-1500 WEST GEORGIA STREET POST OFFICE BOX 62", "city": "VANCOUVER", "province": "BC", "country": "CA", "postalCode": "V6G2Z6", "twitter": "None", "instagram": "None", "facebook": "None", "youtube": "None", "website": "None", "summary": "None", "logo": "None", "latitude": 49.290187500000016, "longitude": -123.130035}, "818689572RR0001": {"name": "Satguru Ram Singh Satsang Charitable Foundation", "designationCode": "A", "categoryCode": "43", "address": "1250 - 1500 WEST GEORGIA ST   BOX 62", "city": "VANCOUVER", "province": "BC", "country": "CA", "postalCode": "V5G2Z6", "twitter": "None", "instagram": "None", "facebook": "None", "youtube": "None", "website": "None", "summary": "None", "logo": "None", "latitude": 49.24647600000006, "longitude": -123.01529299999993}, "810199430RR0001": {"name": "Satguru Ram Singh Satsang Greater Vancouver Society", "designationCode": "C", "categoryCode": "62", "address": "1250-1500 GEORGIA W ST        PO BOX 62", "city": "VANCOUVER", "province": "BC", "country": "CA", "postalCode": "V6G2Z6", "twitter": "None", "instagram": "None", "facebook": "None", "youtube": "None", "website": "None", "summary": "None", "logo": "None", "latitude": 49.29013479542975, "longitude": -123.1300069287031}, "807531132RR0001": {"name": "Satguru Ram Singh Satsang GTA Society", "designationCode": "C", "categoryCode": "62", "address": "1250-1500 WEST GEORGIA STREET BOX 62", "city": "VANCOUVER", "province": "BC", "country": "CA", "postalCode": "V6G2Z6", "twitter": "None", "instagram": "None", "facebook": "None", "youtube": "None", "website": "None", "summary": "None", "logo": "None", "latitude": 49.290187500000016, "longitude": -123.130035}, "847237419RR0001": {"name": "Sati Saraniya Hermitage", "designationCode": "C", "categoryCode": "35", "address": "1702 MCVEIGH RD RR 7", "city": "PERTH", "province": "ON", "country": "CA", "postalCode": "K7H3C9", "twitter": "None", "instagram": "None", "facebook": "None", "youtube": "None", "website": "None", "summary": "None", "logo": "None", "latitude": 44.86713226617228, "longitude": -76.44162773342369}, "841314412RR0001": {"name": "Satipanna Insight Meditation Toronto", "designationCode": "C", "categoryCode": "35", "address": "PO BOX 68565 WALMER POSTOFFIC 360A BLOOR ST W", "city": "TORONTO", "province": "ON", "country": "CA", "postalCode": "M5S1X1", "twitter": "None", "instagram": "None", "facebook": "None", "youtube": "None", "website": "None", "summary": "None", "logo": "None", "latitude": 43.6665077600754, "longitude": -79.40499142685711}, "824013551RR0001": {"name": "Satipatthana Meditation Society of Canada", "designationCode": "C", "categoryCode": "35", "address": "4130 FAIRWAY PL", "city": "NORTH VANCOUVER", "province": "BC", "country": "CA", "postalCode": "V7G1Y7", "twitter": "None", "instagram": "None", "facebook": "None", "youtube": "None", "website": "None", "summary": "None", "logo": "None", "latitude": 49.30507050764606, "longitude": -122.95787314071787}, "818704819RR0001": {"name": "Saturday Night Church", "designationCode": "C", "categoryCode": "34", "address": "BOX 38", "city": "LANDMARK", "province": "MB", "country": "CA", "postalCode": "R0A0X0", "twitter": "None", "instagram": "None", "facebook": "None", "youtube": "None", "website": "None", "summary": "None", "logo": "None", "latitude": 49.66416000000004, "longitude": -96.81997999999999}, "832477939RR0001": {"name": "Saturna Island Marine Research and Education Society", "designationCode": "C", "categoryCode": "21", "address": "126 BOOT COVE ROAD            PO BOX 117", "city": "SATURNA ISLAND", "province": "BC", "country": "CA", "postalCode": "V0N2Y0", "twitter": "None", "instagram": "None", "facebook": "None", "youtube": "None", "website": "None", "summary": "None", "logo": "None", "latitude": 48.7945338910791, "longitude": -123.1984308032775}, "804426450RR0001": {"name": "Saturnina Foundation", "designationCode": "A", "categoryCode": "53", "address": "145 WINTER COVE RD", "city": "SATURNA", "province": "BC", "country": "CA", "postalCode": "V0N2Y0", "twitter": "None", "instagram": "None", "facebook": "None", "youtube": "None", "website": "None", "summary": "None", "logo": "None", "latitude": 48.805255878540315, "longitude": -123.19729719730564}, "136850104RR0001": {"name": "Satya Jyoti Cultural Sabha (Canada) Inc.", "designationCode": "C", "categoryCode": "39", "address": "9051 CREDITVIEW RD", "city": "BRAMPTON", "province": "ON", "country": "CA", "postalCode": "L6X0E5", "twitter": "None", "instagram": "None", "facebook": "None", "youtube": "None", "website": "None", "summary": "None", "logo": "None", "latitude": 43.65786340749571, "longitude": -79.79373291401751}, "889640975RR0001": {"name": "Saugeen Enjikendaaswiing Zhaang", "designationCode": "C", "categoryCode": "21", "address": "G.M.B. 14, R. R. # 1", "city": "SOUTHAMPTON", "province": "ON", "country": "CA", "postalCode": "N0H2L0", "twitter": "None", "instagram": "None", "facebook": "None", "youtube": "None", "website": "None", "summary": "None", "logo": "None", "latitude": 44.629558197152626, "longitude": -81.26467667245946}, "118820422RR0001": {"name": "Saugeen Mobility and Regional Transit (S.M.A.R.T.)", "designationCode": "C", "categoryCode": "09", "address": "P.O. BOX 40", "city": "WALKERTON", "province": "ON", "country": "CA", "postalCode": "N0G2V0", "twitter": "None", "instagram": "None", "facebook": "None", "youtube": "None", "website": "None", "summary": "None", "logo": "None"}, "836326058RR0001": {"name": "Saugeen Valley Children's Safety Village", "designationCode": "C", "categoryCode": "59", "address": "PO BOX 345 STN MAIN", "city": "HANOVER", "province": "ON", "country": "CA", "postalCode": "N4N3H6", "twitter": "None", "instagram": "None", "facebook": "None", "youtube": "None", "website": "None", "summary": "None", "logo": "None", "latitude": 44.152395000000055, "longitude": -81.02554999999994}, "886158955RR0001": {"name": "Saul S. Abracen & Family Foundation / Fondation Saul S. Abracen & Famille", "designationCode": "B", "categoryCode": "03", "address": "230 RUE NORMAN", "city": "LACHINE", "province": "QC", "country": "CA", "postalCode": "H8R1A1", "twitter": "None", "instagram": "None", "facebook": "None", "youtube": "None", "website": "None", "summary": "None", "logo": "None", "latitude": 45.448182369929285, "longitude": -73.6582806436607}, "832116107RR0001": {"name": "Sault Accessible Sports Inc.", "designationCode": "C", "categoryCode": "56", "address": "260 ELIZABETH STREET,         UNIT 2", "city": "SAULT SAINTE MARIE", "province": "ON", "country": "CA", "postalCode": "P6A6J3", "twitter": "None", "instagram": "None", "facebook": "None", "youtube": "None", "website": "None", "summary": "None", "logo": "None", "latitude": 46.50687518181463, "longitude": -84.30339439880844}, "825115215RR0001": {"name": "Sault North Waste Management Council", "designationCode": "C", "categoryCode": "59", "address": "500 BAY ST.", "city": "SAULT STE. MARIE", "province": "ON", "country": "CA", "postalCode": "P6A1X5", "twitter": "None", "instagram": "None", "facebook": "None", "youtube": "None", "website": "None", "summary": "None", "logo": "None", "latitude": 46.509129417450374, "longitude": -84.33223456702638}, "140536186RR0001": {"name": "Sault Ste. Marie Association for the Preservation of the Sault Ste. Marie Cross", "designationCode": "C", "categoryCode": "52", "address": "25 SUNNYSIDE BEACH ROAD", "city": "SAULT STE-MARIE", "province": "ON", "country": "CA", "postalCode": "P6A6K4", "twitter": "None", "instagram": "None", "facebook": "None", "youtube": "None", "website": "None", "summary": "None", "logo": "None", "latitude": 46.49255606434332, "longitude": -84.5307305809335}, "133119131RR0001": {"name": "Sault Ste. Marie Soup Kitchen Community Centre", "designationCode": "C", "categoryCode": "09", "address": "172 JAMES ST.", "city": "SAULT STE MARIE", "province": "ON", "country": "CA", "postalCode": "P6A1W3", "twitter": "None", "instagram": "None", "facebook": "None", "youtube": "None", "website": "None", "summary": "None", "logo": "None", "latitude": 46.521164001384996, "longitude": -84.35589490325479}, "840318067RR0001": {"name": "Sauvetage m\u00e9dical", "designationCode": "C", "categoryCode": "59", "address": "1015, RUE MCGUIRE", "city": "STE-SOPHIE", "province": "QC", "country": "CA", "postalCode": "J5J1J4", "twitter": "None", "instagram": "None", "facebook": "None", "youtube": "None", "website": "None", "summary": "None", "logo": "None", "latitude": 45.87695705721852, "longitude": -73.92934728695685}, "890983299RR0001": {"name": "Sauvetage B\u00e9n\u00e9vole Outaouais / Ottawa Volunteer Search and Rescue", "designationCode": "C", "categoryCode": "59", "address": "PO BOX 76 STN \"A\"", "city": "OTTAWA", "province": "ON", "country": "CA", "postalCode": "K1N8V1", "twitter": "None", "instagram": "None", "facebook": "None", "youtube": "None", "website": "None", "summary": "None", "logo": "None", "latitude": 45.42177300000006, "longitude": -75.69115999999994}, "828767335RR0001": {"name": "Save the Mothers", "designationCode": "C", "categoryCode": "25", "address": "27 LEGEND COURT               P.O. BOX 10126", "city": "ANCASTER", "province": "ON", "country": "CA", "postalCode": "L9K1P3", "twitter": "None", "instagram": "None", "facebook": "None", "youtube": "None", "website": "None", "summary": "None", "logo": "None", "latitude": 43.22742206717062, "longitude": -79.9484487795598}, "119141943RR0001": {"name": "Save A Family Plan", "designationCode": "C", "categoryCode": "09", "address": "1040 WATERLOO ST", "city": "LONDON", "province": "ON", "country": "CA", "postalCode": "N6A3Y1", "twitter": "None", "instagram": "None", "facebook": "None", "youtube": "None", "website": "None", "summary": "None", "logo": "None", "latitude": 43.010288943392744, "longitude": -81.25502440431382}, "808282040RR0001": {"name": "Save Me Dog Rescue", "designationCode": "C", "categoryCode": "54", "address": "121 DODGE DRIVE,", "city": "KITCHENER", "province": "ON", "country": "CA", "postalCode": "N2P2N2", "twitter": "None", "instagram": "None", "facebook": "None", "youtube": "None", "website": "None", "summary": "None", "logo": "None", "latitude": 43.370881136534265, "longitude": -80.43165318731624}, "845176403RR0001": {"name": "Save My Child International Inc.", "designationCode": "C", "categoryCode": "01", "address": "79 BLUEBERRY DRIVE", "city": "TORONTO", "province": "ON", "country": "CA", "postalCode": "M1S2X9", "twitter": "None", "instagram": "None", "facebook": "None", "youtube": "None", "website": "None", "summary": "None", "logo": "None", "latitude": 43.80096748600596, "longitude": -79.26926366472387}, "800478588RR0001": {"name": "Save Our Scruff - Rehome & Rescue", "designationCode": "C", "categoryCode": "54", "address": "15 APEX RD", "city": "NORTH YORK", "province": "ON", "country": "CA", "postalCode": "M6A2V6", "twitter": "None", "instagram": "None", "facebook": "None", "youtube": "None", "website": "None", "summary": "None", "logo": "None"}, "811461649RR0001": {"name": "SaveTheLasalle", "designationCode": "C", "categoryCode": "22", "address": "183 MAIN STREET NORTH", "city": "MARKHAM", "province": "ON", "country": "CA", "postalCode": "L3P1Y2", "twitter": "None", "instagram": "None", "facebook": "None", "youtube": "None", "website": "None", "summary": "None", "logo": "None", "latitude": 43.881131032200315, "longitude": -79.26151651203213}, "815352604RR0001": {"name": "Saving Animals From Euthanasia Team Edmonton Society", "designationCode": "B", "categoryCode": "54", "address": "4610 97 ST NW", "city": "EDMONTON", "province": "AB", "country": "CA", "postalCode": "T6E5N9", "twitter": "None", "instagram": "None", "facebook": "None", "youtube": "None", "website": "None", "summary": "None", "logo": "None", "latitude": 53.48419200000001, "longitude": -113.47940913436989}, "824819304RR0001": {"name": "Saving Grace Christian Resource Centre Inc.", "designationCode": "C", "categoryCode": "47", "address": "494 PELISSIER STREET,", "city": "WINDSOR", "province": "ON", "country": "CA", "postalCode": "N9A4K9", "twitter": "None", "instagram": "None", "facebook": "None", "youtube": "None", "website": "None", "summary": "None", "logo": "None", "latitude": 42.31496599533905, "longitude": -83.03844635758361}, "823275979RR0001": {"name": "Saviour of the Nations Evangelical Lutheran Church", "designationCode": "C", "categoryCode": "39", "address": "1634 41ST AVE E", "city": "VANCOUVER", "province": "BC", "country": "CA", "postalCode": "V5P1K5", "twitter": "None", "instagram": "None", "facebook": "None", "youtube": "None", "website": "None", "summary": "None", "logo": "None", "latitude": 49.23264849567219, "longitude": -123.0719834701656}, "805120284RR0001": {"name": "Sawa World Foundation", "designationCode": "A", "categoryCode": "03", "address": "304 - 2180 6TH AVE W", "city": "VANCOUVER", "province": "BC", "country": "CA", "postalCode": "V6K1V6", "twitter": "None", "instagram": "None", "facebook": "None", "youtube": "None", "website": "None", "summary": "None", "logo": "None", "latitude": 49.2664224884588, "longitude": -123.1547924701656}, "847078706RR0001": {"name": "Sayward Community Health Society", "designationCode": "C", "categoryCode": "11", "address": "PO BOX 33                     601 KELSEY WAY", "city": "SAYWARD", "province": "BC", "country": "CA", "postalCode": "V0P1R0", "twitter": "None", "instagram": "None", "facebook": "None", "youtube": "None", "website": "None", "summary": "None", "logo": "None", "latitude": 50.38026695232091, "longitude": -125.96085377556315}}