{"851524447RR0001": {"name": "Vancouver Korean Mission Church", "designationCode": "B", "categoryCode": "39", "address": "20 - 15325 99 AVE", "city": "SURREY", "province": "BC", "country": "CA", "postalCode": "V3R7T7", "twitter": "None", "instagram": "None", "facebook": "None", "youtube": "None", "website": "None", "summary": "None", "logo": "None", "latitude": 49.18263938889059, "longitude": -122.79757275}, "810216671RR0001": {"name": "Vancouver Korean Zion Church", "designationCode": "C", "categoryCode": "39", "address": "19 - 7255 BLAKE STREET", "city": "VANCOUVER", "province": "BC", "country": "CA", "postalCode": "V5S3V6", "twitter": "None", "instagram": "None", "facebook": "None", "youtube": "None", "website": "None", "summary": "None", "logo": "None", "latitude": 49.21744707056493, "longitude": -123.02974480843478}, "888586104RR0001": {"name": "Vancouver Latin American Film Festival", "designationCode": "C", "categoryCode": "22", "address": "420-111 HASTINGS ST. WEST", "city": "VANCOUVER", "province": "BC", "country": "CA", "postalCode": "V6B1H4", "twitter": "None", "instagram": "None", "facebook": "None", "youtube": "None", "website": "None", "summary": "None", "logo": "None", "latitude": 49.28265478836331, "longitude": -123.10975395924528}, "865843551RR0001": {"name": "Vancouver Manna Church", "designationCode": "C", "categoryCode": "36", "address": "1600 CLIFF AVE", "city": "BURNABY", "province": "BC", "country": "CA", "postalCode": "V5A2K2", "twitter": "None", "instagram": "None", "facebook": "None", "youtube": "None", "website": "None", "summary": "None", "logo": "None", "latitude": 49.269693530082634, "longitude": -122.95907893526169}, "847151487RR0001": {"name": "Vancouver Mind-Body Centre Society", "designationCode": "C", "categoryCode": "09", "address": "108 WEST 20TH AVENUE", "city": "VANCOUVER", "province": "BC", "country": "CA", "postalCode": "V5Y2C3", "twitter": "None", "instagram": "None", "facebook": "None", "youtube": "None", "website": "None", "summary": "None", "logo": "None", "latitude": 49.25277954674263, "longitude": -123.1076912216227}, "837012624RR0001": {"name": "Vancouver Museum Society", "designationCode": "C", "categoryCode": "50", "address": "1100 CHESTNUT ST.", "city": "VANCOUVER", "province": "BC", "country": "CA", "postalCode": "V6J3J9", "twitter": "None", "instagram": "None", "facebook": "None", "youtube": "None", "website": "None", "summary": "None", "logo": "None", "latitude": 49.27593053014573, "longitude": -123.14613943532011}, "834227365RR0001": {"name": "Vancouver Mustard Seed Church", "designationCode": "C", "categoryCode": "39", "address": "512 SCHOOLHOUSE ST", "city": "COQUITLAM", "province": "BC", "country": "CA", "postalCode": "V3J5N7", "twitter": "None", "instagram": "None", "facebook": "None", "youtube": "None", "website": "None", "summary": "None", "logo": "None", "latitude": 49.250007618096845, "longitude": -122.85237305277253}, "832848238RR0001": {"name": "Vancouver Opera Foundation", "designationCode": "A", "categoryCode": "03", "address": "1945 MCLEAN DR", "city": "VANCOUVER", "province": "BC", "country": "CA", "postalCode": "V5N3J7", "twitter": "None", "instagram": "None", "facebook": "None", "youtube": "None", "website": "None", "summary": "None", "logo": "None", "latitude": 49.267584, "longitude": -123.07551357282516}, "853721678RR0001": {"name": "Vancouver Pacific Housing Society", "designationCode": "C", "categoryCode": "09", "address": "145 EAST CORDOVA ST", "city": "VANCOUVER", "province": "BC", "country": "CA", "postalCode": "V6A1K7", "twitter": "None", "instagram": "None", "facebook": "None", "youtube": "None", "website": "None", "summary": "None", "logo": "None", "latitude": 49.282337460470735, "longitude": -123.10068108090485}, "838765139RR0001": {"name": "Vancouver Recovery Through Art Society", "designationCode": "C", "categoryCode": "09", "address": "2005 44TH E AVE", "city": "VANCOUVER", "province": "BC", "country": "CA", "postalCode": "V5P1N1", "twitter": "None", "instagram": "None", "facebook": "None", "youtube": "None", "website": "None", "summary": "None", "logo": "None", "latitude": 49.230425503750915, "longitude": -123.06516160644006}, "828732842RR0001": {"name": "Vancouver Redeemer Presbyterian Church", "designationCode": "C", "categoryCode": "39", "address": "19-14448 108 AVENUE", "city": "SURREY", "province": "BC", "country": "CA", "postalCode": "V3R1V4", "twitter": "None", "instagram": "None", "facebook": "None", "youtube": "None", "website": "None", "summary": "None", "logo": "None", "latitude": 49.19876152510253, "longitude": -122.82158169317329}, "837111657RR0001": {"name": "Vancouver Remnant Presbyterian Church", "designationCode": "C", "categoryCode": "37", "address": "10281 168 ST", "city": "SURREY", "province": "BC", "country": "CA", "postalCode": "V4N1Z3", "twitter": "None", "instagram": "None", "facebook": "None", "youtube": "None", "website": "None", "summary": "None", "logo": "None", "latitude": 49.18928306130336, "longitude": -122.75650776537219}, "817988637RR0001": {"name": "Vancouver School of Theology Foundation", "designationCode": "A", "categoryCode": "43", "address": "6015 WALTER GAGE ROAD", "city": "VANCOUVER", "province": "BC", "country": "CA", "postalCode": "V6T1Z1", "twitter": "None", "instagram": "None", "facebook": "None", "youtube": "None", "website": "None", "summary": "None", "logo": "None", "latitude": 49.270206714498464, "longitude": -123.24994945314965}, "808334932RR0001": {"name": "Vancouver Search and Rescue Society", "designationCode": "C", "categoryCode": "59", "address": "6862 YEW ST", "city": "VANCOUVER", "province": "BC", "country": "CA", "postalCode": "V6P5W1", "twitter": "None", "instagram": "None", "facebook": "None", "youtube": "None", "website": "None", "summary": "None", "logo": "None", "latitude": 49.223266962808026, "longitude": -123.15900807822179}, "853821734RR0001": {"name": "Vancouver Smyrna Church", "designationCode": "C", "categoryCode": "37", "address": "8384 200TH ST", "city": "LANGLEY", "province": "BC", "country": "CA", "postalCode": "V2Y2A7", "twitter": "None", "instagram": "None", "facebook": "None", "youtube": "None", "website": "None", "summary": "None", "logo": "None", "latitude": 49.15462357507647, "longitude": -122.66794202830518}, "849595400RR0001": {"name": "Vancouver South Presbytery", "designationCode": "C", "categoryCode": "44", "address": "115 19TH AVE W", "city": "VANCOUVER", "province": "BC", "country": "CA", "postalCode": "V5Y2B5", "twitter": "None", "instagram": "None", "facebook": "None", "youtube": "None", "website": "None", "summary": "None", "logo": "None", "latitude": 49.2538734676841, "longitude": -123.10779180391252}, "850149089RR0001": {"name": "Vancouver Sungan Presbyterian Church", "designationCode": "C", "categoryCode": "39", "address": "948 COMO LAKE AVE", "city": "COQUITLAM", "province": "BC", "country": "CA", "postalCode": "V3J7P9", "twitter": "None", "instagram": "None", "facebook": "None", "youtube": "None", "website": "None", "summary": "None", "logo": "None", "latitude": 49.26345998993742, "longitude": -122.86911952751916}, "832193627RR0001": {"name": "Vancouver Urban Ministries", "designationCode": "C", "categoryCode": "09", "address": "4847 JOYCE STREET", "city": "VANCOUVER", "province": "BC", "country": "CA", "postalCode": "V5R4G4", "twitter": "None", "instagram": "None", "facebook": "None", "youtube": "None", "website": "None", "summary": "None", "logo": "None", "latitude": 49.24111757674991, "longitude": -123.02915795839328}, "806119350RR0001": {"name": "Vancouver Urban Project Society to Support Opportunities forYouth", "designationCode": "C", "categoryCode": "09", "address": "223-2768 CRANBERRY DRIVE", "city": "VANCOUVER", "province": "BC", "country": "CA", "postalCode": "V6K4V1", "twitter": "None", "instagram": "None", "facebook": "None", "youtube": "None", "website": "None", "summary": "None", "logo": "None", "latitude": 49.261505753246105, "longitude": -123.15368841116064}, "833325830RR0001": {"name": "Vancouver Urbanarium Society", "designationCode": "C", "categoryCode": "59", "address": "598 GEORGIA ST W", "city": "VANCOUVER", "province": "BC", "country": "CA", "postalCode": "V6B2A3", "twitter": "None", "instagram": "None", "facebook": "None", "youtube": "None", "website": "None", "summary": "None", "logo": "None", "latitude": 49.2817461405545, "longitude": -123.11709639769096}, "814891339RR0001": {"name": "Vancouver Vietnamese Mennonite Brethren Church", "designationCode": "C", "categoryCode": "34", "address": "110-76 NANAIMO STREET NORTH", "city": "VANCOUVER", "province": "BC", "country": "CA", "postalCode": "V5L3G2", "twitter": "None", "instagram": "None", "facebook": "None", "youtube": "None", "website": "None", "summary": "None", "logo": "None", "latitude": 49.28772810394259, "longitude": -123.05654085973715}, "838351492RR0001": {"name": "Vancouver Vine Church", "designationCode": "C", "categoryCode": "39", "address": "16746 108A AVE", "city": "SURREY", "province": "BC", "country": "CA", "postalCode": "V4N5H6", "twitter": "None", "instagram": "None", "facebook": "None", "youtube": "None", "website": "None", "summary": "None", "logo": "None", "latitude": 49.199645536211044, "longitude": -122.7580014657222}, "846204360RR0001": {"name": "Vancouver Younghwa Presbyterian Church", "designationCode": "B", "categoryCode": "37", "address": "1700 MOUNTAIN HIGHWAY", "city": "NORTH VANCOUVER", "province": "BC", "country": "CA", "postalCode": "V7J3S2", "twitter": "None", "instagram": "None", "facebook": "None", "youtube": "None", "website": "None", "summary": "None", "logo": "None", "latitude": 49.32433649125744, "longitude": -123.03829891447887}, "828120337RR0001": {"name": "Vancouver Zion Mission Choir Society", "designationCode": "A", "categoryCode": "47", "address": "10186 155 STREET              UNIT 414", "city": "SURREY", "province": "BC", "country": "CA", "postalCode": "V3R0R6", "twitter": "None", "instagram": "None", "facebook": "None", "youtube": "None", "website": "None", "summary": "None", "logo": "None", "latitude": 49.18724901416692, "longitude": -122.7926369780428}, "888408648RR0001": {"name": "Vanderhoof Fire Rescue Association", "designationCode": "C", "categoryCode": "59", "address": "BOX 178", "city": "VANDERHOOF", "province": "BC", "country": "CA", "postalCode": "V0J3A0", "twitter": "None", "instagram": "None", "facebook": "None", "youtube": "None", "website": "None", "summary": "None", "logo": "None", "latitude": 54.01397400000006, "longitude": -124.01297449999993}, "885336552RR0001": {"name": "Vanier Community Church", "designationCode": "C", "categoryCode": "36", "address": "221 BARIBEAU STREET", "city": "OTTAWA", "province": "ON", "country": "CA", "postalCode": "K1L7R7", "twitter": "None", "instagram": "None", "facebook": "None", "youtube": "None", "website": "None", "summary": "None", "logo": "None", "latitude": 45.43768244685207, "longitude": -75.66712390893893}, "858346422RR0001": {"name": "Vanscoy and District Early Learning Center Inc.", "designationCode": "C", "categoryCode": "01", "address": "P.O. BOX 299", "city": "VANSCOY", "province": "SK", "country": "CA", "postalCode": "S0L3J0", "twitter": "None", "instagram": "None", "facebook": "None", "youtube": "None", "website": "None", "summary": "None", "logo": "None", "latitude": 52.00073000000003, "longitude": -106.97436999999996}, "847625266RR0001": {"name": "Vantage Church", "designationCode": "C", "categoryCode": "39", "address": "PO BOX 64544", "city": "UNIONVILLE", "province": "ON", "country": "CA", "postalCode": "L3R0M9", "twitter": "None", "instagram": "None", "facebook": "None", "youtube": "None", "website": "None", "summary": "None", "logo": "None", "latitude": 43.85633046782344, "longitude": -79.30667650275377}, "119261238RR0001": {"name": "Vantage Point Strategies Society", "designationCode": "C", "categoryCode": "09", "address": "1183 MELVILLE STREET", "city": "VANCOUVER", "province": "BC", "country": "CA", "postalCode": "V6E2X5", "twitter": "None", "instagram": "None", "facebook": "None", "youtube": "None", "website": "None", "summary": "None", "logo": "None", "latitude": 49.28771390857447, "longitude": -123.12380546579101}, "830120051RR0001": {"name": "VantagePoint Community Church (Edmonton)", "designationCode": "C", "categoryCode": "39", "address": "7228 152B AVENUE", "city": "EDMONTON", "province": "AB", "country": "CA", "postalCode": "T5C3N4", "twitter": "None", "instagram": "None", "facebook": "None", "youtube": "None", "website": "None", "summary": "None", "logo": "None", "latitude": 53.61453351875455, "longitude": -113.4504135}, "754136323RR0001": {"name": "Varico Charitable Foundation", "designationCode": "B", "categoryCode": "03", "address": "1008 WEST CHESTERMERE DR", "city": "CHESTERMERE", "province": "AB", "country": "CA", "postalCode": "T1X1B7", "twitter": "None", "instagram": "None", "facebook": "None", "youtube": "None", "website": "None", "summary": "None", "logo": "None", "latitude": 51.0218192828207, "longitude": -113.82821636072538}, "805362720RR0001": {"name": "Variety Charit\u00e9 pour les enfants-Qu\u00e9bec Variety Children's Charity-Quebec", "designationCode": "C", "categoryCode": "11", "address": "3900 - 1 PLACE VILLE-MARIE", "city": "MONTREAL", "province": "QC", "country": "CA", "postalCode": "H3B4M7", "twitter": "None", "instagram": "None", "facebook": "None", "youtube": "None", "website": "None", "summary": "None", "logo": "None", "latitude": 45.50188724476333, "longitude": -73.56787382018557}, "894089465RR0001": {"name": "Variety, the Children's Charity of Manitoba, Inc.", "designationCode": "C", "categoryCode": "09", "address": "#2-1313 BORDER STREET", "city": "WINNIPEG", "province": "MB", "country": "CA", "postalCode": "R3H0X4", "twitter": "None", "instagram": "None", "facebook": "None", "youtube": "None", "website": "None", "summary": "None", "logo": "None", "latitude": 49.90984967998731, "longitude": -97.20165768076671}, "817240310RR0001": {"name": "Varsity Leadership Foundation", "designationCode": "A", "categoryCode": "23", "address": "180 COURCELETTE RD", "city": "SCARBOROUGH", "province": "ON", "country": "CA", "postalCode": "M1N2T2", "twitter": "None", "instagram": "None", "facebook": "None", "youtube": "None", "website": "None", "summary": "None", "logo": "None", "latitude": 43.68105020982171, "longitude": -79.27998535042398}, "888276227RR0001": {"name": "Vasculitis Foundation Canada Fondation Vasculites Canada", "designationCode": "C", "categoryCode": "13", "address": "446 - 425 HESPELER ROAD", "city": "CAMBRIDGE", "province": "ON", "country": "CA", "postalCode": "N1R8J6", "twitter": "None", "instagram": "None", "facebook": "None", "youtube": "None", "website": "None", "summary": "None", "logo": "None", "latitude": 43.3958212028968, "longitude": -80.3239978882225}, "898931126RR0001": {"name": "Vaughan in Action Community Program Inc.", "designationCode": "C", "categoryCode": "59", "address": "10 PLANCHET ROAD              UNIT 19", "city": "CONCORD", "province": "ON", "country": "CA", "postalCode": "L4K2C8", "twitter": "None", "instagram": "None", "facebook": "None", "youtube": "None", "website": "None", "summary": "None", "logo": "None", "latitude": 43.820509936147616, "longitude": -79.49935569894342}, "844664565RR0001": {"name": "Vaughan Community Health Centre Corporation", "designationCode": "C", "categoryCode": "11", "address": "9401 JANE STREET              SUITE 206", "city": "VAUGHAN", "province": "ON", "country": "CA", "postalCode": "L6A4H7", "twitter": "None", "instagram": "None", "facebook": "None", "youtube": "None", "website": "None", "summary": "None", "logo": "None", "latitude": 43.83657384430717, "longitude": -79.53383660563293}, "828676601RR0001": {"name": "Vaughan Sarang Church", "designationCode": "B", "categoryCode": "39", "address": "2110 - 9 VALHALLA INN RD", "city": "ETOBICOKE", "province": "ON", "country": "CA", "postalCode": "M9B0B2", "twitter": "None", "instagram": "None", "facebook": "None", "youtube": "None", "website": "None", "summary": "None", "logo": "None", "latitude": 43.64109086860257, "longitude": -79.55923667418759}, "801925918RR0001": {"name": "Vauxhall Cemetary Committee", "designationCode": "C", "categoryCode": "59", "address": "505-2ND STREET NORTH          PO BOX 849", "city": "VAUXHALL", "province": "AB", "country": "CA", "postalCode": "T0K2K0", "twitter": "None", "instagram": "None", "facebook": "None", "youtube": "None", "website": "None", "summary": "None", "logo": "None", "latitude": 50.0717038148768, "longitude": -112.09918293075192}, "808393656RR0001": {"name": "Veazey Scholarship Foundation", "designationCode": "C", "categoryCode": "25", "address": "1200-200 BURRARD ST           BOX 48600", "city": "VANCOUVER", "province": "BC", "country": "CA", "postalCode": "V7X1T2", "twitter": "None", "instagram": "None", "facebook": "None", "youtube": "None", "website": "None", "summary": "None", "logo": "None", "latitude": 49.286055733749365, "longitude": -123.11861287615625}, "833250293RR0001": {"name": "Vedanta Cultural Foundation Canada", "designationCode": "C", "categoryCode": "48", "address": "4212 TRAPPER CRES", "city": "MISSISSAUGA", "province": "ON", "country": "CA", "postalCode": "L5L3A9", "twitter": "None", "instagram": "None", "facebook": "None", "youtube": "None", "website": "None", "summary": "None", "logo": "None", "latitude": 43.55456933305442, "longitude": -79.68975321790045}, "835646571RR0001": {"name": "Vedic Institute of Canada", "designationCode": "C", "categoryCode": "48", "address": "2224 GRAND OAK TRAIL", "city": "OAKVILLE", "province": "ON", "country": "CA", "postalCode": "L6M4S6", "twitter": "None", "instagram": "None", "facebook": "None", "youtube": "None", "website": "None", "summary": "None", "logo": "None", "latitude": 43.4295316008715, "longitude": -79.76201909536022}, "893711069RR0001": {"name": "Vegreville United Church", "designationCode": "C", "categoryCode": "44", "address": "5126-48TH AVENUE", "city": "VEGREVILLE", "province": "AB", "country": "CA", "postalCode": "T9C1M7", "twitter": "None", "instagram": "None", "facebook": "None", "youtube": "None", "website": "None", "summary": "None", "logo": "None", "latitude": 53.494722753274765, "longitude": -112.05810917955462}, "809981939RR0001": {"name": "Vellore Ludhiana Committee of Canada", "designationCode": "C", "categoryCode": "09", "address": "722 COXWELL AVENUE", "city": "TORONTO", "province": "ON", "country": "CA", "postalCode": "M4C3C2", "twitter": "None", "instagram": "None", "facebook": "None", "youtube": "None", "website": "None", "summary": "None", "logo": "None", "latitude": 43.68481293282939, "longitude": -79.32424612450212}, "823650882RR0001": {"name": "Veloo Foundation", "designationCode": "B", "categoryCode": "09", "address": "1800-510 WEST GEORGIA STREET", "city": "VANCOUVER", "province": "BC", "country": "CA", "postalCode": "V6B0M3", "twitter": "None", "instagram": "None", "facebook": "None", "youtube": "None", "website": "None", "summary": "None", "logo": "None", "latitude": 49.281267759207665, "longitude": -123.11633309804196}, "823427364RR0001": {"name": "Vents D'Espoir de la Vall\u00e9e du Saint-Laurent", "designationCode": "C", "categoryCode": "09", "address": "1775 RANG SAINT-PAUL", "city": "SAINT-REMI", "province": "QC", "country": "CA", "postalCode": "J0L2L0", "twitter": "None", "instagram": "None", "facebook": "None", "youtube": "None", "website": "None", "summary": "None", "logo": "None", "latitude": 45.216156867043765, "longitude": -73.63751443779239}, "847995032RR0001": {"name": "Venture For Canada Fellowship Institute", "designationCode": "C", "categoryCode": "29", "address": "300 - 325 FRONT ST W", "city": "TORONTO", "province": "ON", "country": "CA", "postalCode": "M5V2Y1", "twitter": "None", "instagram": "None", "facebook": "None", "youtube": "None", "website": "None", "summary": "None", "logo": "None", "latitude": 43.64363976876936, "longitude": -79.38998600401071}, "886408798RR0001": {"name": "Venue Church, Mountain View", "designationCode": "C", "categoryCode": "39", "address": "PO BOX 10592 STN MAIN", "city": "AIRDRIE", "province": "AB", "country": "CA", "postalCode": "T4A0H8", "twitter": "None", "instagram": "None", "facebook": "None", "youtube": "None", "website": "None", "summary": "None", "logo": "None", "latitude": 51.28868400000006, "longitude": -114.01344349999994}, "779019892RR0001": {"name": "Vera Causa Opera", "designationCode": "C", "categoryCode": "22", "address": "107 QUEEN ST E", "city": "CAMBRIDGE", "province": "ON", "country": "CA", "postalCode": "N3C2A9", "twitter": "None", "instagram": "None", "facebook": "None", "youtube": "None", "website": "None", "summary": "None", "logo": "None", "latitude": 43.43345302138028, "longitude": -80.30739370387776}, "818928731RR0001": {"name": "Verb Theatre Society", "designationCode": "C", "categoryCode": "22", "address": "331 41 AVE NE", "city": "CALGARY", "province": "AB", "country": "CA", "postalCode": "T2E2N4", "twitter": "None", "instagram": "None", "facebook": "None", "youtube": "None", "website": "None", "summary": "None", "logo": "None", "latitude": 51.089921065953405, "longitude": -114.05584591829623}, "757501895RR0001": {"name": "Verde Foundation", "designationCode": "B", "categoryCode": "03", "address": "130 YORKMINSTER ROAD", "city": "TORONTO", "province": "ON", "country": "CA", "postalCode": "M2P1M6", "twitter": "None", "instagram": "None", "facebook": "None", "youtube": "None", "website": "None", "summary": "None", "logo": "None", "latitude": 43.757218791015, "longitude": -79.39475836929412}, "118782630RR0025": {"name": "Verdun Chinese Alliance Church", "designationCode": "C", "categoryCode": "39", "address": "6259 BOUL MONK", "city": "MONTREAL", "province": "QC", "country": "CA", "postalCode": "H4E3H8", "twitter": "None", "instagram": "None", "facebook": "None", "youtube": "None", "website": "None", "summary": "None", "logo": "None", "latitude": 45.45598655092622, "longitude": -73.59512543868642}, "859093726RR0001": {"name": "Veritas-Advancing Journalism in the Public Interest", "designationCode": "C", "categoryCode": "21", "address": "55 RAINSFORD ROAD", "city": "TORONTO", "province": "ON", "country": "CA", "postalCode": "M4L3N7", "twitter": "None", "instagram": "None", "facebook": "None", "youtube": "None", "website": "None", "summary": "None", "logo": "None", "latitude": 43.67097761671186, "longitude": -79.30788872756665}, "857600019RR0001": {"name": "Verity Matters", "designationCode": "C", "categoryCode": "09", "address": "8045 WYANDOTTE ST E", "city": "WINDSOR", "province": "ON", "country": "CA", "postalCode": "N8S1T2", "twitter": "None", "instagram": "None", "facebook": "None", "youtube": "None", "website": "None", "summary": "None", "logo": "None", "latitude": 42.333434488458806, "longitude": -82.94198399999999}, "899057707RR0001": {"name": "Vermilion & Area Handivan Society", "designationCode": "C", "categoryCode": "09", "address": "BOX 3223", "city": "VERMILION", "province": "AB", "country": "CA", "postalCode": "T9X2B2", "twitter": "None", "instagram": "None", "facebook": "None", "youtube": "None", "website": "None", "summary": "None", "logo": "None", "latitude": 53.35397700000006, "longitude": -110.85710299999994}, "842153215RR0001": {"name": "Vernon & District Community Land Trust Society", "designationCode": "C", "categoryCode": "09", "address": "3105 33RD  ST", "city": "VERNON", "province": "BC", "country": "CA", "postalCode": "V1T9P7", "twitter": "None", "instagram": "None", "facebook": "None", "youtube": "None", "website": "None", "summary": "None", "logo": "None", "latitude": 50.265108, "longitude": -119.2750784924695}, "136402880RR0001": {"name": "Vernon and District Immigrant and Community Services Society", "designationCode": "C", "categoryCode": "09", "address": "#100-3003 30TH ST", "city": "VERNON", "province": "BC", "country": "CA", "postalCode": "V1T9J5", "twitter": "None", "instagram": "None", "facebook": "None", "youtube": "None", "website": "None", "summary": "None", "logo": "None", "latitude": 50.2643334970858, "longitude": -119.27068004353997}, "826162703RR0001": {"name": "Vernon Free Grace Presbyterian Church", "designationCode": "C", "categoryCode": "39", "address": "3702 13 STREET", "city": "VERNON", "province": "BC", "country": "CA", "postalCode": "V1T3T4", "twitter": "None", "instagram": "None", "facebook": "None", "youtube": "None", "website": "None", "summary": "None", "logo": "None", "latitude": 50.268816000000015, "longitude": -119.2495834781001}, "824273379RR0001": {"name": "Vernon Live Well Clinic for Sexual Health and Pregnancy Association", "designationCode": "C", "categoryCode": "09", "address": "3504 30 ST", "city": "VERNON", "province": "BC", "country": "CA", "postalCode": "V1T5E8", "twitter": "None", "instagram": "None", "facebook": "None", "youtube": "None", "website": "None", "summary": "None", "logo": "None", "latitude": 50.26804174854291, "longitude": -119.27077298199526}, "764789327RR0001": {"name": "Vero Foundation", "designationCode": "B", "categoryCode": "05", "address": "4123 17 ST SW", "city": "CALGARY", "province": "AB", "country": "CA", "postalCode": "T2T4P7", "twitter": "None", "instagram": "None", "facebook": "None", "youtube": "None", "website": "None", "summary": "None", "logo": "None", "latitude": 51.01731983819033, "longitude": -114.10336766307908}, "119003564RR0001": {"name": "Verona Pentecostal Assembly", "designationCode": "C", "categoryCode": "36", "address": "BOX 58", "city": "VERONA", "province": "ON", "country": "CA", "postalCode": "K0H2W0", "twitter": "None", "instagram": "None", "facebook": "None", "youtube": "None", "website": "None", "summary": "None", "logo": "None", "latitude": 44.48114752082804, "longitude": -76.69501084524111}, "848877445RR0001": {"name": "Veronika Children Leukemia Foundation", "designationCode": "C", "categoryCode": "11", "address": "501 JEFFERSON AVENUE", "city": "COQUITLAM", "province": "BC", "country": "CA", "postalCode": "V3J3T7", "twitter": "None", "instagram": "None", "facebook": "None", "youtube": "None", "website": "None", "summary": "None", "logo": "None", "latitude": 49.265743471579256, "longitude": -122.89292413780367}, "129156949RR0001": {"name": "Vers l'\u00e9quilibre", "designationCode": "C", "categoryCode": "56", "address": "4217 RUE ONTARIO EST", "city": "MONTREAL", "province": "QC", "country": "CA", "postalCode": "H1V1K2", "twitter": "None", "instagram": "None", "facebook": "None", "youtube": "None", "website": "None", "summary": "None", "logo": "None", "latitude": 45.55148386317729, "longitude": -73.54051165225906}, "801859778RR0001": {"name": "Vertical Church Cochrane", "designationCode": "C", "categoryCode": "39", "address": "PO BOX 2080", "city": "PINCHER CREEK", "province": "AB", "country": "CA", "postalCode": "T0K1W0", "twitter": "None", "instagram": "None", "facebook": "None", "youtube": "None", "website": "None", "summary": "None", "logo": "None", "latitude": 49.48739000000006, "longitude": -113.9366800732874}, "859624363RR0001": {"name": "Vesica Canada", "designationCode": "C", "categoryCode": "09", "address": "1430-8TH STREET N.W.", "city": "CALGARY", "province": "AB", "country": "CA", "postalCode": "T2M3K3", "twitter": "None", "instagram": "None", "facebook": "None", "youtube": "None", "website": "None", "summary": "None", "logo": "None", "latitude": 51.06500958090484, "longitude": -114.0812787897456}, "828604041RR0001": {"name": "Veterans Emergency Transition Services Canada", "designationCode": "C", "categoryCode": "09", "address": "53 QUEEN STREET               POST OFFICE BOX 214", "city": "DARTMOUTH", "province": "NS", "country": "CA", "postalCode": "B2Y3Y3", "twitter": "None", "instagram": "None", "facebook": "None", "youtube": "None", "website": "None", "summary": "None", "logo": "None", "latitude": 44.66654204691551, "longitude": -63.56705264129478}, "821826195RR0001": {"name": "Veterans Helping Veterans", "designationCode": "C", "categoryCode": "09", "address": "154 BRONTE ST SOUTH           SUITE 106", "city": "MILTON", "province": "ON", "country": "CA", "postalCode": "L9T5C9", "twitter": "None", "instagram": "None", "facebook": "None", "youtube": "None", "website": "None", "summary": "None", "logo": "None", "latitude": 43.50526871743911, "longitude": -79.88374984292219}, "826498438RR0001": {"name": "Veterans Legal Assistance Foundation/Fondation d'Assistance Juridique des V\u00e9t\u00e9rans", "designationCode": "C", "categoryCode": "59", "address": "PO BOX 730 STN CENTRAL", "city": "HALIFAX", "province": "NS", "country": "CA", "postalCode": "B3J2V1", "twitter": "None", "instagram": "None", "facebook": "None", "youtube": "None", "website": "None", "summary": "None", "logo": "None", "latitude": 44.645478000000054, "longitude": -63.576552499999934}, "818609521RR0001": {"name": "Veterans Memorial Restoration Society", "designationCode": "C", "categoryCode": "59", "address": "33812 VICTORY BLVD", "city": "ABBOTSFORD", "province": "BC", "country": "CA", "postalCode": "V2S1S6", "twitter": "None", "instagram": "None", "facebook": "None", "youtube": "None", "website": "None", "summary": "None", "logo": "None", "latitude": 49.04129428642739, "longitude": -122.28721149489276}, "817998503RR0001": {"name": "Veterans Transition Network", "designationCode": "C", "categoryCode": "11", "address": "518-470 GRANVILLE ST", "city": "VANCOUVER", "province": "BC", "country": "CA", "postalCode": "V6C1V5", "twitter": "None", "instagram": "None", "facebook": "None", "youtube": "None", "website": "None", "summary": "None", "logo": "None", "latitude": 49.284803850395335, "longitude": -123.11456554633858}, "828088534RR0001": {"name": "Veterans Transitioning to Civilian Life Foundation (VTCLF)", "designationCode": "B", "categoryCode": "03", "address": "23-20 KERNOHAN PARKWAY", "city": "LONDON", "province": "ON", "country": "CA", "postalCode": "N6J4Y3", "twitter": "None", "instagram": "None", "facebook": "None", "youtube": "None", "website": "None", "summary": "None", "logo": "None", "latitude": 42.968437427981954, "longitude": -81.28067196944446}, "717984520RR0001": {"name": "Via Apostolica Church Calgary", "designationCode": "C", "categoryCode": "30", "address": "205 GRASSLAND BLVD W", "city": "LETHBRIDGE", "province": "AB", "country": "CA", "postalCode": "T1J5J4", "twitter": "None", "instagram": "None", "facebook": "None", "youtube": "None", "website": "None", "summary": "None", "logo": "None", "latitude": 49.69513791599189, "longitude": -112.91132036808385}, "848997037RR0001": {"name": "Via Apostolica Church Comox Valley", "designationCode": "C", "categoryCode": "39", "address": "203 - 303 ARDEN RD", "city": "COURTENAY", "province": "BC", "country": "CA", "postalCode": "V9N0A8", "twitter": "None", "instagram": "None", "facebook": "None", "youtube": "None", "website": "None", "summary": "None", "logo": "None", "latitude": 49.681097958389714, "longitude": -125.02417470444726}, "131902785RR0001": {"name": "Via Apostolica Church Lethbridge", "designationCode": "C", "categoryCode": "39", "address": "2820 18 AVE N", "city": "LETHBRIDGE", "province": "AB", "country": "CA", "postalCode": "T1H5K1", "twitter": "None", "instagram": "None", "facebook": "None", "youtube": "None", "website": "None", "summary": "None", "logo": "None", "latitude": 49.72235154227055, "longitude": -112.7997315}, "822561056RR0001": {"name": "Viaduct Foundation", "designationCode": "B", "categoryCode": "05", "address": "2637 TURRET  CRES", "city": "COQUITLAM", "province": "BC", "country": "CA", "postalCode": "V3E1R5", "twitter": "None", "instagram": "None", "facebook": "None", "youtube": "None", "website": "None", "summary": "None", "logo": "None", "latitude": 49.289750369438366, "longitude": -122.81208666639732}, "897960456RR0001": {"name": "Vibe Arts", "designationCode": "C", "categoryCode": "22", "address": "230-401 RICHMOND ST WEST", "city": "TORONTO", "province": "ON", "country": "CA", "postalCode": "M5V3A8", "twitter": "None", "instagram": "None", "facebook": "None", "youtube": "None", "website": "None", "summary": "None", "logo": "None", "latitude": 43.64803297305114, "longitude": -79.39483379779568}, "883511024RR0001": {"name": "Victim Services of Middlesex County", "designationCode": "C", "categoryCode": "59", "address": "823 EXETER RD", "city": "LONDON", "province": "ON", "country": "CA", "postalCode": "N6E1W1", "twitter": "None", "instagram": "None", "facebook": "None", "youtube": "None", "website": "None", "summary": "None", "logo": "None", "latitude": 42.92625827930848, "longitude": -81.21263902790719}, "870383395RR0001": {"name": "Victim Services of Nipissing District", "designationCode": "C", "categoryCode": "59", "address": "P O BOX 1532", "city": "NORTH BAY", "province": "ON", "country": "CA", "postalCode": "P1B8K6", "twitter": "None", "instagram": "None", "facebook": "None", "youtube": "None", "website": "None", "summary": "None", "logo": "None", "latitude": 46.30661700000006, "longitude": -79.45993249999994}, "889750840RR0001": {"name": "Victim Services Bruce Grey Perth", "designationCode": "C", "categoryCode": "09", "address": "611 - 9 AVENUE EAST", "city": "OWEN SOUND", "province": "ON", "country": "CA", "postalCode": "N4K6Z4", "twitter": "None", "instagram": "None", "facebook": "None", "youtube": "None", "website": "None", "summary": "None", "logo": "None", "latitude": 44.56280255170563, "longitude": -80.9267743588208}, "807738935RR0001": {"name": "Victoria Academy of Ballet Scholarship Society", "designationCode": "C", "categoryCode": "22", "address": "2630 ASQUITH ST", "city": "VICTORIA", "province": "BC", "country": "CA", "postalCode": "V8R3Y3", "twitter": "None", "instagram": "None", "facebook": "None", "youtube": "None", "website": "None", "summary": "None", "logo": "None", "latitude": 48.43697599056494, "longitude": -123.34091145591178}, "840080279RR0001": {"name": "Victoria Angel Registry of Hope", "designationCode": "B", "categoryCode": "11", "address": "402-379 CHURCH ST", "city": "MARKHAM", "province": "ON", "country": "CA", "postalCode": "L6B0T1", "twitter": "None", "instagram": "None", "facebook": "None", "youtube": "None", "website": "None", "summary": "None", "logo": "None", "latitude": 43.88508088201874, "longitude": -79.23171354925277}, "131162463RR0001": {"name": "Victoria Arts Council", "designationCode": "C", "categoryCode": "22", "address": "636 FORT ST", "city": "VICTORIA", "province": "BC", "country": "CA", "postalCode": "V8W3V2", "twitter": "None", "instagram": "None", "facebook": "None", "youtube": "None", "website": "None", "summary": "None", "logo": "None", "latitude": 48.424802424403936, "longitude": -123.36663856243875}, "119030666RR0052": {"name": "Victoria Avenue Seventh-Day Adventist Church", "designationCode": "C", "categoryCode": "41", "address": "1004 VICTORIA AVE", "city": "SASKATOON", "province": "SK", "country": "CA", "postalCode": "S7N0Z8", "twitter": "None", "instagram": "None", "facebook": "None", "youtube": "None", "website": "None", "summary": "None", "logo": "None", "latitude": 52.115409, "longitude": -106.66240826773014}, "879317006RR0001": {"name": "Victoria Ballet Company", "designationCode": "C", "categoryCode": "22", "address": "119 CAMBRIDGE CRES.", "city": "RICHMOND HILL", "province": "ON", "country": "CA", "postalCode": "L4C6E9", "twitter": "None", "instagram": "None", "facebook": "None", "youtube": "None", "website": "None", "summary": "None", "logo": "None", "latitude": 43.83750131640601, "longitude": -79.44747411806817}, "840804041RR0001": {"name": "Victoria Baroque Music Society", "designationCode": "C", "categoryCode": "22", "address": "1611 QUADRA ST", "city": "VICTORIA", "province": "BC", "country": "CA", "postalCode": "V8W2L5", "twitter": "None", "instagram": "None", "facebook": "None", "youtube": "None", "website": "None", "summary": "None", "logo": "None", "latitude": 48.42836917262972, "longitude": -123.35890255363886}, "839439619RR0001": {"name": "Victoria Canaan Presbyterian Church", "designationCode": "C", "categoryCode": "37", "address": "16 - 3330 GLASGOW AVE", "city": "VICTORIA", "province": "BC", "country": "CA", "postalCode": "V8X1M6", "twitter": "None", "instagram": "None", "facebook": "None", "youtube": "None", "website": "None", "summary": "None", "logo": "None", "latitude": 48.45307986095558, "longitude": -123.36251669946301}, "831675111RR0001": {"name": "Victoria Cardiac Rehabilitation Society", "designationCode": "C", "categoryCode": "11", "address": "2004 RUNNYMEDE AVENUE", "city": "VICTORIA", "province": "BC", "country": "CA", "postalCode": "V8S2V6", "twitter": "None", "instagram": "None", "facebook": "None", "youtube": "None", "website": "None", "summary": "None", "logo": "None", "latitude": 48.418817814328534, "longitude": -123.32343521536163}, "815491519RR0001": {"name": "Victoria Centre for Inspired Living Society", "designationCode": "C", "categoryCode": "39", "address": "1871 HILLCREST AVENUE", "city": "VICTORIA", "province": "BC", "country": "CA", "postalCode": "V8N2R7", "twitter": "None", "instagram": "None", "facebook": "None", "youtube": "None", "website": "None", "summary": "None", "logo": "None", "latitude": 48.48324686759203, "longitude": -123.31341753748045}, "818349730RR0001": {"name": "Victoria Community Food Hub Society", "designationCode": "C", "categoryCode": "09", "address": "PO BOX 46002                  RPO QUADRA VILLAGE", "city": "VICTORIA", "province": "BC", "country": "CA", "postalCode": "V8T5G7", "twitter": "None", "instagram": "None", "facebook": "None", "youtube": "None", "website": "None", "summary": "None", "logo": "None", "latitude": 48.438045215190826, "longitude": -123.35877681575275}, "119284016RR0001": {"name": "Victoria Crime Stoppers Association", "designationCode": "C", "categoryCode": "59", "address": "760 VERNON AVE", "city": "VICTORIA", "province": "BC", "country": "CA", "postalCode": "V8X2W6", "twitter": "None", "instagram": "None", "facebook": "None", "youtube": "None", "website": "None", "summary": "None", "logo": "None", "latitude": 48.45849676424935, "longitude": -123.37553856614545}, "849571484RR0001": {"name": "Victoria Dandelion Society", "designationCode": "C", "categoryCode": "09", "address": "709 YATES ST                  PO BOX 8648", "city": "VICTORIA", "province": "BC", "country": "CA", "postalCode": "V8W3S2", "twitter": "None", "instagram": "None", "facebook": "None", "youtube": "None", "website": "None", "summary": "None", "logo": "None", "latitude": 48.42618257227784, "longitude": -123.36427466778228}, "809760234RR0001": {"name": "Victoria Gold Yukon Student Encouragement Society", "designationCode": "C", "categoryCode": "21", "address": "250 - 2237 2ND AVE", "city": "WHITEHORSE", "province": "YT", "country": "CA", "postalCode": "Y1A0K7", "twitter": "None", "instagram": "None", "facebook": "None", "youtube": "None", "website": "None", "summary": "None", "logo": "None", "latitude": 60.72397200443559, "longitude": -135.05561400303918}, "815824420RR0001": {"name": "Victoria Good News Choir Society", "designationCode": "C", "categoryCode": "22", "address": "2484 SINCLAIR RD", "city": "VICTORIA", "province": "BC", "country": "CA", "postalCode": "V8N1B4", "twitter": "None", "instagram": "None", "facebook": "None", "youtube": "None", "website": "None", "summary": "None", "logo": "None", "latitude": 48.463534780194976, "longitude": -123.30201715915528}, "814079786RR0001": {"name": "Victoria Hall Society", "designationCode": "C", "categoryCode": "09", "address": "PO BOX 31224 RPO GLADSTONE", "city": "HALIFAX", "province": "NS", "country": "CA", "postalCode": "B3K5Y1", "twitter": "None", "instagram": "None", "facebook": "None", "youtube": "None", "website": "None", "summary": "None", "logo": "None", "latitude": 44.65368668731068, "longitude": -63.59844402681182}, "891462574RR0001": {"name": "Victoria Hindu Parishad and Cultural Center", "designationCode": "C", "categoryCode": "48", "address": "1934 CULTRA AVE", "city": "SAANICHTON", "province": "BC", "country": "CA", "postalCode": "V8M1L7", "twitter": "None", "instagram": "None", "facebook": "None", "youtube": "None", "website": "None", "summary": "None", "logo": "None", "latitude": 48.592453284100394, "longitude": -123.41952383998154}, "847143179RR0001": {"name": "Victoria Humane Society", "designationCode": "C", "categoryCode": "54", "address": "3648 ROBB PLACE", "city": "VICTORIA", "province": "BC", "country": "CA", "postalCode": "V9E1C8", "twitter": "None", "instagram": "None", "facebook": "None", "youtube": "None", "website": "None", "summary": "None", "logo": "None", "latitude": 48.513101274841596, "longitude": -123.4631461963139}, "839286176RR0001": {"name": "Victoria Lighthouse Ministry", "designationCode": "C", "categoryCode": "39", "address": "2159 MT. NEWTON XROAD", "city": "SAANICHTON", "province": "BC", "country": "CA", "postalCode": "V8M1T8", "twitter": "None", "instagram": "None", "facebook": "None", "youtube": "None", "website": "None", "summary": "None", "logo": "None", "latitude": 48.59403463371194, "longitude": -123.41132721035495}, "132501867RR0001": {"name": "Victoria Literacy Connection Society", "designationCode": "C", "categoryCode": "21", "address": "306 - 620 VIEW ST", "city": "VICTORIA", "province": "BC", "country": "CA", "postalCode": "V8W1J6", "twitter": "None", "instagram": "None", "facebook": "None", "youtube": "None", "website": "None", "summary": "None", "logo": "None", "latitude": 48.42565545657561, "longitude": -123.36678018872988}, "119288918RR1661": {"name": "Victoria Park Spanish Congregation of Jehovah's Winesses, Saskatoon, Saskatchewan", "designationCode": "C", "categoryCode": "61", "address": "335 SMITH PL", "city": "SASKATOON", "province": "SK", "country": "CA", "postalCode": "S7M5E7", "twitter": "None", "instagram": "None", "facebook": "None", "youtube": "None", "website": "None", "summary": "None", "logo": "None", "latitude": 52.12135456506447, "longitude": -106.75031741603674}, "864235262RR0001": {"name": "Victoria Pet Adoption Society", "designationCode": "B", "categoryCode": "54", "address": "PO BOX 2324 STN MAIN", "city": "SIDNEY", "province": "BC", "country": "CA", "postalCode": "V8L3W6", "twitter": "None", "instagram": "None", "facebook": "None", "youtube": "None", "website": "None", "summary": "None", "logo": "None", "latitude": 48.65020800000005, "longitude": -123.39842299999994}}