{"831531710RR0001": {"name": "Flow Without Bounds Ministries", "designationCode": "C", "categoryCode": "39", "address": "21 SAINTSBURY RD", "city": "MARKHAM", "province": "ON", "country": "CA", "postalCode": "L6C2H9", "twitter": "None", "instagram": "None", "facebook": "None", "youtube": "None", "website": "None", "summary": "None", "logo": "None", "latitude": 43.87489868552723, "longitude": -79.37027923535692}, "808240691RR0001": {"name": "Flyingbow Music Ministry", "designationCode": "C", "categoryCode": "47", "address": "39 FAIRMEADOW DRIVE,", "city": "GUELPH", "province": "ON", "country": "CA", "postalCode": "N1H6X2", "twitter": "None", "instagram": "None", "facebook": "None", "youtube": "None", "website": "None", "summary": "None", "logo": "None", "latitude": 43.51787793698432, "longitude": -80.27180225030327}, "803691492RR0001": {"name": "Fo Guang Shan Temple (Waterloo)", "designationCode": "C", "categoryCode": "35", "address": "6525 MILLCREEK DRIVE,", "city": "MISSISSAUGA", "province": "ON", "country": "CA", "postalCode": "L5N7K6", "twitter": "None", "instagram": "None", "facebook": "None", "youtube": "None", "website": "None", "summary": "None", "logo": "None", "latitude": 43.59098342385568, "longitude": -79.74355545429658}, "833497621RR0001": {"name": "Foam Lake Daycare Inc.", "designationCode": "C", "categoryCode": "01", "address": "424 CAMERON ST                BOX 910", "city": "FOAM LAKE", "province": "SK", "country": "CA", "postalCode": "S0A1A0", "twitter": "None", "instagram": "None", "facebook": "None", "youtube": "None", "website": "None", "summary": "None", "logo": "None", "latitude": 51.6429793123468, "longitude": -103.53526976197912}, "817338700RR0001": {"name": "Foam Lake Water Park Committee Inc.", "designationCode": "A", "categoryCode": "03", "address": "PO BOX 642", "city": "FOAM LAKE", "province": "SK", "country": "CA", "postalCode": "S0A1A0", "twitter": "None", "instagram": "None", "facebook": "None", "youtube": "None", "website": "None", "summary": "None", "logo": "None", "latitude": 51.63984000000005, "longitude": -103.53940999999998}, "860636745RR0001": {"name": "Focus Disability Network Society", "designationCode": "C", "categoryCode": "20", "address": "31920 HILLCREST AVE", "city": "MISSION", "province": "BC", "country": "CA", "postalCode": "V2V1K9", "twitter": "None", "instagram": "None", "facebook": "None", "youtube": "None", "website": "None", "summary": "None", "logo": "None", "latitude": 49.13631149956733, "longitude": -122.34071208090484}, "803769652RR0001": {"name": "Focus Infinity Christian Outreach Network", "designationCode": "C", "categoryCode": "39", "address": "3913 - 210 VICTORIA ST", "city": "TORONTO", "province": "ON", "country": "CA", "postalCode": "M5B2R3", "twitter": "None", "instagram": "None", "facebook": "None", "youtube": "None", "website": "None", "summary": "None", "logo": "None", "latitude": 43.65473454509783, "longitude": -79.37896610909445}, "845562578RR0001": {"name": "Focus On Nature", "designationCode": "C", "categoryCode": "29", "address": "POST OFFICE BOX 1601", "city": "GUELPH", "province": "ON", "country": "CA", "postalCode": "N1H6R7", "twitter": "None", "instagram": "None", "facebook": "None", "youtube": "None", "website": "None", "summary": "None", "logo": "None", "latitude": 43.54455300000005, "longitude": -80.24788249999993}, "864641246RR0001": {"name": "Foi et T\u00e9l\u00e9vision Chr\u00e9tienne (FTC)", "designationCode": "C", "categoryCode": "47", "address": "C.P.8154, SUCC. T", "city": "OTTAWA", "province": "ON", "country": "CA", "postalCode": "K1G3H7", "twitter": "None", "instagram": "None", "facebook": "None", "youtube": "None", "website": "None", "summary": "None", "logo": "None", "latitude": 45.42177300000006, "longitude": -75.69115999999994}, "804293835RR0001": {"name": "Fond-Action Sant\u00e9 Communautaire B\u00e9nise Normil (FASCBN)", "designationCode": "C", "categoryCode": "11", "address": "9140 BOUL PERRAS", "city": "MONTREAL", "province": "QC", "country": "CA", "postalCode": "H1E7E4", "twitter": "None", "instagram": "None", "facebook": "None", "youtube": "None", "website": "None", "summary": "None", "logo": "None", "latitude": 45.65034236966949, "longitude": -73.57774184952996}, "882918568RR0001": {"name": "Fondation \u00e0 Dieu va / To God Go Foundation", "designationCode": "A", "categoryCode": "43", "address": "2200-300 RUE LEO PARISEAU", "city": "MONTREAL", "province": "QC", "country": "CA", "postalCode": "H2X4B3", "twitter": "None", "instagram": "None", "facebook": "None", "youtube": "None", "website": "None", "summary": "None", "logo": "None", "latitude": 45.511395832621744, "longitude": -73.57691132927485}, "847837572RR0001": {"name": "Fondation \u00e9cole les jeunes explorateurs", "designationCode": "C", "categoryCode": "21", "address": "20 PLACE DU LAC", "city": "GRANBY", "province": "QC", "country": "CA", "postalCode": "J2G9L9", "twitter": "None", "instagram": "None", "facebook": "None", "youtube": "None", "website": "None", "summary": "None", "logo": "None", "latitude": 45.39502275993986, "longitude": -72.71080555470579}, "805944493RR0001": {"name": "Fondation \u00e9cole r\u00e9gionale BDES Inc.", "designationCode": "A", "categoryCode": "53", "address": "1447, AVENUE DES PIONNIERS    C.P. 2531", "city": "BALMORAL", "province": "NB", "country": "CA", "postalCode": "E8E2W7", "twitter": "None", "instagram": "None", "facebook": "None", "youtube": "None", "website": "None", "summary": "None", "logo": "None", "latitude": 47.968812070805946, "longitude": -66.46012085111649}, "843747551RR0001": {"name": "Fondation \u00e9cole secondaire Ozias-Leduc", "designationCode": "C", "categoryCode": "21", "address": "525, RUE JOLLIET", "city": "MONT-SAINT-HILAIRE", "province": "QC", "country": "CA", "postalCode": "J3H3N2", "twitter": "None", "instagram": "None", "facebook": "None", "youtube": "None", "website": "None", "summary": "None", "logo": "None", "latitude": 45.56817826080406, "longitude": -73.18328471794904}, "890433972RR0001": {"name": "Fondation \u00e9cole FACE / FACE School Foundation", "designationCode": "C", "categoryCode": "21", "address": "3449 RUE UNIVERSITY", "city": "MONTR\u00c9AL", "province": "QC", "country": "CA", "postalCode": "H3A2A8", "twitter": "None", "instagram": "None", "facebook": "None", "youtube": "None", "website": "None", "summary": "None", "logo": "None", "latitude": 45.50583197394519, "longitude": -73.57515023671326}, "850201518RR0001": {"name": "Fondation \u00e9cole Marc Favreau", "designationCode": "C", "categoryCode": "23", "address": "6310 AVE SOMERLED", "city": "MONTREAL", "province": "QC", "country": "CA", "postalCode": "H3X2B8", "twitter": "None", "instagram": "None", "facebook": "None", "youtube": "None", "website": "None", "summary": "None", "logo": "None", "latitude": 45.46977923616499, "longitude": -73.63638339255033}, "813855442RR0001": {"name": "Fondation \u00e9cole Yamachiche-Saint-L\u00e9on", "designationCode": "C", "categoryCode": "21", "address": "450 RUE SAINTE-ANNE", "city": "YAMACHICHE", "province": "QC", "country": "CA", "postalCode": "G0X3L0", "twitter": "None", "instagram": "None", "facebook": "None", "youtube": "None", "website": "None", "summary": "None", "logo": "None", "latitude": 46.28143940657301, "longitude": -72.832721455566}, "886318559RR0001": {"name": "Fondation \u00e9ducative Le Petit Prince", "designationCode": "C", "categoryCode": "23", "address": "830 RUE NOTRE-DAME", "city": "ST-LAMBERT", "province": "QC", "country": "CA", "postalCode": "J4R1R8", "twitter": "None", "instagram": "None", "facebook": "None", "youtube": "None", "website": "None", "summary": "None", "logo": "None", "latitude": 45.49869584514388, "longitude": -73.50362140019637}, "840897458RR0001": {"name": "Fondation \u00e9ducologique du geai d'or", "designationCode": "B", "categoryCode": "21", "address": "491 JACQUES-CARTIER N.", "city": "STONEHAM-ET-TEWKESBURY", "province": "QC", "country": "CA", "postalCode": "G3C1X7", "twitter": "None", "instagram": "None", "facebook": "None", "youtube": "None", "website": "None", "summary": "None", "logo": "None", "latitude": 47.05406033109252, "longitude": -71.44143892731813}, "843478900RR0001": {"name": "Fondation -D\u00e9fi - Ecole - Sports", "designationCode": "C", "categoryCode": "21", "address": "5733 RUE SHERBROOKE OUEST", "city": "MONTR\u00c9AL", "province": "QC", "country": "CA", "postalCode": "H4A1W9", "twitter": "None", "instagram": "None", "facebook": "None", "youtube": "None", "website": "None", "summary": "None", "logo": "None", "latitude": 45.470409882335865, "longitude": -73.6161772511973}, "764406724RR0001": {"name": "Fondation \u00c0 deux pas de la r\u00e9ussite", "designationCode": "C", "categoryCode": "21", "address": "780 CH MONTCALM", "city": "SAINTE-MARIE-SALOME", "province": "QC", "country": "CA", "postalCode": "J0K2Z0", "twitter": "None", "instagram": "None", "facebook": "None", "youtube": "None", "website": "None", "summary": "None", "logo": "None", "latitude": 45.92936126729746, "longitude": -73.49997714669047}, "890049869RR0001": {"name": "Fondation \u00c9cole secondaire de la Ruche", "designationCode": "C", "categoryCode": "21", "address": "1255 BOULEVARD DES \u00c9TUDIANTS", "city": "MAGOG", "province": "QC", "country": "CA", "postalCode": "J1X3Y6", "twitter": "None", "instagram": "None", "facebook": "None", "youtube": "None", "website": "None", "summary": "None", "logo": "None", "latitude": 45.27475205285014, "longitude": -72.14128564185792}, "778782698RR0001": {"name": "Fondation \u00c9cole J\u00e9sus-Marie de Beauceville", "designationCode": "C", "categoryCode": "21", "address": "670 9E AV", "city": "BEAUCEVILLE", "province": "QC", "country": "CA", "postalCode": "G5X3P6", "twitter": "None", "instagram": "None", "facebook": "None", "youtube": "None", "website": "None", "summary": "None", "logo": "None", "latitude": 46.2027835885826, "longitude": -70.76685897221346}, "118925668RR0001": {"name": "Fondation \u00c9cole Secondaire de St-Anselme", "designationCode": "C", "categoryCode": "21", "address": "825 RTE BEGIN", "city": "SAINT-ANSELME", "province": "QC", "country": "CA", "postalCode": "G0R2N0", "twitter": "None", "instagram": "None", "facebook": "None", "youtube": "None", "website": "None", "summary": "None", "logo": "None", "latitude": 46.62907318671923, "longitude": -70.9664770733457}, "800984189RR0001": {"name": "Fondation \u00c9cole Secondaire Marcellin-Champagnat", "designationCode": "C", "categoryCode": "21", "address": "14 CH DES PATRIOTES E", "city": "SAINT-JEAN-SUR-RICHELIEU", "province": "QC", "country": "CA", "postalCode": "J2X5P9", "twitter": "None", "instagram": "None", "facebook": "None", "youtube": "None", "website": "None", "summary": "None", "logo": "None", "latitude": 45.318141236196375, "longitude": -73.24952703825896}, "817322076RR0001": {"name": "Fondation \u00c9cole Val-des-Ormes", "designationCode": "C", "categoryCode": "21", "address": "199, CHEMIN DE LA GRANDE-C\u00d4TE", "city": "ROSEM\u00c8RE", "province": "QC", "country": "CA", "postalCode": "J7A1H6", "twitter": "None", "instagram": "None", "facebook": "None", "youtube": "None", "website": "None", "summary": "None", "logo": "None", "latitude": 45.62841148020625, "longitude": -73.79862784465293}, "837010651RR0001": {"name": "Fondation \u00c9den", "designationCode": "C", "categoryCode": "21", "address": "1955, CH. DE FONTARABIE", "city": "LA PRAIRIE", "province": "QC", "country": "CA", "postalCode": "J5R0K3", "twitter": "None", "instagram": "None", "facebook": "None", "youtube": "None", "website": "None", "summary": "None", "logo": "None", "latitude": 45.4075162092448, "longitude": -73.4449222464673}, "858579196RR0001": {"name": "Fondation \u00c9ducative Jeanie Johnston/Jeanie Johnston Educational Foundation", "designationCode": "C", "categoryCode": "20", "address": "155 DU BUISSON", "city": "PIERREFONDS", "province": "QC", "country": "CA", "postalCode": "H8Y2Z5", "twitter": "None", "instagram": "None", "facebook": "None", "youtube": "None", "website": "None", "summary": "None", "logo": "None", "latitude": 45.50733218524033, "longitude": -73.81737493265693}, "850206210RR0001": {"name": "Fondation \u00c9laine et R\u00e9al Raymond", "designationCode": "B", "categoryCode": "23", "address": "1155 RUE METCALFE             1ER \u00c9TAGE", "city": "MONTREAL", "province": "QC", "country": "CA", "postalCode": "H3B5G2", "twitter": "None", "instagram": "None", "facebook": "None", "youtube": "None", "website": "None", "summary": "None", "logo": "None", "latitude": 45.49988890455286, "longitude": -73.57053800357802}, "866412711RR0001": {"name": "Fondation \u00c9lite Saint-Eustache", "designationCode": "C", "categoryCode": "21", "address": "184, RUE SAINT-EUSTACHE       BUREAU 300", "city": "SAINT-EUSTACHE", "province": "QC", "country": "CA", "postalCode": "J7P2L7", "twitter": "None", "instagram": "None", "facebook": "None", "youtube": "None", "website": "None", "summary": "None", "logo": "None", "latitude": 45.55838582763008, "longitude": -73.89393387010217}, "836482455RR0001": {"name": "Fondation \u00c9lizabeth et Roger Parent", "designationCode": "B", "categoryCode": "59", "address": "950 RUE DE LA CONCORDE        BUREAU 302", "city": "SAINT-ROMUALD", "province": "QC", "country": "CA", "postalCode": "G6W8A8", "twitter": "None", "instagram": "None", "facebook": "None", "youtube": "None", "website": "None", "summary": "None", "logo": "None", "latitude": 46.72803972204997, "longitude": -71.2707179487509}, "817384712RR0001": {"name": "Fondation \u00c9mergo", "designationCode": "A", "categoryCode": "03", "address": "1862 RUE JOLICOEUR", "city": "MONTREAL", "province": "QC", "country": "CA", "postalCode": "H4E1X2", "twitter": "None", "instagram": "None", "facebook": "None", "youtube": "None", "website": "None", "summary": "None", "logo": "None", "latitude": 45.45697649956732, "longitude": -73.58978205981302}, "819226606RR0001": {"name": "Fondation \u00c9milie Filiatrault", "designationCode": "C", "categoryCode": "11", "address": "3 RUE DE CHARENTE", "city": "CANDIAC", "province": "QC", "country": "CA", "postalCode": "J5R6P8", "twitter": "None", "instagram": "None", "facebook": "None", "youtube": "None", "website": "None", "summary": "None", "logo": "None", "latitude": 45.37626553566279, "longitude": -73.51148477557867}, "834121030RR0001": {"name": "Fondation \u00c9questre Missisquoi", "designationCode": "C", "categoryCode": "56", "address": "17, RUE MARZIALI", "city": "BEDFORD", "province": "QC", "country": "CA", "postalCode": "J0J1A0", "twitter": "None", "instagram": "None", "facebook": "None", "youtube": "None", "website": "None", "summary": "None", "logo": "None", "latitude": 45.12004908650141, "longitude": -72.99611386137937}, "793104928RR0001": {"name": "Fondation \u00c9questre Red Robin - Red Robin Equestrian Foundation", "designationCode": "C", "categoryCode": "11", "address": "6939 309 RTE", "city": "L'ANGE-GARDIEN", "province": "QC", "country": "CA", "postalCode": "J8L2W9", "twitter": "None", "instagram": "None", "facebook": "None", "youtube": "None", "website": "None", "summary": "None", "logo": "None", "latitude": 45.70295874983012, "longitude": -75.52014250033979}, "825627896RR0001": {"name": "Fondation aide Lorraine", "designationCode": "C", "categoryCode": "03", "address": "18 AV DE VOUZIERS", "city": "LORRAINE", "province": "QC", "country": "CA", "postalCode": "J6Z3H6", "twitter": "None", "instagram": "None", "facebook": "None", "youtube": "None", "website": "None", "summary": "None", "logo": "None", "latitude": 45.669257161809696, "longitude": -73.77976330448944}, "829227610RR0001": {"name": "Fondation au coeur de notre h\u00e9ritage", "designationCode": "A", "categoryCode": "43", "address": "1012, RUE DE L'\u00c9GLISE", "city": "ST-JEAN CHRYSOST\u00d4ME", "province": "QC", "country": "CA", "postalCode": "G6Z3H4", "twitter": "None", "instagram": "None", "facebook": "None", "youtube": "None", "website": "None", "summary": "None", "logo": "None", "latitude": 46.0390595029142, "longitude": -73.12821294405346}, "889907739RR0001": {"name": "Fondation au Bercail", "designationCode": "C", "categoryCode": "57", "address": "12165 2E AVENUE", "city": "SAINT-GEORGES", "province": "QC", "country": "CA", "postalCode": "G5Y1X6", "twitter": "None", "instagram": "None", "facebook": "None", "youtube": "None", "website": "None", "summary": "None", "logo": "None", "latitude": 46.119988643372245, "longitude": -70.66956339353128}, "825624570RR0001": {"name": "Fondation bo\u00eete de nuit", "designationCode": "C", "categoryCode": "11", "address": "551, RUE DU HAVRE", "city": "ALMA", "province": "QC", "country": "CA", "postalCode": "G8B7K6", "twitter": "None", "instagram": "None", "facebook": "None", "youtube": "None", "website": "None", "summary": "None", "logo": "None", "latitude": 48.54214293949448, "longitude": -71.6319809748688}, "855723789RR0001": {"name": "Fondation canadienne de d\u00e9veloppement \u00e9conomique et d'employabilit\u00e9 - Canadian Foundation for Economic Development and Employability", "designationCode": "C", "categoryCode": "59", "address": "202-649 MONTR\u00c9AL ROAD", "city": "OTTAWA", "province": "ON", "country": "CA", "postalCode": "K1K0T4", "twitter": "None", "instagram": "None", "facebook": "None", "youtube": "None", "website": "None", "summary": "None", "logo": "None", "latitude": 45.44295175832375, "longitude": -75.64135996257687}, "864330436RR0001": {"name": "Fondation canadienne pour le dialogue des cultures", "designationCode": "C", "categoryCode": "29", "address": "450, RUE RIDEAU               BUREAU 300", "city": "OTTAWA", "province": "ON", "country": "CA", "postalCode": "K1N5Z4", "twitter": "None", "instagram": "None", "facebook": "None", "youtube": "None", "website": "None", "summary": "None", "logo": "None", "latitude": 45.4308965636795, "longitude": -75.68052908852223}, "840367353RR0001": {"name": "Fondation centre action / Action Centre Foundation", "designationCode": "A", "categoryCode": "03", "address": "2214 DOLLARD AVENUE", "city": "LASALLE", "province": "QC", "country": "CA", "postalCode": "H8N1S6", "twitter": "None", "instagram": "None", "facebook": "None", "youtube": "None", "website": "None", "summary": "None", "logo": "None", "latitude": 45.431732872583694, "longitude": -73.63614167462028}, "831143052RR0001": {"name": "Fondation centre d'intervention familiale le transit", "designationCode": "A", "categoryCode": "03", "address": "3571 RUE ST-L\u00c9ANDRE", "city": "JONQUI\u00c8RE", "province": "QC", "country": "CA", "postalCode": "G7X2B4", "twitter": "None", "instagram": "None", "facebook": "None", "youtube": "None", "website": "None", "summary": "None", "logo": "None", "latitude": 48.42005263835195, "longitude": -71.23134760283338}, "890006893RR0001": {"name": "Fondation centre Dr-Aim\u00e9-Leduc", "designationCode": "C", "categoryCode": "03", "address": "80 RUE DU MARCHE", "city": "VALLEYFIELD", "province": "QC", "country": "CA", "postalCode": "J6T1P5", "twitter": "None", "instagram": "None", "facebook": "None", "youtube": "None", "website": "None", "summary": "None", "logo": "None", "latitude": 45.25378336808203, "longitude": -74.13542160912311}, "831652573RR0001": {"name": "Fondation chemins d'esp\u00e9rance", "designationCode": "B", "categoryCode": "49", "address": "2655, GUILLAUME-LE PELLETIER", "city": "QU\u00c9BEC", "province": "QC", "country": "CA", "postalCode": "G1C3X7", "twitter": "None", "instagram": "None", "facebook": "None", "youtube": "None", "website": "None", "summary": "None", "logo": "None", "latitude": 46.85926404426508, "longitude": -71.23502774585275}, "119001345RR0001": {"name": "Fondation coll\u00e8ge Laval", "designationCode": "C", "categoryCode": "21", "address": "1275, AV. DU COLLEGE", "city": "LAVAL", "province": "QC", "country": "CA", "postalCode": "H7C1W8", "twitter": "None", "instagram": "None", "facebook": "None", "youtube": "None", "website": "None", "summary": "None", "logo": "None", "latitude": 45.614574398147795, "longitude": -73.64945031564508}, "893373761RR0001": {"name": "Fondation coll\u00e8ge Trinit\u00e9", "designationCode": "C", "categoryCode": "21", "address": "1475 RANG DES 20", "city": "ST-BRUNO", "province": "QC", "country": "CA", "postalCode": "J3V4P6", "twitter": "None", "instagram": "None", "facebook": "None", "youtube": "None", "website": "None", "summary": "None", "logo": "None", "latitude": 45.534932006606894, "longitude": -73.30076994053803}, "837732551RR0001": {"name": "Fondation communautaire de Hearst Community Foundation", "designationCode": "A", "categoryCode": "03", "address": "C.P.1748", "city": "HEARST", "province": "ON", "country": "CA", "postalCode": "P0L1N0", "twitter": "None", "instagram": "None", "facebook": "None", "youtube": "None", "website": "None", "summary": "None", "logo": "None", "latitude": 49.68503700000005, "longitude": -83.65433749999994}, "834782286RR0001": {"name": "Fondation communautaire du Saguenay-Lac-Saint-Jean", "designationCode": "A", "categoryCode": "03", "address": "475 BOULEVARD TALBOT          BUREAU 107", "city": "CHICOUTIMI", "province": "QC", "country": "CA", "postalCode": "G7H4A3", "twitter": "None", "instagram": "None", "facebook": "None", "youtube": "None", "website": "None", "summary": "None", "logo": "None", "latitude": 48.42278767470719, "longitude": -71.04251452686287}, "847794989RR0001": {"name": "Fondation concours musical international de Montr\u00e9al", "designationCode": "A", "categoryCode": "23", "address": "305, AVE. DU MONT-ROYAL EST", "city": "MONTR\u00c9AL", "province": "QC", "country": "CA", "postalCode": "H2T1P8", "twitter": "None", "instagram": "None", "facebook": "None", "youtube": "None", "website": "None", "summary": "None", "logo": "None", "latitude": 45.523047268393995, "longitude": -73.5837473437589}, "834027203RR0001": {"name": "Fondation croire en son r\u00eave", "designationCode": "B", "categoryCode": "25", "address": "655 PROMENADE DU CENTROPOLIS  BUREAU 215", "city": "LAVAL", "province": "QC", "country": "CA", "postalCode": "H7T0A3", "twitter": "None", "instagram": "None", "facebook": "None", "youtube": "None", "website": "None", "summary": "None", "logo": "None", "latitude": 45.56075948877593, "longitude": -73.74730566890746}, "876301078RR0001": {"name": "Fondation d\u00e9fi-jeunesse de l'\u00e9cole secondaire Les Etchemins", "designationCode": "C", "categoryCode": "21", "address": "3724 AVE DES EGLISES", "city": "CHARNY", "province": "QC", "country": "CA", "postalCode": "G6X1X4", "twitter": "None", "instagram": "None", "facebook": "None", "youtube": "None", "website": "None", "summary": "None", "logo": "None", "latitude": 46.71828671036421, "longitude": -71.26809183936824}, "842693111RR0001": {"name": "Fondation d\u00eeners scolaires ados", "designationCode": "C", "categoryCode": "09", "address": "6225 10E AVENUE", "city": "MONTR\u00c9AL", "province": "QC", "country": "CA", "postalCode": "H1Y2H7", "twitter": "None", "instagram": "None", "facebook": "None", "youtube": "None", "website": "None", "summary": "None", "logo": "None", "latitude": 45.55344285541567, "longitude": -73.58387412141505}, "831851415RR0001": {"name": "Fondation d'aide aux \u00e9tudiants de l'\u00e9cole St-Alexandre", "designationCode": "C", "categoryCode": "21", "address": "451, RUE GR\u00c2CE", "city": "LACHUTE", "province": "QC", "country": "CA", "postalCode": "J8H1M5", "twitter": "None", "instagram": "None", "facebook": "None", "youtube": "None", "website": "None", "summary": "None", "logo": "None", "latitude": 45.65380724955252, "longitude": -74.33545840925606}, "868786054RR0001": {"name": "Fondation d'aide Copte (Qu\u00e9bec) / Coptic Aid Foundation (Qu\u00e9bec)", "designationCode": "C", "categoryCode": "09", "address": "264-1400 RUE SAUVE OUEST", "city": "MONTREAL", "province": "QC", "country": "CA", "postalCode": "H4N1C5", "twitter": "None", "instagram": "None", "facebook": "None", "youtube": "None", "website": "None", "summary": "None", "logo": "None", "latitude": 45.531413400681174, "longitude": -73.66743352821463}, "827979808RR0001": {"name": "Fondation d'h\u00e9ritage Kathy Magi-Loffredi/Kathy Magi-Loffredi Heritage Foundation", "designationCode": "C", "categoryCode": "21", "address": "6320 DE VILLEBOIS", "city": "ST L\u00c9ONARD", "province": "QC", "country": "CA", "postalCode": "H1S1P8", "twitter": "None", "instagram": "None", "facebook": "None", "youtube": "None", "website": "None", "summary": "None", "logo": "None", "latitude": 45.58912028253223, "longitude": -73.57364060877734}, "118922434RR0001": {"name": "Fondation d'Ahuntsic et Montr\u00e9al-Nord", "designationCode": "A", "categoryCode": "13", "address": "2180, RUE FLEURY EST", "city": "MONTREAL", "province": "QC", "country": "CA", "postalCode": "H2B1K3", "twitter": "None", "instagram": "None", "facebook": "None", "youtube": "None", "website": "None", "summary": "None", "logo": "None", "latitude": 45.57188462225178, "longitude": -73.65057577280871}, "787337922RR0001": {"name": "Fondation d'Alep The Aleppo Foundation", "designationCode": "C", "categoryCode": "09", "address": "CP 711 SUCC H", "city": "MONTREAL", "province": "QC", "country": "CA", "postalCode": "H3G2M6", "twitter": "None", "instagram": "None", "facebook": "None", "youtube": "None", "website": "None", "summary": "None", "logo": "None", "latitude": 45.49856100000005, "longitude": -73.57906249999994}, "823941216RR0001": {"name": "Fondation de centre qu\u00e9b\u00e9cois de lutte aux d\u00e9pendances", "designationCode": "A", "categoryCode": "03", "address": "105, RUE NORMAND", "city": "MONTR\u00c9AL", "province": "QC", "country": "CA", "postalCode": "H2Y2K6", "twitter": "None", "instagram": "None", "facebook": "None", "youtube": "None", "website": "None", "summary": "None", "logo": "None", "latitude": 45.499826512926184, "longitude": -73.55432123353927}, "803498682RR0001": {"name": "Fondation de conservation de l'\u00eele du Canard Blanc", "designationCode": "C", "categoryCode": "52", "address": "280, CHEMIN DE LA BAIE-YELLE", "city": "LAC SIMON", "province": "QC", "country": "CA", "postalCode": "J0V1E0", "twitter": "None", "instagram": "None", "facebook": "None", "youtube": "None", "website": "None", "summary": "None", "logo": "None", "latitude": 45.911466533181276, "longitude": -75.06968361226845}, "826467318RR0001": {"name": "Fondation de d\u00e9veloppement du sud d'haiti (FDSH)", "designationCode": "C", "categoryCode": "09", "address": "21 RUE COUSINEAU", "city": "GATINEAU", "province": "QC", "country": "CA", "postalCode": "J8T3R7", "twitter": "None", "instagram": "None", "facebook": "None", "youtube": "None", "website": "None", "summary": "None", "logo": "None", "latitude": 45.45927366694559, "longitude": -75.70126513584177}, "843454174RR0001": {"name": "Fondation de l'\u00e9cole communautaire Abbey-Landry Inc.", "designationCode": "C", "categoryCode": "21", "address": "432, RUE CENTRALE", "city": "MEMRAMCOOK", "province": "NB", "country": "CA", "postalCode": "E4K3S5", "twitter": "None", "instagram": "None", "facebook": "None", "youtube": "None", "website": "None", "summary": "None", "logo": "None", "latitude": 45.98164509394714, "longitude": -64.56772715930698}, "820341246RR0001": {"name": "Fondation de l'\u00e9cole de Normandie", "designationCode": "C", "categoryCode": "23", "address": "450 RUE DE NORMANDIE", "city": "LONGUEUIL", "province": "QC", "country": "CA", "postalCode": "J4H3P4", "twitter": "None", "instagram": "None", "facebook": "None", "youtube": "None", "website": "None", "summary": "None", "logo": "None", "latitude": 45.54164273714595, "longitude": -73.5013469160654}, "893688853RR0001": {"name": "Fondation de l'\u00e9cole des Appalaches", "designationCode": "C", "categoryCode": "21", "address": "135, BOUL. LESSARD", "city": "SAINTE-JUSTINE", "province": "QC", "country": "CA", "postalCode": "G0R1Y0", "twitter": "None", "instagram": "None", "facebook": "None", "youtube": "None", "website": "None", "summary": "None", "logo": "None", "latitude": 46.40412604283225, "longitude": -70.36013106667657}, "837547041RR0001": {"name": "Fondation de l'\u00e9cole la Tourelle", "designationCode": "C", "categoryCode": "21", "address": "180, GENEST", "city": "ASBESTOS", "province": "QC", "country": "CA", "postalCode": "J1T1A9", "twitter": "None", "instagram": "None", "facebook": "None", "youtube": "None", "website": "None", "summary": "None", "logo": "None", "latitude": 45.78227878983252, "longitude": -71.9129259817937}, "812038891RR0001": {"name": "Fondation de l'\u00e9cole secondaire de St-Charles", "designationCode": "C", "categoryCode": "21", "address": "24, RUE ST-GEORGES", "city": "ST-CHARLES DE BELLECHASSE", "province": "QC", "country": "CA", "postalCode": "G0R2T0", "twitter": "None", "instagram": "None", "facebook": "None", "youtube": "None", "website": "None", "summary": "None", "logo": "None", "latitude": 46.77368097922529, "longitude": -70.94256501145522}, "808073621RR0001": {"name": "Fondation de l'\u00e9cole secondaire du Versant", "designationCode": "C", "categoryCode": "21", "address": "808, BOUL. DE LA CIT\u00c9", "city": "GATINEAU", "province": "QC", "country": "CA", "postalCode": "J8R3S8", "twitter": "None", "instagram": "None", "facebook": "None", "youtube": "None", "website": "None", "summary": "None", "logo": "None", "latitude": 45.49342270497429, "longitude": -75.68245335654177}, "837094101RR0001": {"name": "Fondation de l'\u00e9cole secondaire G\u00e9rard-Filion", "designationCode": "C", "categoryCode": "21", "address": "1330 BOUL. CUR\u00c9-POIRIER OUEST", "city": "LONGUEUIL", "province": "QC", "country": "CA", "postalCode": "J4K2G8", "twitter": "None", "instagram": "None", "facebook": "None", "youtube": "None", "website": "None", "summary": "None", "logo": "None", "latitude": 45.51242648594865, "longitude": -73.49268299183528}, "820234664RR0001": {"name": "Fondation de l'\u00e9cole secondaire Louis-Jacques-Casault", "designationCode": "C", "categoryCode": "21", "address": "141, BOUL. TACH\u00c9 EST", "city": "MONTMAGNY", "province": "QC", "country": "CA", "postalCode": "G5V1B9", "twitter": "None", "instagram": "None", "facebook": "None", "youtube": "None", "website": "None", "summary": "None", "logo": "None", "latitude": 46.983826566491814, "longitude": -70.55754346344614}, "858373699RR0001": {"name": "Fondation de l'\u00e9cole Kennebec", "designationCode": "C", "categoryCode": "23", "address": "1519, 19E RUE", "city": "SAINT-C\u00d4ME-LINI\u00c8RE", "province": "QC", "country": "CA", "postalCode": "G0M1J0", "twitter": "None", "instagram": "None", "facebook": "None", "youtube": "None", "website": "None", "summary": "None", "logo": "None", "latitude": 46.059702790857045, "longitude": -70.51797335436703}, "859722803RR0001": {"name": "Fondation de l'\u00e9cole Robert-Gravel", "designationCode": "C", "categoryCode": "21", "address": "38, AVENUE FAIRMOUNT EST", "city": "MONTR\u00c9AL", "province": "QC", "country": "CA", "postalCode": "H2T1C9", "twitter": "None", "instagram": "None", "facebook": "None", "youtube": "None", "website": "None", "summary": "None", "logo": "None", "latitude": 45.5247249261643, "longitude": -73.593918588378}, "808805337RR0001": {"name": "Fondation de l'\u00e9cole Rose-des-Vents", "designationCode": "C", "categoryCode": "23", "address": "4315, RUE BEAUBIEN EST", "city": "MONTREAL", "province": "QC", "country": "CA", "postalCode": "H1T1S8", "twitter": "None", "instagram": "None", "facebook": "None", "youtube": "None", "website": "None", "summary": "None", "logo": "None", "latitude": 45.56461980795191, "longitude": -73.57797737846938}, "850952482RR0001": {"name": "Fondation de l'\u00e9cole Saint-Charles-de-Grondines", "designationCode": "C", "categoryCode": "21", "address": "525 CHEMIN SIR-LOMER-GOUIN", "city": "DESCHAMBAULT-GRONDINES", "province": "QC", "country": "CA", "postalCode": "G0A1W0", "twitter": "None", "instagram": "None", "facebook": "None", "youtube": "None", "website": "None", "summary": "None", "logo": "None", "latitude": 46.59283450562684, "longitude": -72.04283053413357}, "811360171RR0001": {"name": "Fondation de l'\u00e9cole Saint-G\u00e9rard", "designationCode": "C", "categoryCode": "21", "address": "1275 RUE JARRY EST", "city": "MONTREAL", "province": "QC", "country": "CA", "postalCode": "H2P1W9", "twitter": "None", "instagram": "None", "facebook": "None", "youtube": "None", "website": "None", "summary": "None", "logo": "None", "latitude": 45.54941242469935, "longitude": -73.62275894308154}, "787097492RR0001": {"name": "Fondation de l'\u00e9cole Saint-No\u00ebl Chabanel", "designationCode": "C", "categoryCode": "21", "address": "8800 24E AV", "city": "MONTREAL", "province": "QC", "country": "CA", "postalCode": "H1Z3Z7", "twitter": "None", "instagram": "None", "facebook": "None", "youtube": "None", "website": "None", "summary": "None", "logo": "None", "latitude": 45.57818975685278, "longitude": -73.61428319138427}, "831088158RR0001": {"name": "Fondation de l'\u00e9glise Saint-Charles-Borrom\u00e9e de Charlesbourg", "designationCode": "A", "categoryCode": "43", "address": "8500 BOULEVARD HENRI-BOURASSA BUREAU 266", "city": "QUEBEC", "province": "QC", "country": "CA", "postalCode": "G1G5X1", "twitter": "None", "instagram": "None", "facebook": "None", "youtube": "None", "website": "None", "summary": "None", "logo": "None", "latitude": 46.865174402814105, "longitude": -71.27095180751687}, "833224801RR0001": {"name": "Fondation de l'\u00c9cole de cirque de Qu\u00e9bec", "designationCode": "A", "categoryCode": "03", "address": "750 2E AV", "city": "QUEBEC", "province": "QC", "country": "CA", "postalCode": "G1L3B7", "twitter": "None", "instagram": "None", "facebook": "None", "youtube": "None", "website": "None", "summary": "None", "logo": "None", "latitude": 46.82413607051749, "longitude": -71.22989654824318}, "843599507RR0001": {"name": "Fondation de l'\u00c9cole de musique de Matane", "designationCode": "A", "categoryCode": "23", "address": "384 RUE DU REMPART            CP 192", "city": "MATANE", "province": "QC", "country": "CA", "postalCode": "G4W3N1", "twitter": "None", "instagram": "None", "facebook": "None", "youtube": "None", "website": "None", "summary": "None", "logo": "None", "latitude": 48.840164717179306, "longitude": -67.52398051540766}, "826678054RR0001": {"name": "Fondation de l'\u00c9cole de technologie sup\u00e9rieure (\u00c9TS)", "designationCode": "A", "categoryCode": "03", "address": "1100 RUE NOTRE-DAME OUEST", "city": "MONTR\u00c9AL", "province": "QC", "country": "CA", "postalCode": "H3C1K3", "twitter": "None", "instagram": "None", "facebook": "None", "youtube": "None", "website": "None", "summary": "None", "logo": "None", "latitude": 45.49475548263044, "longitude": -73.56340347466725}, "829385608RR0001": {"name": "Fondation de l'\u00c9cole des premi\u00e8res lettres", "designationCode": "C", "categoryCode": "21", "address": "5210 RUE WAVERLY", "city": "MONTREAL", "province": "QC", "country": "CA", "postalCode": "H2T2X7", "twitter": "None", "instagram": "None", "facebook": "None", "youtube": "None", "website": "None", "summary": "None", "logo": "None", "latitude": 45.522485749639436, "longitude": -73.59703294714055}, "807010210RR0001": {"name": "Fondation de l'\u00c9cole primaire l'Arc-en-ciel d'Huberdeau", "designationCode": "C", "categoryCode": "21", "address": "200, RUE PRINCIPALES", "city": "HUBERDEAU", "province": "QC", "country": "CA", "postalCode": "J0T1G0", "twitter": "None", "instagram": "None", "facebook": "None", "youtube": "None", "website": "None", "summary": "None", "logo": "None", "latitude": 45.97728898361138, "longitude": -74.63282395651828}, "873483937RR0001": {"name": "Fondation de l'\u00c9cole secondaire de Chambly", "designationCode": "C", "categoryCode": "21", "address": "5 RUE GEORGES-PEPIN", "city": "CHAMBLY", "province": "QC", "country": "CA", "postalCode": "J3L4X8", "twitter": "None", "instagram": "None", "facebook": "None", "youtube": "None", "website": "None", "summary": "None", "logo": "None", "latitude": 45.45783125618896, "longitude": -73.29268529211153}, "897826913RR0001": {"name": "Fondation de l'\u00c9cole sup\u00e9rieure de ballet du Qu\u00e9bec", "designationCode": "C", "categoryCode": "22", "address": "4816, RUE RIVARD", "city": "MONTREAL", "province": "QC", "country": "CA", "postalCode": "H2J2N6", "twitter": "None", "instagram": "None", "facebook": "None", "youtube": "None", "website": "None", "summary": "None", "logo": "None", "latitude": 45.5264037352127, "longitude": -73.58675557092153}, "829387224RR0001": {"name": "Fondation de l'\u00c9cole Armand-Racicot", "designationCode": "C", "categoryCode": "21", "address": "965, RUE ST-THOMAS", "city": "LONGUEUIL", "province": "QC", "country": "CA", "postalCode": "J4H3B2", "twitter": "None", "instagram": "None", "facebook": "None", "youtube": "None", "website": "None", "summary": "None", "logo": "None", "latitude": 45.532191571209985, "longitude": -73.49679234289353}, "751652090RR0001": {"name": "Fondation de l'\u00c9cole Notre-Dame-du-Sacr\u00e9-Coeur de St-Majoriq", "designationCode": "C", "categoryCode": "21", "address": "43 RUE FONTENELLE", "city": "GASPE", "province": "QC", "country": "CA", "postalCode": "G4X6R1", "twitter": "None", "instagram": "None", "facebook": "None", "youtube": "None", "website": "None", "summary": "None", "logo": "None", "latitude": 48.888225633301424, "longitude": -64.55217333644691}, "814659637RR0001": {"name": "Fondation de l'\u00c9cole Primaire d'\u00e9ducation internationale de Trois-Rivi\u00e8res", "designationCode": "C", "categoryCode": "21", "address": "2750, RUE DES FORGES", "city": "TROIS-RIVI\u00c8RES", "province": "QC", "country": "CA", "postalCode": "G8Z1V2", "twitter": "None", "instagram": "None", "facebook": "None", "youtube": "None", "website": "None", "summary": "None", "logo": "None", "latitude": 46.347378724421326, "longitude": -72.5671430534077}, "846244697RR0001": {"name": "Fondation de l'\u00c9cole Primaire Le Tremplin", "designationCode": "C", "categoryCode": "23", "address": "155,RUE DU COLL\u00c8GE", "city": "LABELLE", "province": "QC", "country": "CA", "postalCode": "J0T1H0", "twitter": "None", "instagram": "None", "facebook": "None", "youtube": "None", "website": "None", "summary": "None", "logo": "None", "latitude": 46.277758008021415, "longitude": -74.73272571253342}, "846366235RR0001": {"name": "Fondation de l'\u00c9glise La Nativit\u00e9 de Notre-Dame", "designationCode": "A", "categoryCode": "43", "address": "25, AVENUE DU COUVENT", "city": "QU\u00c9BEC", "province": "QC", "country": "CA", "postalCode": "G1E6R9", "twitter": "None", "instagram": "None", "facebook": "None", "youtube": "None", "website": "None", "summary": "None", "logo": "None", "latitude": 46.85906106076531, "longitude": -71.19031184733691}, "838152205RR0001": {"name": "Fondation de l'acad\u00e9mie du tr\u00e9sor - Treasure Academy Foundation", "designationCode": "A", "categoryCode": "23", "address": "210, RUE JOSEPH-PARISEAU", "city": "SHERBROOKE", "province": "QC", "country": "CA", "postalCode": "J1N3N8", "twitter": "None", "instagram": "None", "facebook": "None", "youtube": "None", "website": "None", "summary": "None", "logo": "None", "latitude": 45.3377399003406, "longitude": -72.01899718844142}, "886641430RR0001": {"name": "Fondation de l'association des recycleurs de pi\u00e8ces d'auto et de camion Inc.", "designationCode": "A", "categoryCode": "13", "address": "2196 RUE DE LA TOURMENTE", "city": "SAINTE-ADELE", "province": "QC", "country": "CA", "postalCode": "J8B2W7", "twitter": "None", "instagram": "None", "facebook": "None", "youtube": "None", "website": "None", "summary": "None", "logo": "None", "latitude": 45.937130446044016, "longitude": -74.1861423337469}, "138079124RR0001": {"name": "Fondation de l'autisme", "designationCode": "C", "categoryCode": "09", "address": "200 - 9496 AV CHARTON", "city": "MONTREAL", "province": "QC", "country": "CA", "postalCode": "H1Z2L8", "twitter": "None", "instagram": "None", "facebook": "None", "youtube": "None", "website": "None", "summary": "None", "logo": "None", "latitude": 45.56575360032323, "longitude": -73.64363311907778}, "846248292RR0001": {"name": "Fondation de l'eau rivi\u00e8re du nord", "designationCode": "A", "categoryCode": "53", "address": "136-A RUE LABELLE", "city": "ST-J\u00c9R\u00d4ME", "province": "QC", "country": "CA", "postalCode": "J7Z5K7", "twitter": "None", "instagram": "None", "facebook": "None", "youtube": "None", "website": "None", "summary": "None", "logo": "None", "latitude": 45.77145684480955, "longitude": -74.0023217282735}, "794969295RR0001": {"name": "Fondation de l'ecole C.-E.-Pouliot de Gaspe", "designationCode": "C", "categoryCode": "21", "address": "85 BOUL DE GASPE", "city": "GASPE", "province": "QC", "country": "CA", "postalCode": "G4X2T8", "twitter": "None", "instagram": "None", "facebook": "None", "youtube": "None", "website": "None", "summary": "None", "logo": "None", "latitude": 48.83799034191577, "longitude": -64.4773932696731}, "132867078RR0001": {"name": "Fondation de l'h\u00f4pital r\u00e9gional de Saint-J\u00e9r\u00f4me Inc.", "designationCode": "A", "categoryCode": "13", "address": "290, RUE MONTIGNY", "city": "ST-JEROME", "province": "QC", "country": "CA", "postalCode": "J7Z5T3", "twitter": "None", "instagram": "None", "facebook": "None", "youtube": "None", "website": "None", "summary": "None", "logo": "None", "latitude": 45.766592676099414, "longitude": -73.99909712967045}, "118923143RR0001": {"name": "Fondation de l'institut universitaire en sant\u00e9 mentale de Montr\u00e9al", "designationCode": "A", "categoryCode": "13", "address": "7401 HOCHELAGA", "city": "MONTREAL", "province": "QC", "country": "CA", "postalCode": "H1N3M5", "twitter": "None", "instagram": "None", "facebook": "None", "youtube": "None", "website": "None", "summary": "None", "logo": "None", "latitude": 45.58796090454684, "longitude": -73.52661364261519}, "814254025RR0001": {"name": "Fondation de l'ordre des conseillers en ressources humaines agr\u00e9\u00e9s", "designationCode": "C", "categoryCode": "21", "address": "1200 AVENUE MCGILL COLLEGE    BUREAU 1400", "city": "MONTR\u00c9AL", "province": "QC", "country": "CA", "postalCode": "H3B4G7", "twitter": "None", "instagram": "None", "facebook": "None", "youtube": "None", "website": "None", "summary": "None", "logo": "None", "latitude": 45.501577964452785, "longitude": -73.57059570832115}, "894637842RR0001": {"name": "Fondation de l'A.P.C.H.Q.", "designationCode": "C", "categoryCode": "59", "address": "5930 BOULEVARD L-H LAFONTAINE", "city": "ANJOU", "province": "QC", "country": "CA", "postalCode": "H1M1S7", "twitter": "None", "instagram": "None", "facebook": "None", "youtube": "None", "website": "None", "summary": "None", "logo": "None", "latitude": 45.596409654711884, "longitude": -73.54802176507576}, "834522088RR0001": {"name": "Fondation de l'Acad\u00e9mie h\u00f4teli\u00e8re de Charlevoix", "designationCode": "C", "categoryCode": "21", "address": "88, RUE DES CIMES", "city": "LA MALBAIE", "province": "QC", "country": "CA", "postalCode": "G5A1T3", "twitter": "None", "instagram": "None", "facebook": "None", "youtube": "None", "website": "None", "summary": "None", "logo": "None", "latitude": 47.65102289660062, "longitude": -70.15486420472928}, "853273183RR0001": {"name": "Fondation de l'Acad\u00e9mie Marie-Claire", "designationCode": "C", "categoryCode": "23", "address": "18122, BOULEVARD ELKAS", "city": "KIRKLAND", "province": "QC", "country": "CA", "postalCode": "H9J3Y4", "twitter": "None", "instagram": "None", "facebook": "None", "youtube": "None", "website": "None", "summary": "None", "logo": "None", "latitude": 45.44579596445279, "longitude": -73.87954079167883}, "822249967RR0001": {"name": "Fondation de l'Association d'Hospitalisation Canassurance", "designationCode": "B", "categoryCode": "03", "address": "9B - 550 RUE SHERBROOKE O", "city": "MONTREAL", "province": "QC", "country": "CA", "postalCode": "H3A3S3", "twitter": "None", "instagram": "None", "facebook": "None", "youtube": "None", "website": "None", "summary": "None", "logo": "None", "latitude": 45.50420051526984, "longitude": -73.57425178965626}}