{"107972234RR0001": {"name": "SHAAREI-BETH EL CONGREGATION OF HALTON", "designationCode": "C", "categoryCode": "42", "address": "186 MORRISON RD", "city": "OAKVILLE", "province": "ON", "country": "CA", "postalCode": "L6J4J4", "twitter": "None", "instagram": "None", "facebook": "None", "youtube": "None", "website": "None", "summary": "None", "logo": "None", "latitude": 43.46236252094759, "longitude": -79.6559882051185}, "119147114RR0001": {"name": "SHAAREY SHOMAYIM OF THUNDER BAY", "designationCode": "C", "categoryCode": "42", "address": "627 GREY ST", "city": "THUNDER BYA", "province": "ON", "country": "CA", "postalCode": "P7E2E4", "twitter": "None", "instagram": "None", "facebook": "None", "youtube": "None", "website": "None", "summary": "None", "logo": "None", "latitude": 48.37545827699233, "longitude": -89.27578483836321}, "893712984RR0001": {"name": "SHABAD OF OTTAWA", "designationCode": "C", "categoryCode": "42", "address": "1506-10 DRIVEWAY", "city": "OTTAWA", "province": "ON", "country": "CA", "postalCode": "K2P1C7", "twitter": "None", "instagram": "None", "facebook": "None", "youtube": "None", "website": "None", "summary": "None", "logo": "None", "latitude": 45.42044884479809, "longitude": -75.68613724917714}, "891705774RR0001": {"name": "SHADOWLAND THEATRE INC.", "designationCode": "C", "categoryCode": "22", "address": "20 FIFTH STREET", "city": "TORONTO", "province": "ON", "country": "CA", "postalCode": "M5J2B9", "twitter": "None", "instagram": "None", "facebook": "None", "youtube": "None", "website": "None", "summary": "None", "logo": "None", "latitude": 43.63198761885778, "longitude": -79.3555430347752}, "133201699RR0001": {"name": "SHADY CREEK/BRENTWOOD BAY UNITED CHURCH", "designationCode": "C", "categoryCode": "44", "address": "7180 EAST SAANICH RD", "city": "SAANICHTON", "province": "BC", "country": "CA", "postalCode": "V8M1Y4", "twitter": "None", "instagram": "None", "facebook": "None", "youtube": "None", "website": "None", "summary": "None", "logo": "None", "latitude": 48.57692045167253, "longitude": -123.40669603034722}, "886286996RR0001": {"name": "SHADY GROVE FOLK ARTS PRODUCTIONS", "designationCode": "C", "categoryCode": "22", "address": "1108 FERN RIDGE DRIVE", "city": "MILL BAY", "province": "BC", "country": "CA", "postalCode": "V0R2P2", "twitter": "None", "instagram": "None", "facebook": "None", "youtube": "None", "website": "None", "summary": "None", "logo": "None", "latitude": 48.64230943529769, "longitude": -123.5796218050525}, "119147254RR0001": {"name": "SHAG HARBOUR UNITED BAPTIST CHURCH", "designationCode": "C", "categoryCode": "31", "address": "23 CEMETERY ROAD              RR#1", "city": "WOODS HARBOUR", "province": "NS", "country": "CA", "postalCode": "B0W2E0", "twitter": "None", "instagram": "None", "facebook": "None", "youtube": "None", "website": "None", "summary": "None", "logo": "None", "latitude": 43.535500521524504, "longitude": -65.73225987786381}, "807314349RR0001": {"name": "SHAHADA A SOCIETY FOR UNITING CHILDREN WITH PARENTS", "designationCode": "C", "categoryCode": "01", "address": "220-2747 HASTINGS ST E", "city": "VANCOUVER", "province": "BC", "country": "CA", "postalCode": "V5K1Z8", "twitter": "None", "instagram": "None", "facebook": "None", "youtube": "None", "website": "None", "summary": "None", "logo": "None", "latitude": 49.28116551154119, "longitude": -123.04769302553522}, "806455978RR0001": {"name": "SHAHEED SIKH SOCIETY INC.", "designationCode": "C", "categoryCode": "62", "address": "250 - 15 WOROBETZ PL", "city": "SASKATOON", "province": "SK", "country": "CA", "postalCode": "S7L6R4", "twitter": "None", "instagram": "None", "facebook": "None", "youtube": "None", "website": "None", "summary": "None", "logo": "None", "latitude": 52.13064645265181, "longitude": -106.72645310975828}, "888201449RR0001": {"name": "SHAINHOUSE FAMILY CHARITABLE FOUNDATION", "designationCode": "B", "categoryCode": "55", "address": "42 LAURELCREST AVENUE", "city": "TORONTO", "province": "ON", "country": "CA", "postalCode": "M3H2A4", "twitter": "None", "instagram": "None", "facebook": "None", "youtube": "None", "website": "None", "summary": "None", "logo": "None", "latitude": 43.74344020901365, "longitude": -79.43958806148645}, "899072938RR0001": {"name": "SHAKESPEARE BY THE SEA THEATRE SOCIETY", "designationCode": "C", "categoryCode": "22", "address": "5799 CHARLES ST", "city": "HALIFAX", "province": "NS", "country": "CA", "postalCode": "B3K1K7", "twitter": "None", "instagram": "None", "facebook": "None", "youtube": "None", "website": "None", "summary": "None", "logo": "None", "latitude": 44.65402034416293, "longitude": -63.5929295177736}, "127211571RR0001": {"name": "SHAKESPEARE IN ACTION", "designationCode": "C", "categoryCode": "22", "address": "400 - 579 RICHMOND ST W", "city": "TORONTO", "province": "ON", "country": "CA", "postalCode": "M5V1Y6", "twitter": "None", "instagram": "None", "facebook": "None", "youtube": "None", "website": "None", "summary": "None", "logo": "None", "latitude": 43.64792255983254, "longitude": -79.39538964100468}, "885565358RR0001": {"name": "SHAKESPEARE IN THE RUINS INCORPORATED", "designationCode": "C", "categoryCode": "22", "address": "3RD FLR PORTAGE PL            300-393 PORTAGE AVE UNIT Y", "city": "WINNIPEG", "province": "MB", "country": "CA", "postalCode": "R3B3H6", "twitter": "None", "instagram": "None", "facebook": "None", "youtube": "None", "website": "None", "summary": "None", "logo": "None", "latitude": 49.89219003332557, "longitude": -97.14776000779024}, "119057826RR0001": {"name": "SHAKESPEARE ON THE SASKATCHEWAN FESTIVAL INC.", "designationCode": "C", "categoryCode": "22", "address": "PO BOX 1646 STN MAIN", "city": "SASKATOON", "province": "SK", "country": "CA", "postalCode": "S7K3R8", "twitter": "None", "instagram": "None", "facebook": "None", "youtube": "None", "website": "None", "summary": "None", "logo": "None", "latitude": 52.13049000000005, "longitude": -106.65926449999994}, "131910697RR0001": {"name": "SHAKESPEARE PRESBYTERIAN CHURCH,", "designationCode": "C", "categoryCode": "37", "address": "P.O. BOX 129", "city": "SHAKESPEARE", "province": "ON", "country": "CA", "postalCode": "N0B2P0", "twitter": "None", "instagram": "None", "facebook": "None", "youtube": "None", "website": "None", "summary": "None", "logo": "None", "latitude": 43.36747596743702, "longitude": -80.83698746867277}, "863320974RR0001": {"name": "SHAKESPEARE SOCIETY OF SAINT JOHN INC.", "designationCode": "C", "categoryCode": "22", "address": "20 HAZEN AVENUE", "city": "SAINT JOHN", "province": "NB", "country": "CA", "postalCode": "E2L5A5", "twitter": "None", "instagram": "None", "facebook": "None", "youtube": "None", "website": "None", "summary": "None", "logo": "None", "latitude": 45.27757765540365, "longitude": -66.06083977802611}, "867729105RR0001": {"name": "SHAKESPEARIENCE PERFORMING ARTS", "designationCode": "C", "categoryCode": "22", "address": "10 MUIRHEAD ROAD              SUITE 1410", "city": "TORONTO", "province": "ON", "country": "CA", "postalCode": "M2J4P9", "twitter": "None", "instagram": "None", "facebook": "None", "youtube": "None", "website": "None", "summary": "None", "logo": "None", "latitude": 43.778521291938645, "longitude": -79.33805607262362}, "869701847RR0001": {"name": "SHAKTI DURGA TEMPLE", "designationCode": "C", "categoryCode": "48", "address": "90 IRONSIDE CRESCENT, UNIT 3", "city": "SCARBOROUGH", "province": "ON", "country": "CA", "postalCode": "M1X1M3", "twitter": "None", "instagram": "None", "facebook": "None", "youtube": "None", "website": "None", "summary": "None", "logo": "None", "latitude": 43.82859414077518, "longitude": -79.24749986069578}, "119147304RR0001": {"name": "SHALEM SOCIETY FOR SENIOR CITIZENS CARE", "designationCode": "C", "categoryCode": "09", "address": "101-3010-51 STREET SW", "city": "CALGARY", "province": "AB", "country": "CA", "postalCode": "T3E6V8", "twitter": "None", "instagram": "None", "facebook": "None", "youtube": "None", "website": "None", "summary": "None", "logo": "None", "latitude": 51.02617625299064, "longitude": -114.161047359888}, "898972187RR0001": {"name": "SHALLAWAY - NEWFOUNDLAND & LABRADOR YOUTH IN CHORUS INC.", "designationCode": "C", "categoryCode": "22", "address": "P.O. BOX 8334", "city": "ST.JOHN'S", "province": "NL", "country": "CA", "postalCode": "A1B3N7", "twitter": "None", "instagram": "None", "facebook": "None", "youtube": "None", "website": "None", "summary": "None", "logo": "None", "latitude": 47.56938900000006, "longitude": -52.78609699999993}, "811097344RR0001": {"name": "SHALLOW LAKE COMMUNITY CHURCH", "designationCode": "C", "categoryCode": "39", "address": "719130 HIGHWAY #6", "city": "SHALLOW LAKE", "province": "ON", "country": "CA", "postalCode": "N0H2K0", "twitter": "None", "instagram": "None", "facebook": "None", "youtube": "None", "website": "None", "summary": "None", "logo": "None", "latitude": 44.610521406058474, "longitude": -81.07632992046662}, "107972697RR0001": {"name": "SHALLOW LAKE UNITED CHURCH", "designationCode": "C", "categoryCode": "44", "address": "2496 6TH AVENUE WEST", "city": "OWEN SOUND", "province": "ON", "country": "CA", "postalCode": "N4K5J6", "twitter": "None", "instagram": "None", "facebook": "None", "youtube": "None", "website": "None", "summary": "None", "logo": "None", "latitude": 44.588653647527195, "longitude": -80.95047599091072}, "119147320RR0001": {"name": "SHALOM ACHSHAV PEACE FOUNDATION", "designationCode": "B", "categoryCode": "21", "address": "119-660 EGLINTON AVENUE EAST  SUITE 517", "city": "TORONTO", "province": "ON", "country": "CA", "postalCode": "M4G2K2", "twitter": "None", "instagram": "None", "facebook": "None", "youtube": "None", "website": "None", "summary": "None", "logo": "None", "latitude": 43.7114745, "longitude": -79.3751355}, "119147338RR0002": {"name": "SHALOM BRANCH #178 BUILDING SOCIETY", "designationCode": "C", "categoryCode": "59", "address": "410 - 1669 BROADWAY E", "city": "VANCOUVER", "province": "BC", "country": "CA", "postalCode": "V5N1V9", "twitter": "None", "instagram": "None", "facebook": "None", "youtube": "None", "website": "None", "summary": "None", "logo": "None", "latitude": 49.26235347879261, "longitude": -123.07054402553523}, "889400305RR0001": {"name": "SHALOM CHRISTIAN CHURCH ONTARIO", "designationCode": "C", "categoryCode": "49", "address": "418 DEER VIEW AVE", "city": "GLOUCESTER", "province": "ON", "country": "CA", "postalCode": "K1T0B9", "twitter": "None", "instagram": "None", "facebook": "None", "youtube": "None", "website": "None", "summary": "None", "logo": "None", "latitude": 45.34109978045477, "longitude": -75.62998049627775}, "859127136RR0001": {"name": "SHALOM CHRISTIAN MINISTRIES", "designationCode": "C", "categoryCode": "47", "address": "329 GOLDHAWK TRAIL", "city": "SCARBOROUGH", "province": "ON", "country": "CA", "postalCode": "M1V4H2", "twitter": "None", "instagram": "None", "facebook": "None", "youtube": "None", "website": "None", "summary": "None", "logo": "None", "latitude": 43.8280230996594, "longitude": -79.28180875757393}, "824680722RR0001": {"name": "SHALOM COUNSELLING CENTRE OF ALBERTA", "designationCode": "C", "categoryCode": "49", "address": "5515-27 AVENUE", "city": "RED DEER", "province": "AB", "country": "CA", "postalCode": "T4P0E5", "twitter": "None", "instagram": "None", "facebook": "None", "youtube": "None", "website": "None", "summary": "None", "logo": "None", "latitude": 52.27539813405276, "longitude": -113.76047900008692}, "107972739RR0001": {"name": "SHALOM COUNSELLING SERVICES INC.", "designationCode": "C", "categoryCode": "09", "address": "9 AVONDALE AVE. SOUTH", "city": "WATERLOO", "province": "ON", "country": "CA", "postalCode": "N2L2B5", "twitter": "None", "instagram": "None", "facebook": "None", "youtube": "None", "website": "None", "summary": "None", "logo": "None", "latitude": 43.46190970006879, "longitude": -80.52958520201527}, "891814584RR0001": {"name": "SHALOM FAMILY WORSHIP CENTRE", "designationCode": "C", "categoryCode": "39", "address": "POST OFFICE BOX 510           STATION MAIN", "city": "STEINBACK", "province": "MB", "country": "CA", "postalCode": "R5G1M4", "twitter": "None", "instagram": "None", "facebook": "None", "youtube": "None", "website": "None", "summary": "None", "logo": "None", "latitude": 49.53143090703223, "longitude": -96.69328233906832}, "891267494RR0001": {"name": "SHALOM INCORPORATED", "designationCode": "C", "categoryCode": "01", "address": "411-50 HAMLYN RD PLAZA", "city": "ST JOHNS", "province": "NL", "country": "CA", "postalCode": "A1E5X7", "twitter": "None", "instagram": "None", "facebook": "None", "youtube": "None", "website": "None", "summary": "None", "logo": "None", "latitude": 47.53518198820831, "longitude": -52.7539585943009}, "893041566RR0001": {"name": "SHALOM KOREAN PRESBYTERIAN CHURCH", "designationCode": "C", "categoryCode": "37", "address": "274 WESTON RD", "city": "TORONTO", "province": "ON", "country": "CA", "postalCode": "M6N3P5", "twitter": "None", "instagram": "None", "facebook": "None", "youtube": "None", "website": "None", "summary": "None", "logo": "None", "latitude": 43.677905019966644, "longitude": -79.47280201015622}, "106932650RR0001": {"name": "SHALOM MANOR LONG TERM CARE HOME", "designationCode": "C", "categoryCode": "01", "address": "12 BARTLETT AVE", "city": "GRIMSBY", "province": "ON", "country": "CA", "postalCode": "L3M4N5", "twitter": "None", "instagram": "None", "facebook": "None", "youtube": "None", "website": "None", "summary": "None", "logo": "None", "latitude": 43.186883460153624, "longitude": -79.52524039751331}, "119147403RR0001": {"name": "SHALOM RESIDENCES FOUNDATION INC.", "designationCode": "A", "categoryCode": "03", "address": "1033 MCGREGOR STREET", "city": "WINNIPEG", "province": "MB", "country": "CA", "postalCode": "R2V3H4", "twitter": "None", "instagram": "None", "facebook": "None", "youtube": "None", "website": "None", "summary": "None", "logo": "None", "latitude": 49.94625899748985, "longitude": -97.12627453895233}, "107972812RR0001": {"name": "SHALOM VILLAGE NURSING HOME", "designationCode": "C", "categoryCode": "01", "address": "60 MACKLIN ST N", "city": "HAMILTON", "province": "ON", "country": "CA", "postalCode": "L8S3S1", "twitter": "None", "instagram": "None", "facebook": "None", "youtube": "None", "website": "None", "summary": "None", "logo": "None", "latitude": 43.26386887159854, "longitude": -79.89584626849842}, "892008046RR0001": {"name": "SHALOM WORLD MINISTRIES", "designationCode": "B", "categoryCode": "47", "address": "P.O. BOX 452", "city": "DON MILLS", "province": "ON", "country": "CA", "postalCode": "M3C2T2", "twitter": "None", "instagram": "None", "facebook": "None", "youtube": "None", "website": "None", "summary": "None", "logo": "None", "latitude": 43.70566232484685, "longitude": -79.33386344904338}, "851454355RR0001": {"name": "SHAMBA Foundation", "designationCode": "B", "categoryCode": "03", "address": "48 YONGE STREET               SUITE 1200", "city": "TORONTO", "province": "ON", "country": "CA", "postalCode": "M5E1G6", "twitter": "None", "instagram": "None", "facebook": "None", "youtube": "None", "website": "None", "summary": "None", "logo": "None", "latitude": 43.647789183478416, "longitude": -79.37767942951118}, "893015073RR0001": {"name": "SHAMBHALA SCHOOL SOCIETY", "designationCode": "C", "categoryCode": "20", "address": "5450 RUSSELL ST", "city": "HALIFAX", "province": "NS", "country": "CA", "postalCode": "B3K1W9", "twitter": "None", "instagram": "None", "facebook": "None", "youtube": "None", "website": "None", "summary": "None", "logo": "None", "latitude": 44.66180722173828, "longitude": -63.596665757256815}, "874068810RR0001": {"name": "SHAMELESS HUSSY PRODUCTION SOCIETY", "designationCode": "C", "categoryCode": "22", "address": "5117 WALDEN STREET", "city": "VANCOUVER", "province": "BC", "country": "CA", "postalCode": "V5W2V6", "twitter": "None", "instagram": "None", "facebook": "None", "youtube": "None", "website": "None", "summary": "None", "logo": "None", "latitude": 49.23887453427781, "longitude": -123.10015248727538}, "833456379RR0001": {"name": "SHAMMAH OUTREACH MINISTRIES", "designationCode": "C", "categoryCode": "39", "address": "48 LOWRIE LANE", "city": "EDEN MILLS", "province": "ON", "country": "CA", "postalCode": "N0B1P0", "twitter": "None", "instagram": "None", "facebook": "None", "youtube": "None", "website": "None", "summary": "None", "logo": "None", "latitude": 43.57658134358603, "longitude": -80.13561977373236}, "888173267RR0001": {"name": "SHAMROCK BILLIARD CLUB", "designationCode": "C", "categoryCode": "56", "address": "PO BOX 1335", "city": "KILLARNEY", "province": "MB", "country": "CA", "postalCode": "R0K1G0", "twitter": "None", "instagram": "None", "facebook": "None", "youtube": "None", "website": "None", "summary": "None", "logo": "None", "latitude": 49.18482000000006, "longitude": -99.66915999999998}, "872197769RR0001": {"name": "SHAMROCK CHARITABLE TRUST", "designationCode": "B", "categoryCode": "39", "address": "3425 2 AVENUE SOUTH", "city": "LETHBRIDGE", "province": "AB", "country": "CA", "postalCode": "T1J4V1", "twitter": "None", "instagram": "None", "facebook": "None", "youtube": "None", "website": "None", "summary": "None", "logo": "None", "latitude": 49.696839530439966, "longitude": -112.78914308381903}, "828636407RR0001": {"name": "SHAMROCK COMMUNITY DEVELOPMENT SOCIETY", "designationCode": "C", "categoryCode": "59", "address": "RR#7", "city": "ANTIGONISH", "province": "NS", "country": "CA", "postalCode": "B2G2L4", "twitter": "None", "instagram": "None", "facebook": "None", "youtube": "None", "website": "None", "summary": "None", "logo": "None", "latitude": 45.68927100000006, "longitude": -62.07345349999993}, "107972929RR0001": {"name": "SHAMROCK REGIONAL PARK AUTHORITY", "designationCode": "C", "categoryCode": "56", "address": "PO BOX 113", "city": "SHAMROCK", "province": "SK", "country": "CA", "postalCode": "S0H3W0", "twitter": "None", "instagram": "None", "facebook": "None", "youtube": "None", "website": "None", "summary": "None", "logo": "None", "latitude": 50.16676000000007, "longitude": -106.61792999999994}, "886137652RR0001": {"name": "SHAMROCK SCHOOL PARENT ADVISORY COUNCIL", "designationCode": "C", "categoryCode": "21", "address": "831 BEAVERHILL BLVD.", "city": "WINNIPEG", "province": "MB", "country": "CA", "postalCode": "R2J3K1", "twitter": "None", "instagram": "None", "facebook": "None", "youtube": "None", "website": "None", "summary": "None", "logo": "None", "latitude": 49.846816329736214, "longitude": -97.06431510970097}, "808759476RR0001": {"name": "SHANE MCMULLEN LEGACY FOUNDATION", "designationCode": "A", "categoryCode": "03", "address": "3002 - 10TH ST. S.W.", "city": "CALGARY", "province": "AB", "country": "CA", "postalCode": "T2T3H5", "twitter": "None", "instagram": "None", "facebook": "None", "youtube": "None", "website": "None", "summary": "None", "logo": "None", "latitude": 51.027166927837726, "longitude": -114.08794177586714}, "861107373RR0001": {"name": "SHANE MUSTAPHA MASJID", "designationCode": "C", "categoryCode": "60", "address": "6348 ORMINDALE WAY", "city": "MISSISSAUGA", "province": "ON", "country": "CA", "postalCode": "L5V1J2", "twitter": "None", "instagram": "None", "facebook": "None", "youtube": "None", "website": "None", "summary": "None", "logo": "None", "latitude": 43.614371996941586, "longitude": -79.71073121830449}, "119147460RR0001": {"name": "SHANGRI-LA REFUGE COMMEMORATIF A.J. MACDONALD POUR ANIMAUX", "designationCode": "C", "categoryCode": "54", "address": "1777 RANG 8", "city": "SAINT-ANTOINE-ABB\u00c9", "province": "QC", "country": "CA", "postalCode": "J0S1N0", "twitter": "None", "instagram": "None", "facebook": "None", "youtube": "None", "website": "None", "summary": "None", "logo": "None", "latitude": 45.05125000000004, "longitude": -73.88909999999998}, "890976376RR0001": {"name": "SHANLY PASTORAL CHARGE,", "designationCode": "C", "categoryCode": "44", "address": "R.R.4                         1725 CROWDER RD", "city": "SPENCERVILLE", "province": "ON", "country": "CA", "postalCode": "K0E1X0", "twitter": "None", "instagram": "None", "facebook": "None", "youtube": "None", "website": "None", "summary": "None", "logo": "None", "latitude": 44.849948335795716, "longitude": -75.5008984938545}, "119147494RR0001": {"name": "SHANNON UNITED BAPTIST CHURCH", "designationCode": "C", "categoryCode": "31", "address": "154 CRAFTS COVE ROAD", "city": "WICKHAM", "province": "NB", "country": "CA", "postalCode": "E5T4E1", "twitter": "None", "instagram": "None", "facebook": "None", "youtube": "None", "website": "None", "summary": "None", "logo": "None", "latitude": 45.72814623783844, "longitude": -66.00345773564632}, "867087116RR0001": {"name": "SHANTI SEVA SABHA & CULTURAL CENTRE INC.", "designationCode": "C", "categoryCode": "48", "address": "98 SPRUCE TICKET WALK", "city": "WINNIPEG", "province": "MB", "country": "CA", "postalCode": "R2V3Y9", "twitter": "None", "instagram": "None", "facebook": "None", "youtube": "None", "website": "None", "summary": "None", "logo": "None", "latitude": 49.9623839556233, "longitude": -97.10064609660097}, "107973331RR0001": {"name": "SHANTY BAY NURSERY SCHOOL", "designationCode": "C", "categoryCode": "01", "address": "28B CHURCH ST", "city": "ORO-MEDONTE", "province": "ON", "country": "CA", "postalCode": "L0L2L0", "twitter": "None", "instagram": "None", "facebook": "None", "youtube": "None", "website": "None", "summary": "None", "logo": "None", "latitude": 44.41051731022136, "longitude": -79.58183512090596}, "119147502RR0001": {"name": "SHANTY BAY VILLAGE GREEN ASSOCIATION", "designationCode": "C", "categoryCode": "56", "address": "115 BAY STR", "city": "ORO-MEDONTE TWP", "province": "ON", "country": "CA", "postalCode": "L0L2L0", "twitter": "None", "instagram": "None", "facebook": "None", "youtube": "None", "website": "None", "summary": "None", "logo": "None", "latitude": 44.40888873991591, "longitude": -79.58305855078198}, "813771870RR0001": {"name": "SHANTZ MENNONITE CHURCH", "designationCode": "C", "categoryCode": "34", "address": "2473 ERB'S RD", "city": "BADEN", "province": "ON", "country": "CA", "postalCode": "N3A3M3", "twitter": "None", "instagram": "None", "facebook": "None", "youtube": "None", "website": "None", "summary": "None", "logo": "None", "latitude": 43.42816265941511, "longitude": -80.67230777961805}, "888665999RR0001": {"name": "SHARAMAZDA LADIES ORIENTAL SHRINE TRUST", "designationCode": "C", "categoryCode": "15", "address": "338 GEORGIAN DRIVE", "city": "BARRIE", "province": "ON", "country": "CA", "postalCode": "L4M7B7", "twitter": "None", "instagram": "None", "facebook": "None", "youtube": "None", "website": "None", "summary": "None", "logo": "None", "latitude": 44.41610243104037, "longitude": -79.65426110199665}, "871468146RR0001": {"name": "SHARBOT LAKE PENTECOSTAL CHURCH", "designationCode": "C", "categoryCode": "36", "address": "PO BOX 45", "city": "SHARBOT LAKE", "province": "ON", "country": "CA", "postalCode": "K0H2P0", "twitter": "None", "instagram": "None", "facebook": "None", "youtube": "None", "website": "None", "summary": "None", "logo": "None", "latitude": 44.77155000000005, "longitude": -76.68740999999994}, "119147544RR0001": {"name": "SHARBOT LAKE UNITED CHURCH", "designationCode": "C", "categoryCode": "44", "address": "14793 COUNTY RD 38", "city": "SHARBOT LAKE", "province": "ON", "country": "CA", "postalCode": "K0H2P0", "twitter": "None", "instagram": "None", "facebook": "None", "youtube": "None", "website": "None", "summary": "None", "logo": "None", "latitude": 44.285354999999996, "longitude": -76.57004924999998}, "119288918RR0069": {"name": "SHARBOT LAKE, ONTARIO, CONGREGATION OF JEHOVAH'S WITNESSES", "designationCode": "C", "categoryCode": "61", "address": "PO BOX 339", "city": "SHARBOT LAKE", "province": "ON", "country": "CA", "postalCode": "K0H2P0", "twitter": "None", "instagram": "None", "facebook": "None", "youtube": "None", "website": "None", "summary": "None", "logo": "None", "latitude": 44.77155000000005, "longitude": -76.68740999999994}, "118875798RR0001": {"name": "SHARE FAMILY AND COMMUNITY SERVICES SOCIETY", "designationCode": "C", "categoryCode": "09", "address": "200-25 KING EDWARD ST", "city": "COQUITLAM", "province": "BC", "country": "CA", "postalCode": "V3K4S8", "twitter": "None", "instagram": "None", "facebook": "None", "youtube": "None", "website": "None", "summary": "None", "logo": "None", "latitude": 49.23147071134628, "longitude": -122.8614347901049}, "130632474RR0001": {"name": "SHARELIFE", "designationCode": "A", "categoryCode": "05", "address": "1155 YONGE ST", "city": "TORONTO", "province": "ON", "country": "CA", "postalCode": "M4T1W2", "twitter": "None", "instagram": "None", "facebook": "None", "youtube": "None", "website": "None", "summary": "None", "logo": "None", "latitude": 43.68216966639731, "longitude": -79.3916210252181}, "893400366RR0001": {"name": "SHARING OUR FUTURE FOUNDATION", "designationCode": "A", "categoryCode": "09", "address": "2702 NORLAND AVE", "city": "BURNABY", "province": "BC", "country": "CA", "postalCode": "V5B3A6", "twitter": "None", "instagram": "None", "facebook": "None", "youtube": "None", "website": "None", "summary": "None", "logo": "None", "latitude": 49.25925317625241, "longitude": -122.98319361472333}, "889941746RR0001": {"name": "SHARING THE CHRISTMAS SPIRIT", "designationCode": "C", "categoryCode": "09", "address": "121 - 750 COMOX RD", "city": "COURTENAY", "province": "BC", "country": "CA", "postalCode": "V9N3P6", "twitter": "None", "instagram": "None", "facebook": "None", "youtube": "None", "website": "None", "summary": "None", "logo": "None", "latitude": 49.69209847183905, "longitude": -124.9911368539447}, "107816688RR0001": {"name": "SHARLAUR CHILDREN'S CENTRE (BURLINGTON) INC.", "designationCode": "C", "categoryCode": "01", "address": "206-5500 NORTH SERVICE ROAD", "city": "BURLINGTON", "province": "ON", "country": "CA", "postalCode": "L7L6W6", "twitter": "None", "instagram": "None", "facebook": "None", "youtube": "None", "website": "None", "summary": "None", "logo": "None", "latitude": 43.39571929949778, "longitude": -79.76162724337836}, "850346347RR0001": {"name": "SHARNA FOUNDATION", "designationCode": "B", "categoryCode": "03", "address": "710-1110 FINCH AVENUE WEST", "city": "TORONTO", "province": "ON", "country": "CA", "postalCode": "M3J2T2", "twitter": "None", "instagram": "None", "facebook": "None", "youtube": "None", "website": "None", "summary": "None", "logo": "None", "latitude": 43.76734113413874, "longitude": -79.473816908448}, "891555740RR0001": {"name": "SHARODIA SOCIETY", "designationCode": "C", "categoryCode": "49", "address": "46 OSBORNE ST", "city": "HALIFAX", "province": "NS", "country": "CA", "postalCode": "B3N3H4", "twitter": "None", "instagram": "None", "facebook": "None", "youtube": "None", "website": "None", "summary": "None", "logo": "None", "latitude": 44.631367210081514, "longitude": -63.62823404189519}, "822004776RR0001": {"name": "SHARON BURYING GROUND ASSOCIATION", "designationCode": "C", "categoryCode": "52", "address": "1080 MEADOW LANE", "city": "NEWMARKET", "province": "ON", "country": "CA", "postalCode": "L3Y7C7", "twitter": "None", "instagram": "None", "facebook": "None", "youtube": "None", "website": "None", "summary": "None", "logo": "None", "latitude": 44.078026102073395, "longitude": -79.43580212531235}, "107973539RR0001": {"name": "SHARON CHILDREN'S HOMES AND SCHOOLS", "designationCode": "C", "categoryCode": "39", "address": "PO BOX 878", "city": "NORTH BATTLEFORD", "province": "SK", "country": "CA", "postalCode": "S9A2Z3", "twitter": "None", "instagram": "None", "facebook": "None", "youtube": "None", "website": "None", "summary": "None", "logo": "None", "latitude": 52.77640200000006, "longitude": -108.29903299999994}, "119288918RR1210": {"name": "SHARON CONGREGATION OF JEHOVAH'S WITNESSES", "designationCode": "C", "categoryCode": "61", "address": "590 HAINES ROAD", "city": "NEWMARKET", "province": "ON", "country": "CA", "postalCode": "L3Y6V5", "twitter": "None", "instagram": "None", "facebook": "None", "youtube": "None", "website": "None", "summary": "None", "logo": "None", "latitude": 44.07327081819503, "longitude": -79.45597096707853}, "119147619RR0001": {"name": "SHARON EVANGELICAL LUTHERAN CHURCH", "designationCode": "C", "categoryCode": "32", "address": "BOX 87", "city": "DONALDA", "province": "AB", "country": "CA", "postalCode": "T0B1H0", "twitter": "None", "instagram": "None", "facebook": "None", "youtube": "None", "website": "None", "summary": "None", "logo": "None", "latitude": 52.58343000000008, "longitude": -112.56860999999998}, "891746174RR0001": {"name": "SHARON GOSPEL CHAPEL OF EDMONTON", "designationCode": "C", "categoryCode": "39", "address": "7540 106 ST NW", "city": "EDMONTON", "province": "AB", "country": "CA", "postalCode": "T6E4W2", "twitter": "None", "instagram": "None", "facebook": "None", "youtube": "None", "website": "None", "summary": "None", "logo": "None", "latitude": 53.51212799999999, "longitude": -113.504478739829}, "129847257RR0001": {"name": "SHARON HOME INC", "designationCode": "C", "categoryCode": "01", "address": "1 FALCON RIDGE DR", "city": "WINNIPEG", "province": "MB", "country": "CA", "postalCode": "R3Y1V9", "twitter": "None", "instagram": "None", "facebook": "None", "youtube": "None", "website": "None", "summary": "None", "logo": "None", "latitude": 49.82252091485332, "longitude": -97.19209889707969}, "889489399RR0001": {"name": "SHARON HOPE UNITED CHURCH,", "designationCode": "C", "categoryCode": "44", "address": "18648 LESLIE ST", "city": "SHARON", "province": "ON", "country": "CA", "postalCode": "L0G1V0", "twitter": "None", "instagram": "None", "facebook": "None", "youtube": "None", "website": "None", "summary": "None", "logo": "None", "latitude": 44.09569483910665, "longitude": -79.43956090627547}, "107973596RR0001": {"name": "SHARON HOUSE CORPORATION", "designationCode": "C", "categoryCode": "01", "address": "24 MONTGOMERY ROAD", "city": "TORONTO", "province": "ON", "country": "CA", "postalCode": "M8X1Z4", "twitter": "None", "instagram": "None", "facebook": "None", "youtube": "None", "website": "None", "summary": "None", "logo": "None", "latitude": 43.648013201483174, "longitude": -79.51697503248877}, "119147676RR0001": {"name": "SHARON LUTHERAN CHURCH", "designationCode": "C", "categoryCode": "32", "address": "PO BOX 417", "city": "IRMA", "province": "AB", "country": "CA", "postalCode": "T0B2H0", "twitter": "None", "instagram": "None", "facebook": "None", "youtube": "None", "website": "None", "summary": "None", "logo": "None", "latitude": 52.91172000000006, "longitude": -111.23200999999995}, "891254989RR0001": {"name": "SHARON LUTHERAN CHURCH,", "designationCode": "C", "categoryCode": "32", "address": "210-10 AVE NE", "city": "CALGARY", "province": "AB", "country": "CA", "postalCode": "T2E0W9", "twitter": "None", "instagram": "None", "facebook": "None", "youtube": "None", "website": "None", "summary": "None", "logo": "None", "latitude": 51.06167726852271, "longitude": -114.05958722807007}, "888773140RR0001": {"name": "SHARON NASIN MOHAMED MEMORIAL INTERNATIONAL FOUNDATION", "designationCode": "C", "categoryCode": "59", "address": "3015 RICHMOND RD", "city": "OTTAWA", "province": "ON", "country": "CA", "postalCode": "K2B6S6", "twitter": "None", "instagram": "None", "facebook": "None", "youtube": "None", "website": "None", "summary": "None", "logo": "None", "latitude": 45.35160925396727, "longitude": -75.80016778215688}, "119147700RR0001": {"name": "SHARON PRESBYTERIAN CHURCH", "designationCode": "C", "categoryCode": "37", "address": "892 ST MARYS RD", "city": "UPPER MUSQUODOBOIT", "province": "NS", "country": "CA", "postalCode": "B0N2M0", "twitter": "None", "instagram": "None", "facebook": "None", "youtube": "None", "website": "None", "summary": "None", "logo": "None", "latitude": 45.20911843822508, "longitude": -62.83687405101312}, "132437799RR0001": {"name": "SHARP-TAILS PLUS FOUNDATION INC", "designationCode": "C", "categoryCode": "54", "address": "3100 - 201 PORTAGE AVE", "city": "WINNIPEG", "province": "MB", "country": "CA", "postalCode": "R3B3K6", "twitter": "None", "instagram": "None", "facebook": "None", "youtube": "None", "website": "None", "summary": "None", "logo": "None", "latitude": 49.895359615067065, "longitude": -97.13919299627776}, "119147734RR0001": {"name": "SHASTRI INDO CANADIAN INSTITUTE", "designationCode": "C", "categoryCode": "21", "address": "1418 EDUCATION TOWER          2500 UNIVERSITY DR NW", "city": "CALGARY", "province": "AB", "country": "CA", "postalCode": "T2N1N4", "twitter": "None", "instagram": "None", "facebook": "None", "youtube": "None", "website": "None", "summary": "None", "logo": "None", "latitude": 51.074918604189705, "longitude": -114.1284997045416}, "107973992RR0001": {"name": "SHAUGHNESSY HEIGHTS EARLY LEARNING CENTRE SOCIETY", "designationCode": "C", "categoryCode": "01", "address": "1550 WEST 33RD AVENUE", "city": "VANCOUVER", "province": "BC", "country": "CA", "postalCode": "V6M1A7", "twitter": "None", "instagram": "None", "facebook": "None", "youtube": "None", "website": "None", "summary": "None", "logo": "None", "latitude": 49.24188550288552, "longitude": -123.14193147016562}, "131132904RR0001": {"name": "SHAUGHNESSY HEIGHTS UNITED CHURCH,", "designationCode": "C", "categoryCode": "44", "address": "1550 33RD AVE W", "city": "VANCOUVER", "province": "BC", "country": "CA", "postalCode": "V6M1A7", "twitter": "None", "instagram": "None", "facebook": "None", "youtube": "None", "website": "None", "summary": "None", "logo": "None", "latitude": 49.24188550288552, "longitude": -123.14193147016562}, "891601577RR0001": {"name": "SHAUN ANTHONY LEWIS CABLE FOUNDATION", "designationCode": "B", "categoryCode": "11", "address": "195 QUESNELL CRESCENT", "city": "EDMONTON", "province": "AB", "country": "CA", "postalCode": "T5R5P1", "twitter": "None", "instagram": "None", "facebook": "None", "youtube": "None", "website": "None", "summary": "None", "logo": "None", "latitude": 53.50861720618638, "longitude": -113.57698363506238}, "119147783RR0001": {"name": "SHAUNAVON ALLIANCE CHURCH", "designationCode": "C", "categoryCode": "39", "address": "PO BOX 939", "city": "SHAUNAVON", "province": "SK", "country": "CA", "postalCode": "S0N2M0", "twitter": "None", "instagram": "None", "facebook": "None", "youtube": "None", "website": "None", "summary": "None", "logo": "None", "latitude": 49.64645000000007, "longitude": -108.41961999999995}, "119147791RR0001": {"name": "SHAUNAVON AND DISTRICT COMMUNITY SERVICES SOCIETY", "designationCode": "C", "categoryCode": "09", "address": "BOX 385", "city": "SHAUNAVON", "province": "SK", "country": "CA", "postalCode": "S0N2M0", "twitter": "None", "instagram": "None", "facebook": "None", "youtube": "None", "website": "None", "summary": "None", "logo": "None", "latitude": 49.64645000000007, "longitude": -108.41961999999995}, "119147809RR0001": {"name": "SHAUNAVON ARTS COUNCIL INC.", "designationCode": "C", "categoryCode": "22", "address": "BOX 358", "city": "SHAUNAVON", "province": "SK", "country": "CA", "postalCode": "S0N2M0", "twitter": "None", "instagram": "None", "facebook": "None", "youtube": "None", "website": "None", "summary": "None", "logo": "None", "latitude": 49.64645000000007, "longitude": -108.41961999999995}, "893798256RR0001": {"name": "SHAUNAVON CHILDREN'S LEARNING CENTRE CO-OPERATIVE LTD.", "designationCode": "C", "categoryCode": "01", "address": "BOX 1463                      404 FIRST STREET WEST", "city": "SHAUNAVAN", "province": "SK", "country": "CA", "postalCode": "S0N2M0", "twitter": "None", "instagram": "None", "facebook": "None", "youtube": "None", "website": "None", "summary": "None", "logo": "None", "latitude": 49.64717197734021, "longitude": -108.40994366244648}, "892743113RR0001": {"name": "SHAUNAVON HOSPITAL AUXILIARY", "designationCode": "C", "categoryCode": "19", "address": "BOX 545", "city": "SHAUNAVON", "province": "SK", "country": "CA", "postalCode": "S0N2M0", "twitter": "None", "instagram": "None", "facebook": "None", "youtube": "None", "website": "None", "summary": "None", "logo": "None", "latitude": 49.64645000000007, "longitude": -108.41961999999995}, "119147833RR0001": {"name": "SHAUNAVON MUSIC FESTIVAL ASSOCIATION", "designationCode": "C", "categoryCode": "22", "address": "BOX 631", "city": "SHAUNAVON", "province": "SK", "country": "CA", "postalCode": "S0N2M0", "twitter": "None", "instagram": "None", "facebook": "None", "youtube": "None", "website": "None", "summary": "None", "logo": "None", "latitude": 49.64645000000007, "longitude": -108.41961999999995}, "897237806RR0001": {"name": "SHAW FESTIVAL THEATRE ENDOWMENT FOUNDATION", "designationCode": "A", "categoryCode": "23", "address": "10 QUEEN'S PARADE             P. O. BOX 774", "city": "NIAGARA-ON-THE-LAKE", "province": "ON", "country": "CA", "postalCode": "L0S1J0", "twitter": "None", "instagram": "None", "facebook": "None", "youtube": "None", "website": "None", "summary": "None", "logo": "None", "latitude": 42.86557735053959, "longitude": -79.06136232361936}, "119147866RR0001": {"name": "SHAWBRIDGE UNITED CHURCH", "designationCode": "C", "categoryCode": "44", "address": "1264 PRINCIPALE               P.O.BOX 34", "city": "PREVOST", "province": "QC", "country": "CA", "postalCode": "J0R1T0", "twitter": "None", "instagram": "None", "facebook": "None", "youtube": "None", "website": "None", "summary": "None", "logo": "None", "latitude": 45.872320159587986, "longitude": -74.08104577794461}, "892528530RR0001": {"name": "SHAWNIGAN LAKE COMMUNITY ASSOCIATION", "designationCode": "C", "categoryCode": "56", "address": "2801 RENFREW RD", "city": "SHAWNIGAN LAKE", "province": "BC", "country": "CA", "postalCode": "V0R2W1", "twitter": "None", "instagram": "None", "facebook": "None", "youtube": "None", "website": "None", "summary": "None", "logo": "None", "latitude": 48.6564994530741, "longitude": -123.69074911255917}, "816072946RR0001": {"name": "SHAWNIGAN LAKE HISTORICAL SOCIETY", "designationCode": "C", "categoryCode": "50", "address": "BOX 331", "city": "SHAWNIGAN LAKE", "province": "BC", "country": "CA", "postalCode": "V0R2W0", "twitter": "None", "instagram": "None", "facebook": "None", "youtube": "None", "website": "None", "summary": "None", "logo": "None", "latitude": 48.614505759762736, "longitude": -123.62673621698342}, "107974396RR0001": {"name": "SHAWNIGAN LAKE SCHOOL", "designationCode": "C", "categoryCode": "20", "address": "1975 RENFREW RD               POSTAL BAG 2000", "city": "SHAWNIGAN", "province": "BC", "country": "CA", "postalCode": "V0R2W1", "twitter": "None", "instagram": "None", "facebook": "None", "youtube": "None", "website": "None", "summary": "None", "logo": "None", "latitude": 48.65164000000004, "longitude": -123.63966999999997}, "889365243RR0001": {"name": "SHAWNIGAN LAKE SCHOOL FOUNDATION", "designationCode": "A", "categoryCode": "21", "address": "1975 RENFREW ROAD", "city": "SHAWNIGAN LAKE", "province": "BC", "country": "CA", "postalCode": "V0R2W1", "twitter": "None", "instagram": "None", "facebook": "None", "youtube": "None", "website": "None", "summary": "None", "logo": "None", "latitude": 48.65166498936578, "longitude": -123.63971533787839}, "107974503RR0001": {"name": "SHAWVILLE PASTORAL CHARGE", "designationCode": "C", "categoryCode": "44", "address": "PO BOX 429", "city": "SHAWVILLE", "province": "QC", "country": "CA", "postalCode": "J0X2Y0", "twitter": "None", "instagram": "None", "facebook": "None", "youtube": "None", "website": "None", "summary": "None", "logo": "None", "latitude": 45.599560000000054, "longitude": -76.49331999999998}, "119147957RR0001": {"name": "SHAWVILLE VILLAGE CEMETERY", "designationCode": "C", "categoryCode": "59", "address": "8 MARYLAND ROAD", "city": "BRISTOL", "province": "QC", "country": "CA", "postalCode": "J0X1G0", "twitter": "None", "instagram": "None", "facebook": "None", "youtube": "None", "website": "None", "summary": "None", "logo": "None", "latitude": 45.56155287425714, "longitude": -76.37449185007821}, "866073331RR0001": {"name": "SHAYONA CHARITIES INC.", "designationCode": "C", "categoryCode": "43", "address": "61 CLAIREVILLE DRIVE", "city": "TORONTO", "province": "ON", "country": "CA", "postalCode": "M9W5Z7", "twitter": "None", "instagram": "None", "facebook": "None", "youtube": "None", "website": "None", "summary": "None", "logo": "None", "latitude": 43.73933154870453, "longitude": -79.62477022205539}, "845579457RR0001": {"name": "SHC Foundation", "designationCode": "C", "categoryCode": "09", "address": "128-33771 GEORGE FERGUSON WAY PO BOX 800", "city": "ABBOTSFORD", "province": "BC", "country": "CA", "postalCode": "V2S2M5", "twitter": "None", "instagram": "None", "facebook": "None", "youtube": "None", "website": "None", "summary": "None", "logo": "None", "latitude": 49.050185489324186, "longitude": -122.28991102553522}, "840286769RR0001": {"name": "SHEAF/ESPIGA FOUNDATION", "designationCode": "C", "categoryCode": "09", "address": "97 CH DU LAC-CROCHE", "city": "SAINT-HIPPOLYTE", "province": "QC", "country": "CA", "postalCode": "J8A3K9", "twitter": "None", "instagram": "None", "facebook": "None", "youtube": "None", "website": "None", "summary": "None", "logo": "None", "latitude": 45.977090578770984, "longitude": -74.01748752738249}, "874055320RR0001": {"name": "SHEALTIEL FOUNDATION", "designationCode": "B", "categoryCode": "03", "address": "P.O. BOX 183                  4139 FERGUSON ROAD", "city": "LAC LA HACHE", "province": "BC", "country": "CA", "postalCode": "V0K1T0", "twitter": "None", "instagram": "None", "facebook": "None", "youtube": "None", "website": "None", "summary": "None", "logo": "None", "latitude": 51.86146760811352, "longitude": -121.64184587829743}, "140038134RR0001": {"name": "SHEATRE EDUCATIONAL ALTERNATIVE THEATRE (HURON)", "designationCode": "C", "categoryCode": "22", "address": "170069 CENTRE RD. RR#1", "city": "KEMBLE", "province": "ON", "country": "CA", "postalCode": "N0H1S0", "twitter": "None", "instagram": "None", "facebook": "None", "youtube": "None", "website": "None", "summary": "None", "logo": "None", "latitude": 44.72591591881962, "longitude": -81.01015153226813}}