{"119299618RR0001": {"name": "WINDSOR & AREA RIGHT TO LIFE ASSOCIATION", "designationCode": "C", "categoryCode": "09", "address": "2541 JEFFERSON BLVD", "city": "WINDSOR", "province": "ON", "country": "CA", "postalCode": "N8T2W5", "twitter": "None", "instagram": "None", "facebook": "None", "youtube": "None", "website": "None", "summary": "None", "logo": "None", "latitude": 42.30778758116969, "longitude": -82.95024045938831}, "108215138RR0001": {"name": "WINDSOR & ESSEX COUNTY CRIME STOPPERS INC.", "designationCode": "C", "categoryCode": "59", "address": "PO BOX 60", "city": "WINDSOR", "province": "ON", "country": "CA", "postalCode": "N9A6J5", "twitter": "None", "instagram": "None", "facebook": "None", "youtube": "None", "website": "None", "summary": "None", "logo": "None", "latitude": 42.31784400000005, "longitude": -83.03387299999993}, "884449026RR0001": {"name": "WINDSOR AND DISTRICT FOOD BANK SOCIETY", "designationCode": "C", "categoryCode": "09", "address": "P.O. BOX 2116                 1699 KING ST", "city": "WINDSOR", "province": "NS", "country": "CA", "postalCode": "B0N2T0", "twitter": "None", "instagram": "None", "facebook": "None", "youtube": "None", "website": "None", "summary": "None", "logo": "None", "latitude": 44.977884252870744, "longitude": -64.12331499971154}, "119299642RR0001": {"name": "WINDSOR BANJOS", "designationCode": "B", "categoryCode": "22", "address": "13130 WALKER SIDE RD          RR #2", "city": "ESSEX", "province": "ON", "country": "CA", "postalCode": "N8M2X6", "twitter": "None", "instagram": "None", "facebook": "None", "youtube": "None", "website": "None", "summary": "None", "logo": "None", "latitude": 42.09859500000006, "longitude": -82.94407099999994}, "897339800RR0001": {"name": "WINDSOR BAPTIST REFUGEE MINISTRIES", "designationCode": "C", "categoryCode": "09", "address": "1822 DROUILLARD RD.", "city": "WINDSOR", "province": "ON", "country": "CA", "postalCode": "N8W3X5", "twitter": "None", "instagram": "None", "facebook": "None", "youtube": "None", "website": "None", "summary": "None", "logo": "None", "latitude": 42.305408108805985, "longitude": -82.98979556936365}, "829765775RR0001": {"name": "WINDSOR BUDDHIST VIHARA", "designationCode": "C", "categoryCode": "35", "address": "691 CAMPBELL AVENUE", "city": "WINDSOR", "province": "ON", "country": "CA", "postalCode": "N9B2H6", "twitter": "None", "instagram": "None", "facebook": "None", "youtube": "None", "website": "None", "summary": "None", "logo": "None", "latitude": 42.30612389840738, "longitude": -83.05537000002866}, "119299691RR0001": {"name": "WINDSOR CARES FOR KIDS INC", "designationCode": "C", "categoryCode": "01", "address": "99 SPRINGSIDE DRIVE", "city": "WINNIPEG", "province": "MB", "country": "CA", "postalCode": "R2M0W9", "twitter": "None", "instagram": "None", "facebook": "None", "youtube": "None", "website": "None", "summary": "None", "logo": "None", "latitude": 49.854309057621165, "longitude": -97.11794908341332}, "891435448RR0001": {"name": "WINDSOR CELIAC FOUNDATION", "designationCode": "C", "categoryCode": "11", "address": "P.O. BOX 27001                7720 TECUMSEH ROAD EAST", "city": "WINDSOR", "province": "ON", "country": "CA", "postalCode": "N8T3N5", "twitter": "None", "instagram": "None", "facebook": "None", "youtube": "None", "website": "None", "summary": "None", "logo": "None", "latitude": 42.31385382076091, "longitude": -82.93422236335564}, "108214941RR0001": {"name": "WINDSOR CHINESE ALLIANCE CHURCH", "designationCode": "C", "categoryCode": "39", "address": "4258 SEMINOLE ST", "city": "WINDSOR", "province": "ON", "country": "CA", "postalCode": "N8Y1Z4", "twitter": "None", "instagram": "None", "facebook": "None", "youtube": "None", "website": "None", "summary": "None", "logo": "None", "latitude": 42.316959568468675, "longitude": -82.97999207095019}, "108214958RR0001": {"name": "WINDSOR CHINESE BAPTIST CHURCH", "designationCode": "C", "categoryCode": "31", "address": "1099 UNIVERSITY AVENUE WEST", "city": "WINDSOR", "province": "ON", "country": "CA", "postalCode": "N9A5S5", "twitter": "None", "instagram": "None", "facebook": "None", "youtube": "None", "website": "None", "summary": "None", "logo": "None", "latitude": 42.313900880876695, "longitude": -83.05190656287068}, "132433418RR0001": {"name": "WINDSOR CHRISTIAN FELLOWSHIP", "designationCode": "C", "categoryCode": "39", "address": "4490 7TH CONCESSION RD", "city": "WINDSOR", "province": "ON", "country": "CA", "postalCode": "N9A6J3", "twitter": "None", "instagram": "None", "facebook": "None", "youtube": "None", "website": "None", "summary": "None", "logo": "None", "latitude": 42.25353096600397, "longitude": -82.9626054037778}, "891392987RR0001": {"name": "WINDSOR CITY BALLET INCORPORATED", "designationCode": "C", "categoryCode": "22", "address": "1220 ROSELAWN DR", "city": "WINDSOR", "province": "ON", "country": "CA", "postalCode": "N9E1L6", "twitter": "None", "instagram": "None", "facebook": "None", "youtube": "None", "website": "None", "summary": "None", "logo": "None", "latitude": 42.257599227335525, "longitude": -83.01681691938361}, "119299766RR0001": {"name": "WINDSOR CLASSIC CHORALE", "designationCode": "C", "categoryCode": "22", "address": "PO BOX 7304", "city": "WINDSOR", "province": "ON", "country": "CA", "postalCode": "N9C4E9", "twitter": "None", "instagram": "None", "facebook": "None", "youtube": "None", "website": "None", "summary": "None", "logo": "None", "latitude": 42.31784400000005, "longitude": -83.03387299999993}, "108215021RR0001": {"name": "WINDSOR DAY CARE SOCIETY", "designationCode": "C", "categoryCode": "01", "address": "PO BOX 211", "city": "WINDSOR", "province": "NS", "country": "CA", "postalCode": "B0N2T0", "twitter": "None", "instagram": "None", "facebook": "None", "youtube": "None", "website": "None", "summary": "None", "logo": "None", "latitude": 44.990170000000035, "longitude": -64.12904999999995}, "129620357RR0001": {"name": "WINDSOR ELMS VILLAGE FOR CONTINUING CARE SOCIETY", "designationCode": "C", "categoryCode": "01", "address": "174 FALMOUTH DYKE ROAD        RR 2", "city": "FALMOUTH", "province": "NS", "country": "CA", "postalCode": "B0P1L0", "twitter": "None", "instagram": "None", "facebook": "None", "youtube": "None", "website": "None", "summary": "None", "logo": "None", "latitude": 44.99418770500293, "longitude": -64.1689384875629}, "869405563RR0001": {"name": "WINDSOR ENDOWMENT FOR THE ARTS", "designationCode": "C", "categoryCode": "23", "address": "395 ASKIN BLVD.", "city": "WINDSOR", "province": "ON", "country": "CA", "postalCode": "N9B2X1", "twitter": "None", "instagram": "None", "facebook": "None", "youtube": "None", "website": "None", "summary": "None", "logo": "None", "latitude": 42.30761329863241, "longitude": -83.0639094445148}, "852957638RR0001": {"name": "WINDSOR ESSEX CARE FOR KIDS FOUNDATION", "designationCode": "A", "categoryCode": "03", "address": "1995 LENS AVENUE", "city": "WINDSOR", "province": "ON", "country": "CA", "postalCode": "N8W1L9", "twitter": "None", "instagram": "None", "facebook": "None", "youtube": "None", "website": "None", "summary": "None", "logo": "None", "latitude": 42.300943799556045, "longitude": -82.99658151032911}, "104184775RR0001": {"name": "WINDSOR ESSEX COMMUNITY HEALTH CENTRE", "designationCode": "C", "categoryCode": "11", "address": "101 - 1361 OUELLETTE AVE", "city": "WINDSOR", "province": "ON", "country": "CA", "postalCode": "N8X1J6", "twitter": "None", "instagram": "None", "facebook": "None", "youtube": "None", "website": "None", "summary": "None", "logo": "None", "latitude": 42.30299782901507, "longitude": -83.02970989846469}, "890493562RR0001": {"name": "WINDSOR ESSEX COUNTY CANCER CENTRE FOUNDATION", "designationCode": "A", "categoryCode": "11", "address": "2220 KILDARE RD", "city": "WINDSOR", "province": "ON", "country": "CA", "postalCode": "N8W2X3", "twitter": "None", "instagram": "None", "facebook": "None", "youtube": "None", "website": "None", "summary": "None", "logo": "None", "latitude": 42.29983733989042, "longitude": -82.99832317693603}, "119299873RR0001": {"name": "WINDSOR EVANGEL BIBLE CHURCH INC", "designationCode": "C", "categoryCode": "39", "address": "3149 FOREST GLADE DR", "city": "WINDSOR", "province": "ON", "country": "CA", "postalCode": "N8R1W6", "twitter": "None", "instagram": "None", "facebook": "None", "youtube": "None", "website": "None", "summary": "None", "logo": "None", "latitude": 42.30500662003006, "longitude": -82.91290930414272}, "119299881RR0001": {"name": "WINDSOR FEMINIST THEATRE", "designationCode": "C", "categoryCode": "22", "address": "1217 LILLIAN AVE", "city": "WINDSOR", "province": "ON", "country": "CA", "postalCode": "N8X4A2", "twitter": "None", "instagram": "None", "facebook": "None", "youtube": "None", "website": "None", "summary": "None", "logo": "None", "latitude": 42.308370000548265, "longitude": -83.02234962380963}, "131470569RR0001": {"name": "WINDSOR FIRE DEPARTMENT", "designationCode": "C", "categoryCode": "59", "address": "PO BOX 627                    100 KING STREET", "city": "WINDSOR", "province": "NS", "country": "CA", "postalCode": "B0N2T0", "twitter": "None", "instagram": "None", "facebook": "None", "youtube": "None", "website": "None", "summary": "None", "logo": "None", "latitude": 44.9950728734204, "longitude": -64.13668227090413}, "119299907RR0001": {"name": "WINDSOR FULL GOSPEL MISSION CHURCH", "designationCode": "C", "categoryCode": "36", "address": "189 PATRICIA ROAD", "city": "WINDSOR", "province": "ON", "country": "CA", "postalCode": "N9B3B8", "twitter": "None", "instagram": "None", "facebook": "None", "youtube": "None", "website": "None", "summary": "None", "logo": "None", "latitude": 42.30956962003008, "longitude": -83.06924081268374}, "131800856RR0001": {"name": "WINDSOR GOODFELLOWS CLUB,", "designationCode": "C", "categoryCode": "09", "address": "401 PARK ST. WEST", "city": "WINDSOR", "province": "ON", "country": "CA", "postalCode": "N9A5V4", "twitter": "None", "instagram": "None", "facebook": "None", "youtube": "None", "website": "None", "summary": "None", "logo": "None", "latitude": 42.31529096973291, "longitude": -83.04275694809283}, "892760372RR0001": {"name": "WINDSOR HISTORIC SITES ASSOCIATION,", "designationCode": "C", "categoryCode": "52", "address": "254 PITT ST W", "city": "WINDSOR", "province": "ON", "country": "CA", "postalCode": "N9A5L5", "twitter": "None", "instagram": "None", "facebook": "None", "youtube": "None", "website": "None", "summary": "None", "logo": "None", "latitude": 42.31830107412416, "longitude": -83.04239706731484}, "855583845RR0001": {"name": "WINDSOR HISTORICAL SOCIETY", "designationCode": "C", "categoryCode": "50", "address": "4350 PLEASANT PLACE", "city": "WINDSOR", "province": "ON", "country": "CA", "postalCode": "N8Y2G1", "twitter": "None", "instagram": "None", "facebook": "None", "youtube": "None", "website": "None", "summary": "None", "logo": "None", "latitude": 42.32639224176223, "longitude": -82.98427584277795}, "136403326RR0001": {"name": "WINDSOR HOCKEY HERITAGE SOCIETY", "designationCode": "C", "categoryCode": "50", "address": "P.O. BOX 430", "city": "WINDSOR", "province": "NS", "country": "CA", "postalCode": "B0N2T0", "twitter": "None", "instagram": "None", "facebook": "None", "youtube": "None", "website": "None", "summary": "None", "logo": "None", "latitude": 44.990170000000035, "longitude": -64.12904999999995}, "119299774RR0001": {"name": "WINDSOR HOMES COALITION INC", "designationCode": "C", "categoryCode": "59", "address": "900 HOWARD AVE", "city": "WINDSOR", "province": "ON", "country": "CA", "postalCode": "N9A1S5", "twitter": "None", "instagram": "None", "facebook": "None", "youtube": "None", "website": "None", "summary": "None", "logo": "None", "latitude": 42.313342043308836, "longitude": -83.02689537229523}, "842763070RR0001": {"name": "WINDSOR HOUSE OF PRAYER", "designationCode": "C", "categoryCode": "39", "address": "2958 COUNTY RD 27", "city": "SOUTH WOODSLEE", "province": "ON", "country": "CA", "postalCode": "N0R1V0", "twitter": "None", "instagram": "None", "facebook": "None", "youtube": "None", "website": "None", "summary": "None", "logo": "None", "latitude": 42.17832082791853, "longitude": -82.7201645629297}, "119299949RR0001": {"name": "WINDSOR ISLAMIC ASSOCIATION (W.I.A.)", "designationCode": "C", "categoryCode": "60", "address": "1320 NORTHWOOD AVE", "city": "WINDSOR", "province": "ON", "country": "CA", "postalCode": "N9E1A4", "twitter": "None", "instagram": "None", "facebook": "None", "youtube": "None", "website": "None", "summary": "None", "logo": "None", "latitude": 42.2770165940039, "longitude": -83.03177323567405}, "108215328RR0001": {"name": "WINDSOR JEWISH COMMUNITY CENTRE", "designationCode": "C", "categoryCode": "09", "address": "1641 OUELLETTE AVE", "city": "WINDSOR", "province": "ON", "country": "CA", "postalCode": "N8X1K9", "twitter": "None", "instagram": "None", "facebook": "None", "youtube": "None", "website": "None", "summary": "None", "logo": "None", "latitude": 42.297327661377, "longitude": -83.0260792052914}, "891310344RR0001": {"name": "WINDSOR JEWISH FEDERATION", "designationCode": "A", "categoryCode": "03", "address": "1641 OUELLETTE AVENUE", "city": "WINDSOR", "province": "ON", "country": "CA", "postalCode": "N8X1K9", "twitter": "None", "instagram": "None", "facebook": "None", "youtube": "None", "website": "None", "summary": "None", "logo": "None", "latitude": 42.297327661377, "longitude": -83.0260792052914}, "889545869RR0001": {"name": "WINDSOR KIWANIS CHARITABLE TRUST,", "designationCode": "C", "categoryCode": "65", "address": "PO BOX 1084", "city": "WINDSOR", "province": "ON", "country": "CA", "postalCode": "N9A6P4", "twitter": "None", "instagram": "None", "facebook": "None", "youtube": "None", "website": "None", "summary": "None", "logo": "None", "latitude": 42.31784400000005, "longitude": -83.03387299999993}, "865364111RR0001": {"name": "WINDSOR LIFELINE OUTREACH, INC.", "designationCode": "C", "categoryCode": "09", "address": "4490 SEVENTH CONCESSION RD    RR 1", "city": "WINDSOR", "province": "ON", "country": "CA", "postalCode": "N9A6J3", "twitter": "None", "instagram": "None", "facebook": "None", "youtube": "None", "website": "None", "summary": "None", "logo": "None", "latitude": 42.25353096600397, "longitude": -82.9626054037778}, "119299972RR0001": {"name": "WINDSOR LIGHT MUSIC THEATRE", "designationCode": "C", "categoryCode": "22", "address": "2491 JOS ST LOUIS AVE", "city": "WINDSOR", "province": "ON", "country": "CA", "postalCode": "N8T2M4", "twitter": "None", "instagram": "None", "facebook": "None", "youtube": "None", "website": "None", "summary": "None", "logo": "None", "latitude": 42.30750909158066, "longitude": -82.95530020431045}, "108215401RR0001": {"name": "WINDSOR LODGE NO. 1499 LOYAL ORDER OF MOOSE TRUST", "designationCode": "C", "categoryCode": "65", "address": "777 TECUMSEH RD W", "city": "WINDSOR", "province": "ON", "country": "CA", "postalCode": "N8X1H4", "twitter": "None", "instagram": "None", "facebook": "None", "youtube": "None", "website": "None", "summary": "None", "logo": "None", "latitude": 42.294393606946876, "longitude": -83.03551119777646}, "108215393RR0001": {"name": "WINDSOR MENNONITE FELLOWSHIP", "designationCode": "C", "categoryCode": "34", "address": "1709 GEORGE STREET", "city": "WINDSOR", "province": "ON", "country": "CA", "postalCode": "N8Y2Y8", "twitter": "None", "instagram": "None", "facebook": "None", "youtube": "None", "website": "None", "summary": "None", "logo": "None", "latitude": 42.311917781839746, "longitude": -82.97970938346104}, "119300036RR0001": {"name": "WINDSOR NURSERY SCHOOL SOCIETY", "designationCode": "C", "categoryCode": "20", "address": "BOX 102", "city": "WINDSOR", "province": "NS", "country": "CA", "postalCode": "B0N2T0", "twitter": "None", "instagram": "None", "facebook": "None", "youtube": "None", "website": "None", "summary": "None", "logo": "None", "latitude": 44.990170000000035, "longitude": -64.12904999999995}, "134399153RR0001": {"name": "WINDSOR OCCUPATIONAL HEALTH INFORMATION SERVICE", "designationCode": "C", "categoryCode": "59", "address": "3129 MARENTETTE AVE UNIT #2", "city": "WINDSOR", "province": "ON", "country": "CA", "postalCode": "N8X4G1", "twitter": "None", "instagram": "None", "facebook": "None", "youtube": "None", "website": "None", "summary": "None", "logo": "None", "latitude": 42.27533189119401, "longitude": -82.99862792342299}, "119300077RR0001": {"name": "WINDSOR OPEN BIBLE FELLOWSHIP", "designationCode": "C", "categoryCode": "31", "address": "5675 MALDEN RD", "city": "LASALLE", "province": "ON", "country": "CA", "postalCode": "N9H1R9", "twitter": "None", "instagram": "None", "facebook": "None", "youtube": "None", "website": "None", "summary": "None", "logo": "None", "latitude": 42.252095285835, "longitude": -83.0605914841258}, "139644777RR0001": {"name": "WINDSOR OPTIMIST YOUTH BAND", "designationCode": "C", "categoryCode": "22", "address": "PO BOX 1144 STN A", "city": "WINDSOR", "province": "ON", "country": "CA", "postalCode": "N9A6P8", "twitter": "None", "instagram": "None", "facebook": "None", "youtube": "None", "website": "None", "summary": "None", "logo": "None", "latitude": 42.31784400000005, "longitude": -83.03387299999993}, "890226970RR0001": {"name": "WINDSOR ORGAN TRANSPLANT AND CARDIAC CARE", "designationCode": "C", "categoryCode": "11", "address": "78 DIVISION ST S", "city": "KINGSVILLE", "province": "ON", "country": "CA", "postalCode": "N9Y1P6", "twitter": "None", "instagram": "None", "facebook": "None", "youtube": "None", "website": "None", "summary": "None", "logo": "None", "latitude": 42.03508564946042, "longitude": -82.73983935988772}, "108215443RR0001": {"name": "WINDSOR PARK AFTER SCHOOL CARE PROGRAM SOCIETY", "designationCode": "C", "categoryCode": "01", "address": "11733 87 AVE NW", "city": "EDMONTON", "province": "AB", "country": "CA", "postalCode": "T6G0Y4", "twitter": "None", "instagram": "None", "facebook": "None", "youtube": "None", "website": "None", "summary": "None", "logo": "None", "latitude": 53.522796532315894, "longitude": -113.533353}, "105708523RR0001": {"name": "WINDSOR PARK CHILDREN'S CARE CENTRE INC.", "designationCode": "C", "categoryCode": "01", "address": "906 COTTONWOOD RD", "city": "WINNIPEG", "province": "MB", "country": "CA", "postalCode": "R2J1G2", "twitter": "None", "instagram": "None", "facebook": "None", "youtube": "None", "website": "None", "summary": "None", "logo": "None", "latitude": 49.860868614981094, "longitude": -97.07997752579503}, "887300085RR0001": {"name": "WINDSOR PARK COMMUNITY LEAGUE BUILDING FUND", "designationCode": "C", "categoryCode": "56", "address": "11840 87 AVE NW", "city": "EDMONTON", "province": "AB", "country": "CA", "postalCode": "T6G2S3", "twitter": "None", "instagram": "None", "facebook": "None", "youtube": "None", "website": "None", "summary": "None", "logo": "None", "latitude": 53.52297747157924, "longitude": -113.53530158381903}, "108215500RR0001": {"name": "WINDSOR PARK UNITED CHURCH", "designationCode": "C", "categoryCode": "44", "address": "1062 AUTUMNWOOD DR", "city": "WINNIPEG", "province": "MB", "country": "CA", "postalCode": "R2J1C7", "twitter": "None", "instagram": "None", "facebook": "None", "youtube": "None", "website": "None", "summary": "None", "logo": "None", "latitude": 49.861629502914184, "longitude": -97.07831614671913}, "889407797RR0001": {"name": "WINDSOR PEOPLE FIRST SOCIETY", "designationCode": "C", "categoryCode": "09", "address": "100 KING ST P O BOX 293", "city": "WINDSOR", "province": "NS", "country": "CA", "postalCode": "B0N2T0", "twitter": "None", "instagram": "None", "facebook": "None", "youtube": "None", "website": "None", "summary": "None", "logo": "None", "latitude": 44.9950728734204, "longitude": -64.13668227090413}, "119300127RR0001": {"name": "WINDSOR PLAINS UNITED BAPTIST CHURCH,", "designationCode": "C", "categoryCode": "31", "address": "4841 OLD NUMBER 1 HIGHWAY", "city": "WINDSOR", "province": "NS", "country": "CA", "postalCode": "B0N2T0", "twitter": "None", "instagram": "None", "facebook": "None", "youtube": "None", "website": "None", "summary": "None", "logo": "None", "latitude": 44.98003500000006, "longitude": -64.14505099999994}, "888796448RR0001": {"name": "WINDSOR PUBLIC LIBRARY (EMPLOYEES' CHARITY TRUST)", "designationCode": "B", "categoryCode": "75", "address": "850 OUELLETTE AVE", "city": "WINDSOR", "province": "ON", "country": "CA", "postalCode": "N9A4M9", "twitter": "None", "instagram": "None", "facebook": "None", "youtube": "None", "website": "None", "summary": "None", "logo": "None", "latitude": 42.31112194506308, "longitude": -83.03485433896971}, "108215567RR0001": {"name": "WINDSOR PUBLIC LIBRARY BOARD", "designationCode": "C", "categoryCode": "50", "address": "850 OUELLETTE AVE", "city": "WINDSOR", "province": "ON", "country": "CA", "postalCode": "N9A4M9", "twitter": "None", "instagram": "None", "facebook": "None", "youtube": "None", "website": "None", "summary": "None", "logo": "None", "latitude": 42.31112194506308, "longitude": -83.03485433896971}, "857397087RR0001": {"name": "WINDSOR PUBLIC LIBRARY FOUNDATION", "designationCode": "A", "categoryCode": "53", "address": "850 OUELLETTE AVENUE", "city": "WINDSOR", "province": "ON", "country": "CA", "postalCode": "N9A4M9", "twitter": "None", "instagram": "None", "facebook": "None", "youtube": "None", "website": "None", "summary": "None", "logo": "None", "latitude": 42.31112194506308, "longitude": -83.03485433896971}, "885781153RR0001": {"name": "WINDSOR REGIONAL HOSPITAL", "designationCode": "C", "categoryCode": "10", "address": "1995 LENS AVE", "city": "WINDSOR", "province": "ON", "country": "CA", "postalCode": "N8W1L9", "twitter": "None", "instagram": "None", "facebook": "None", "youtube": "None", "website": "None", "summary": "None", "logo": "None", "latitude": 42.300943799556045, "longitude": -82.99658151032911}, "119300275RR0001": {"name": "WINDSOR REGIONAL HOSPITAL FOUNDATION", "designationCode": "A", "categoryCode": "13", "address": "1995 LENS AVE", "city": "WINDSOR", "province": "ON", "country": "CA", "postalCode": "N8W1L9", "twitter": "None", "instagram": "None", "facebook": "None", "youtube": "None", "website": "None", "summary": "None", "logo": "None", "latitude": 42.300943799556045, "longitude": -82.99658151032911}, "887708667RR0001": {"name": "WINDSOR REGIONAL SCIENCE, TECHNOLOGY AND ENGINEERING FAIR", "designationCode": "C", "categoryCode": "21", "address": "3663 HOLBURN ST", "city": "WINDSOR", "province": "ON", "country": "CA", "postalCode": "N9E4V3", "twitter": "None", "instagram": "None", "facebook": "None", "youtube": "None", "website": "None", "summary": "None", "logo": "None", "latitude": 42.26313156950788, "longitude": -82.99019708217425}, "887150993RR0001": {"name": "WINDSOR ROTARY CLUB CHARITY FUND", "designationCode": "C", "categoryCode": "65", "address": "PO BOX 818", "city": "WINDSOR", "province": "NS", "country": "CA", "postalCode": "B0N2T0", "twitter": "None", "instagram": "None", "facebook": "None", "youtube": "None", "website": "None", "summary": "None", "logo": "None", "latitude": 44.990170000000035, "longitude": -64.12904999999995}, "895476604RR0001": {"name": "WINDSOR SARANG CHURCH", "designationCode": "C", "categoryCode": "37", "address": "5715 CANADA ST", "city": "WINDSOR", "province": "ON", "country": "CA", "postalCode": "N9H1M4", "twitter": "None", "instagram": "None", "facebook": "None", "youtube": "None", "website": "None", "summary": "None", "logo": "None", "latitude": 42.25076566601036, "longitude": -83.04697148366665}, "891008591RR0001": {"name": "WINDSOR SENIOR CITIZEN BUS SOCIETY", "designationCode": "C", "categoryCode": "09", "address": "P.O. BOX 425", "city": "WINDSOR", "province": "NS", "country": "CA", "postalCode": "B0N2T0", "twitter": "None", "instagram": "None", "facebook": "None", "youtube": "None", "website": "None", "summary": "None", "logo": "None", "latitude": 44.990170000000035, "longitude": -64.12904999999995}, "107797383RR0023": {"name": "WINDSOR SEVENTH-DAY ADVENTIST CHURCH", "designationCode": "C", "categoryCode": "41", "address": "5350 HAIG AVENUE", "city": "WINDSOR", "province": "ON", "country": "CA", "postalCode": "N8T1K8", "twitter": "None", "instagram": "None", "facebook": "None", "youtube": "None", "website": "None", "summary": "None", "logo": "None", "latitude": 42.30005957731737, "longitude": -82.9544620453177}, "851580928RR0001": {"name": "WINDSOR SPITFIRES FOUNDATION", "designationCode": "A", "categoryCode": "03", "address": "8787 MCHUGH STREET", "city": "WINDSOR", "province": "ON", "country": "CA", "postalCode": "N8S0A1", "twitter": "None", "instagram": "None", "facebook": "None", "youtube": "None", "website": "None", "summary": "None", "logo": "None", "latitude": 42.32042976703859, "longitude": -82.92626788328722}, "129857397RR0001": {"name": "WINDSOR UNITED BAPTIST CHURCH,", "designationCode": "C", "categoryCode": "31", "address": "124-5 HORIZON COURT", "city": "DARTMOUTH", "province": "NS", "country": "CA", "postalCode": "B3A0C4", "twitter": "None", "instagram": "None", "facebook": "None", "youtube": "None", "website": "None", "summary": "None", "logo": "None", "latitude": 44.688045635033696, "longitude": -63.56454202299547}, "132784802RR0001": {"name": "WINDSOR UNITED CHURCH,", "designationCode": "C", "categoryCode": "44", "address": "PO BOX 2037", "city": "WINDSOR", "province": "NS", "country": "CA", "postalCode": "B0N2T0", "twitter": "None", "instagram": "None", "facebook": "None", "youtube": "None", "website": "None", "summary": "None", "logo": "None", "latitude": 44.990170000000035, "longitude": -64.12904999999995}, "886537398RR0001": {"name": "WINDSOR VETERANS MEMORIAL SERVICES COMMITTEE", "designationCode": "C", "categoryCode": "59", "address": "1004-1445 OUELLETTE AVENUE", "city": "WINDSOR", "province": "ON", "country": "CA", "postalCode": "N8X1K1", "twitter": "None", "instagram": "None", "facebook": "None", "youtube": "None", "website": "None", "summary": "None", "logo": "None", "latitude": 42.301366011079836, "longitude": -83.02868215771207}, "890774995RR0001": {"name": "WINDSOR VIETNAMESE ALLIANCE CHURCH", "designationCode": "C", "categoryCode": "39", "address": "3199 LAUZON RD.", "city": "WINDSOR", "province": "ON", "country": "CA", "postalCode": "N8T2Z7", "twitter": "None", "instagram": "None", "facebook": "None", "youtube": "None", "website": "None", "summary": "None", "logo": "None", "latitude": 42.300135295285514, "longitude": -82.92311043859952}, "119300291RR0001": {"name": "WINDSOR WESTERN HOSPITAL CENTRE I O D E UNIT EMPLOYEES CHARITY TRUST", "designationCode": "B", "categoryCode": "75", "address": "1453 PRINCE RD", "city": "WINDSOR", "province": "ON", "country": "CA", "postalCode": "N9C3Z4", "twitter": "None", "instagram": "None", "facebook": "None", "youtube": "None", "website": "None", "summary": "None", "logo": "None", "latitude": 42.28670496958962, "longitude": -83.06319772225693}, "119300168RR0002": {"name": "WINDSOR-ESSEX CATHOLIC DISTRICT SCHOOL BOARD", "designationCode": "C", "categoryCode": "20", "address": "1325 CALIFORNIA AVE", "city": "WINDSOR", "province": "ON", "country": "CA", "postalCode": "N9B3Y6", "twitter": "None", "instagram": "None", "facebook": "None", "youtube": "None", "website": "None", "summary": "None", "logo": "None", "latitude": 42.29368559478429, "longitude": -83.05633300916652}, "119109692RR0001": {"name": "WINDSOR-ESSEX CHILDREN'S AID SOCIETY", "designationCode": "C", "categoryCode": "01", "address": "1671 RIVERSIDE DRIVE EAST", "city": "WINDSOR", "province": "ON", "country": "CA", "postalCode": "N8Y5B5", "twitter": "None", "instagram": "None", "facebook": "None", "youtube": "None", "website": "None", "summary": "None", "logo": "None", "latitude": 42.32523962161754, "longitude": -83.0166773696695}, "119299865RR0001": {"name": "WINDSOR-ESSEX COUNTY Y FOUNDATION", "designationCode": "A", "categoryCode": "53", "address": "500 VICTORIA AVE.", "city": "WINDSOR", "province": "ON", "country": "CA", "postalCode": "N9A4M8", "twitter": "None", "instagram": "None", "facebook": "None", "youtube": "None", "website": "None", "summary": "None", "logo": "None", "latitude": 42.31461307605742, "longitude": -83.03950603271991}, "894433507RR0001": {"name": "WINDSOR-ESSEX FAMILY NETWORK & RESOURCE CENTRE", "designationCode": "C", "categoryCode": "09", "address": "7025 ENTERPRISE WAY", "city": "WINDSOR", "province": "ON", "country": "CA", "postalCode": "N8T3N6", "twitter": "None", "instagram": "None", "facebook": "None", "youtube": "None", "website": "None", "summary": "None", "logo": "None", "latitude": 42.309112181228066, "longitude": -82.93937650121116}, "108214867RR0001": {"name": "WINDSOR-ESSEX THERAPEUTIC RIDING ASSOCIATION", "designationCode": "C", "categoryCode": "11", "address": "3323 NORTH MALDEN RD          RR 2", "city": "ESSEX", "province": "ON", "country": "CA", "postalCode": "N8M2X6", "twitter": "None", "instagram": "None", "facebook": "None", "youtube": "None", "website": "None", "summary": "None", "logo": "None", "latitude": 42.13508635114125, "longitude": -82.95308479627366}, "846052785RR0001": {"name": "WINDSOR-ESSEX YOUTH CHOIR", "designationCode": "C", "categoryCode": "22", "address": "863 HACIENDA COURT", "city": "WINDSOR", "province": "ON", "country": "CA", "postalCode": "N9G2T1", "twitter": "None", "instagram": "None", "facebook": "None", "youtube": "None", "website": "None", "summary": "None", "logo": "None", "latitude": 42.238023224248444, "longitude": -82.98640970664772}, "118902055RR0001": {"name": "WINDSOR/ESSEX COUNTY HUMANE SOCIETY", "designationCode": "C", "categoryCode": "54", "address": "1375 PROVINCIAL RD", "city": "WINDSOR", "province": "ON", "country": "CA", "postalCode": "N8W5V8", "twitter": "None", "instagram": "None", "facebook": "None", "youtube": "None", "website": "None", "summary": "None", "logo": "None", "latitude": 42.25979170050221, "longitude": -82.98057762173217}, "890653595RR0001": {"name": "WINDSORESSEX COMMUNITY FOUNDATION", "designationCode": "A", "categoryCode": "53", "address": "3200 DEZIEL DRIVE             SUITE 511", "city": "WINDSOR", "province": "ON", "country": "CA", "postalCode": "N8W5K8", "twitter": "None", "instagram": "None", "facebook": "None", "youtube": "None", "website": "None", "summary": "None", "logo": "None", "latitude": 42.281993014252905, "longitude": -82.96967880881726}, "892481367RR0001": {"name": "WINDTHORST CEMETERY COMMITTEE", "designationCode": "C", "categoryCode": "59", "address": "PO BOX 66", "city": "WINDTHORST", "province": "SK", "country": "CA", "postalCode": "S0G5G0", "twitter": "None", "instagram": "None", "facebook": "None", "youtube": "None", "website": "None", "summary": "None", "logo": "None", "latitude": 51.066910000000064, "longitude": -104.94988999999998}, "130235443RR0001": {"name": "WINDTHORST COMMUNITY ARENA INC", "designationCode": "C", "categoryCode": "56", "address": "BOX 93", "city": "WINDTHORST", "province": "SK", "country": "CA", "postalCode": "S0G5G0", "twitter": "None", "instagram": "None", "facebook": "None", "youtube": "None", "website": "None", "summary": "None", "logo": "None", "latitude": 51.066910000000064, "longitude": -104.94988999999998}, "889841391RR0001": {"name": "WINDY BAY CHARITABLE TRUST", "designationCode": "B", "categoryCode": "39", "address": "1401 PRINCESS AVE", "city": "BRANDON", "province": "MB", "country": "CA", "postalCode": "R7A7L7", "twitter": "None", "instagram": "None", "facebook": "None", "youtube": "None", "website": "None", "summary": "None", "logo": "None", "latitude": 49.84694947489748, "longitude": -99.957294}, "890709223RR0001": {"name": "WINDY SLOPES HEALTH FOUNDATION", "designationCode": "A", "categoryCode": "11", "address": "BOX 2554", "city": "PINCHER CREEK", "province": "AB", "country": "CA", "postalCode": "T0K1W0", "twitter": "None", "instagram": "None", "facebook": "None", "youtube": "None", "website": "None", "summary": "None", "logo": "None", "latitude": 49.48739000000006, "longitude": -113.9366800732874}, "899295125RR0001": {"name": "WINE COUNTRY WALKWAYS SOCIETY", "designationCode": "C", "categoryCode": "56", "address": "978 MOOSEJAW ST.", "city": "PENTICTON", "province": "BC", "country": "CA", "postalCode": "V2A5T6", "twitter": "None", "instagram": "None", "facebook": "None", "youtube": "None", "website": "None", "summary": "None", "logo": "None", "latitude": 49.489411610046744, "longitude": -119.59866594142773}, "119300382RR0001": {"name": "WINFIELD MEMORIAL HALL ASSOCIATION", "designationCode": "C", "categoryCode": "56", "address": "10130 BOTTOM WOODS LAKE ROAD", "city": "WINFIELD", "province": "BC", "country": "CA", "postalCode": "V4V1T8", "twitter": "None", "instagram": "None", "facebook": "None", "youtube": "None", "website": "None", "summary": "None", "logo": "None", "latitude": 50.029888463500505, "longitude": -119.40183216683}, "118818491RR0048": {"name": "WINFIELD SEVENTH-DAY ADVENTIST CHURCH", "designationCode": "C", "categoryCode": "41", "address": "PO 1000", "city": "ABBOTSFORD", "province": "BC", "country": "CA", "postalCode": "V2S4P5", "twitter": "None", "instagram": "None", "facebook": "None", "youtube": "None", "website": "None", "summary": "None", "logo": "None", "latitude": 49.03851300000005, "longitude": -122.29441549999993}, "107833394RR0121": {"name": "WING'S POINT PENTECOSTAL TABERNACLE", "designationCode": "C", "categoryCode": "36", "address": "WINGS POINT", "city": "GANDER BAY", "province": "NL", "country": "CA", "postalCode": "A0G4T0", "twitter": "None", "instagram": "None", "facebook": "None", "youtube": "None", "website": "None", "summary": "None", "logo": "None", "latitude": 49.32958060008328, "longitude": -54.476696866555606}, "119300408RR0001": {"name": "WINGER CHURCH OF CHRIST (DISCIPLES)", "designationCode": "C", "categoryCode": "39", "address": "P.O. BOX 53", "city": "WAINFLEET", "province": "ON", "country": "CA", "postalCode": "L0S1V0", "twitter": "None", "instagram": "None", "facebook": "None", "youtube": "None", "website": "None", "summary": "None", "logo": "None", "latitude": 42.922780000000046, "longitude": -79.37501999999995}, "119300473RR0001": {"name": "WINGHAM & DISTRICT COMMUNITY LIVING ASSOCIATION", "designationCode": "C", "categoryCode": "11", "address": "BOX 818", "city": "WINGHAM", "province": "ON", "country": "CA", "postalCode": "N0G2W0", "twitter": "None", "instagram": "None", "facebook": "None", "youtube": "None", "website": "None", "summary": "None", "logo": "None", "latitude": 43.88924000000003, "longitude": -81.31057999999996}, "108216011RR0001": {"name": "WINGHAM AND DISTRICT HOSPITAL", "designationCode": "C", "categoryCode": "10", "address": "270 CARLING TERRACE", "city": "WINGHAM", "province": "ON", "country": "CA", "postalCode": "N0G2W0", "twitter": "None", "instagram": "None", "facebook": "None", "youtube": "None", "website": "None", "summary": "None", "logo": "None", "latitude": 43.88460231753119, "longitude": -81.30621769363464}, "873474878RR0001": {"name": "WINGHAM AND DISTRICT HOSPITAL FOUNDATION (1986)", "designationCode": "A", "categoryCode": "13", "address": "270 CARLING TERR              PO BOX 1228", "city": "WINGHAM", "province": "ON", "country": "CA", "postalCode": "N0G2W0", "twitter": "None", "instagram": "None", "facebook": "None", "youtube": "None", "website": "None", "summary": "None", "logo": "None", "latitude": 43.88460231753119, "longitude": -81.30621769363464}, "119300457RR0001": {"name": "WINGHAM BAPTIST CHURCH,", "designationCode": "C", "categoryCode": "31", "address": "35 JOHN STREET WEST           P.O. BOX 820", "city": "WINGHAM", "province": "ON", "country": "CA", "postalCode": "N0G2W0", "twitter": "None", "instagram": "None", "facebook": "None", "youtube": "None", "website": "None", "summary": "None", "logo": "None", "latitude": 43.88681237803671, "longitude": -81.3143312561603}, "119300465RR0001": {"name": "WINGHAM BIBLE CHAPEL", "designationCode": "C", "categoryCode": "39", "address": "RR 5", "city": "KINCARDINE", "province": "ON", "country": "CA", "postalCode": "N2Z2X6", "twitter": "None", "instagram": "None", "facebook": "None", "youtube": "None", "website": "None", "summary": "None", "logo": "None", "latitude": 44.17146600000005, "longitude": -81.41159149999993}, "139139299RR0001": {"name": "WINGHAM CHARITABLE TRUST", "designationCode": "B", "categoryCode": "39", "address": "780 SASKATCHEWAN AVE W", "city": "PORTAGE LA PRAIRIE", "province": "MB", "country": "CA", "postalCode": "R1N0M7", "twitter": "None", "instagram": "None", "facebook": "None", "youtube": "None", "website": "None", "summary": "None", "logo": "None", "latitude": 49.97373494820344, "longitude": -98.30132080652011}, "132609108RR0001": {"name": "WINGHAM PROTESTANT REFORMED CHURCH", "designationCode": "C", "categoryCode": "39", "address": "292 EDWARD ST                 PO BOX 570", "city": "WINGHAM", "province": "ON", "country": "CA", "postalCode": "N0G2W0", "twitter": "None", "instagram": "None", "facebook": "None", "youtube": "None", "website": "None", "summary": "None", "logo": "None", "latitude": 43.88790639745509, "longitude": -81.31313549988442}, "108216045RR0001": {"name": "WINGHAM UNITED CHURCH", "designationCode": "C", "categoryCode": "44", "address": "BOX 927", "city": "WINGHAM", "province": "ON", "country": "CA", "postalCode": "N0G2W0", "twitter": "None", "instagram": "None", "facebook": "None", "youtube": "None", "website": "None", "summary": "None", "logo": "None", "latitude": 43.88924000000003, "longitude": -81.31057999999996}, "898328000RR0001": {"name": "WINGS AS EAGLES MINISTRIES", "designationCode": "C", "categoryCode": "39", "address": "1402 - 16 JOHN ST", "city": "BRAMPTON", "province": "ON", "country": "CA", "postalCode": "L6W1Y9", "twitter": "None", "instagram": "None", "facebook": "None", "youtube": "None", "website": "None", "summary": "None", "logo": "None", "latitude": 43.6854465, "longitude": -79.75898325}, "139997092RR0001": {"name": "WINGS AVIAN REHABILITATION CENTRE", "designationCode": "C", "categoryCode": "54", "address": "5281 MIDDLESIDE RD RR4", "city": "AMHERSTBURG", "province": "ON", "country": "CA", "postalCode": "N9V2Y9", "twitter": "None", "instagram": "None", "facebook": "None", "youtube": "None", "website": "None", "summary": "None", "logo": "None", "latitude": 42.14143566728256, "longitude": -83.03181350068787}, "885379966RR0001": {"name": "WINGS HOUSING SOCIETY", "designationCode": "C", "categoryCode": "09", "address": "12-1041 COMOX ST", "city": "VANCOUVER", "province": "BC", "country": "CA", "postalCode": "V6E1K1", "twitter": "None", "instagram": "None", "facebook": "None", "youtube": "None", "website": "None", "summary": "None", "logo": "None", "latitude": 49.2811524049569, "longitude": -123.1280758623119}, "119300531RR0001": {"name": "WINGS OF HEALING SOCIETY", "designationCode": "C", "categoryCode": "47", "address": "2 - 2754 4TH AVE W", "city": "VANCOUVER", "province": "BC", "country": "CA", "postalCode": "V6K1R1", "twitter": "None", "instagram": "None", "facebook": "None", "youtube": "None", "website": "None", "summary": "None", "logo": "None", "latitude": 49.268331546742616, "longitude": -123.16747347016562}, "891658940RR0001": {"name": "WINGS OF HOPE BREAST CANCER FOUNDATION", "designationCode": "A", "categoryCode": "13", "address": "PO BOX 84007 MARKET MALL RPO  3625 SHAGANAPPI TRAIL NW", "city": "CALGARY", "province": "AB", "country": "CA", "postalCode": "T3A5C4", "twitter": "None", "instagram": "None", "facebook": "None", "youtube": "None", "website": "None", "summary": "None", "logo": "None", "latitude": 51.08194000000003, "longitude": -114.15466999999995}, "882025711RR0001": {"name": "WINGS OF PHOENIX ASSOCIATION", "designationCode": "C", "categoryCode": "11", "address": "2450 LANCASTER ROAD           UNIT 36", "city": "OTTAWA", "province": "ON", "country": "CA", "postalCode": "K1B5N3", "twitter": "None", "instagram": "None", "facebook": "None", "youtube": "None", "website": "None", "summary": "None", "logo": "None", "latitude": 45.40174964109325, "longitude": -75.61932662934956}, "868625864RR0001": {"name": "WINGS OF POWER INC.", "designationCode": "C", "categoryCode": "09", "address": "BOX 66", "city": "PINE FALLS", "province": "MB", "country": "CA", "postalCode": "R0E1M0", "twitter": "None", "instagram": "None", "facebook": "None", "youtube": "None", "website": "None", "summary": "None", "logo": "None", "latitude": 50.56652201453051, "longitude": -96.22418930747087}, "871656104RR0001": {"name": "WINGS OF PRAYER MINISTRIES INC.", "designationCode": "C", "categoryCode": "39", "address": "300 COLBORNE ST", "city": "LONDON", "province": "ON", "country": "CA", "postalCode": "N6B2S6", "twitter": "None", "instagram": "None", "facebook": "None", "youtube": "None", "website": "None", "summary": "None", "logo": "None", "latitude": 42.9825384163252, "longitude": -81.23769846791525}, "119300549RR0001": {"name": "WINGS OF PROVIDENCE SOCIETY", "designationCode": "C", "categoryCode": "09", "address": "PO BOX 32141", "city": "EDMONTON", "province": "AB", "country": "CA", "postalCode": "T6K4C2", "twitter": "None", "instagram": "None", "facebook": "None", "youtube": "None", "website": "None", "summary": "None", "logo": "None", "latitude": 53.46036600000005, "longitude": -113.44548049999993}, "868530494RR0001": {"name": "WINGS OVER THE ROCKIES BIRD FESTIVAL", "designationCode": "C", "categoryCode": "54", "address": "BOX 2633", "city": "INVERMERE", "province": "BC", "country": "CA", "postalCode": "V0A1K0", "twitter": "None", "instagram": "None", "facebook": "None", "youtube": "None", "website": "None", "summary": "None", "logo": "None", "latitude": 50.50916700000006, "longitude": -116.03037049999993}, "139418024RR0001": {"name": "WINKLER & DISTRICT CHRISTMAS CHEERBOARD INC", "designationCode": "C", "categoryCode": "09", "address": "BOX 1225", "city": "WINKLER", "province": "MB", "country": "CA", "postalCode": "R6W4B2", "twitter": "None", "instagram": "None", "facebook": "None", "youtube": "None", "website": "None", "summary": "None", "logo": "None", "latitude": 49.17773400000006, "longitude": -97.93841299999994}}