{"119260388RR0001": {"name": "UNITARIAN FELLOWSHIP OF REGINA INC.", "designationCode": "C", "categoryCode": "39", "address": "2700 COLLEGE AVE", "city": "REGINA", "province": "SK", "country": "CA", "postalCode": "S4T1V1", "twitter": "None", "instagram": "None", "facebook": "None", "youtube": "None", "website": "None", "summary": "None", "logo": "None", "latitude": 50.440857504327845, "longitude": -104.61986966472386}, "844054874RR0001": {"name": "UNITARIAN FELLOWSHIP OF SALT SPRING ISLAND", "designationCode": "C", "categoryCode": "39", "address": "BOX 454", "city": "SALT SPRING ISLAND", "province": "BC", "country": "CA", "postalCode": "V8K2W1", "twitter": "None", "instagram": "None", "facebook": "None", "youtube": "None", "website": "None", "summary": "None", "logo": "None", "latitude": 48.85955700000005, "longitude": -123.50808349999994}, "119276095RR0001": {"name": "UNITARIAN FELLOWSHIP OF SARNIA & PORT HURON", "designationCode": "C", "categoryCode": "39", "address": "LOCHEIL KIWANIS CENTRE        180 COLLEGE AVE. N", "city": "SARNIA", "province": "ON", "country": "CA", "postalCode": "N7T7X2", "twitter": "None", "instagram": "None", "facebook": "None", "youtube": "None", "website": "None", "summary": "None", "logo": "None", "latitude": 42.973371251778005, "longitude": -82.40163114196127}, "869689208RR0001": {"name": "UNITARIAN FOUNDATION OF NANAIMO", "designationCode": "C", "categoryCode": "43", "address": "1-595 TOWNSITE ROAD", "city": "NANAIMO", "province": "BC", "country": "CA", "postalCode": "V9S1K9", "twitter": "None", "instagram": "None", "facebook": "None", "youtube": "None", "website": "None", "summary": "None", "logo": "None", "latitude": 49.176912728796296, "longitude": -123.95475154471518}, "119276111RR0001": {"name": "UNITARIAN HOUSE OF OTTAWA MAISON UNITARIENNE D'OTTAWA", "designationCode": "C", "categoryCode": "01", "address": "20 CLEARY AVENUE", "city": "OTTAWA", "province": "ON", "country": "CA", "postalCode": "K2A3Z9", "twitter": "None", "instagram": "None", "facebook": "None", "youtube": "None", "website": "None", "summary": "None", "logo": "None", "latitude": 45.381881502654394, "longitude": -75.7718032598243}, "132256447RR0001": {"name": "UNITARIAN UNIVERSALIST CHURCH OF OLINDA", "designationCode": "C", "categoryCode": "39", "address": "2953 OLINDA SIDE ROAD         RR 2", "city": "RUTHVEN", "province": "ON", "country": "CA", "postalCode": "N0P2G0", "twitter": "None", "instagram": "None", "facebook": "None", "youtube": "None", "website": "None", "summary": "None", "logo": "None", "latitude": 42.08698979156327, "longitude": -82.67143034098893}, "884384728RR0001": {"name": "UNITARIAN UNIVERSALIST CONGREGATION OF DURHAM REGION", "designationCode": "C", "categoryCode": "39", "address": "52 JONATHAN STREET", "city": "UXBRIDGE", "province": "ON", "country": "CA", "postalCode": "L9P1B7", "twitter": "None", "instagram": "None", "facebook": "None", "youtube": "None", "website": "None", "summary": "None", "logo": "None", "latitude": 44.11255303805737, "longitude": -79.12654908133753}, "891214595RR0001": {"name": "UNITARIAN UNIVERSALIST FELLOWSHIP OF KAMLOOPS", "designationCode": "C", "categoryCode": "39", "address": "2068 SIFTON AVE", "city": "KAMLOOPS", "province": "BC", "country": "CA", "postalCode": "V1S1B1", "twitter": "None", "instagram": "None", "facebook": "None", "youtube": "None", "website": "None", "summary": "None", "logo": "None", "latitude": 50.64506730840783, "longitude": -120.357185051646}, "893853267RR0001": {"name": "UNITARIAN UNIVERSALIST FELLOWSHIP OF LETHBRIDGE", "designationCode": "C", "categoryCode": "39", "address": "BOX 285", "city": "LETHBRIDGE", "province": "AB", "country": "CA", "postalCode": "T1J3Y7", "twitter": "None", "instagram": "None", "facebook": "None", "youtube": "None", "website": "None", "summary": "None", "logo": "None", "latitude": 49.69383000000006, "longitude": -112.83373249999994}, "868264094RR0001": {"name": "UNITARIAN UNIVERSALIST FELLOWSHIP OF OTTAWA", "designationCode": "C", "categoryCode": "39", "address": "400 MCARTHUR AVENUE", "city": "OTTAWA", "province": "ON", "country": "CA", "postalCode": "K1K1G8", "twitter": "None", "instagram": "None", "facebook": "None", "youtube": "None", "website": "None", "summary": "None", "logo": "None", "latitude": 45.43209257949122, "longitude": -75.64885863765944}, "119276558RR0001": {"name": "UNITE DE SAUVETAGE HAUTE-YAMASKA INC", "designationCode": "C", "categoryCode": "59", "address": "581 RUTHERFORD", "city": "GRANBY", "province": "QC", "country": "CA", "postalCode": "J2G3Z2", "twitter": "None", "instagram": "None", "facebook": "None", "youtube": "None", "website": "None", "summary": "None", "logo": "None", "latitude": 45.3898927507646, "longitude": -72.74558916004932}, "889888889RR0001": {"name": "UNITE DOMREMY D'ASBESTOS", "designationCode": "C", "categoryCode": "57", "address": "528 RUE CHASSE", "city": "ASBESTOS", "province": "QC", "country": "CA", "postalCode": "J1T3X7", "twitter": "None", "instagram": "None", "facebook": "None", "youtube": "None", "website": "None", "summary": "None", "logo": "None", "latitude": 45.767752387443096, "longitude": -71.92832601569613}, "108156209RR0001": {"name": "UNITE DOMREMY DE BAIE-COMEAU INC.", "designationCode": "C", "categoryCode": "57", "address": "170, BOUL. LASALLE", "city": "BAIE-COMEAU", "province": "QC", "country": "CA", "postalCode": "G4Z1S4", "twitter": "None", "instagram": "None", "facebook": "None", "youtube": "None", "website": "None", "summary": "None", "logo": "None", "latitude": 49.217245513994044, "longitude": -68.16230383389114}, "130636756RR0001": {"name": "UNITE DOMREMY DE CLERMONT INC", "designationCode": "C", "categoryCode": "57", "address": "60 BOULEVARD NOTRE-DAME", "city": "CLERMONT", "province": "QC", "country": "CA", "postalCode": "G4A1C4", "twitter": "None", "instagram": "None", "facebook": "None", "youtube": "None", "website": "None", "summary": "None", "logo": "None", "latitude": 47.691494369438345, "longitude": -70.22731744047543}, "107649360RR0001": {"name": "UNITE DOMREMY DE MONT-JOLI INC.", "designationCode": "C", "categoryCode": "57", "address": "61 AV. LEBEL", "city": "MONT-JOLI", "province": "QC", "country": "CA", "postalCode": "G5H3L3", "twitter": "None", "instagram": "None", "facebook": "None", "youtube": "None", "website": "None", "summary": "None", "logo": "None", "latitude": 48.58826697749453, "longitude": -68.1956458670151}, "132999400RR0001": {"name": "UNITE DOMREMY DE PLESSISVILLE INC", "designationCode": "C", "categoryCode": "57", "address": "1595 AV. SAINT-LOUIS", "city": "PLESSISVILLE", "province": "QC", "country": "CA", "postalCode": "G6L2N1", "twitter": "None", "instagram": "None", "facebook": "None", "youtube": "None", "website": "None", "summary": "None", "logo": "None", "latitude": 46.21996488897232, "longitude": -71.77207297642667}, "119276996RR0001": {"name": "UNITE DOMREMY DE RIMOUSKI INC", "designationCode": "C", "categoryCode": "57", "address": "486 RUE DES JESUITES", "city": "RIMOUSKI", "province": "QC", "country": "CA", "postalCode": "G5L5X7", "twitter": "None", "instagram": "None", "facebook": "None", "youtube": "None", "website": "None", "summary": "None", "logo": "None", "latitude": 48.43270565251886, "longitude": -68.51389749971153}, "119277002RR0001": {"name": "UNITE DOMREMY DE SAINT-GABRIEL-RELAIS COMMUNAUTAIRE", "designationCode": "C", "categoryCode": "57", "address": "170 RANG DU NORD-EST", "city": "SAINT-GABRIEL-DE-RIMOUSKI", "province": "QC", "country": "CA", "postalCode": "G0K1M0", "twitter": "None", "instagram": "None", "facebook": "None", "youtube": "None", "website": "None", "summary": "None", "logo": "None", "latitude": 48.44946679545842, "longitude": -68.1679766712734}, "119277028RR0001": {"name": "UNITE DOMREMY DE STE-THERESE INC", "designationCode": "C", "categoryCode": "57", "address": "56 RUE TURGEON", "city": "STE-THERESE", "province": "QC", "country": "CA", "postalCode": "J7E3H4", "twitter": "None", "instagram": "None", "facebook": "None", "youtube": "None", "website": "None", "summary": "None", "logo": "None", "latitude": 45.6378975792314, "longitude": -73.83967197781165}, "119277044RR0001": {"name": "UNITE DOMREMY DE VAL D'OR INC", "designationCode": "C", "categoryCode": "57", "address": "51 ST-JACQUES", "city": "VAL-D'OR", "province": "QC", "country": "CA", "postalCode": "J9P2X4", "twitter": "None", "instagram": "None", "facebook": "None", "youtube": "None", "website": "None", "summary": "None", "logo": "None", "latitude": 48.09650633611286, "longitude": -77.77253596116324}, "887495265RR0001": {"name": "UNITE DOMREMY DE VILLE ST-PASCAL INC.", "designationCode": "C", "categoryCode": "57", "address": "555 RUE HUDON                 BP 1", "city": "SAINT-PASCAL", "province": "QC", "country": "CA", "postalCode": "G0L3Y0", "twitter": "None", "instagram": "None", "facebook": "None", "youtube": "None", "website": "None", "summary": "None", "logo": "None", "latitude": 47.5272722687111, "longitude": -69.80452323763689}, "119277051RR0001": {"name": "UNITE DOMREMY JONQUIERE INC", "designationCode": "C", "categoryCode": "57", "address": "2229 RUE DE L'HOPITAL", "city": "JONQUIERE", "province": "QC", "country": "CA", "postalCode": "G7X4H7", "twitter": "None", "instagram": "None", "facebook": "None", "youtube": "None", "website": "None", "summary": "None", "logo": "None", "latitude": 48.412799989728235, "longitude": -71.23374350150054}, "108160375RR0001": {"name": "UNITE POINT DE DEPART INC.", "designationCode": "C", "categoryCode": "57", "address": "220 RUE LAJOIE S.", "city": "JOLIETTE", "province": "QC", "country": "CA", "postalCode": "J6E5L2", "twitter": "None", "instagram": "None", "facebook": "None", "youtube": "None", "website": "None", "summary": "None", "logo": "None", "latitude": 46.021744109642725, "longitude": -73.43792392449085}, "869254425RR0001": {"name": "UNITED ACHIEVERS' COMMUNITY SERVICES INC", "designationCode": "C", "categoryCode": "59", "address": "36 QUEEN STREET EAST          LOWER LEVEL", "city": "BRAMPTON", "province": "ON", "country": "CA", "postalCode": "L6V1A2", "twitter": "None", "instagram": "None", "facebook": "None", "youtube": "None", "website": "None", "summary": "None", "logo": "None", "latitude": 43.68682782099364, "longitude": -79.75895475786238}, "893955245RR0001": {"name": "UNITED APOSTOLIC ASSEMBLY, (TORONTO) CHURCH", "designationCode": "C", "categoryCode": "39", "address": "133 ELMHURST DR", "city": "ETOBICOKE", "province": "ON", "country": "CA", "postalCode": "M9W2K5", "twitter": "None", "instagram": "None", "facebook": "None", "youtube": "None", "website": "None", "summary": "None", "logo": "None", "latitude": 43.724055039673495, "longitude": -79.56401945172817}, "108214446RR0001": {"name": "UNITED BAPTIST CHURCH", "designationCode": "C", "categoryCode": "31", "address": "59 HEAD HARBOUR RD", "city": "WILSON'S BEACH", "province": "NB", "country": "CA", "postalCode": "E5E1S5", "twitter": "None", "instagram": "None", "facebook": "None", "youtube": "None", "website": "None", "summary": "None", "logo": "None", "latitude": 44.929778320589605, "longitude": -66.93286106235183}, "132041112RR0001": {"name": "UNITED BAPTIST CHURCH OF MINTO", "designationCode": "C", "categoryCode": "31", "address": "124 PLEASANT DRIVE", "city": "MINTO", "province": "NB", "country": "CA", "postalCode": "E4B2S8", "twitter": "None", "instagram": "None", "facebook": "None", "youtube": "None", "website": "None", "summary": "None", "logo": "None", "latitude": 46.06501475465223, "longitude": -66.07870707071838}, "891472979RR0001": {"name": "UNITED BAPTIST CHURCH OF NUTTBY", "designationCode": "C", "categoryCode": "31", "address": "4194 HWY 311", "city": "NUTTBY", "province": "NS", "country": "CA", "postalCode": "B6L6J2", "twitter": "None", "instagram": "None", "facebook": "None", "youtube": "None", "website": "None", "summary": "None", "logo": "None", "latitude": 45.533562754306345, "longitude": -63.181427884278314}, "108151796RR0001": {"name": "UNITED BAPTIST GREEN HILL LAKE CAMP, INC.", "designationCode": "C", "categoryCode": "56", "address": "40 GREENHILL LAKE RD", "city": "GREENHILL LAKE", "province": "NB", "country": "CA", "postalCode": "E6E1E7", "twitter": "None", "instagram": "None", "facebook": "None", "youtube": "None", "website": "None", "summary": "None", "logo": "None", "latitude": 46.06337036813922, "longitude": -67.03108948477099}, "108151812RR0001": {"name": "UNITED BAPTIST WOMAN'S MISSIONARY UNION OF THE ATLANTIC PROVINCES", "designationCode": "C", "categoryCode": "47", "address": "3 VILLAGE GREEN RD - RTE 272", "city": "MOUNT MELLICK", "province": "PE", "country": "CA", "postalCode": "C1B3T7", "twitter": "None", "instagram": "None", "facebook": "None", "youtube": "None", "website": "None", "summary": "None", "logo": "None", "latitude": 46.20586140550515, "longitude": -62.95080545490216}, "888121449RR0001": {"name": "UNITED BRETHREN CHURCH IN CANADA", "designationCode": "C", "categoryCode": "39", "address": "26-10 HOLBORN COURT", "city": "KITCHENER", "province": "ON", "country": "CA", "postalCode": "N2A3Y9", "twitter": "None", "instagram": "None", "facebook": "None", "youtube": "None", "website": "None", "summary": "None", "logo": "None", "latitude": 43.45051946883796, "longitude": -80.44211258107772}, "108151887RR0001": {"name": "UNITED BRETHREN IN CHRIST CHURCH", "designationCode": "C", "categoryCode": "39", "address": "9 DREGER AVE", "city": "KITCHENER", "province": "ON", "country": "CA", "postalCode": "N2A2A4", "twitter": "None", "instagram": "None", "facebook": "None", "youtube": "None", "website": "None", "summary": "None", "logo": "None", "latitude": 43.44791419900167, "longitude": -80.45311878911042}, "119276244RR0001": {"name": "UNITED BRETHREN IN CHRIST CHURCH, FOURTH OF BRUCE,", "designationCode": "C", "categoryCode": "39", "address": "POST OFFIE BOX 394", "city": "TIVERTON", "province": "ON", "country": "CA", "postalCode": "N0G2T0", "twitter": "None", "instagram": "None", "facebook": "None", "youtube": "None", "website": "None", "summary": "None", "logo": "None", "latitude": 44.28962700000005, "longitude": -81.58075999999993}, "893680454RR0001": {"name": "UNITED CANADIAN MUSLIM ASSOCIATION OF ONTARIO INC.", "designationCode": "C", "categoryCode": "49", "address": "182 RHODES AVENUE", "city": "TORONTO", "province": "ON", "country": "CA", "postalCode": "M4L3A1", "twitter": "None", "instagram": "None", "facebook": "None", "youtube": "None", "website": "None", "summary": "None", "logo": "None", "latitude": 43.6703137127359, "longitude": -79.3194873094811}, "108152307RR0001": {"name": "UNITED CATENA TRAINING CENTER INC.", "designationCode": "C", "categoryCode": "11", "address": "PO BOX 2667 STN MAIN", "city": "SAINT JOHN", "province": "NB", "country": "CA", "postalCode": "E2L4Z1", "twitter": "None", "instagram": "None", "facebook": "None", "youtube": "None", "website": "None", "summary": "None", "logo": "None", "latitude": 45.274774384642015, "longitude": -66.0653109102771}, "893668467RR0001": {"name": "UNITED CATENA TRANSPORTATION SERVICES INC.", "designationCode": "C", "categoryCode": "09", "address": "PO BOX 2667  STN MAIN", "city": "SAINT JOHN", "province": "NB", "country": "CA", "postalCode": "E2L4Z1", "twitter": "None", "instagram": "None", "facebook": "None", "youtube": "None", "website": "None", "summary": "None", "logo": "None", "latitude": 45.274774384642015, "longitude": -66.0653109102771}, "889699872RR0001": {"name": "UNITED CEMETERIES OF ST. FILLANS, MAPLEWOOD AND PINE GROVE", "designationCode": "C", "categoryCode": "59", "address": "P.O. BOX 266", "city": "CARLETON PLACE", "province": "ON", "country": "CA", "postalCode": "K7C3P4", "twitter": "None", "instagram": "None", "facebook": "None", "youtube": "None", "website": "None", "summary": "None", "logo": "None", "latitude": 45.14044200000005, "longitude": -76.14679399999993}, "889501508RR0001": {"name": "UNITED CHESED OF TORONTO AND VICINITY", "designationCode": "A", "categoryCode": "43", "address": "227-61 ALNESS STREET", "city": "TORONTO", "province": "ON", "country": "CA", "postalCode": "M3J2H2", "twitter": "None", "instagram": "None", "facebook": "None", "youtube": "None", "website": "None", "summary": "None", "logo": "None", "latitude": 43.77266800888681, "longitude": -79.47266121507316}, "119276301RR0001": {"name": "UNITED CHURCH BANFF MENS' CONFERENCE SOCIETY", "designationCode": "C", "categoryCode": "49", "address": "3624-28TH AVE", "city": "REGINA", "province": "SK", "country": "CA", "postalCode": "S4S2N6", "twitter": "None", "instagram": "None", "facebook": "None", "youtube": "None", "website": "None", "summary": "None", "logo": "None", "latitude": 50.41383546047076, "longitude": -104.63330152553523}, "108152638RR0001": {"name": "UNITED CHURCH CAMP MEETING ASSOCIATION", "designationCode": "C", "categoryCode": "49", "address": "9191 HIGHWAY #7", "city": "HEAD OF JEDDORE", "province": "NS", "country": "CA", "postalCode": "B0J1P0", "twitter": "None", "instagram": "None", "facebook": "None", "youtube": "None", "website": "None", "summary": "None", "logo": "None", "latitude": 44.779161475474375, "longitude": -63.08026102553522}, "891054041RR0001": {"name": "UNITED CHURCH COUNCIL OF MIDDLESEX PRESBYTERY", "designationCode": "C", "categoryCode": "49", "address": "482 DUNDAS ST", "city": "LONDON", "province": "ON", "country": "CA", "postalCode": "N6B1W6", "twitter": "None", "instagram": "None", "facebook": "None", "youtube": "None", "website": "None", "summary": "None", "logo": "None", "latitude": 42.98743489595452, "longitude": -81.23660132849545}, "119276350RR0001": {"name": "UNITED CHURCH HALFWAY HOMES INC.", "designationCode": "C", "categoryCode": "44", "address": "794 DORCHESTER AVE", "city": "WINNIPEG", "province": "MB", "country": "CA", "postalCode": "R3M0R6", "twitter": "None", "instagram": "None", "facebook": "None", "youtube": "None", "website": "None", "summary": "None", "logo": "None", "latitude": 49.87127713737099, "longitude": -97.15768323215427}, "119276368RR0001": {"name": "UNITED CHURCH OF CANADA BELLE RIVER", "designationCode": "C", "categoryCode": "44", "address": "P.O. BOX 54                   300 SOUTH ST.", "city": "BELLE RIVER", "province": "ON", "country": "CA", "postalCode": "N0R1A0", "twitter": "None", "instagram": "None", "facebook": "None", "youtube": "None", "website": "None", "summary": "None", "logo": "None", "latitude": 42.287688815935745, "longitude": -82.71215386622798}, "132657511RR0001": {"name": "UNITED CHURCH OF CANADA BRIGUS/CUPIDS PASTORAL CHARGE", "designationCode": "C", "categoryCode": "44", "address": "PO BOX 78", "city": "GEORGETOWN", "province": "NL", "country": "CA", "postalCode": "A0A2Z0", "twitter": "None", "instagram": "None", "facebook": "None", "youtube": "None", "website": "None", "summary": "None", "logo": "None", "latitude": 47.502080000000035, "longitude": -53.22021999999998}, "119276392RR0001": {"name": "UNITED CHURCH OF CANADA GRAVELBOURG PASTORAL CHARGE", "designationCode": "C", "categoryCode": "44", "address": "BOX 142", "city": "GRAVELBOURG", "province": "SK", "country": "CA", "postalCode": "S0H1X0", "twitter": "None", "instagram": "None", "facebook": "None", "youtube": "None", "website": "None", "summary": "None", "logo": "None", "latitude": 49.87668000000008, "longitude": -106.55736999999999}, "132269564RR0001": {"name": "UNITED CHURCH OF CANADA MIDDLESEX PRESBYTERY", "designationCode": "C", "categoryCode": "44", "address": "16 BARONS CRT", "city": "LONDON", "province": "ON", "country": "CA", "postalCode": "N6C5J3", "twitter": "None", "instagram": "None", "facebook": "None", "youtube": "None", "website": "None", "summary": "None", "logo": "None", "latitude": 42.956520913699464, "longitude": -81.24290409158066}, "892637042RR0001": {"name": "UNITED CHURCH OF CANADA, Stanley Pastoral Charge", "designationCode": "C", "categoryCode": "44", "address": "139 GRAVEYARD HILL", "city": "STANLEY", "province": "NB", "country": "CA", "postalCode": "E6B1T9", "twitter": "None", "instagram": "None", "facebook": "None", "youtube": "None", "website": "None", "summary": "None", "logo": "None", "latitude": 46.29774576725958, "longitude": -66.72862472864236}, "870785508RR0001": {"name": "UNITED CHURCH OF CANADA, SOUTH SASKATCHEWAN HOSPITAL CHAPLAINCY", "designationCode": "C", "categoryCode": "39", "address": "3246 E RENFREW CRES", "city": "REGINA", "province": "SK", "country": "CA", "postalCode": "S4V2W5", "twitter": "None", "instagram": "None", "facebook": "None", "youtube": "None", "website": "None", "summary": "None", "logo": "None", "latitude": 50.42626546771121, "longitude": -104.53612846985794}, "131462954RR0001": {"name": "UNITED CHURCH OF STAVELY", "designationCode": "C", "categoryCode": "44", "address": "GENERAL DELIVERY", "city": "STAVELY", "province": "AB", "country": "CA", "postalCode": "T0L1Z0", "twitter": "None", "instagram": "None", "facebook": "None", "youtube": "None", "website": "None", "summary": "None", "logo": "None", "latitude": 50.16485400000006, "longitude": -113.64487099999994}, "119276442RR0001": {"name": "UNITED CHURCH OUTDOOR MINISTRIES-HAMILTON CONFERENCE", "designationCode": "C", "categoryCode": "49", "address": "7440 WELLINGTON RD. 17        RR 2", "city": "ALMA", "province": "ON", "country": "CA", "postalCode": "N0B1A0", "twitter": "None", "instagram": "None", "facebook": "None", "youtube": "None", "website": "None", "summary": "None", "logo": "None", "latitude": 43.72566430535483, "longitude": -80.50833874251204}, "889361978RR0001": {"name": "UNITED COMMUNITIES FIRE DEPARTMENT", "designationCode": "C", "categoryCode": "59", "address": "36 FLAT HILL RD. BROAD COVE   RR2", "city": "MILL VILLAGE", "province": "NS", "country": "CA", "postalCode": "B0J2H0", "twitter": "None", "instagram": "None", "facebook": "None", "youtube": "None", "website": "None", "summary": "None", "logo": "None", "latitude": 44.18259548211083, "longitude": -64.48961558534825}, "119276525RR0001": {"name": "UNITED COUNTIES SCIENCE FAIR", "designationCode": "C", "categoryCode": "21", "address": "7 - 841 SYDNEY ST", "city": "CORNWALL", "province": "ON", "country": "CA", "postalCode": "K6H7L2", "twitter": "None", "instagram": "None", "facebook": "None", "youtube": "None", "website": "None", "summary": "None", "logo": "None", "latitude": 45.029327899304135, "longitude": -74.73247759721653}, "125104943RR0001": {"name": "UNITED CROATS OF CANADA KING TOMISLAV BRANCH", "designationCode": "C", "categoryCode": "09", "address": "3250 COMMERCIAL DRIVE", "city": "VANCOUVER", "province": "BC", "country": "CA", "postalCode": "V5N4E4", "twitter": "None", "instagram": "None", "facebook": "None", "youtube": "None", "website": "None", "summary": "None", "logo": "None", "latitude": 49.25599046961734, "longitude": -123.0695692782044}, "107275083RR0001": {"name": "UNITED EATON VALLEY PASTORAL CHARGE", "designationCode": "C", "categoryCode": "44", "address": "42 PRINCIPALE NORD", "city": "SAWYERVILLE", "province": "QC", "country": "CA", "postalCode": "J0B3A0", "twitter": "None", "instagram": "None", "facebook": "None", "youtube": "None", "website": "None", "summary": "None", "logo": "None", "latitude": 45.34159930394118, "longitude": -71.56597789093419}, "108102690RR0002": {"name": "UNITED EMPIRE LOYALISTS' CHARITABLE TRUST", "designationCode": "C", "categoryCode": "52", "address": "50 BALDWIN STREET             SUITE 202", "city": "TORONTO", "province": "ON", "country": "CA", "postalCode": "M5T1L4", "twitter": "None", "instagram": "None", "facebook": "None", "youtube": "None", "website": "None", "summary": "None", "logo": "None", "latitude": 43.65561918347843, "longitude": -79.39540901041602}, "866804511RR0001": {"name": "UNITED FARMERS HISTORICAL SOCIETY", "designationCode": "C", "categoryCode": "50", "address": "SUITE 700, 4838 RICHARD RD.S.W", "city": "CALGARY", "province": "AB", "country": "CA", "postalCode": "T3E6L1", "twitter": "None", "instagram": "None", "facebook": "None", "youtube": "None", "website": "None", "summary": "None", "logo": "None", "latitude": 51.01096069605883, "longitude": -114.12632856229452}, "119276665RR0001": {"name": "UNITED HUNGARIAN FUND", "designationCode": "C", "categoryCode": "03", "address": "465 YONGE STREET              P.O. BOX 73043 WOOD ST PO", "city": "TORONTO", "province": "ON", "country": "CA", "postalCode": "M4Y2W5", "twitter": "None", "instagram": "None", "facebook": "None", "youtube": "None", "website": "None", "summary": "None", "logo": "None", "latitude": 43.66177120344508, "longitude": -79.38322912112659}, "108147448RR0001": {"name": "UNITED INDIAN MISSIONS INTERNATIONAL, CANADIAN BRANCH", "designationCode": "C", "categoryCode": "47", "address": "BOX 800", "city": "HOUSTON", "province": "BC", "country": "CA", "postalCode": "V0J1Z0", "twitter": "None", "instagram": "None", "facebook": "None", "youtube": "None", "website": "None", "summary": "None", "logo": "None", "latitude": 55.240365186846496, "longitude": -127.654727473102}, "134593391RR0001": {"name": "UNITED ISRAEL APPEAL OF CANADA INC", "designationCode": "C", "categoryCode": "09", "address": "315-4600 BATHURST ST", "city": "TORONTO", "province": "ON", "country": "CA", "postalCode": "M2R3V3", "twitter": "None", "instagram": "None", "facebook": "None", "youtube": "None", "website": "None", "summary": "None", "logo": "None", "latitude": 43.764549213428396, "longitude": -79.4407190577642}, "886816727RR0001": {"name": "UNITED JEWISH APPEAL OF CANADA INC", "designationCode": "A", "categoryCode": "03", "address": "4600 BATHERST STREET          SUITE 315", "city": "TORONTO", "province": "ON", "country": "CA", "postalCode": "M2R3V3", "twitter": "None", "instagram": "None", "facebook": "None", "youtube": "None", "website": "None", "summary": "None", "logo": "None", "latitude": 43.764549213428396, "longitude": -79.4407190577642}, "119276723RR0001": {"name": "UNITED JEWISH APPEAL OF GREATER TORONTO", "designationCode": "A", "categoryCode": "03", "address": "4600 BATHURST STREET", "city": "TORONTO", "province": "ON", "country": "CA", "postalCode": "M2R3V2", "twitter": "None", "instagram": "None", "facebook": "None", "youtube": "None", "website": "None", "summary": "None", "logo": "None", "latitude": 43.764549213428396, "longitude": -79.4407190577642}, "119276749RR0001": {"name": "UNITED JEWISH APPEAL OF WINDSOR TRUST,", "designationCode": "C", "categoryCode": "05", "address": "1641 OUELLETTE AVE", "city": "WINDSOR", "province": "ON", "country": "CA", "postalCode": "N8X1K9", "twitter": "None", "instagram": "None", "facebook": "None", "youtube": "None", "website": "None", "summary": "None", "logo": "None", "latitude": 42.297327661377, "longitude": -83.0260792052914}, "119276756RR0001": {"name": "UNITED JEWISH APPEAL,", "designationCode": "A", "categoryCode": "05", "address": "536 HURON ST", "city": "LONDON", "province": "ON", "country": "CA", "postalCode": "N5Y4J5", "twitter": "None", "instagram": "None", "facebook": "None", "youtube": "None", "website": "None", "summary": "None", "logo": "None", "latitude": 43.011370433369336, "longitude": -81.244859759368}, "119276764RR0001": {"name": "UNITED JEWISH WELFARE FUND OF HAMILTON", "designationCode": "A", "categoryCode": "05", "address": "506 - 105 MAIN ST E", "city": "HAMILTON", "province": "ON", "country": "CA", "postalCode": "L8N1G6", "twitter": "None", "instagram": "None", "facebook": "None", "youtube": "None", "website": "None", "summary": "None", "logo": "None", "latitude": 43.254462297192646, "longitude": -79.8655056154101}, "119276772RR0001": {"name": "UNITED JEWISH WELFARE FUND OF ST CATHARINES", "designationCode": "C", "categoryCode": "05", "address": "2-58 GLENDALE AVE", "city": "ST CATHARINES", "province": "ON", "country": "CA", "postalCode": "L2T2J3", "twitter": "None", "instagram": "None", "facebook": "None", "youtube": "None", "website": "None", "summary": "None", "logo": "None", "latitude": 43.134433358820786, "longitude": -79.24495335204013}, "119276798RR0001": {"name": "UNITED LUTHERAN SERVICE CLUB INC", "designationCode": "C", "categoryCode": "59", "address": "100-535 LEILA AVE", "city": "WINNIPEG", "province": "MB", "country": "CA", "postalCode": "R2V3N5", "twitter": "None", "instagram": "None", "facebook": "None", "youtube": "None", "website": "None", "summary": "None", "logo": "None", "latitude": 49.94712856789176, "longitude": -97.12792046416433}, "119276822RR0001": {"name": "UNITED MENNONITE CHURCH OF BLACK CREEK, B C,", "designationCode": "C", "categoryCode": "34", "address": "2277 ENNS RD", "city": "BLACK CREEK", "province": "BC", "country": "CA", "postalCode": "V9J1H7", "twitter": "None", "instagram": "None", "facebook": "None", "youtube": "None", "website": "None", "summary": "None", "logo": "None", "latitude": 49.83474544434918, "longitude": -125.13503620737102}, "119321297RR0001": {"name": "UNITED MENNONITE CHURCH OF YARROW", "designationCode": "C", "categoryCode": "34", "address": "4336 ECKERT RD", "city": "YARROW", "province": "BC", "country": "CA", "postalCode": "V2R5J5", "twitter": "None", "instagram": "None", "facebook": "None", "youtube": "None", "website": "None", "summary": "None", "logo": "None", "latitude": 49.080626664723866, "longitude": -122.05650204215499}, "119276814RR0001": {"name": "UNITED MENNONITE EDUCATIONAL INSTITUTE", "designationCode": "C", "categoryCode": "20", "address": "614 MERSEA RD. 6              RR 5", "city": "LEAMINGTON", "province": "ON", "country": "CA", "postalCode": "N8H3V8", "twitter": "None", "instagram": "None", "facebook": "None", "youtube": "None", "website": "None", "summary": "None", "logo": "None", "latitude": 42.097299138578606, "longitude": -82.60310759752515}, "129864153RR0001": {"name": "UNITED MENNONITE HOME FOR THE AGED,", "designationCode": "C", "categoryCode": "01", "address": "4024 TWENTY-THIRD STREET", "city": "VINELAND", "province": "ON", "country": "CA", "postalCode": "L0R2C0", "twitter": "None", "instagram": "None", "facebook": "None", "youtube": "None", "website": "None", "summary": "None", "logo": "None", "latitude": 43.15580951205448, "longitude": -79.38788204896358}, "890094543RR0001": {"name": "UNITED MESSIANIC JEWISH OUTREACH", "designationCode": "C", "categoryCode": "49", "address": "600 ONTARIO ST BOX 27010", "city": "ST CATHARINES", "province": "ON", "country": "CA", "postalCode": "L2N7P8", "twitter": "None", "instagram": "None", "facebook": "None", "youtube": "None", "website": "None", "summary": "None", "logo": "None", "latitude": 43.19521590922742, "longitude": -79.26009689306993}, "119276855RR0001": {"name": "UNITED NATIONS ASSOCIATION IN CANADA", "designationCode": "C", "categoryCode": "29", "address": "309 COOPER ST SUITE 300", "city": "OTTAWA", "province": "ON", "country": "CA", "postalCode": "K2P0G5", "twitter": "None", "instagram": "None", "facebook": "None", "youtube": "None", "website": "None", "summary": "None", "logo": "None", "latitude": 45.417935589214736, "longitude": -75.69444308852223}, "119276863RR0001": {"name": "UNITED NATIONS ASSOCIATION IN CANADA HAMILTON BRANCH", "designationCode": "C", "categoryCode": "29", "address": "173 DUNDURN ST. SOUTH", "city": "HAMILTON", "province": "ON", "country": "CA", "postalCode": "L8P4K5", "twitter": "None", "instagram": "None", "facebook": "None", "youtube": "None", "website": "None", "summary": "None", "logo": "None", "latitude": 43.25697840299501, "longitude": -79.89011816789787}, "891852048RR0001": {"name": "UNITED NATIONS ASSOCIATION IN CANADA NATIONAL CAPITAL REGION BRANCH", "designationCode": "C", "categoryCode": "29", "address": "309 COOPER STREET             SUITE 300", "city": "OTTAWA", "province": "ON", "country": "CA", "postalCode": "K2P0G5", "twitter": "None", "instagram": "None", "facebook": "None", "youtube": "None", "website": "None", "summary": "None", "logo": "None", "latitude": 45.417935589214736, "longitude": -75.69444308852223}, "119276905RR0001": {"name": "UNITED NATIVE FRIENDSHIP CENTRE", "designationCode": "C", "categoryCode": "09", "address": "PO BOX 752", "city": "FORT FRANCES", "province": "ON", "country": "CA", "postalCode": "P9A3N1", "twitter": "None", "instagram": "None", "facebook": "None", "youtube": "None", "website": "None", "summary": "None", "logo": "None", "latitude": 48.610023000000055, "longitude": -93.39111349999993}, "132256090RR0001": {"name": "UNITED NIAGARA CHURCH", "designationCode": "C", "categoryCode": "39", "address": "1 LAKESHORE RD", "city": "ST CATHARINES", "province": "ON", "country": "CA", "postalCode": "L2N2S7", "twitter": "None", "instagram": "None", "facebook": "None", "youtube": "None", "website": "None", "summary": "None", "logo": "None", "latitude": 43.19749121818892, "longitude": -79.25928373622232}, "878095900RR0001": {"name": "UNITED OROMO CHRISTIAN FELLOWSHIP OF MANITOBA INC", "designationCode": "C", "categoryCode": "39", "address": "52 PRUDHOMME BAY", "city": "WINNIPEG", "province": "MB", "country": "CA", "postalCode": "R2N0B3", "twitter": "None", "instagram": "None", "facebook": "None", "youtube": "None", "website": "None", "summary": "None", "logo": "None", "latitude": 49.7999522428301, "longitude": -97.1016440832421}, "119277200RR0001": {"name": "UNITED OSTOMY ASSOC INC VANCOUVER BRITISH COLUMBIA CHAPTER", "designationCode": "C", "categoryCode": "11", "address": "PO BOX 74570                  WEST BROADWAY", "city": "VANCOUVER", "province": "BC", "country": "CA", "postalCode": "V6K2G4", "twitter": "None", "instagram": "None", "facebook": "None", "youtube": "None", "website": "None", "summary": "None", "logo": "None", "latitude": 49.2640785, "longitude": -123.16791825}, "119277143RR0001": {"name": "UNITED OSTOMY ASSOCIATION INC - STRATFORD AND DISTRICT CHAPTER", "designationCode": "C", "categoryCode": "11", "address": "P O BOX 21132", "city": "STRATFORD", "province": "ON", "country": "CA", "postalCode": "N5A6S8", "twitter": "None", "instagram": "None", "facebook": "None", "youtube": "None", "website": "None", "summary": "None", "logo": "None", "latitude": 43.37013300000005, "longitude": -80.98191349999993}, "119277168RR0001": {"name": "UNITED OSTOMY ASSOCIATION INC VICTORIA CHAPTER BRITISH COLUMBIA", "designationCode": "C", "categoryCode": "09", "address": "P.O.BOX 48001 UPTOWN          3511 BLANCHARD ST", "city": "VICTORIA", "province": "BC", "country": "CA", "postalCode": "V8Z0B9", "twitter": "None", "instagram": "None", "facebook": "None", "youtube": "None", "website": "None", "summary": "None", "logo": "None", "latitude": 34.046125274001284, "longitude": -118.188255025008}, "865014138RR0001": {"name": "UNITED OSTOMY ASSOCIATION OF CANADA-MONCTON CHAPTER", "designationCode": "C", "categoryCode": "11", "address": "132 WAVERLEY AVE", "city": "MONCTON", "province": "NB", "country": "CA", "postalCode": "E1C7V2", "twitter": "None", "instagram": "None", "facebook": "None", "youtube": "None", "website": "None", "summary": "None", "logo": "None", "latitude": 46.10222151373424, "longitude": -64.81953573968477}, "119277887RR0004": {"name": "UNITED PENTECOSTAL CHAPEL", "designationCode": "C", "categoryCode": "39", "address": "PO BOX 473", "city": "ST STEPHEN", "province": "NB", "country": "CA", "postalCode": "E2L2X3", "twitter": "None", "instagram": "None", "facebook": "None", "youtube": "None", "website": "None", "summary": "None", "logo": "None", "latitude": 45.27926100000001, "longitude": -66.052143}, "108156381RR0001": {"name": "UNITED PENTECOSTAL CHURCH", "designationCode": "C", "categoryCode": "39", "address": "BOX 1351", "city": "SUMMERSIDE", "province": "PE", "country": "CA", "postalCode": "C1N4K2", "twitter": "None", "instagram": "None", "facebook": "None", "youtube": "None", "website": "None", "summary": "None", "logo": "None", "latitude": 46.39407900000006, "longitude": -63.791980999999936}, "108156498RR0001": {"name": "UNITED PENTECOSTAL CHURCH", "designationCode": "C", "categoryCode": "36", "address": "7-50 AVENUE", "city": "EDMUNSTON", "province": "NB", "country": "CA", "postalCode": "E3V3E9", "twitter": "None", "instagram": "None", "facebook": "None", "youtube": "None", "website": "None", "summary": "None", "logo": "None", "latitude": 47.377233147465944, "longitude": -68.3314504475314}, "119277580RR0001": {"name": "UNITED PENTECOSTAL CHURCH", "designationCode": "C", "categoryCode": "39", "address": "60 MARGARET ST", "city": "SYDNEY", "province": "NS", "country": "CA", "postalCode": "B1P2W8", "twitter": "None", "instagram": "None", "facebook": "None", "youtube": "None", "website": "None", "summary": "None", "logo": "None", "latitude": 46.14310839800333, "longitude": -60.17493658782974}, "119277598RR0001": {"name": "UNITED PENTECOSTAL CHURCH", "designationCode": "C", "categoryCode": "39", "address": "BOX 397", "city": "BAIE VERTE", "province": "NL", "country": "CA", "postalCode": "A0K1B0", "twitter": "None", "instagram": "None", "facebook": "None", "youtube": "None", "website": "None", "summary": "None", "logo": "None", "latitude": 49.939820000000054, "longitude": -56.191389999999956}, "119277606RR0001": {"name": "UNITED PENTECOSTAL CHURCH", "designationCode": "C", "categoryCode": "36", "address": "PO BOX 1324", "city": "STELLARTON", "province": "NS", "country": "CA", "postalCode": "B0K1S0", "twitter": "None", "instagram": "None", "facebook": "None", "youtube": "None", "website": "None", "summary": "None", "logo": "None", "latitude": 45.56177000000008, "longitude": -62.65966999999995}, "119277630RR0001": {"name": "UNITED PENTECOSTAL CHURCH", "designationCode": "C", "categoryCode": "36", "address": "PO BOX 878", "city": "DIGBY", "province": "NS", "country": "CA", "postalCode": "B0V1A0", "twitter": "None", "instagram": "None", "facebook": "None", "youtube": "None", "website": "None", "summary": "None", "logo": "None", "latitude": 44.39616000000005, "longitude": -66.20374249999993}, "119277655RR0001": {"name": "UNITED PENTECOSTAL CHURCH", "designationCode": "C", "categoryCode": "39", "address": "293 MAIN ST", "city": "DARTMOUTH", "province": "NS", "country": "CA", "postalCode": "B2X1T4", "twitter": "None", "instagram": "None", "facebook": "None", "youtube": "None", "website": "None", "summary": "None", "logo": "None", "latitude": 44.68596900141363, "longitude": -63.522629558716496}, "119277689RR0001": {"name": "UNITED PENTECOSTAL CHURCH", "designationCode": "C", "categoryCode": "36", "address": "14439 CASCUMPEC ROAD RR#1", "city": "ALBERTON", "province": "PE", "country": "CA", "postalCode": "C0B1B0", "twitter": "None", "instagram": "None", "facebook": "None", "youtube": "None", "website": "None", "summary": "None", "logo": "None", "latitude": 46.7905718551272, "longitude": -64.09626545019896}, "119277788RR0001": {"name": "UNITED PENTECOSTAL CHURCH", "designationCode": "C", "categoryCode": "36", "address": "7903 ROUTE 3", "city": "DEWOLFE", "province": "NB", "country": "CA", "postalCode": "E5A1L1", "twitter": "None", "instagram": "None", "facebook": "None", "youtube": "None", "website": "None", "summary": "None", "logo": "None", "latitude": 45.334536906137856, "longitude": -67.28434666585233}, "119277820RR0001": {"name": "UNITED PENTECOSTAL CHURCH", "designationCode": "C", "categoryCode": "36", "address": "2016 ROUTE 104", "city": "ZEALAND", "province": "NB", "country": "CA", "postalCode": "E6L2J5", "twitter": "None", "instagram": "None", "facebook": "None", "youtube": "None", "website": "None", "summary": "None", "logo": "None", "latitude": 46.074365982595744, "longitude": -66.99199259780815}, "119277887RR0002": {"name": "UNITED PENTECOSTAL CHURCH", "designationCode": "C", "categoryCode": "39", "address": "BOX 583", "city": "MONTAGUE", "province": "PE", "country": "CA", "postalCode": "C0A1R0", "twitter": "None", "instagram": "None", "facebook": "None", "youtube": "None", "website": "None", "summary": "None", "logo": "None", "latitude": 46.14343222329997, "longitude": -62.75594020244682}, "119277887RR0003": {"name": "UNITED PENTECOSTAL CHURCH", "designationCode": "C", "categoryCode": "36", "address": "P.O.BOX 862", "city": "MCADAM", "province": "NB", "country": "CA", "postalCode": "E6J2C1", "twitter": "None", "instagram": "None", "facebook": "None", "youtube": "None", "website": "None", "summary": "None", "logo": "None", "latitude": 45.59768700000005, "longitude": -67.32641149999994}, "119277911RR0001": {"name": "UNITED PENTECOSTAL CHURCH", "designationCode": "C", "categoryCode": "39", "address": "PO BOX 204", "city": "TAMWORTH", "province": "ON", "country": "CA", "postalCode": "K0K3G0", "twitter": "None", "instagram": "None", "facebook": "None", "youtube": "None", "website": "None", "summary": "None", "logo": "None", "latitude": 44.48736000000008, "longitude": -76.99483999999995}, "119278018RR0001": {"name": "UNITED PENTECOSTAL CHURCH", "designationCode": "C", "categoryCode": "36", "address": "2080 LASALLE BLVD", "city": "SUDBURY", "province": "ON", "country": "CA", "postalCode": "P3A5P5", "twitter": "None", "instagram": "None", "facebook": "None", "youtube": "None", "website": "None", "summary": "None", "logo": "None", "latitude": 46.52206647157924, "longitude": -80.92287369317329}, "130800196RR0001": {"name": "UNITED PENTECOSTAL CHURCH", "designationCode": "C", "categoryCode": "36", "address": "7380 WYANDOTTE ST E", "city": "WINDSOR", "province": "ON", "country": "CA", "postalCode": "N8S1R7", "twitter": "None", "instagram": "None", "facebook": "None", "youtube": "None", "website": "None", "summary": "None", "logo": "None", "latitude": 42.33242419069178, "longitude": -82.95006862406943}, "870571668RR0001": {"name": "UNITED PENTECOSTAL CHURCH", "designationCode": "C", "categoryCode": "36", "address": "327 MAIN ST", "city": "CHIPMAN", "province": "NB", "country": "CA", "postalCode": "E4A2M8", "twitter": "None", "instagram": "None", "facebook": "None", "youtube": "None", "website": "None", "summary": "None", "logo": "None", "latitude": 46.17213902469852, "longitude": -65.88462564637335}, "888260031RR0001": {"name": "UNITED PENTECOSTAL CHURCH", "designationCode": "C", "categoryCode": "36", "address": "PO BOX 35073                  RPO NELSON PARK", "city": "LONDON", "province": "ON", "country": "CA", "postalCode": "N5W5Z6", "twitter": "None", "instagram": "None", "facebook": "None", "youtube": "None", "website": "None", "summary": "None", "logo": "None", "latitude": 42.9985041046318, "longitude": -81.17701794538134}, "889411641RR0001": {"name": "UNITED PENTECOSTAL CHURCH", "designationCode": "C", "categoryCode": "36", "address": "35 MARSH LANE", "city": "ST.GEORGE", "province": "NB", "country": "CA", "postalCode": "E5C3N6", "twitter": "None", "instagram": "None", "facebook": "None", "youtube": "None", "website": "None", "summary": "None", "logo": "None", "latitude": 45.13015681015573, "longitude": -66.83153197337319}}