{"133564740RR0001": {"name": "PETERBOROUGH AIDS RESOURCE NETWORK", "designationCode": "C", "categoryCode": "09", "address": "302 -159 KING ST", "city": "PETERBOROUGH", "province": "ON", "country": "CA", "postalCode": "K9J2R8", "twitter": "None", "instagram": "None", "facebook": "None", "youtube": "None", "website": "None", "summary": "None", "logo": "None", "latitude": 44.30198655063777, "longitude": -78.32004288481735}, "867918914RR0001": {"name": "PETERBOROUGH AND DISTRICT SPORTS HALL OF FAME", "designationCode": "C", "categoryCode": "50", "address": "151 LANSDOWNE STREET WEST", "city": "PETERBOROUGH", "province": "ON", "country": "CA", "postalCode": "K9J1Y4", "twitter": "None", "instagram": "None", "facebook": "None", "youtube": "None", "website": "None", "summary": "None", "logo": "None", "latitude": 44.289013612043064, "longitude": -78.3165665855976}, "135774032RR0001": {"name": "PETERBOROUGH ARTISTS INC", "designationCode": "C", "categoryCode": "22", "address": "PO BOX 1748 STN MAIN          378 AYLMER ST N", "city": "PETERBOROUGH", "province": "ON", "country": "CA", "postalCode": "K9J7X6", "twitter": "None", "instagram": "None", "facebook": "None", "youtube": "None", "website": "None", "summary": "None", "logo": "None", "latitude": 44.30324739674317, "longitude": -78.32313205383127}, "119091783RR0001": {"name": "PETERBOROUGH CHINESE CHRISTIAN FELLOWSHIP", "designationCode": "C", "categoryCode": "39", "address": "11 MCQUEEN DR", "city": "PARIS", "province": "ON", "country": "CA", "postalCode": "N3L0A6", "twitter": "None", "instagram": "None", "facebook": "None", "youtube": "None", "website": "None", "summary": "None", "logo": "None", "latitude": 43.17767186037867, "longitude": -80.38847467984309}, "119091809RR0001": {"name": "PETERBOROUGH CHRISTIAN SCHOOL SOCIETY, INC.", "designationCode": "C", "categoryCode": "20", "address": "29 COUNTY ROAD 4", "city": "PETERBOROUGH", "province": "ON", "country": "CA", "postalCode": "K9L1B8", "twitter": "None", "instagram": "None", "facebook": "None", "youtube": "None", "website": "None", "summary": "None", "logo": "None", "latitude": 44.32274678275681, "longitude": -78.29108084842753}, "891562779RR0001": {"name": "PETERBOROUGH CHURCH OF CHRIST", "designationCode": "B", "categoryCode": "39", "address": "2567 DUMMER-ASPHODEL ROAD", "city": "ASPHODEL-NORWOOD", "province": "ON", "country": "CA", "postalCode": "K0L3A0", "twitter": "None", "instagram": "None", "facebook": "None", "youtube": "None", "website": "None", "summary": "None", "logo": "None", "latitude": 44.381522798642386, "longitude": -78.05763345817178}, "131952376RR0005": {"name": "PETERBOROUGH CHURCH OF GOD OF PROPHECY", "designationCode": "C", "categoryCode": "39", "address": "655 PARKHILL ROAD WEST", "city": "PETERBOROUGH", "province": "ON", "country": "CA", "postalCode": "K9J6N7", "twitter": "None", "instagram": "None", "facebook": "None", "youtube": "None", "website": "None", "summary": "None", "logo": "None", "latitude": 44.31053985258839, "longitude": -78.34141414028518}, "732480694RR0001": {"name": "PETERBOROUGH CITY CHURCH", "designationCode": "C", "categoryCode": "39", "address": "726 HOPKINS AVE", "city": "PETERBOROUGH", "province": "ON", "country": "CA", "postalCode": "K9J4Y5", "twitter": "None", "instagram": "None", "facebook": "None", "youtube": "None", "website": "None", "summary": "None", "logo": "None", "latitude": 44.30432499751849, "longitude": -78.3436112961509}, "897261426RR0001": {"name": "PETERBOROUGH COLLEGIATE FOUNDATION", "designationCode": "C", "categoryCode": "21", "address": "202-261 GEORGE ST. NORTH", "city": "PETERBOROUGH", "province": "ON", "country": "CA", "postalCode": "K9J3G9", "twitter": "None", "instagram": "None", "facebook": "None", "youtube": "None", "website": "None", "summary": "None", "logo": "None", "latitude": 44.301392968533825, "longitude": -78.31974925663145}, "857098701RR0001": {"name": "PETERBOROUGH COMMUNITY CHAPLAINCY", "designationCode": "C", "categoryCode": "59", "address": "P O BOX 235", "city": "PETERBOROUGH", "province": "ON", "country": "CA", "postalCode": "K9J6Y8", "twitter": "None", "instagram": "None", "facebook": "None", "youtube": "None", "website": "None", "summary": "None", "logo": "None", "latitude": 44.30591700000005, "longitude": -78.31950199999993}, "899011852RR0001": {"name": "PETERBOROUGH COUNTY CHILDRENS CHOIR", "designationCode": "C", "categoryCode": "22", "address": "P.O. BOX 1995                 SHERLA TRUDELL, CMA", "city": "PETERBOROUGH", "province": "ON", "country": "CA", "postalCode": "K9J7X7", "twitter": "None", "instagram": "None", "facebook": "None", "youtube": "None", "website": "None", "summary": "None", "logo": "None", "latitude": 44.30591700000005, "longitude": -78.31950199999993}, "140902206RR0001": {"name": "PETERBOROUGH DRUG AWARENESS COALITION", "designationCode": "C", "categoryCode": "59", "address": "185 KING ST", "city": "PETERBOROUGH", "province": "ON", "country": "CA", "postalCode": "K9J2R8", "twitter": "None", "instagram": "None", "facebook": "None", "youtube": "None", "website": "None", "summary": "None", "logo": "None", "latitude": 44.30193454284748, "longitude": -78.32128241756594}, "107837429RR0001": {"name": "PETERBOROUGH FAMILY RESOURCE CENTRE", "designationCode": "C", "categoryCode": "09", "address": "201 ANTRIM ST", "city": "PETERBOROUGH", "province": "ON", "country": "CA", "postalCode": "K9H3G5", "twitter": "None", "instagram": "None", "facebook": "None", "youtube": "None", "website": "None", "summary": "None", "logo": "None", "latitude": 44.314487531738976, "longitude": -78.322889085204}, "119091908RR0001": {"name": "PETERBOROUGH FIELD NATURALISTS", "designationCode": "C", "categoryCode": "52", "address": "PO BOX 1532                   150 KING ST", "city": "PETERBOROUGH", "province": "ON", "country": "CA", "postalCode": "K9J7H7", "twitter": "None", "instagram": "None", "facebook": "None", "youtube": "None", "website": "None", "summary": "None", "logo": "None", "latitude": 44.3020455148594, "longitude": -78.32012411518264}, "107406134RR0001": {"name": "PETERBOROUGH FREE METHODIST CHURCH", "designationCode": "C", "categoryCode": "39", "address": "450 LANSDOWNE STREET EAST", "city": "PETERBOROUGH", "province": "ON", "country": "CA", "postalCode": "K9L2A1", "twitter": "None", "instagram": "None", "facebook": "None", "youtube": "None", "website": "None", "summary": "None", "logo": "None", "latitude": 44.292743903167896, "longitude": -78.2877387191412}, "139850002RR0001": {"name": "PETERBOROUGH GREEN-UP ASSOCIATION", "designationCode": "C", "categoryCode": "59", "address": "378 AYLMER STREET N           UNIT 4", "city": "PETERBOROUGH", "province": "ON", "country": "CA", "postalCode": "K9H3V8", "twitter": "None", "instagram": "None", "facebook": "None", "youtube": "None", "website": "None", "summary": "None", "logo": "None", "latitude": 44.30557954010618, "longitude": -78.32333579626646}, "119091924RR0001": {"name": "PETERBOROUGH HISTORICAL SOCIETY", "designationCode": "C", "categoryCode": "50", "address": "270 BROCK ST", "city": "PETERBOROUGH", "province": "ON", "country": "CA", "postalCode": "K9H2P9", "twitter": "None", "instagram": "None", "facebook": "None", "youtube": "None", "website": "None", "summary": "None", "logo": "None", "latitude": 44.306987467684124, "longitude": -78.32520436372555}, "892058744RR0001": {"name": "PETERBOROUGH HORTICULTURAL SOCIETY", "designationCode": "C", "categoryCode": "59", "address": "PO BOX 1372", "city": "PETERBOROUGH", "province": "ON", "country": "CA", "postalCode": "K9J7H6", "twitter": "None", "instagram": "None", "facebook": "None", "youtube": "None", "website": "None", "summary": "None", "logo": "None", "latitude": 44.30591700000005, "longitude": -78.31950199999993}, "119091932RR0001": {"name": "PETERBOROUGH KIWANIS MUSIC FESTIVAL", "designationCode": "C", "categoryCode": "22", "address": "PO BOX 481 STN MAIN", "city": "PETERBOROUGH", "province": "ON", "country": "CA", "postalCode": "K9J6Z6", "twitter": "None", "instagram": "None", "facebook": "None", "youtube": "None", "website": "None", "summary": "None", "logo": "None", "latitude": 44.30591700000005, "longitude": -78.31950199999993}, "134421411RR0001": {"name": "PETERBOROUGH MUSICFEST INC.", "designationCode": "C", "categoryCode": "22", "address": "277 GEORGE STREET NORTH       SUITE 211", "city": "PETERBOROUGH", "province": "ON", "country": "CA", "postalCode": "K9J3G9", "twitter": "None", "instagram": "None", "facebook": "None", "youtube": "None", "website": "None", "summary": "None", "logo": "None", "latitude": 44.301796459893836, "longitude": -78.31980825480397}, "876140526RR0001": {"name": "PETERBOROUGH NATIVE LEARNING PROGRAM", "designationCode": "C", "categoryCode": "21", "address": "6-360 GEORGE ST N", "city": "PETERBOROUGH", "province": "ON", "country": "CA", "postalCode": "K9H7E7", "twitter": "None", "instagram": "None", "facebook": "None", "youtube": "None", "website": "None", "summary": "None", "logo": "None", "latitude": 44.31333988343623, "longitude": -78.320574}, "894811058RR0001": {"name": "PETERBOROUGH NEW DANCE AND PERFORMANCE", "designationCode": "C", "categoryCode": "22", "address": "PO BOX 2319 STN MAIN", "city": "PETERBOROUGH", "province": "ON", "country": "CA", "postalCode": "K9J7Y8", "twitter": "None", "instagram": "None", "facebook": "None", "youtube": "None", "website": "None", "summary": "None", "logo": "None", "latitude": 44.30591700000005, "longitude": -78.31950199999993}, "869166371RR0001": {"name": "PETERBOROUGH PATRIOTS SPORTS CLUB", "designationCode": "C", "categoryCode": "56", "address": "236 RIVERVIEW HTS", "city": "PETERBOROUGH", "province": "ON", "country": "CA", "postalCode": "K9J1B2", "twitter": "None", "instagram": "None", "facebook": "None", "youtube": "None", "website": "None", "summary": "None", "logo": "None", "latitude": 44.27891409965941, "longitude": -78.31243781585773}, "129800116RR0001": {"name": "PETERBOROUGH PREGNANCY SUPPORT SERVICES", "designationCode": "C", "categoryCode": "59", "address": "473 AYLMER STREET NORTH", "city": "PETERBOROUGH", "province": "ON", "country": "CA", "postalCode": "K9H3W3", "twitter": "None", "instagram": "None", "facebook": "None", "youtube": "None", "website": "None", "summary": "None", "logo": "None", "latitude": 44.30784387316061, "longitude": -78.32356963102299}, "119091973RR0001": {"name": "PETERBOROUGH PUBLIC LIBRARY", "designationCode": "C", "categoryCode": "50", "address": "345 AYLMER STREET", "city": "PETERBOROUGH", "province": "ON", "country": "CA", "postalCode": "K9H3V7", "twitter": "None", "instagram": "None", "facebook": "None", "youtube": "None", "website": "None", "summary": "None", "logo": "None", "latitude": 44.304002486814035, "longitude": -78.32329010995983}, "892201443RR0001": {"name": "PETERBOROUGH PUBLIC LIBRARY FOUNDATION", "designationCode": "A", "categoryCode": "53", "address": "345 AYLMER ST N", "city": "PETERBOROUGH", "province": "ON", "country": "CA", "postalCode": "K9H3V7", "twitter": "None", "instagram": "None", "facebook": "None", "youtube": "None", "website": "None", "summary": "None", "logo": "None", "latitude": 44.304002486814035, "longitude": -78.32329010995983}, "107837312RR0001": {"name": "PETERBOROUGH REGIONAL HEALTH CENTRE", "designationCode": "C", "categoryCode": "10", "address": "1 HOSPITAL DR", "city": "PETERBOROUGH", "province": "ON", "country": "CA", "postalCode": "K9J7C6", "twitter": "None", "instagram": "None", "facebook": "None", "youtube": "None", "website": "None", "summary": "None", "logo": "None", "latitude": 44.3009127976228, "longitude": -78.34592990065772}, "119091825RR0001": {"name": "PETERBOROUGH REGIONAL HEALTH CENTRE FOUNDATION", "designationCode": "A", "categoryCode": "13", "address": "ONE HOSPITAL DRIVE", "city": "PETERBOROUGH", "province": "ON", "country": "CA", "postalCode": "K9J7C6", "twitter": "None", "instagram": "None", "facebook": "None", "youtube": "None", "website": "None", "summary": "None", "logo": "None", "latitude": 44.301085724711385, "longitude": -78.34682142517353}, "119092005RR0002": {"name": "PETERBOROUGH SALVATION ARMY TRUST", "designationCode": "C", "categoryCode": "40", "address": "507 1818 CHERRYHILL ROAD", "city": "PETERBOROUGH", "province": "ON", "country": "CA", "postalCode": "K9K1S6", "twitter": "None", "instagram": "None", "facebook": "None", "youtube": "None", "website": "None", "summary": "None", "logo": "None", "latitude": 44.278460245648375, "longitude": -78.37471750189589}, "890144082RR0001": {"name": "PETERBOROUGH SCIENCE FAIR", "designationCode": "C", "categoryCode": "56", "address": "TRENT UNIVERSITY", "city": "PETERBOROUGH", "province": "ON", "country": "CA", "postalCode": "K9J7B8", "twitter": "None", "instagram": "None", "facebook": "None", "youtube": "None", "website": "None", "summary": "None", "logo": "None", "latitude": 44.35346000000004, "longitude": -78.29596999999995}, "107797383RR0006": {"name": "PETERBOROUGH SEVENTH-DAY ADVENTIST CHURCH", "designationCode": "C", "categoryCode": "41", "address": "649 ROMAINE STREET", "city": "PETERBOROUGH", "province": "ON", "country": "CA", "postalCode": "K9J2E6", "twitter": "None", "instagram": "None", "facebook": "None", "youtube": "None", "website": "None", "summary": "None", "logo": "None", "latitude": 44.28877594419769, "longitude": -78.3330239553062}, "137323853RR0001": {"name": "PETERBOROUGH SINGERS", "designationCode": "C", "categoryCode": "22", "address": "PO BOX 2146 STN MAIN", "city": "PETERBOROUGH", "province": "ON", "country": "CA", "postalCode": "K9J7Y4", "twitter": "None", "instagram": "None", "facebook": "None", "youtube": "None", "website": "None", "summary": "None", "logo": "None", "latitude": 44.30591700000005, "longitude": -78.31950199999993}, "119092047RR0001": {"name": "PETERBOROUGH SOCIAL PLANNING COUNCIL", "designationCode": "C", "categoryCode": "59", "address": "3 - 360 GEORGE ST N", "city": "PETERBOROUGH", "province": "ON", "country": "CA", "postalCode": "K9H7E7", "twitter": "None", "instagram": "None", "facebook": "None", "youtube": "None", "website": "None", "summary": "None", "logo": "None", "latitude": 44.31333988343623, "longitude": -78.320574}, "119092062RR0001": {"name": "PETERBOROUGH SYMPHONY ORCHESTRA", "designationCode": "C", "categoryCode": "22", "address": "P.O. BOX 1135", "city": "PETERBOROUGH", "province": "ON", "country": "CA", "postalCode": "K9J7H4", "twitter": "None", "instagram": "None", "facebook": "None", "youtube": "None", "website": "None", "summary": "None", "logo": "None", "latitude": 44.30591700000005, "longitude": -78.31950199999993}, "132167800RR0001": {"name": "PETERBOROUGH THEATRE GUILD,", "designationCode": "C", "categoryCode": "56", "address": "364 ROGERS ST", "city": "PETERBOROUGH", "province": "ON", "country": "CA", "postalCode": "K9H1W7", "twitter": "None", "instagram": "None", "facebook": "None", "youtube": "None", "website": "None", "summary": "None", "logo": "None", "latitude": 44.30501411102771, "longitude": -78.30648001410961}, "107837551RR0001": {"name": "PETERBOROUGH VICTORIA NORTHUMBERLAND AND CLARINGTON CATHOLIC DISTRICT SCHOOL BOARD", "designationCode": "C", "categoryCode": "21", "address": "1355 LANSDOWNE ST W", "city": "PETERBOROUGH", "province": "ON", "country": "CA", "postalCode": "K9J7M3", "twitter": "None", "instagram": "None", "facebook": "None", "youtube": "None", "website": "None", "summary": "None", "logo": "None", "latitude": 44.27912394291614, "longitude": -78.35674042942749}, "119092088RR0001": {"name": "PETERBOROUGH YOUTH SERVICES", "designationCode": "C", "categoryCode": "59", "address": "459 REID ST", "city": "PETERBOROUGH", "province": "ON", "country": "CA", "postalCode": "K9H4G7", "twitter": "None", "instagram": "None", "facebook": "None", "youtube": "None", "website": "None", "summary": "None", "logo": "None", "latitude": 44.307700543712855, "longitude": -78.32810973705902}, "892455676RR0001": {"name": "PETERBOROUGH/NORTHUMBERLAND VICTIM SERVICES", "designationCode": "C", "categoryCode": "59", "address": "P.O. BOX 477 STN MAIN         453 LANSDOWNE STREET EAST", "city": "PETERBOROUGH", "province": "ON", "country": "CA", "postalCode": "K9J6Z6", "twitter": "None", "instagram": "None", "facebook": "None", "youtube": "None", "website": "None", "summary": "None", "logo": "None", "latitude": 44.270398578206134, "longitude": -78.39374653179048}, "119092153RR0001": {"name": "PETERS ROAD CEMETERY", "designationCode": "C", "categoryCode": "59", "address": "ALLISTON R.R.#1", "city": "MONTAGUE", "province": "PE", "country": "CA", "postalCode": "C0A1R0", "twitter": "None", "instagram": "None", "facebook": "None", "youtube": "None", "website": "None", "summary": "None", "logo": "None"}, "119092146RR0001": {"name": "PETERSON COMMUNITY WORKSHOP ASSOCIATION CHIPPAWA", "designationCode": "C", "categoryCode": "22", "address": "8198 CUMMINGTON SQUARE WEST", "city": "NIAGARA FALLS", "province": "ON", "country": "CA", "postalCode": "L2G6V9", "twitter": "None", "instagram": "None", "facebook": "None", "youtube": "None", "website": "None", "summary": "None", "logo": "None", "latitude": 43.05889873206038, "longitude": -79.05091670709224}, "132589482RR0001": {"name": "PETIT DOMICILE DE CHARNY", "designationCode": "C", "categoryCode": "09", "address": "2223 RUE DU RAIL", "city": "CHARNY", "province": "QC", "country": "CA", "postalCode": "G6X3L7", "twitter": "None", "instagram": "None", "facebook": "None", "youtube": "None", "website": "None", "summary": "None", "logo": "None", "latitude": 46.711077171793015, "longitude": -71.27315064527683}, "107840332RR0001": {"name": "PETITCODIAC BAPTIST CHURCH", "designationCode": "C", "categoryCode": "31", "address": "121 RENFREW STREET", "city": "PETITCODIAC", "province": "NB", "country": "CA", "postalCode": "E4Z4S6", "twitter": "None", "instagram": "None", "facebook": "None", "youtube": "None", "website": "None", "summary": "None", "logo": "None", "latitude": 45.93352599446007, "longitude": -65.17623138830847}, "893268243RR0001": {"name": "PETITCODIAC LIGHTHOUSE ASSEMBLY INC.", "designationCode": "C", "categoryCode": "39", "address": "PO BOX 2553 STN MAIN", "city": "PETITCODIAC", "province": "NB", "country": "CA", "postalCode": "E4Z6H4", "twitter": "None", "instagram": "None", "facebook": "None", "youtube": "None", "website": "None", "summary": "None", "logo": "None"}, "107840316RR0001": {"name": "PETITCODIAC MENNONITE CHURCH INC.", "designationCode": "C", "categoryCode": "34", "address": "285 OLD POST ROAD", "city": "PETITCODIAC", "province": "NB", "country": "CA", "postalCode": "E4Z4N8", "twitter": "None", "instagram": "None", "facebook": "None", "youtube": "None", "website": "None", "summary": "None", "logo": "None", "latitude": 45.930405183073916, "longitude": -65.16878183025064}, "866409832RR0001": {"name": "PETITCODIAC PUBLIC LIBRARY BOARD", "designationCode": "C", "categoryCode": "50", "address": "6 KAY STREET, SUITE 101", "city": "PETITCODIAC", "province": "NB", "country": "CA", "postalCode": "E4Z4K6", "twitter": "None", "instagram": "None", "facebook": "None", "youtube": "None", "website": "None", "summary": "None", "logo": "None", "latitude": 45.93220742659697, "longitude": -65.17601808353056}, "894922921RR0001": {"name": "PETITCODIAC RIVERKEEPER, INC./SENTINELLES DE LA RIVIERE PETITCODIAC, INC.", "designationCode": "C", "categoryCode": "52", "address": "P O BOX 300", "city": "MONCTON", "province": "NB", "country": "CA", "postalCode": "E1C8K9", "twitter": "None", "instagram": "None", "facebook": "None", "youtube": "None", "website": "None", "summary": "None", "logo": "None", "latitude": 46.08834900000005, "longitude": -64.77824149999994}, "130334378RR0001": {"name": "PETITE ECOLE DU VIEUX TERREBONNE", "designationCode": "C", "categoryCode": "01", "address": "1232 RUE ST-LOUIS", "city": "TERREBONNE", "province": "QC", "country": "CA", "postalCode": "J6W1K4", "twitter": "None", "instagram": "None", "facebook": "None", "youtube": "None", "website": "None", "summary": "None", "logo": "None", "latitude": 45.69901974655235, "longitude": -73.64701640908318}, "119092195RR0001": {"name": "PETITE RIVIERE FIRE DEPARTMENT", "designationCode": "C", "categoryCode": "59", "address": "101 DREW'S HILL ROAD", "city": "PETITE RIVI\u00c8RE", "province": "NS", "country": "CA", "postalCode": "B4V5Z9", "twitter": "None", "instagram": "None", "facebook": "None", "youtube": "None", "website": "None", "summary": "None", "logo": "None", "latitude": 44.22896240218694, "longitude": -64.44616660338164}, "108153040RR0001": {"name": "PETITE RIVIERE PASTORAL CHARGE", "designationCode": "C", "categoryCode": "44", "address": "22 DREW'S HILL ROAD           COMP 2, BOX 1", "city": "PETITE RIVIERE", "province": "NS", "country": "CA", "postalCode": "B4V5Z8", "twitter": "None", "instagram": "None", "facebook": "None", "youtube": "None", "website": "None", "summary": "None", "logo": "None", "latitude": 44.22867900000006, "longitude": -64.44417499999993}, "889770970RR0001": {"name": "PETITES SOEURS DE JESUS (DU FR CHARLES DE JESUS)", "designationCode": "C", "categoryCode": "46", "address": "1800 BERCY                    APT 617", "city": "MONTR\u00c9AL", "province": "QC", "country": "CA", "postalCode": "H2K4K5", "twitter": "None", "instagram": "None", "facebook": "None", "youtube": "None", "website": "None", "summary": "None", "logo": "None", "latitude": 45.534396355502565, "longitude": -73.55060331851213}, "107840381RR0001": {"name": "PETITES SOEURS DES PAUVRES", "designationCode": "C", "categoryCode": "01", "address": "600 - 4 PLACE VILLE-MARIE", "city": "MONTREAL", "province": "QC", "country": "CA", "postalCode": "H3B2E7", "twitter": "None", "instagram": "None", "facebook": "None", "youtube": "None", "website": "None", "summary": "None", "logo": "None", "latitude": 45.50107017040803, "longitude": -73.57055723867516}, "895407690RR0001": {"name": "PETITES-MAINS", "designationCode": "C", "categoryCode": "20", "address": "7595 BOUL. SAINT-LAURENT", "city": "MONTR\u00c9AL", "province": "QC", "country": "CA", "postalCode": "H2R1W9", "twitter": "None", "instagram": "None", "facebook": "None", "youtube": "None", "website": "None", "summary": "None", "logo": "None", "latitude": 45.53674194644807, "longitude": -73.62360309158065}, "887853612RR0001": {"name": "PETITS CHOUX DAYCARE INC", "designationCode": "C", "categoryCode": "01", "address": "P.O.BOX 307", "city": "SOMERSET", "province": "MB", "country": "CA", "postalCode": "R0G2L0", "twitter": "None", "instagram": "None", "facebook": "None", "youtube": "None", "website": "None", "summary": "None", "logo": "None", "latitude": 49.411550000000034, "longitude": -98.65896999999995}, "133950733RR0001": {"name": "PETROLIA CHRISTIAN FELLOWSHIP", "designationCode": "C", "categoryCode": "39", "address": "4521 PETROLIA LINE            BOX 1030", "city": "PETROLIA", "province": "ON", "country": "CA", "postalCode": "N0N1R0", "twitter": "None", "instagram": "None", "facebook": "None", "youtube": "None", "website": "None", "summary": "None", "logo": "None", "latitude": 42.88131448788189, "longitude": -82.12154263780367}, "107840662RR0001": {"name": "PETROLIA UNITED CHURCH", "designationCode": "C", "categoryCode": "44", "address": "4169 PETROLIA LINE", "city": "PETROLIA", "province": "ON", "country": "CA", "postalCode": "N0N1R0", "twitter": "None", "instagram": "None", "facebook": "None", "youtube": "None", "website": "None", "summary": "None", "logo": "None", "latitude": 42.88190755395599, "longitude": -82.14864108243405}, "869146894RR0001": {"name": "PETS AND PEOPLE VISITING SOCIETY", "designationCode": "C", "categoryCode": "19", "address": "#9 - 3151 LAKESHORE ROAD      SUITE 211", "city": "KELOWNA", "province": "BC", "country": "CA", "postalCode": "V1W3S9", "twitter": "None", "instagram": "None", "facebook": "None", "youtube": "None", "website": "None", "summary": "None", "logo": "None", "latitude": 49.86092555214848, "longitude": -119.49116409717426}, "885903609RR0001": {"name": "PETS/FRIENDS FOR LIFE", "designationCode": "C", "categoryCode": "54", "address": "14 ST CATHARINE ST", "city": "ST THOMAS", "province": "ON", "country": "CA", "postalCode": "N5P2V6", "twitter": "None", "instagram": "None", "facebook": "None", "youtube": "None", "website": "None", "summary": "None", "logo": "None", "latitude": 42.7792798029391, "longitude": -81.19148400864081}, "119092336RR0001": {"name": "PETTES MEMORIAL LIBRARY", "designationCode": "C", "categoryCode": "50", "address": "276 KNOWLTON ROAD", "city": "LAC BROME", "province": "QC", "country": "CA", "postalCode": "J0E1V0", "twitter": "None", "instagram": "None", "facebook": "None", "youtube": "None", "website": "None", "summary": "None", "logo": "None", "latitude": 45.216450449362235, "longitude": -72.51002174409949}, "119092369RR0001": {"name": "PEYLIM OF CANADA", "designationCode": "C", "categoryCode": "42", "address": "50 SHELBORNE AVENUE", "city": "TORONTO", "province": "ON", "country": "CA", "postalCode": "M5N1Z1", "twitter": "None", "instagram": "None", "facebook": "None", "youtube": "None", "website": "None", "summary": "None", "logo": "None", "latitude": 43.716973241762226, "longitude": -79.42447803595122}, "888705068RR0001": {"name": "PFEIFFER FAMILY CHARITABLE TRUST", "designationCode": "B", "categoryCode": "05", "address": "6927 PARK AVE SUITE 200", "city": "MONTREAL", "province": "QC", "country": "CA", "postalCode": "H3N1X7", "twitter": "None", "instagram": "None", "facebook": "None", "youtube": "None", "website": "None", "summary": "None", "logo": "None", "latitude": 45.52943369499095, "longitude": -73.61848342241338}, "864483276RR0001": {"name": "PFLAG CANADA", "designationCode": "C", "categoryCode": "09", "address": "243 - 1554 CARLING AVE", "city": "OTTAWA", "province": "ON", "country": "CA", "postalCode": "K1Z7M4", "twitter": "None", "instagram": "None", "facebook": "None", "youtube": "None", "website": "None", "summary": "None", "logo": "None", "latitude": 45.38145173933898, "longitude": -75.74426895876864}, "119103463RR0001": {"name": "PG TABERNACLE SOCIETY", "designationCode": "C", "categoryCode": "36", "address": "497 OSPIKA BLVD", "city": "PRINCE GEORGE", "province": "BC", "country": "CA", "postalCode": "V2M3R4", "twitter": "None", "instagram": "None", "facebook": "None", "youtube": "None", "website": "None", "summary": "None", "logo": "None", "latitude": 53.921498066721696, "longitude": -122.79427523889127}, "805325883RR0001": {"name": "PHACES Foundation of Canada", "designationCode": "A", "categoryCode": "03", "address": "1764 BRIARWOOD DRIVE", "city": "CAMBRIDGE", "province": "ON", "country": "CA", "postalCode": "N3H5A7", "twitter": "None", "instagram": "None", "facebook": "None", "youtube": "None", "website": "None", "summary": "None", "logo": "None", "latitude": 43.392954227306866, "longitude": -80.328166263835}, "870002037RR0001": {"name": "PHAP VAN VIETNAMESE BUDDHIST CULTURAL CENTRE OF ONTARIO", "designationCode": "C", "categoryCode": "35", "address": "420 TRADERS BLVD EAST", "city": "MISSISSAUGA", "province": "ON", "country": "CA", "postalCode": "L4Z1W7", "twitter": "None", "instagram": "None", "facebook": "None", "youtube": "None", "website": "None", "summary": "None", "logo": "None", "latitude": 43.63074476850956, "longitude": -79.66267451107984}, "899721369RR0001": {"name": "PHARMACIENS SANS FRONTIERES CANADA", "designationCode": "C", "categoryCode": "11", "address": "106 - 7255 RUE ALEXANDRA", "city": "MONTREAL", "province": "QC", "country": "CA", "postalCode": "H2R2Y9", "twitter": "None", "instagram": "None", "facebook": "None", "youtube": "None", "website": "None", "summary": "None", "logo": "None", "latitude": 45.533064257573926, "longitude": -73.62167068483474}, "894331669RR0001": {"name": "PHEASANTS FOREVER CANADA, INC.", "designationCode": "C", "categoryCode": "54", "address": "#307,579-3RD STREET SE", "city": "MEDICINE HAT", "province": "AB", "country": "CA", "postalCode": "T1A0H2", "twitter": "None", "instagram": "None", "facebook": "None", "youtube": "None", "website": "None", "summary": "None", "logo": "None", "latitude": 50.03965025783374, "longitude": -110.6759232403486}, "119092427RR0001": {"name": "PHELPS UNITED CHURCH", "designationCode": "C", "categoryCode": "44", "address": "5 CHURCH ROAD RR#1", "city": "REDBRIDGE", "province": "ON", "country": "CA", "postalCode": "P0H2A0", "twitter": "None", "instagram": "None", "facebook": "None", "youtube": "None", "website": "None", "summary": "None", "logo": "None", "latitude": 46.10956974631613, "longitude": -79.2374465886727}, "866257322RR0001": {"name": "PHIL LEWIS WORLD EVANGELISM NETWORK", "designationCode": "C", "categoryCode": "47", "address": "22 DYERHAM DRIVE", "city": "AJAX", "province": "ON", "country": "CA", "postalCode": "L1Z0K3", "twitter": "None", "instagram": "None", "facebook": "None", "youtube": "None", "website": "None", "summary": "None", "logo": "None", "latitude": 43.89035800167344, "longitude": -79.02150109729347}, "107842106RR0001": {"name": "PHIL THOMPSON MEMORIAL DAY CARE SOCIETY", "designationCode": "C", "categoryCode": "20", "address": "BOX 577", "city": "QUATHIASKI COVE", "province": "BC", "country": "CA", "postalCode": "V0P1N0", "twitter": "None", "instagram": "None", "facebook": "None", "youtube": "None", "website": "None", "summary": "None", "logo": "None", "latitude": 50.042146929765416, "longitude": -125.2168640925508}, "894777150RR0001": {"name": "PHILADELPHIA CHURCH OF GOD (CANADA)", "designationCode": "C", "categoryCode": "39", "address": "PO BOX 400", "city": "CAMPBELLVILLE", "province": "ON", "country": "CA", "postalCode": "L0P1B0", "twitter": "None", "instagram": "None", "facebook": "None", "youtube": "None", "website": "None", "summary": "None", "logo": "None", "latitude": 43.530693000000056, "longitude": -80.04475699999993}, "135139525RR0001": {"name": "PHILADELPHIA CHURCH OF VANCOUVER SOCIETY", "designationCode": "C", "categoryCode": "39", "address": "14 - 15243 91 AVE", "city": "SURREY", "province": "BC", "country": "CA", "postalCode": "V3R9K2", "twitter": "None", "instagram": "None", "facebook": "None", "youtube": "None", "website": "None", "summary": "None", "logo": "None", "latitude": 49.1683464893242, "longitude": -122.79984236081135}, "119092450RR0001": {"name": "PHILADELPHIA MENNONITE BRETHREN CHURCH", "designationCode": "C", "categoryCode": "34", "address": "P.O. BOX 1091", "city": "WATROUS", "province": "SK", "country": "CA", "postalCode": "S0K4T0", "twitter": "None", "instagram": "None", "facebook": "None", "youtube": "None", "website": "None", "summary": "None", "logo": "None", "latitude": 51.719579978192066, "longitude": -105.4459035}, "870318730RR0001": {"name": "PHILADELPHIA PENTECOSTAL TABERNACLE", "designationCode": "C", "categoryCode": "36", "address": "926 COUNTY RD 2", "city": "CARDINAL", "province": "ON", "country": "CA", "postalCode": "K0E1E0", "twitter": "None", "instagram": "None", "facebook": "None", "youtube": "None", "website": "None", "summary": "None", "logo": "None", "latitude": 44.78201753137643, "longitude": -75.39698620881464}, "858807563RR0001": {"name": "PHILADELPHIA ROMANIAN PENTECOSTAL CHURCH", "designationCode": "C", "categoryCode": "36", "address": "546 MONTROSE STREET NORTH", "city": "CAMBRIDGE", "province": "ON", "country": "CA", "postalCode": "N3H2P6", "twitter": "None", "instagram": "None", "facebook": "None", "youtube": "None", "website": "None", "summary": "None", "logo": "None", "latitude": 43.39546124233915, "longitude": -80.34146704414555}, "107797383RR0078": {"name": "PHILADELPHIA SEVENTH-DAY ADVENTIST CHURCH", "designationCode": "C", "categoryCode": "41", "address": "65 GRAND MARSHALL DR", "city": "SCARBROROUGH", "province": "ON", "country": "CA", "postalCode": "M1B5N6", "twitter": "None", "instagram": "None", "facebook": "None", "youtube": "None", "website": "None", "summary": "None", "logo": "None", "latitude": 43.80266332113787, "longitude": -79.1946403218886}, "119092484RR0001": {"name": "PHILAE TEMPLE CRIPPLED CHILDREN TRAVEL FUND IN TRUST", "designationCode": "C", "categoryCode": "65", "address": "PO BOX 9050 STN A             STATION A", "city": "HALIFAX", "province": "NS", "country": "CA", "postalCode": "B3K5M7", "twitter": "None", "instagram": "None", "facebook": "None", "youtube": "None", "website": "None", "summary": "None", "logo": "None", "latitude": 44.645478000000054, "longitude": -63.576552499999934}, "892952128RR0001": {"name": "PHILANTHROPIC FOUNDATIONS CANADA FONDATIONS PHILANTHROPIQUES CANADA", "designationCode": "C", "categoryCode": "59", "address": "720 - 615 BOUL RENE-LEVESQUE O", "city": "MONTREAL", "province": "QC", "country": "CA", "postalCode": "H3B1P5", "twitter": "None", "instagram": "None", "facebook": "None", "youtube": "None", "website": "None", "summary": "None", "logo": "None", "latitude": 45.50281258618496, "longitude": -73.56671187818093}, "864262530RR0001": {"name": "PHILHARMONIE JEUNESSE DE MONTREAL", "designationCode": "C", "categoryCode": "22", "address": "1965 BOULEVARD LAIRD", "city": "MONT-ROYAL", "province": "QC", "country": "CA", "postalCode": "H3P2V2", "twitter": "None", "instagram": "None", "facebook": "None", "youtube": "None", "website": "None", "summary": "None", "logo": "None", "latitude": 45.52328856174628, "longitude": -73.64742289803199}, "887227213RR0001": {"name": "PHILIP & LINDA ARMSTRONG FOUNDATION", "designationCode": "B", "categoryCode": "03", "address": "PH - 6 77 AVENUE ROAD", "city": "TORONTO", "province": "ON", "country": "CA", "postalCode": "M5R3R8", "twitter": "None", "instagram": "None", "facebook": "None", "youtube": "None", "website": "None", "summary": "None", "logo": "None", "latitude": 43.671626349443045, "longitude": -79.39529872600878}, "863201935RR0001": {"name": "PHILIP AND HANNAH REICHMANN FAMILY FOUNDATION", "designationCode": "B", "categoryCode": "03", "address": "98 PRUE AVENUE", "city": "TORONTO", "province": "ON", "country": "CA", "postalCode": "M6B1R5", "twitter": "None", "instagram": "None", "facebook": "None", "youtube": "None", "website": "None", "summary": "None", "logo": "None", "latitude": 43.70791517626506, "longitude": -79.43541575465974}, "870363835RR0001": {"name": "PHILIP T. BRODERSEN FOUNDATION INC.", "designationCode": "B", "categoryCode": "03", "address": "17 CROSSWINDS CRESCENT", "city": "ROTHESAY", "province": "NB", "country": "CA", "postalCode": "E2E0P6", "twitter": "None", "instagram": "None", "facebook": "None", "youtube": "None", "website": "None", "summary": "None", "logo": "None", "latitude": 45.38364255063775, "longitude": -65.9805799926424}, "119288918RR0624": {"name": "PHILIPPI CONGREGATION OF JEHOVAH'S WITNESSES, MONTREAL, QUEBEC", "designationCode": "C", "categoryCode": "61", "address": "540-96 AVE.", "city": "CHOMEDY-LAVAL", "province": "QC", "country": "CA", "postalCode": "H7W3V8", "twitter": "None", "instagram": "None", "facebook": "None", "youtube": "None", "website": "None", "summary": "None", "logo": "None", "latitude": 45.53356348153391, "longitude": -73.75773554789646}, "119092526RR0001": {"name": "PHILIPPINE HERITAGE BAND", "designationCode": "C", "categoryCode": "22", "address": "1 PROMENADE CIRCLE            P.O. BOX 912", "city": "THORNHILL", "province": "ON", "country": "CA", "postalCode": "L4J4P8", "twitter": "None", "instagram": "None", "facebook": "None", "youtube": "None", "website": "None", "summary": "None", "logo": "None", "latitude": 43.80919830898373, "longitude": -79.4530287868}, "894517580RR0001": {"name": "PHILIPPINE INTERNATIONAL CHURCH", "designationCode": "C", "categoryCode": "31", "address": "1543 AUBIN RD", "city": "WINDSOR", "province": "ON", "country": "CA", "postalCode": "N8Y4G1", "twitter": "None", "instagram": "None", "facebook": "None", "youtube": "None", "website": "None", "summary": "None", "logo": "None", "latitude": 42.31486217539969, "longitude": -82.98314232809143}, "873253090RR0001": {"name": "PHILIPPINE WITNESS", "designationCode": "C", "categoryCode": "39", "address": "BOX 97                        SE 4-3-5E", "city": "ROSEAU RIVER", "province": "MB", "country": "CA", "postalCode": "R0A1P0", "twitter": "None", "instagram": "None", "facebook": "None", "youtube": "None", "website": "None", "summary": "None", "logo": "None", "latitude": 49.17760800000005, "longitude": -96.82606249999994}, "889692042RR0001": {"name": "PHILIPSBURG UNITED CHURCH", "designationCode": "C", "categoryCode": "44", "address": "BOX 1334", "city": "BEDFORD", "province": "QC", "country": "CA", "postalCode": "J0J1A0", "twitter": "None", "instagram": "None", "facebook": "None", "youtube": "None", "website": "None", "summary": "None", "logo": "None", "latitude": 45.06676162231261, "longitude": -72.96488738076664}, "891812786RR0001": {"name": "PHILOXENIA - HOSPITALITY MINISTRY", "designationCode": "C", "categoryCode": "39", "address": "298 CAMILLE CRES", "city": "WATERLOO", "province": "ON", "country": "CA", "postalCode": "N2K3B3", "twitter": "None", "instagram": "None", "facebook": "None", "youtube": "None", "website": "None", "summary": "None", "logo": "None", "latitude": 43.496378181805, "longitude": -80.5005100547927}, "119092625RR0001": {"name": "PHILPOTT MEMORIAL CHURCH", "designationCode": "C", "categoryCode": "39", "address": "84 YORK BLVD", "city": "HAMILTON", "province": "ON", "country": "CA", "postalCode": "L8R1R6", "twitter": "None", "instagram": "None", "facebook": "None", "youtube": "None", "website": "None", "summary": "None", "logo": "None", "latitude": 43.25967197919664, "longitude": -79.87161569663573}, "859187841RR0001": {"name": "PHO MINH TEMPLE", "designationCode": "C", "categoryCode": "35", "address": "903 PARENT AVENUE", "city": "WINDSOR", "province": "ON", "country": "CA", "postalCode": "N9A2E2", "twitter": "None", "instagram": "None", "facebook": "None", "youtube": "None", "website": "None", "summary": "None", "logo": "None", "latitude": 42.31525733720937, "longitude": -83.02173128951445}, "887657260RR0001": {"name": "PHO-HIEN BUDDHIST COMMUNITY TEMPLE", "designationCode": "C", "categoryCode": "35", "address": "297 GARYRAY DRIVE", "city": "TORONTO", "province": "ON", "country": "CA", "postalCode": "M9L1P2", "twitter": "None", "instagram": "None", "facebook": "None", "youtube": "None", "website": "None", "summary": "None", "logo": "None", "latitude": 43.768760797622804, "longitude": -79.5405284018698}, "138251418RR0001": {"name": "PHOBIES-ZERO", "designationCode": "C", "categoryCode": "09", "address": "CP 83 SUCC BUREAU-CHEF", "city": "SAINTE-JULIE", "province": "QC", "country": "CA", "postalCode": "J3E1X5", "twitter": "None", "instagram": "None", "facebook": "None", "youtube": "None", "website": "None", "summary": "None", "logo": "None", "latitude": 45.60331200000006, "longitude": -73.32863299999994}, "108092487RR0001": {"name": "PHOENIX CHILD CENTRE", "designationCode": "C", "categoryCode": "20", "address": "625 SENECA HILL DRIVE", "city": "WILLOWDALE", "province": "ON", "country": "CA", "postalCode": "M2J2W6", "twitter": "None", "instagram": "None", "facebook": "None", "youtube": "None", "website": "None", "summary": "None", "logo": "None", "latitude": 43.79107570356066, "longitude": -79.35067822851894}, "892451931RR0001": {"name": "PHOENIX DRUG & ALCOHOL RECOVERY AND EDUCATION SOCIETY", "designationCode": "C", "categoryCode": "57", "address": "13686 94A AVE", "city": "SURREY", "province": "BC", "country": "CA", "postalCode": "V3V1N1", "twitter": "None", "instagram": "None", "facebook": "None", "youtube": "None", "website": "None", "summary": "None", "logo": "None", "latitude": 49.174696499567304, "longitude": -122.84330302553522}, "884969965RR0001": {"name": "PHOENIX FOUNDATION OF THE BOUNDARY COMMUNITIES", "designationCode": "A", "categoryCode": "03", "address": "P.O. BOX 2020", "city": "GRAND FORKS", "province": "BC", "country": "CA", "postalCode": "V0H1H0", "twitter": "None", "instagram": "None", "facebook": "None", "youtube": "None", "website": "None", "summary": "None", "logo": "None", "latitude": 49.03245000000004, "longitude": -118.44297999999998}, "135866481RR0001": {"name": "PHOENIX HOUSE FOR YOUTH INC.", "designationCode": "C", "categoryCode": "59", "address": "4824 ROCKDALE RD  RR 3", "city": "NAVAN", "province": "ON", "country": "CA", "postalCode": "K4B1J1", "twitter": "None", "instagram": "None", "facebook": "None", "youtube": "None", "website": "None", "summary": "None", "logo": "None", "latitude": 45.38575308399285, "longitude": -75.36897385578823}, "867523490RR0001": {"name": "PHOENIX MANOR SOCIETY", "designationCode": "C", "categoryCode": "01", "address": "BOX 2020 619 CENTRAL AVENUE", "city": "GRAND FORKS", "province": "BC", "country": "CA", "postalCode": "V0H1H0", "twitter": "None", "instagram": "None", "facebook": "None", "youtube": "None", "website": "None", "summary": "None", "logo": "None", "latitude": 49.03255795730428, "longitude": -118.44291886839062}, "891200347RR0001": {"name": "PHOENIX OUTDOOR EDUCATION CENTER TRUST", "designationCode": "C", "categoryCode": "29", "address": "BOX 2428", "city": "GRAND FORKS", "province": "BC", "country": "CA", "postalCode": "V0H1H0", "twitter": "None", "instagram": "None", "facebook": "None", "youtube": "None", "website": "None", "summary": "None", "logo": "None", "latitude": 49.032020000000045, "longitude": -118.43659999999994}, "891199945RR0001": {"name": "PHOENIX PLACE:STAGE II HOUSING FOR VICTIMS OF DOMESTIC VIOLENCE - HAMILTON-WENTWORTH", "designationCode": "C", "categoryCode": "09", "address": "PO BOX 58512", "city": "HAMILTON", "province": "ON", "country": "CA", "postalCode": "L8N4G6", "twitter": "None", "instagram": "None", "facebook": "None", "youtube": "None", "website": "None", "summary": "None", "logo": "None", "latitude": 43.261962000000054, "longitude": -79.88800399999994}, "850250341RR0001": {"name": "PHOENIX PLAYERS INC.", "designationCode": "C", "categoryCode": "22", "address": "NEPEAN CREATIVE ARTS CENTRE   35 STAFFORD ROAD", "city": "OTTAWA", "province": "ON", "country": "CA", "postalCode": "K2H8V8", "twitter": "None", "instagram": "None", "facebook": "None", "youtube": "None", "website": "None", "summary": "None", "logo": "None", "latitude": 45.329087005222796, "longitude": -75.82228283524746}, "107842221RR0001": {"name": "PHOENIX RESIDENTIAL SOCIETY", "designationCode": "C", "categoryCode": "01", "address": "2035 B OSLER STREET", "city": "REGINA", "province": "SK", "country": "CA", "postalCode": "S4P1W5", "twitter": "None", "instagram": "None", "facebook": "None", "youtube": "None", "website": "None", "summary": "None", "logo": "None", "latitude": 50.446430465722216, "longitude": -104.60485940143712}}