{"119265536RR0001": {"name": "\"TONARIGUMI\" LETHBRIDGE & DISTRICT JAPANESE SENIOR CITIZENS DROP IN CENTRE", "designationCode": "C", "categoryCode": "56", "address": "470 - 40TH STREET SOUTH", "city": "LETHBRIDGE", "province": "AB", "country": "CA", "postalCode": "T1J3Z5", "twitter": "None", "instagram": "None", "facebook": "None", "youtube": "None", "website": "None", "summary": "None", "logo": "None", "latitude": 49.69387825145711, "longitude": -112.78437250187498}, "892373978RR0001": {"name": "\"VOICE TO THE NATIONS\" CHRISTIAN MISSION INC", "designationCode": "C", "categoryCode": "47", "address": "167 HILLSBOROUGH STREET", "city": "CHARLOTTETOWN", "province": "PE", "country": "CA", "postalCode": "C1A4W8", "twitter": "None", "instagram": "None", "facebook": "None", "youtube": "None", "website": "None", "summary": "None", "logo": "None", "latitude": 46.23840385622371, "longitude": -63.12496193978295}, "898045125RR0001": {"name": "\"WOMEN ALIKE\" (BREAST CANCER SURVIVORS) SOCIETY", "designationCode": "C", "categoryCode": "11", "address": "PO BOX 254 STN MAIN", "city": "NEW GLASGOW", "province": "NS", "country": "CA", "postalCode": "B2H5E3", "twitter": "None", "instagram": "None", "facebook": "None", "youtube": "None", "website": "None", "summary": "None", "logo": "None", "latitude": 45.591837000000055, "longitude": -62.643414499999935}, "127615003RR0001": {"name": "\"WORKLINK\" EMPLOYMENT SOCIETY", "designationCode": "C", "categoryCode": "59", "address": "202 - 3179 JACKLIN RD", "city": "VICTORIA", "province": "BC", "country": "CA", "postalCode": "V9B3Y7", "twitter": "None", "instagram": "None", "facebook": "None", "youtube": "None", "website": "None", "summary": "None", "logo": "None", "latitude": 48.43465626504709, "longitude": -123.51476967063915}, "887119121RR0001": {"name": "\"YOUR STRENGTH-IS-OUR STRENGTH \"CLUB\" INC.\"", "designationCode": "C", "categoryCode": "09", "address": "P.O. BOX 9                    3 ANNIES AVE", "city": "PETERVIEW", "province": "NL", "country": "CA", "postalCode": "A0H1Y0", "twitter": "None", "instagram": "None", "facebook": "None", "youtube": "None", "website": "None", "summary": "None", "logo": "None", "latitude": 49.12325573855865, "longitude": -55.346473046839364}, "772912291RR0001": {"name": "acte d'Amour !", "designationCode": "C", "categoryCode": "09", "address": "5 - 228 RUE PIE-XII", "city": "MAGOG", "province": "QC", "country": "CA", "postalCode": "J1X4C2", "twitter": "None", "instagram": "None", "facebook": "None", "youtube": "None", "website": "None", "summary": "None", "logo": "None", "latitude": 45.287452593658124, "longitude": -72.11786201107984}, "835850561RR0001": {"name": "ca-r-ma.org - CAT RESCUE, MARITIMES", "designationCode": "C", "categoryCode": "54", "address": "279 BEAVER MEADOW RD          RR 1", "city": "ANTIGONISH", "province": "NS", "country": "CA", "postalCode": "B2G2K8", "twitter": "None", "instagram": "None", "facebook": "None", "youtube": "None", "website": "None", "summary": "None", "logo": "None", "latitude": 45.56058549826832, "longitude": -62.12124942477931}, "851095851RR0001": {"name": "catSnip", "designationCode": "C", "categoryCode": "54", "address": "12 JOHN A. TRENHOLM", "city": "UPPER CAPE", "province": "NB", "country": "CA", "postalCode": "E4M2R6", "twitter": "None", "instagram": "None", "facebook": "None", "youtube": "None", "website": "None", "summary": "None", "logo": "None", "latitude": 46.055542780168174, "longitude": -64.0423284315905}, "893208157RR0001": {"name": "c2Sea Evangelistic Association and Network", "designationCode": "C", "categoryCode": "39", "address": "999 SYDENHAM ROAD", "city": "KINGSTON", "province": "ON", "country": "CA", "postalCode": "K7M3L8", "twitter": "None", "instagram": "None", "facebook": "None", "youtube": "None", "website": "None", "summary": "None", "logo": "None", "latitude": 44.264138403312124, "longitude": -76.54414839863757}, "833169550RR0001": {"name": "eatART Foundation", "designationCode": "C", "categoryCode": "59", "address": "1449 EAST 10TH AVENUE", "city": "VANCOUVER", "province": "BC", "country": "CA", "postalCode": "V5N1X4", "twitter": "None", "instagram": "None", "facebook": "None", "youtube": "None", "website": "None", "summary": "None", "logo": "None", "latitude": 49.26145049321932, "longitude": -123.07456308090484}, "849154497RR0001": {"name": "eConcordia.com", "designationCode": "C", "categoryCode": "20", "address": "700-1250 RUE GUY", "city": "MONTREAL", "province": "QC", "country": "CA", "postalCode": "H3H2T4", "twitter": "None", "instagram": "None", "facebook": "None", "youtube": "None", "website": "None", "summary": "None", "logo": "None", "latitude": 45.49478074242606, "longitude": -73.57730353817293}, "118948777RR0001": {"name": "groupe scout Cath\u00e9drale-Volcan", "designationCode": "C", "categoryCode": "29", "address": "C.P. 513", "city": "ST-HYACINTHE", "province": "QC", "country": "CA", "postalCode": "J2S7P5", "twitter": "None", "instagram": "None", "facebook": "None", "youtube": "None", "website": "None", "summary": "None", "logo": "None", "latitude": 45.62664000000005, "longitude": -72.94719049999993}, "843548777RR0001": {"name": "homelesspartners.com", "designationCode": "C", "categoryCode": "03", "address": "127 - 75 SONGHEES RD", "city": "VICTORIA", "province": "BC", "country": "CA", "postalCode": "V9A7M5", "twitter": "None", "instagram": "None", "facebook": "None", "youtube": "None", "website": "None", "summary": "None", "logo": "None", "latitude": 48.427035172341256, "longitude": -123.38006102031243}, "850492976RR0001": {"name": "infinite WOOFS Animal Rescue Society (iWars)", "designationCode": "C", "categoryCode": "54", "address": "16716 113 AVE NW", "city": "EDMONTON", "province": "AB", "country": "CA", "postalCode": "T5M2X3", "twitter": "None", "instagram": "None", "facebook": "None", "youtube": "None", "website": "None", "summary": "None", "logo": "None", "latitude": 53.56144156021429, "longitude": -113.60894478673163}, "814552840RR0001": {"name": "iCompassion Foundation International", "designationCode": "C", "categoryCode": "09", "address": "83 CHRISTIE ST", "city": "TORONTO", "province": "ON", "country": "CA", "postalCode": "M6G3B1", "twitter": "None", "instagram": "None", "facebook": "None", "youtube": "None", "website": "None", "summary": "None", "logo": "None", "latitude": 43.66540558979163, "longitude": -79.41912896361607}, "824882849RR0001": {"name": "iHealthSS Inc.", "designationCode": "B", "categoryCode": "11", "address": "150 GATESHEAD CRESCENT        UNIT 21", "city": "STONEY CREEK", "province": "ON", "country": "CA", "postalCode": "L8G4A7", "twitter": "None", "instagram": "None", "facebook": "None", "youtube": "None", "website": "None", "summary": "None", "logo": "None", "latitude": 43.221654811212794, "longitude": -79.74125507152803}, "108058066RR0001": {"name": "kcs Association for Early Learning, Special Needs, and Family Supports", "designationCode": "C", "categoryCode": "20", "address": "4725 43 ST", "city": "SYLVAN LAKE", "province": "AB", "country": "CA", "postalCode": "T4S1M3", "twitter": "None", "instagram": "None", "facebook": "None", "youtube": "None", "website": "None", "summary": "None", "logo": "None", "latitude": 52.30531758090484, "longitude": -114.08534707675082}, "129930228RR0036": {"name": "l'Unit\u00e9 pastorale Notre-Dame-de-la-Fraternit\u00e9", "designationCode": "C", "categoryCode": "38", "address": "678 RUE PRINCIPALE", "city": "CLAIR", "province": "NB", "country": "CA", "postalCode": "E7A2H4", "twitter": "None", "instagram": "None", "facebook": "None", "youtube": "None", "website": "None", "summary": "None", "logo": "None", "latitude": 47.255271923751074, "longitude": -68.60192139221448}, "829000181RR0001": {"name": "love a village mission", "designationCode": "C", "categoryCode": "09", "address": "190 CASSANDRA BOULEVARD", "city": "TORONTO", "province": "ON", "country": "CA", "postalCode": "M3A1T3", "twitter": "None", "instagram": "None", "facebook": "None", "youtube": "None", "website": "None", "summary": "None", "logo": "None", "latitude": 43.753753150729835, "longitude": -79.32217834139297}, "107353682RR0001": {"name": "missions 3D threshold", "designationCode": "C", "categoryCode": "49", "address": "1977 SNOW VALLEY RD", "city": "MINESING", "province": "ON", "country": "CA", "postalCode": "L9X0H3", "twitter": "None", "instagram": "None", "facebook": "None", "youtube": "None", "website": "None", "summary": "None", "logo": "None", "latitude": 44.419742843181986, "longitude": -79.7859655151192}, "844209312RR0001": {"name": "myChurch", "designationCode": "C", "categoryCode": "39", "address": "1159B LONGFIELD DRIVE", "city": "OTTAWA", "province": "ON", "country": "CA", "postalCode": "K2J5G3", "twitter": "None", "instagram": "None", "facebook": "None", "youtube": "None", "website": "None", "summary": "None", "logo": "None", "latitude": 45.27222123548226, "longitude": -75.73762824589002}, "784805293RR0001": {"name": "myTeam Triumph Canada - Toronto", "designationCode": "C", "categoryCode": "56", "address": "1481 THORNDYKE CRES", "city": "MISSISSAUGA", "province": "ON", "country": "CA", "postalCode": "L4X1R4", "twitter": "None", "instagram": "None", "facebook": "None", "youtube": "None", "website": "None", "summary": "None", "logo": "None", "latitude": 43.6171353294764, "longitude": -79.59043572038195}, "805878964RR0001": {"name": "newchoir", "designationCode": "C", "categoryCode": "22", "address": "120 WINCHESTER STREET", "city": "TORONTO", "province": "ON", "country": "CA", "postalCode": "M4X1B4", "twitter": "None", "instagram": "None", "facebook": "None", "youtube": "None", "website": "None", "summary": "None", "logo": "None", "latitude": 43.66669511408613, "longitude": -79.36493648779498}, "774572929RR0001": {"name": "refuge Kitty-Kat", "designationCode": "C", "categoryCode": "54", "address": "2014 RUE SAINT-CHRISTOPHE", "city": "MONTREAL", "province": "QC", "country": "CA", "postalCode": "H2L3X2", "twitter": "None", "instagram": "None", "facebook": "None", "youtube": "None", "website": "None", "summary": "None", "logo": "None", "latitude": 45.51855183735359, "longitude": -73.564375913411}, "742675523RR0001": {"name": "reStart", "designationCode": "C", "categoryCode": "59", "address": "14 LYNDBROOK CRES", "city": "BRAMPTON", "province": "ON", "country": "CA", "postalCode": "L6P2P1", "twitter": "None", "instagram": "None", "facebook": "None", "youtube": "None", "website": "None", "summary": "None", "logo": "None", "latitude": 43.776329280050746, "longitude": -79.69575330642267}, "829377639RR0001": {"name": "skirtsAfire Society", "designationCode": "C", "categoryCode": "22", "address": "9911 83 ST", "city": "EDMONTON", "province": "AB", "country": "CA", "postalCode": "T6A3N3", "twitter": "None", "instagram": "None", "facebook": "None", "youtube": "None", "website": "None", "summary": "None", "logo": "None", "latitude": 53.53891116180969, "longitude": -113.45480380013295}, "845378009RR0001": {"name": "the equality effect", "designationCode": "C", "categoryCode": "59", "address": "720 BATHURST ST", "city": "TORONTO", "province": "ON", "country": "CA", "postalCode": "M5S2R4", "twitter": "None", "instagram": "None", "facebook": "None", "youtube": "None", "website": "None", "summary": "None", "logo": "None", "latitude": 43.66323143574358, "longitude": -79.41047606191914}, "850010083RR0001": {"name": "the modern.toronto inc.", "designationCode": "C", "categoryCode": "50", "address": "SUITE 211                     1153 QUEEN ST W", "city": "TORONTO", "province": "ON", "country": "CA", "postalCode": "M6J1J4", "twitter": "None", "instagram": "None", "facebook": "None", "youtube": "None", "website": "None", "summary": "None", "logo": "None", "latitude": 43.64293677266449, "longitude": -79.42491446404877}, "888726742RR0001": {"name": "the Society Saint-Vincent de Paul - St. Francis de Sales Conference", "designationCode": "C", "categoryCode": "09", "address": "434 SECOND STREET WEST", "city": "CORNWALL", "province": "ON", "country": "CA", "postalCode": "K6J1H1", "twitter": "None", "instagram": "None", "facebook": "None", "youtube": "None", "website": "None", "summary": "None", "logo": "None", "latitude": 45.01567759391792, "longitude": -74.73857050124074}, "107406316RR0056": {"name": "theStory", "designationCode": "C", "categoryCode": "39", "address": "179 CHRISTINA STREET NORTH", "city": "SARNIA", "province": "ON", "country": "CA", "postalCode": "N7T5T8", "twitter": "None", "instagram": "None", "facebook": "None", "youtube": "None", "website": "None", "summary": "None", "logo": "None", "latitude": 42.9730110293089, "longitude": -82.40715445210796}, "758041727RR0001": {"name": "the180 Church", "designationCode": "C", "categoryCode": "39", "address": "3190 RUE DELAUNAY", "city": "LAVAL", "province": "QC", "country": "CA", "postalCode": "H7L5E1", "twitter": "None", "instagram": "None", "facebook": "None", "youtube": "None", "website": "None", "summary": "None", "logo": "None", "latitude": 45.58617063056164, "longitude": -73.7582178306885}, "847408705RR0001": {"name": "un et un font mille", "designationCode": "C", "categoryCode": "22", "address": "5735 RUE DE BORDEAUX", "city": "MONTREAL", "province": "QC", "country": "CA", "postalCode": "H2G2R2", "twitter": "None", "instagram": "None", "facebook": "None", "youtube": "None", "website": "None", "summary": "None", "logo": "None", "latitude": 45.540996097149225, "longitude": -73.58666159088816}, "845431451RR0001": {"name": "uTurn Project Inc.", "designationCode": "C", "categoryCode": "09", "address": "230 APPLEGLEN PLACE SE", "city": "CALGARY", "province": "AB", "country": "CA", "postalCode": "T2A7V7", "twitter": "None", "instagram": "None", "facebook": "None", "youtube": "None", "website": "None", "summary": "None", "logo": "None", "latitude": 51.05125031193394, "longitude": -113.92600243352187}, "118775840RR0001": {"name": "A & A KING FAMILY FOUNDATION", "designationCode": "B", "categoryCode": "03", "address": "77 BLOOR STREET WEST          SUITE 1704", "city": "TORONTO", "province": "ON", "country": "CA", "postalCode": "M5S1M2", "twitter": "None", "instagram": "None", "facebook": "None", "youtube": "None", "website": "None", "summary": "None", "logo": "None", "latitude": 43.66957679430459, "longitude": -79.39000621980503}, "801549833RR0001": {"name": "A & M Green Foundation", "designationCode": "B", "categoryCode": "03", "address": "64 MERTON ST", "city": "TORONTO", "province": "ON", "country": "CA", "postalCode": "M4S1A1", "twitter": "None", "instagram": "None", "facebook": "None", "youtube": "None", "website": "None", "summary": "None", "logo": "None", "latitude": 43.696549191268716, "longitude": -79.39413654705973}, "106688377RR0001": {"name": "A & O: Support Services for Older Adults Inc.", "designationCode": "C", "categoryCode": "09", "address": "200 280 SMITH ST", "city": "WINNIPEG", "province": "MB", "country": "CA", "postalCode": "R3C1K2", "twitter": "None", "instagram": "None", "facebook": "None", "youtube": "None", "website": "None", "summary": "None", "logo": "None", "latitude": 49.889618529684356, "longitude": -97.13985366263815}, "854719259RR0001": {"name": "A cup for Africa Mission", "designationCode": "C", "categoryCode": "47", "address": "PO BOX 327 STN MAIN", "city": "RUSSELL", "province": "ON", "country": "CA", "postalCode": "K4R1E1", "twitter": "None", "instagram": "None", "facebook": "None", "youtube": "None", "website": "None", "summary": "None", "logo": "None", "latitude": 45.257618391264984, "longitude": -75.35962961167314}, "131442022RR0001": {"name": "A B C MONTESSORI SCHOOL INC", "designationCode": "C", "categoryCode": "20", "address": "BOX 242-162 2025 CORYDON AVE.", "city": "WINNIPEG", "province": "MB", "country": "CA", "postalCode": "R3P0N5", "twitter": "None", "instagram": "None", "facebook": "None", "youtube": "None", "website": "None", "summary": "None", "logo": "None", "latitude": 49.86654052322662, "longitude": -97.21201206688214}, "800994006RR0001": {"name": "A Better World Helping Hands Canada", "designationCode": "C", "categoryCode": "20", "address": "#103 5033 52ND STREET", "city": "LACOMBE", "province": "AB", "country": "CA", "postalCode": "T4L2A6", "twitter": "None", "instagram": "None", "facebook": "None", "youtube": "None", "website": "None", "summary": "None", "logo": "None", "latitude": 52.46439350291419, "longitude": -113.73348891531559}, "848640298RR0001": {"name": "A Blaze of Glory Ministries", "designationCode": "C", "categoryCode": "39", "address": "998 EAGLE CR.", "city": "LONDON", "province": "ON", "country": "CA", "postalCode": "N5Z4K6", "twitter": "None", "instagram": "None", "facebook": "None", "youtube": "None", "website": "None", "summary": "None", "logo": "None", "latitude": 42.96142641661366, "longitude": -81.21153688037397}, "835857525RR0001": {"name": "A BETTER LIFE DOG RESCUE SOCIETY (ABLDR)", "designationCode": "C", "categoryCode": "54", "address": "1835 136A STREET", "city": "SURREY", "province": "BC", "country": "CA", "postalCode": "V4A9E9", "twitter": "None", "instagram": "None", "facebook": "None", "youtube": "None", "website": "None", "summary": "None", "logo": "None", "latitude": 49.0355091618097, "longitude": -122.84399438455756}, "856815337RR0001": {"name": "A BOOK OF MY OWN LITERACY CAMPAIGN", "designationCode": "C", "categoryCode": "21", "address": "1168 DROUILLARD RD", "city": "WINDSOR", "province": "ON", "country": "CA", "postalCode": "N8Y2R1", "twitter": "None", "instagram": "None", "facebook": "None", "youtube": "None", "website": "None", "summary": "None", "logo": "None", "latitude": 42.31887534583637, "longitude": -82.9984033058171}, "891633901RR0001": {"name": "A BRIGHT BEGINNING CHILD CARE SOCIETY", "designationCode": "C", "categoryCode": "59", "address": "501 11601 99 ST", "city": "GRANDE PRAIRIE", "province": "AB", "country": "CA", "postalCode": "T8V6Z1", "twitter": "None", "instagram": "None", "facebook": "None", "youtube": "None", "website": "None", "summary": "None", "logo": "None", "latitude": 55.2033344484855, "longitude": -118.79235839276437}, "135699221RR0001": {"name": "A C C R O C ACCUEIL COLLECTIF DES CONJOINTS EN RELATION OPPRIMANTE ET COLERIQUE", "designationCode": "C", "categoryCode": "09", "address": "60 BOUL. DES HAUTEURS", "city": "SAINT-J\u00c9ROME", "province": "QC", "country": "CA", "postalCode": "J7Y1R4", "twitter": "None", "instagram": "None", "facebook": "None", "youtube": "None", "website": "None", "summary": "None", "logo": "None", "latitude": 45.81049814348783, "longitude": -74.01385018154518}, "132191792RR0001": {"name": "A C D O ASSOCIATON CANADIENNEE DES DONS D'ORGANES", "designationCode": "C", "categoryCode": "11", "address": "C.P. 6026", "city": "ST-JEAN-SUR-RICHELIEU", "province": "QC", "country": "CA", "postalCode": "J2W2A1", "twitter": "None", "instagram": "None", "facebook": "None", "youtube": "None", "website": "None", "summary": "None", "logo": "None", "latitude": 45.30610500000006, "longitude": -73.25031049999993}, "134210509RR0001": {"name": "A C P D -ACTION COMMITTEE OF PEOPLE WITH DISABILITIES SOCIETY", "designationCode": "C", "categoryCode": "11", "address": "948 VIEW ST", "city": "VICTORIA", "province": "BC", "country": "CA", "postalCode": "V8V3L5", "twitter": "None", "instagram": "None", "facebook": "None", "youtube": "None", "website": "None", "summary": "None", "logo": "None", "latitude": 48.42466644993916, "longitude": -123.35777806243875}, "837866797RR0001": {"name": "A Cross Mission Organization", "designationCode": "C", "categoryCode": "47", "address": "1144 SIMMONS RD", "city": "ODESSA", "province": "ON", "country": "CA", "postalCode": "K0H2H0", "twitter": "None", "instagram": "None", "facebook": "None", "youtube": "None", "website": "None", "summary": "None", "logo": "None", "latitude": 44.29459940798797, "longitude": -76.7806364926974}, "817305741RR0001": {"name": "A CAPPELLA FOUNDATION", "designationCode": "A", "categoryCode": "03", "address": "1500 WEST GEORGIA STREET      SUITE 1250   BOX 62", "city": "VANCOUVER", "province": "BC", "country": "CA", "postalCode": "V6G2Z6", "twitter": "None", "instagram": "None", "facebook": "None", "youtube": "None", "website": "None", "summary": "None", "logo": "None", "latitude": 49.2900638104334, "longitude": -123.12989899362336}, "868384462RR0001": {"name": "A CAPPELLA PLUS CHORAL SOCIETY", "designationCode": "C", "categoryCode": "59", "address": "P.O. BOX 333 STN A", "city": "NANAIMO", "province": "BC", "country": "CA", "postalCode": "V9R5L3", "twitter": "None", "instagram": "None", "facebook": "None", "youtube": "None", "website": "None", "summary": "None", "logo": "None", "latitude": 49.164243000000056, "longitude": -123.93616399999993}, "878631910RR0001": {"name": "A CAPPELLA SHOWCASE", "designationCode": "C", "categoryCode": "22", "address": "PO BOX 217 STN MAIN", "city": "MILTON", "province": "ON", "country": "CA", "postalCode": "L9T4N9", "twitter": "None", "instagram": "None", "facebook": "None", "youtube": "None", "website": "None", "summary": "None", "logo": "None", "latitude": 43.5059096815164, "longitude": -79.89099587184779}, "866863483RR0001": {"name": "A CASE OF FAITH MINISTRIES", "designationCode": "C", "categoryCode": "39", "address": "39 GRASETT CRESCENT", "city": "BARRIE", "province": "ON", "country": "CA", "postalCode": "L4N6Z8", "twitter": "None", "instagram": "None", "facebook": "None", "youtube": "None", "website": "None", "summary": "None", "logo": "None", "latitude": 44.40442431862771, "longitude": -79.72851952498696}, "874652704RR0001": {"name": "A CHANCE ANIMAL RESCUE INC.", "designationCode": "B", "categoryCode": "54", "address": "675 COUNTY ROAD 43            RR 1", "city": "OXFORD MILLS", "province": "ON", "country": "CA", "postalCode": "K0G1S0", "twitter": "None", "instagram": "None", "facebook": "None", "youtube": "None", "website": "None", "summary": "None", "logo": "None", "latitude": 44.962595178794224, "longitude": -75.76434240201183}, "887549285RR0001": {"name": "A CHILD'S VOICE FOUNDATION-LA FONDATION UNE VOIX D'ENFANT", "designationCode": "C", "categoryCode": "09", "address": "3034 PALSTAN RD               SUITE 301", "city": "MISSISSAUGA", "province": "ON", "country": "CA", "postalCode": "L4Y2Z6", "twitter": "None", "instagram": "None", "facebook": "None", "youtube": "None", "website": "None", "summary": "None", "logo": "None", "latitude": 43.60507048317869, "longitude": -79.59110099552794}, "868311739RR0001": {"name": "A COLHEITA MINISTRY", "designationCode": "C", "categoryCode": "39", "address": "1-5 BRUCE ST", "city": "CAMBRIDGE", "province": "ON", "country": "CA", "postalCode": "N1R2C8", "twitter": "None", "instagram": "None", "facebook": "None", "youtube": "None", "website": "None", "summary": "None", "logo": "None", "latitude": 43.35583154342439, "longitude": -80.3135326902591}, "879738623RR0001": {"name": "A COMPANY OF FOOLS THEATRE INC", "designationCode": "C", "categoryCode": "22", "address": "910 GLADSTONE AVE", "city": "OTTAWA", "province": "ON", "country": "CA", "postalCode": "K1R6Y4", "twitter": "None", "instagram": "None", "facebook": "None", "youtube": "None", "website": "None", "summary": "None", "logo": "None", "latitude": 45.404445060765326, "longitude": -75.71250495669118}, "754618692RR0001": {"name": "A Dollar A Day Foundation", "designationCode": "A", "categoryCode": "03", "address": "1100 - 235 WATER ST", "city": "ST. JOHN'S", "province": "NL", "country": "CA", "postalCode": "A1C1B6", "twitter": "None", "instagram": "None", "facebook": "None", "youtube": "None", "website": "None", "summary": "None", "logo": "None", "latitude": 47.56264585622371, "longitude": -52.708534597264794}, "131454415RR0001": {"name": "A DEUX MAINS INC/HEAD & HANDS INC", "designationCode": "C", "categoryCode": "09", "address": "C.P. 206  SUCCURSALE NDG", "city": "MONTR\u00c9AL", "province": "QC", "country": "CA", "postalCode": "H4A3P5", "twitter": "None", "instagram": "None", "facebook": "None", "youtube": "None", "website": "None", "summary": "None", "logo": "None", "latitude": 45.47400000000006, "longitude": -73.61589949999993}, "827288911RR0001": {"name": "A E West Charitable Foundation", "designationCode": "B", "categoryCode": "03", "address": "20 - 27019 TOWNSHIP ROAD 514", "city": "SPRUCE GROVE", "province": "AB", "country": "CA", "postalCode": "T7Y1G6", "twitter": "None", "instagram": "None", "facebook": "None", "youtube": "None", "website": "None", "summary": "None", "logo": "None", "latitude": 53.42277739303924, "longitude": -113.85190866672464}, "876444498RR0001": {"name": "A FAMILY PLACE INC./LE CERCLE FAMILIAL INC.", "designationCode": "C", "categoryCode": "09", "address": "PO BOX 193 STN CHATHAM", "city": "MIRAMICHI", "province": "NB", "country": "CA", "postalCode": "E1N3A6", "twitter": "None", "instagram": "None", "facebook": "None", "youtube": "None", "website": "None", "summary": "None", "logo": "None", "latitude": 47.03574002840439, "longitude": -65.46346654615134}, "817608961RR0001": {"name": "A Gate Called Beautiful", "designationCode": "C", "categoryCode": "15", "address": "39 WILLOW LANE", "city": "GRIMSBY", "province": "ON", "country": "CA", "postalCode": "L3M5P6", "twitter": "None", "instagram": "None", "facebook": "None", "youtube": "None", "website": "None", "summary": "None", "logo": "None", "latitude": 43.197955301431016, "longitude": -79.58457299748983}, "845220730RR0001": {"name": "A Helping Paw Animal Welfare Fund", "designationCode": "A", "categoryCode": "03", "address": "1 - 689 PARK RD", "city": "GIBSONS", "province": "BC", "country": "CA", "postalCode": "V0N1V7", "twitter": "None", "instagram": "None", "facebook": "None", "youtube": "None", "website": "None", "summary": "None", "logo": "None", "latitude": 49.40813545989383, "longitude": -123.5232820128106}, "118780006RR0001": {"name": "A K A GALLERY INCORPORATED", "designationCode": "C", "categoryCode": "22", "address": "424 20 STREET WEST", "city": "SASKATOON", "province": "SK", "country": "CA", "postalCode": "S7M0X4", "twitter": "None", "instagram": "None", "facebook": "None", "youtube": "None", "website": "None", "summary": "None", "logo": "None", "latitude": 52.1261724532574, "longitude": -106.67591983236194}, "120654421RR0001": {"name": "A L S SOCIETY OF MANITOBA INC", "designationCode": "C", "categoryCode": "09", "address": "2A - 1717 DUBLIN AVE", "city": "WINNIPEG", "province": "MB", "country": "CA", "postalCode": "R3H0H2", "twitter": "None", "instagram": "None", "facebook": "None", "youtube": "None", "website": "None", "summary": "None", "logo": "None", "latitude": 49.91169047273308, "longitude": -97.20453200859833}, "851473116RR0001": {"name": "A Life Well Lived Foundation", "designationCode": "A", "categoryCode": "03", "address": "401A - 9426 51 AVE NW", "city": "EDMONTON", "province": "AB", "country": "CA", "postalCode": "T6E5A6", "twitter": "None", "instagram": "None", "facebook": "None", "youtube": "None", "website": "None", "summary": "None", "logo": "None", "latitude": 53.48819648831365, "longitude": -113.47406099999999}, "835021205RR0001": {"name": "A Love of Tennis Inc./Pour L'Amour de Tennis", "designationCode": "C", "categoryCode": "56", "address": "25 KEYS WAY", "city": "OTTAWA", "province": "ON", "country": "CA", "postalCode": "K1G4M3", "twitter": "None", "instagram": "None", "facebook": "None", "youtube": "None", "website": "None", "summary": "None", "logo": "None", "latitude": 45.37408351933148, "longitude": -75.61698202553522}, "897370391RR0001": {"name": "A LIFE WORTH LIVING", "designationCode": "C", "categoryCode": "29", "address": "203-880 NORTH SERVICE ROAD", "city": "WINDSOR", "province": "ON", "country": "CA", "postalCode": "N8X3J5", "twitter": "None", "instagram": "None", "facebook": "None", "youtube": "None", "website": "None", "summary": "None", "logo": "None", "latitude": 42.279498556008704, "longitude": -83.00261505324745}, "818619942RR0001": {"name": "A LITTLE NIGHT MUSIC SOCIETY", "designationCode": "C", "categoryCode": "22", "address": "5832 WALLACE ST", "city": "VANCOUVER", "province": "BC", "country": "CA", "postalCode": "V6N2A4", "twitter": "None", "instagram": "None", "facebook": "None", "youtube": "None", "website": "None", "summary": "None", "logo": "None", "latitude": 49.233473748542906, "longitude": -123.19090191837401}, "858616675RR0001": {"name": "A LIVING WAY MINISTRIES", "designationCode": "C", "categoryCode": "39", "address": "26 MCCAMUS AVENUE", "city": "KIRKLAND LAKE", "province": "ON", "country": "CA", "postalCode": "P2N2J5", "twitter": "None", "instagram": "None", "facebook": "None", "youtube": "None", "website": "None", "summary": "None", "logo": "None", "latitude": 48.14691953952927, "longitude": -80.03351005384042}, "140951310RR0001": {"name": "A LOVING SPOONFUL MEALS SOCIETY", "designationCode": "C", "categoryCode": "09", "address": "1449 POWELL ST", "city": "VANCOUVER", "province": "BC", "country": "CA", "postalCode": "V5L1G8", "twitter": "None", "instagram": "None", "facebook": "None", "youtube": "None", "website": "None", "summary": "None", "logo": "None", "latitude": 49.28334605075337, "longitude": -123.07477913708634}, "862880697RR0001": {"name": "A Mine Free World Assistance Programs", "designationCode": "C", "categoryCode": "09", "address": "906 FUNG PLACE", "city": "KITCHENER", "province": "ON", "country": "CA", "postalCode": "N2A4M3", "twitter": "None", "instagram": "None", "facebook": "None", "youtube": "None", "website": "None", "summary": "None", "logo": "None", "latitude": 43.442741356656406, "longitude": -80.40939295946113}, "828292391RR0001": {"name": "A New Day - Youth & Adult Services", "designationCode": "C", "categoryCode": "09", "address": "2043 MEADOWBROOK RD", "city": "GLOUCESTER", "province": "ON", "country": "CA", "postalCode": "K1B4W7", "twitter": "None", "instagram": "None", "facebook": "None", "youtube": "None", "website": "None", "summary": "None", "logo": "None", "latitude": 45.42690250822298, "longitude": -75.6015910567546}, "872218565RR0001": {"name": "A NEW BEGINNING APOSTOLIC CHURCH", "designationCode": "C", "categoryCode": "39", "address": "61 MINTWOOD DR", "city": "NORTH YORK", "province": "ON", "country": "CA", "postalCode": "M2M3A6", "twitter": "None", "instagram": "None", "facebook": "None", "youtube": "None", "website": "None", "summary": "None", "logo": "None", "latitude": 43.80293275604473, "longitude": -79.37737495181507}, "118872068RR0001": {"name": "A P A V E C Q", "designationCode": "C", "categoryCode": "20", "address": "1584, RUE MILLET", "city": "SHERBROOKE", "province": "QC", "country": "CA", "postalCode": "J1N4J5", "twitter": "None", "instagram": "None", "facebook": "None", "youtube": "None", "website": "None", "summary": "None", "logo": "None", "latitude": 45.383839576172996, "longitude": -71.99223208826244}, "887901569RR0001": {"name": "A P H A L (ASSOCIATION DE LA PERSONNE HANDICAPEE ANTOINE LA", "designationCode": "C", "categoryCode": "09", "address": "294 RUE DE PONT", "city": "MONT-LAURIER", "province": "QC", "country": "CA", "postalCode": "J9L2R2", "twitter": "None", "instagram": "None", "facebook": "None", "youtube": "None", "website": "None", "summary": "None", "logo": "None", "latitude": 46.548731367476464, "longitude": -75.49735125088017}, "892548744RR0001": {"name": "A Post Psychiatric Leisure Experience (APPLE)", "designationCode": "C", "categoryCode": "01", "address": "211 BRONSON AVENUE", "city": "OTTAWA", "province": "ON", "country": "CA", "postalCode": "K1R6H5", "twitter": "None", "instagram": "None", "facebook": "None", "youtube": "None", "website": "None", "summary": "None", "logo": "None", "latitude": 45.41349725618897, "longitude": -75.7068905103587}, "118788116RR0001": {"name": "A PEOPLE OF PEACE COMMUNITY INC.", "designationCode": "C", "categoryCode": "49", "address": "383 AIKINS ST", "city": "WINNIPEG", "province": "MB", "country": "CA", "postalCode": "R2W4H2", "twitter": "None", "instagram": "None", "facebook": "None", "youtube": "None", "website": "None", "summary": "None", "logo": "None", "latitude": 49.92115278988984, "longitude": -97.13311377266449}, "139044820RR0001": {"name": "A PLACE CALLED HOME RESIDENCE IN LINDSAY", "designationCode": "C", "categoryCode": "01", "address": "64 LINDSAY ST SOUTH", "city": "LINDSAY", "province": "ON", "country": "CA", "postalCode": "K9V2M2", "twitter": "None", "instagram": "None", "facebook": "None", "youtube": "None", "website": "None", "summary": "None", "logo": "None", "latitude": 44.35385919886292, "longitude": -78.7339216794171}, "863188694RR0001": {"name": "A PLACE FOR US SOCIETY", "designationCode": "C", "categoryCode": "59", "address": "9662 123 ST", "city": "SURREY", "province": "BC", "country": "CA", "postalCode": "V3V4N5", "twitter": "None", "instagram": "None", "facebook": "None", "youtube": "None", "website": "None", "summary": "None", "logo": "None", "latitude": 49.178321329447755, "longitude": -122.88185000608819}, "106718489RR0001": {"name": "A PLACE TO PLAY NURSERY SCHOOL OF BLOOR WEST VILLAGE", "designationCode": "C", "categoryCode": "20", "address": "680 ANNETTE STREET", "city": "TORONTO", "province": "ON", "country": "CA", "postalCode": "M6S2C8", "twitter": "None", "instagram": "None", "facebook": "None", "youtube": "None", "website": "None", "summary": "None", "logo": "None", "latitude": 43.65899009634118, "longitude": -79.48481680143101}, "851412833RR0001": {"name": "A PORT IN THE STORM INC.", "designationCode": "C", "categoryCode": "01", "address": "PO BOX 85 RPO ST BONIFACE", "city": "WINNIPEG", "province": "MB", "country": "CA", "postalCode": "R2H3B4", "twitter": "None", "instagram": "None", "facebook": "None", "youtube": "None", "website": "None", "summary": "None", "logo": "None", "latitude": 49.891610033325556, "longitude": -97.12460004775218}, "871083846RR0001": {"name": "A Raymond Tinnerman Charity Fund", "designationCode": "A", "categoryCode": "75", "address": "686 PARKDALE AVE N", "city": "HAMILTON", "province": "ON", "country": "CA", "postalCode": "L8H5Z4", "twitter": "None", "instagram": "None", "facebook": "None", "youtube": "None", "website": "None", "summary": "None", "logo": "None", "latitude": 43.25471378876466, "longitude": -79.78437045409504}, "820087484RR0001": {"name": "A Rocha Canada Conservation Foundation", "designationCode": "C", "categoryCode": "59", "address": "1620 192 ST", "city": "SURREY", "province": "BC", "country": "CA", "postalCode": "V3Z9V2", "twitter": "None", "instagram": "None", "facebook": "None", "youtube": "None", "website": "None", "summary": "None", "logo": "None", "latitude": 49.031757140515374, "longitude": -122.6913915612008}, "866638943RR0001": {"name": "A ROCHA CANADA", "designationCode": "C", "categoryCode": "43", "address": "1620 192 ST", "city": "SURREY", "province": "BC", "country": "CA", "postalCode": "V3Z9V2", "twitter": "None", "instagram": "None", "facebook": "None", "youtube": "None", "website": "None", "summary": "None", "logo": "None", "latitude": 49.031757140515374, "longitude": -122.6913915612008}, "892750167RR0001": {"name": "A SONG FOR BRENT SOCIETY", "designationCode": "A", "categoryCode": "13", "address": "RR 8   S2C8", "city": "LETHBRIDGE", "province": "AB", "country": "CA", "postalCode": "T1J4P4", "twitter": "None", "instagram": "None", "facebook": "None", "youtube": "None", "website": "None", "summary": "None", "logo": "None", "latitude": 49.69264200000005, "longitude": -112.69386349999994}, "865193791RR0001": {"name": "A STEP AHEAD FOUNDATION", "designationCode": "C", "categoryCode": "21", "address": "4865 SUNSHINE COAST HWY", "city": "SECHELT", "province": "BC", "country": "CA", "postalCode": "V0N3A2", "twitter": "None", "instagram": "None", "facebook": "None", "youtube": "None", "website": "None", "summary": "None", "logo": "None", "latitude": 49.44951431695427, "longitude": -123.72952005652347}, "712287895RR0001": {"name": "A Tree for Every Hero", "designationCode": "C", "categoryCode": "52", "address": "7856 FIFTH LINE SOUTH", "city": "MILTON", "province": "ON", "country": "CA", "postalCode": "L9T2X8", "twitter": "None", "instagram": "None", "facebook": "None", "youtube": "None", "website": "None", "summary": "None", "logo": "None", "latitude": 43.53838792071973, "longitude": -79.92389155735691}, "877888560RR0001": {"name": "A TOPORECK MEDICAL RESEARCH FOUNDATION", "designationCode": "B", "categoryCode": "15", "address": "1 - 554 ST MARY'S RD", "city": "WINNIPEG", "province": "MB", "country": "CA", "postalCode": "R2M3L5", "twitter": "None", "instagram": "None", "facebook": "None", "youtube": "None", "website": "None", "summary": "None", "logo": "None", "latitude": 49.86381532860134, "longitude": -97.11123395766641}, "859444549RR0001": {"name": "A TORAH INFERTILITY MEDIUM OF EXCHANGE", "designationCode": "C", "categoryCode": "11", "address": "127 LAURELCREST AVENUE        SUITE B", "city": "TORONTO", "province": "ON", "country": "CA", "postalCode": "M3H2B4", "twitter": "None", "instagram": "None", "facebook": "None", "youtube": "None", "website": "None", "summary": "None", "logo": "None", "latitude": 43.74179291866248, "longitude": -79.44702539993656}, "816555478RR0001": {"name": "A TRIBUTE TO L. AND C. OF LORNE FOUNDATION INC.", "designationCode": "B", "categoryCode": "03", "address": "BOX 338", "city": "SANDY LAKE", "province": "MB", "country": "CA", "postalCode": "R0J1X0", "twitter": "None", "instagram": "None", "facebook": "None", "youtube": "None", "website": "None", "summary": "None", "logo": "None", "latitude": 50.52604802382196, "longitude": -100.17807618143935}, "118797505RR0001": {"name": "A Visit With Mrs. G. Ministries Inc.", "designationCode": "C", "categoryCode": "47", "address": "PO BOX 933", "city": "DON MILLS STATION", "province": "ON", "country": "CA", "postalCode": "M3C2T9", "twitter": "None", "instagram": "None", "facebook": "None", "youtube": "None", "website": "None", "summary": "None", "logo": "None", "latitude": 43.70566232484685, "longitude": -79.33386344904338}, "816391171RR0001": {"name": "A Voice4paws Canine Rescue Society", "designationCode": "C", "categoryCode": "54", "address": "400 - 570 GRANVILLE ST", "city": "VANCOUVER", "province": "BC", "country": "CA", "postalCode": "V6C3P1", "twitter": "None", "instagram": "None", "facebook": "None", "youtube": "None", "website": "None", "summary": "None", "logo": "None", "latitude": 49.28389665332692, "longitude": -123.11594555978436}, "888035466RR0001": {"name": "A VANCOUVER WOMEN'S CHORUS", "designationCode": "C", "categoryCode": "22", "address": "13490 ADSHEAD RD", "city": "LADYSMITH", "province": "BC", "country": "CA", "postalCode": "V9G1H6", "twitter": "None", "instagram": "None", "facebook": "None", "youtube": "None", "website": "None", "summary": "None", "logo": "None", "latitude": 49.04517706928088, "longitude": -123.8532655910809}, "892079443RR0001": {"name": "A W A R E ASSOCIATION OF WHISTLER AREA RESIDENTS FOR THE ENVIRONMENT", "designationCode": "C", "categoryCode": "59", "address": "PO BOX 1370", "city": "WHISTLER", "province": "BC", "country": "CA", "postalCode": "V0N1B0", "twitter": "None", "instagram": "None", "facebook": "None", "youtube": "None", "website": "None", "summary": "None", "logo": "None", "latitude": 50.11956600000006, "longitude": -122.95408399999994}, "892665969RR0001": {"name": "A WING & A PRAYER BIRD REHABILITATION CENTRE", "designationCode": "C", "categoryCode": "54", "address": "P O BOX 88", "city": "UTTERSON", "province": "ON", "country": "CA", "postalCode": "P0B1M0", "twitter": "None", "instagram": "None", "facebook": "None", "youtube": "None", "website": "None", "summary": "None", "logo": "None", "latitude": 45.16353600000005, "longitude": -79.44010549999993}, "868295825RR0001": {"name": "A WORD IN SEASON MINISTRIES", "designationCode": "C", "categoryCode": "39", "address": "1248 HEALEY LAKE ROAD", "city": "BRACEBRIDGE", "province": "ON", "country": "CA", "postalCode": "P1L1X3", "twitter": "None", "instagram": "None", "facebook": "None", "youtube": "None", "website": "None", "summary": "None", "logo": "None", "latitude": 45.08216416129008, "longitude": -79.19683489018439}, "118778810RR0001": {"name": "A. H. ATKINSON EDUCATION FUND INC", "designationCode": "B", "categoryCode": "23", "address": "786 KING STREET EAST", "city": "HAMILTON", "province": "ON", "country": "CA", "postalCode": "L8M1A6", "twitter": "None", "instagram": "None", "facebook": "None", "youtube": "None", "website": "None", "summary": "None", "logo": "None", "latitude": 43.25146959781307, "longitude": -79.84374561379765}, "124377185RR0001": {"name": "A. SHEILA BOYD FOUNDATION", "designationCode": "C", "categoryCode": "52", "address": "21 CANAL STREET               PO BOX 1221", "city": "BOBCAYGEON", "province": "ON", "country": "CA", "postalCode": "K0M1A0", "twitter": "None", "instagram": "None", "facebook": "None", "youtube": "None", "website": "None", "summary": "None", "logo": "None", "latitude": 44.53803693698433, "longitude": -78.54349625783374}, "852578921RR0001": {"name": "A. TYLER HARKER FOUNDATION FOR UNDIAGNOSED DISEASES", "designationCode": "B", "categoryCode": "56", "address": "21 SUNNYDALE DRIVE, WESTMOUNT", "city": "SYDNEY", "province": "NS", "country": "CA", "postalCode": "B1R1H9", "twitter": "None", "instagram": "None", "facebook": "None", "youtube": "None", "website": "None", "summary": "None", "logo": "None", "latitude": 46.14171571052458, "longitude": -60.21079258460777}, "833196157RR0001": {"name": "A.B. Harji Family Foundation", "designationCode": "B", "categoryCode": "03", "address": "2750 - 14TH AVENUE            SUITE 306", "city": "MARKHAM", "province": "ON", "country": "CA", "postalCode": "L3R0B6", "twitter": "None", "instagram": "None", "facebook": "None", "youtube": "None", "website": "None", "summary": "None", "logo": "None", "latitude": 43.8301190169942, "longitude": -79.35898787333349}, "118776160RR0001": {"name": "A.B.C. DES MANOIRS", "designationCode": "C", "categoryCode": "20", "address": "568 RUE LEON-MARTEL", "city": "TERREBONNE", "province": "QC", "country": "CA", "postalCode": "J6W2J8", "twitter": "None", "instagram": "None", "facebook": "None", "youtube": "None", "website": "None", "summary": "None", "logo": "None", "latitude": 45.69858949264242, "longitude": -73.62947508078926}}