{"892501644RR0001": {"name": "THE TRUSTEES OF THE NEW GLASCOW CEMETERY", "designationCode": "C", "categoryCode": "59", "address": "CIVIC #5955 RTE. 13 RR 2", "city": "HUNTER RIVER", "province": "PE", "country": "CA", "postalCode": "C0A1N0", "twitter": "None", "instagram": "None", "facebook": "None", "youtube": "None", "website": "None", "summary": "None", "logo": "None", "latitude": 46.42417879655495, "longitude": -63.34116504082732}, "119259984RR0001": {"name": "THE TRUSTEES OF THE OLD CEMETERY OF DUNDAS", "designationCode": "C", "categoryCode": "59", "address": "RR 3", "city": "ST. PETERS", "province": "PE", "country": "CA", "postalCode": "C0A2A0", "twitter": "None", "instagram": "None", "facebook": "None", "youtube": "None", "website": "None", "summary": "None", "logo": "None", "latitude": 46.380957798426074, "longitude": -62.8644113697396}, "119259992RR0001": {"name": "THE TRUSTEES OF THE ONSLOW CEMETERY", "designationCode": "C", "categoryCode": "59", "address": "9 MAIN STREET", "city": "TRURO", "province": "NS", "country": "CA", "postalCode": "B2N4G4", "twitter": "None", "instagram": "None", "facebook": "None", "youtube": "None", "website": "None", "summary": "None", "logo": "None", "latitude": 45.36893400251017, "longitude": -63.27282721236053}, "119260008RR0001": {"name": "THE TRUSTEES OF THE PEOPLES CEMETERY MALPEQUE", "designationCode": "C", "categoryCode": "59", "address": "KENSINGTON R.R.", "city": "MALPEQUE", "province": "PE", "country": "CA", "postalCode": "C0B1M0", "twitter": "None", "instagram": "None", "facebook": "None", "youtube": "None", "website": "None", "summary": "None", "logo": "None", "latitude": 46.53111000000007, "longitude": -63.67892999999998}, "887946119RR0001": {"name": "THE TRUSTEES OF THE R.C.A.W. INC.", "designationCode": "A", "categoryCode": "43", "address": "1495 PEMBINA HIGHWAY", "city": "WINNIPEG", "province": "MB", "country": "CA", "postalCode": "R3T2C6", "twitter": "None", "instagram": "None", "facebook": "None", "youtube": "None", "website": "None", "summary": "None", "logo": "None", "latitude": 49.83504503274859, "longitude": -97.15063124190647}, "869500611RR0001": {"name": "THE TUCKAMORE FESTIVAL INC.", "designationCode": "C", "categoryCode": "22", "address": "PO BOX 23203                  CHURCHILL SQUARE RPO", "city": "ST JOHNS", "province": "NL", "country": "CA", "postalCode": "A1B4J9", "twitter": "None", "instagram": "None", "facebook": "None", "youtube": "None", "website": "None", "summary": "None", "logo": "None", "latitude": 47.57470538694076, "longitude": -52.7226658486743}, "890819741RR0001": {"name": "THE TUCKER FULTON MEMORIAL TRUST", "designationCode": "C", "categoryCode": "21", "address": "19706-115 A AVE", "city": "PITT MEADOWS", "province": "BC", "country": "CA", "postalCode": "V3Y1P1", "twitter": "None", "instagram": "None", "facebook": "None", "youtube": "None", "website": "None", "summary": "None", "logo": "None", "latitude": 49.212205513994036, "longitude": -122.67543086081136}, "119260032RR0001": {"name": "THE TULLIBY LAKE AND DISTRICT AGRICULTURAL SOCIETY", "designationCode": "C", "categoryCode": "56", "address": "BOX 49", "city": "TULLIBY LAKE", "province": "AB", "country": "CA", "postalCode": "T0A3K0", "twitter": "None", "instagram": "None", "facebook": "None", "youtube": "None", "website": "None", "summary": "None", "logo": "None", "latitude": 53.71518000000003, "longitude": -110.15341999999998}, "869802900RR0001": {"name": "THE TUNG LIN KOK YUEN CANADA FOUNDATION", "designationCode": "B", "categoryCode": "43", "address": "215-1425 MARINE DR", "city": "WEST VANCOUVER", "province": "BC", "country": "CA", "postalCode": "V7T1B9", "twitter": "None", "instagram": "None", "facebook": "None", "youtube": "None", "website": "None", "summary": "None", "logo": "None", "latitude": 49.32812213108104, "longitude": -123.15496716722153}, "890509771RR0001": {"name": "THE TURNER FOUNDATION", "designationCode": "B", "categoryCode": "05", "address": "701 - 1155 ROBSON ST", "city": "VANCOUVER", "province": "BC", "country": "CA", "postalCode": "V6E1B5", "twitter": "None", "instagram": "None", "facebook": "None", "youtube": "None", "website": "None", "summary": "None", "logo": "None", "latitude": 49.285490237318825, "longitude": -123.12614575004345}, "826365611RR0001": {"name": "THE TWELVE SPRINGS PRESBYTERIAN CHURCH OF CALGARY", "designationCode": "C", "categoryCode": "37", "address": "1903-19TH AVENUE NW", "city": "CALGARY", "province": "AB", "country": "CA", "postalCode": "T2M1B8", "twitter": "None", "instagram": "None", "facebook": "None", "youtube": "None", "website": "None", "summary": "None", "logo": "None", "latitude": 51.06961153621105, "longitude": -114.10486191618097}, "890669922RR0001": {"name": "THE TWIN RIVERS CONGREGATION", "designationCode": "C", "categoryCode": "39", "address": "PO BOX 90", "city": "ELMA", "province": "MB", "country": "CA", "postalCode": "R0E0Z0", "twitter": "None", "instagram": "None", "facebook": "None", "youtube": "None", "website": "None", "summary": "None", "logo": "None", "latitude": 49.87456000000003, "longitude": -95.90721999999994}, "119220812RR0001": {"name": "THE TWIN ROMAN CATHOLIC PARISHES OF ST. AGNES AND ST. ANTHONY", "designationCode": "C", "categoryCode": "38", "address": "10661 82 AVE NW", "city": "EDMONTON", "province": "AB", "country": "CA", "postalCode": "T6E2A6", "twitter": "None", "instagram": "None", "facebook": "None", "youtube": "None", "website": "None", "summary": "None", "logo": "None", "latitude": 53.518035470136944, "longitude": -113.5056224701656}, "851596965RR0001": {"name": "THE TWISTED STITCHERS QUILT GUILD", "designationCode": "C", "categoryCode": "22", "address": "148 RIVERS EDGE PL", "city": "WHITBY", "province": "ON", "country": "CA", "postalCode": "L1R0G4", "twitter": "None", "instagram": "None", "facebook": "None", "youtube": "None", "website": "None", "summary": "None", "logo": "None", "latitude": 43.923399788793304, "longitude": -78.9330388273416}, "888915634RR0001": {"name": "THE TYNDALE FOUNDATION", "designationCode": "A", "categoryCode": "23", "address": "3377 BAYVIEW AVE", "city": "NORTH YORK", "province": "ON", "country": "CA", "postalCode": "M2M3S4", "twitter": "None", "instagram": "None", "facebook": "None", "youtube": "None", "website": "None", "summary": "None", "logo": "None", "latitude": 43.796829308384595, "longitude": -79.39456567017875}, "875281602RR0001": {"name": "THE TZADDIK FOUNDATION", "designationCode": "C", "categoryCode": "09", "address": "6592C CHEMIN KILDARE", "city": "COTE ST. LUC", "province": "QC", "country": "CA", "postalCode": "H4W2Z4", "twitter": "None", "instagram": "None", "facebook": "None", "youtube": "None", "website": "None", "summary": "None", "logo": "None", "latitude": 45.47720601688827, "longitude": -73.6602728221214}, "891335382RR0001": {"name": "THE U.N.F. FOUNDATION", "designationCode": "A", "categoryCode": "23", "address": "145 EVANS AVENUE, SUITE 210", "city": "TORONTO", "province": "ON", "country": "CA", "postalCode": "M8Z5X8", "twitter": "None", "instagram": "None", "facebook": "None", "youtube": "None", "website": "None", "summary": "None", "logo": "None", "latitude": 43.61887343542647, "longitude": -79.50980318870123}, "890627995RR0001": {"name": "THE UGANDA RELIEF & DEVELOPMENT ORGANIZATION (CANADA) INC. ONTARIO CHAPTER", "designationCode": "C", "categoryCode": "09", "address": "19 BRAY DRIVE", "city": "AJAX", "province": "ON", "country": "CA", "postalCode": "L1T3L8", "twitter": "None", "instagram": "None", "facebook": "None", "youtube": "None", "website": "None", "summary": "None", "logo": "None", "latitude": 43.873355211206686, "longitude": -79.03367083455498}, "889875795RR0001": {"name": "THE UKRAINIAN CANADIAN COMMUNITY CENTRE FOUNDATION OF PEEL", "designationCode": "C", "categoryCode": "56", "address": "977 PANTERA DRIVE             UNIT #2", "city": "MISSISSAUGA", "province": "ON", "country": "CA", "postalCode": "L4W2W6", "twitter": "None", "instagram": "None", "facebook": "None", "youtube": "None", "website": "None", "summary": "None", "logo": "None", "latitude": 43.63034087376618, "longitude": -79.63836973708769}, "878253210RR0001": {"name": "THE UKRAINIAN CATHOLIC BROTHERHOOD OF CANADA FOUNDATION", "designationCode": "A", "categoryCode": "03", "address": "26 LOWRY PLACE", "city": "REGINA", "province": "SK", "country": "CA", "postalCode": "S4S6K6", "twitter": "None", "instagram": "None", "facebook": "None", "youtube": "None", "website": "None", "summary": "None", "logo": "None", "latitude": 50.40791794451482, "longitude": -104.63550564296823}, "119273944RR0001": {"name": "THE UKRAINIAN CATHOLIC EPARCHY OF NEW WESTMINSTER", "designationCode": "C", "categoryCode": "38", "address": "502 FIFTH AVE", "city": "NEW WESTMINSTER", "province": "BC", "country": "CA", "postalCode": "V3L1S2", "twitter": "None", "instagram": "None", "facebook": "None", "youtube": "None", "website": "None", "summary": "None", "logo": "None", "latitude": 49.212227667257906, "longitude": -122.91754406130318}, "108147778RR0002": {"name": "THE UKRAINIAN CATHOLIC EPISCOPAL CORPORATION OF MANITOBA", "designationCode": "C", "categoryCode": "38", "address": "233 SCOTIA ST", "city": "WINNIPEG", "province": "MB", "country": "CA", "postalCode": "R2V1V7", "twitter": "None", "instagram": "None", "facebook": "None", "youtube": "None", "website": "None", "summary": "None", "logo": "None", "latitude": 49.92746675630453, "longitude": -97.11237154547321}, "108102054RR0001": {"name": "THE UKRAINIAN CATHOLIC EPISCOPAL CORPORATION OF WESTERN CANADA", "designationCode": "C", "categoryCode": "38", "address": "9645 108 AVE NW", "city": "EDMONTON", "province": "AB", "country": "CA", "postalCode": "T5H1A3", "twitter": "None", "instagram": "None", "facebook": "None", "youtube": "None", "website": "None", "summary": "None", "logo": "None", "latitude": 53.553779634456795, "longitude": -113.48966618858564}, "891194342RR0001": {"name": "THE UKRAINIAN CATHOLIC FOUNDATION OF CANADA INC.", "designationCode": "A", "categoryCode": "21", "address": "233 SCOTIA STREET", "city": "WINNIPEG", "province": "MB", "country": "CA", "postalCode": "R2V1V7", "twitter": "None", "instagram": "None", "facebook": "None", "youtube": "None", "website": "None", "summary": "None", "logo": "None", "latitude": 49.92746675630453, "longitude": -97.11237154547321}, "133354290RR0001": {"name": "THE UKRAINIAN CATHOLIC PARISH OF ST NICHOLAS", "designationCode": "C", "categoryCode": "38", "address": "BOX 103", "city": "ST MICHAEL", "province": "AB", "country": "CA", "postalCode": "T0B4B0", "twitter": "None", "instagram": "None", "facebook": "None", "youtube": "None", "website": "None", "summary": "None", "logo": "None", "latitude": 53.634444717578226, "longitude": -113.62370351985565}, "132022310RR0001": {"name": "THE UKRAINIAN CATHOLIC PARISH OF STS. PETER AND PAUL AT RORKETON, MANITOBA", "designationCode": "C", "categoryCode": "38", "address": "BOX 209", "city": "RORKETON", "province": "MB", "country": "CA", "postalCode": "R0L1R0", "twitter": "None", "instagram": "None", "facebook": "None", "youtube": "None", "website": "None", "summary": "None", "logo": "None", "latitude": 51.390840000000026, "longitude": -99.59604999999999}, "119260099RR0001": {"name": "THE UKRAINIAN CATHOLIC PARISH OF THE SACRED HEART OF JESUS", "designationCode": "C", "categoryCode": "39", "address": "BOX 607", "city": "ERICKSON", "province": "MB", "country": "CA", "postalCode": "R0J0P0", "twitter": "None", "instagram": "None", "facebook": "None", "youtube": "None", "website": "None", "summary": "None", "logo": "None", "latitude": 50.49852000000004, "longitude": -99.90785999999997}, "132388687RR0001": {"name": "THE UKRAINIAN CATHOLIC WOMEN'S LEAGUE OF CANADA", "designationCode": "C", "categoryCode": "49", "address": "387 BETTS AVENUE", "city": "YORKTON", "province": "SK", "country": "CA", "postalCode": "S3N1N3", "twitter": "None", "instagram": "None", "facebook": "None", "youtube": "None", "website": "None", "summary": "None", "logo": "None", "latitude": 51.224750779906515, "longitude": -102.46419867260107}, "868841834RR0001": {"name": "THE UKRAINIAN CATHOLIC WOMEN'S LEAGUE OF CANADA- EPARCHY OF NEW WESTMINSTER", "designationCode": "C", "categoryCode": "49", "address": "2011 HOLDOM AVENUE", "city": "BURNABY", "province": "BC", "country": "CA", "postalCode": "V5B3W5", "twitter": "None", "instagram": "None", "facebook": "None", "youtube": "None", "website": "None", "summary": "None", "logo": "None", "latitude": 49.26560542091257, "longitude": -122.98125928550034}, "129075412RR0001": {"name": "THE UKRAINIAN CULTURAL AND EDUCATIONAL CENTRE", "designationCode": "C", "categoryCode": "22", "address": "184 ALEXANDER AVE", "city": "WINNIPEG", "province": "MB", "country": "CA", "postalCode": "R3B0L6", "twitter": "None", "instagram": "None", "facebook": "None", "youtube": "None", "website": "None", "summary": "None", "logo": "None", "latitude": 49.901313060765304, "longitude": -97.13567870664772}, "888023462RR0001": {"name": "THE UKRAINIAN DNIPRO ENSEMBLE OF EDMONTON", "designationCode": "C", "categoryCode": "22", "address": "PO BOX 1271", "city": "EDMONTON", "province": "AB", "country": "CA", "postalCode": "T5J2M8", "twitter": "None", "instagram": "None", "facebook": "None", "youtube": "None", "website": "None", "summary": "None", "logo": "None", "latitude": 53.54623500000005, "longitude": -113.49037249999994}, "119260131RR0001": {"name": "THE UKRAINIAN EVANGELICAL BAPTIST CONFERENCE OF WESTERN CANADA", "designationCode": "C", "categoryCode": "31", "address": "11837 85 ST NW", "city": "EDMONTON", "province": "AB", "country": "CA", "postalCode": "T5B3E8", "twitter": "None", "instagram": "None", "facebook": "None", "youtube": "None", "website": "None", "summary": "None", "logo": "None", "latitude": 53.571492000000006, "longitude": -113.47080777070259}, "864971734RR0001": {"name": "THE UKRAINIAN GREEK CATHOLIC CHURCH OF ST.JOHN THE BAPTIST", "designationCode": "C", "categoryCode": "39", "address": "PO BOX 582", "city": "ELK POINT", "province": "AB", "country": "CA", "postalCode": "T0A1A0", "twitter": "None", "instagram": "None", "facebook": "None", "youtube": "None", "website": "None", "summary": "None", "logo": "None", "latitude": 54.815265, "longitude": -111.92067675}, "119260214RR0001": {"name": "THE UKRAINIAN GREEK ORTHODOX CONGREGATION OF EGREMONT, IN THE PROVINCE OF ALBERTA (ST JOHN'S)", "designationCode": "C", "categoryCode": "39", "address": "BOX 593", "city": "THORHILD", "province": "AB", "country": "CA", "postalCode": "T0A3J0", "twitter": "None", "instagram": "None", "facebook": "None", "youtube": "None", "website": "None", "summary": "None", "logo": "None", "latitude": 54.15764000000007, "longitude": -113.12560999999994}, "119260149RR0001": {"name": "THE UKRAINIAN GREEK-CATHOLIC CHURCH OF THE HOLY TRINITY AT CALMAR ALBERTA", "designationCode": "C", "categoryCode": "38", "address": "P.O. BOX 442", "city": "CALMAR", "province": "AB", "country": "CA", "postalCode": "T0C0V0", "twitter": "None", "instagram": "None", "facebook": "None", "youtube": "None", "website": "None", "summary": "None", "logo": "None", "latitude": 53.265040000000056, "longitude": -113.80454999999995}, "892556564RR0001": {"name": "THE UKRAINIAN ORTHODOX CHURCH OF MUSIDORA ALBERTA", "designationCode": "C", "categoryCode": "39", "address": "BOX 244", "city": "TWO HILLS", "province": "AB", "country": "CA", "postalCode": "T0B4K0", "twitter": "None", "instagram": "None", "facebook": "None", "youtube": "None", "website": "None", "summary": "None", "logo": "None", "latitude": 52.990762085361816, "longitude": -110.16672061181127}, "108148263RR0123": {"name": "THE UKRAINIAN ORTHODOX CONGREGATION OF ST. JOHN OF SUCHAWA", "designationCode": "C", "categoryCode": "39", "address": "BOX 35", "city": "INSINGER", "province": "SK", "country": "CA", "postalCode": "S0A1L0", "twitter": "None", "instagram": "None", "facebook": "None", "youtube": "None", "website": "None", "summary": "None", "logo": "None", "latitude": 51.519870000000026, "longitude": -103.08208999999994}, "108148321RR0002": {"name": "THE UKRAINIAN ORTHODOX PARISH OF ST. JOHN", "designationCode": "C", "categoryCode": "39", "address": "10611 - 110 AVENUE NW", "city": "EDMONTON", "province": "AB", "country": "CA", "postalCode": "T5H1H7", "twitter": "None", "instagram": "None", "facebook": "None", "youtube": "None", "website": "None", "summary": "None", "logo": "None", "latitude": 53.556684477350316, "longitude": -113.5034325}, "119260271RR0001": {"name": "THE UKRAINIAN VILLA OF THE RESURRECTION CHURCH IN HAMILTON", "designationCode": "C", "categoryCode": "01", "address": "18 MALL RD", "city": "HAMILTON", "province": "ON", "country": "CA", "postalCode": "L8V4V4", "twitter": "None", "instagram": "None", "facebook": "None", "youtube": "None", "website": "None", "summary": "None", "logo": "None", "latitude": 43.221974970050034, "longitude": -79.86037164011135}, "108102096RR0001": {"name": "THE UKRANIAN CATHOLIC CHURCH OF THE RESURRECTION", "designationCode": "C", "categoryCode": "38", "address": "821 UPPER WENTWORTH", "city": "HAMILTON", "province": "ON", "country": "CA", "postalCode": "L9A4W5", "twitter": "None", "instagram": "None", "facebook": "None", "youtube": "None", "website": "None", "summary": "None", "logo": "None", "latitude": 43.223025384673136, "longitude": -79.86193021117803}, "885448332RR0001": {"name": "THE ULTAN PATRICK BYRNE FAMILY EDUCATION TRUST FUND", "designationCode": "B", "categoryCode": "25", "address": "1000 - 840 HOWE STREET", "city": "VANCOUVER", "province": "BC", "country": "CA", "postalCode": "V6Z2M1", "twitter": "None", "instagram": "None", "facebook": "None", "youtube": "None", "website": "None", "summary": "None", "logo": "None", "latitude": 49.28130075546782, "longitude": -123.12181391046815}, "119931699RR0001": {"name": "THE ULYSSEAN SOCIETY", "designationCode": "C", "categoryCode": "09", "address": "421-3179 YONGE STREET", "city": "TORONTO", "province": "ON", "country": "CA", "postalCode": "M4N3P5", "twitter": "None", "instagram": "None", "facebook": "None", "youtube": "None", "website": "None", "summary": "None", "logo": "None", "latitude": 43.72723722398863, "longitude": -79.40272813815038}, "866106115RR0001": {"name": "THE UNDERGROUND GYM & YOUTH CENTRE INC.", "designationCode": "C", "categoryCode": "09", "address": "634 SIMPSON ST N", "city": "THUNDER BAY", "province": "ON", "country": "CA", "postalCode": "P7C3J7", "twitter": "None", "instagram": "None", "facebook": "None", "youtube": "None", "website": "None", "summary": "None", "logo": "None", "latitude": 48.39277777739636, "longitude": -89.23590336118671}, "885390534RR0001": {"name": "THE UNICORN CHILDREN'S FOUNDATION/LA FONDATION POUR ENFANTS LA LICORNE", "designationCode": "B", "categoryCode": "03", "address": "1350 SHERBROOKE STREET WEST   SUITE 700", "city": "MONTREAL", "province": "QC", "country": "CA", "postalCode": "H3G2T4", "twitter": "None", "instagram": "None", "facebook": "None", "youtube": "None", "website": "None", "summary": "None", "logo": "None", "latitude": 45.49908579127481, "longitude": -73.57924734704845}, "108150657RR0001": {"name": "THE UNION OF SLAVIC CHURCHES OF EVANGELICAL CHRISTIANS AND SLAVIC BAPTISTS OF CANADA", "designationCode": "C", "categoryCode": "31", "address": "95 GLADSTONE", "city": "TORONTO", "province": "ON", "country": "CA", "postalCode": "M6J3L1", "twitter": "None", "instagram": "None", "facebook": "None", "youtube": "None", "website": "None", "summary": "None", "logo": "None", "latitude": 43.64546041632521, "longitude": -79.42824858878204}, "119260347RR0001": {"name": "THE UNION PROTESTANT CEMETERY", "designationCode": "C", "categoryCode": "59", "address": "P.O. BOX 731", "city": "SOURIS", "province": "PE", "country": "CA", "postalCode": "C0A2B0", "twitter": "None", "instagram": "None", "facebook": "None", "youtube": "None", "website": "None", "summary": "None", "logo": "None", "latitude": 46.35451000000006, "longitude": -62.25295999999997}, "129534921RR0001": {"name": "THE UNISPHERE GLOBAL RESOURCE CENTRE SOCIETY", "designationCode": "C", "categoryCode": "59", "address": "101 6 ST SE", "city": "MEDICINE HAT", "province": "AB", "country": "CA", "postalCode": "T1A1G7", "twitter": "None", "instagram": "None", "facebook": "None", "youtube": "None", "website": "None", "summary": "None", "logo": "None", "latitude": 50.03332250346246, "longitude": -110.68413291618097}, "108102161RR0001": {"name": "THE UNITARIAN CHURCH OF VANCOUVER", "designationCode": "C", "categoryCode": "39", "address": "949 WEST 49TH AVENUE", "city": "VANCOUVER", "province": "BC", "country": "CA", "postalCode": "V5Z2T1", "twitter": "None", "instagram": "None", "facebook": "None", "youtube": "None", "website": "None", "summary": "None", "logo": "None", "latitude": 49.22653944993916, "longitude": -123.12757091756595}, "119276137RR0001": {"name": "THE UNITARIAN FELLOWSHIP OF FREDERICTON INC", "designationCode": "C", "categoryCode": "39", "address": "874 YORK STREET", "city": "FREDERICTON", "province": "NB", "country": "CA", "postalCode": "E3B3R8", "twitter": "None", "instagram": "None", "facebook": "None", "youtube": "None", "website": "None", "summary": "None", "logo": "None", "latitude": 45.94759366610885, "longitude": -66.65631902524676}, "119260370RR0001": {"name": "THE UNITARIAN FELLOWSHIP OF NORTHWEST TORONTO", "designationCode": "C", "categoryCode": "39", "address": "55 ST PHILLIPS RD", "city": "ETOBICOKE", "province": "ON", "country": "CA", "postalCode": "M9P2N8", "twitter": "None", "instagram": "None", "facebook": "None", "youtube": "None", "website": "None", "summary": "None", "logo": "None", "latitude": 43.703376465433735, "longitude": -79.53174310918136}, "119260404RR0001": {"name": "THE UNITED BAPTIST CHURCH", "designationCode": "C", "categoryCode": "31", "address": "41 MALABAR DRIVE", "city": "SAULT STE MARIE", "province": "ON", "country": "CA", "postalCode": "P6B4A6", "twitter": "None", "instagram": "None", "facebook": "None", "youtube": "None", "website": "None", "summary": "None", "logo": "None", "latitude": 46.53050950288552, "longitude": -84.3176835}, "108151572RR0001": {"name": "THE UNITED BAPTIST CHURCH AT PENOBSOUIS", "designationCode": "C", "categoryCode": "31", "address": "12211 RTE 114", "city": "PENOBSQUIS", "province": "NB", "country": "CA", "postalCode": "E4G2Y1", "twitter": "None", "instagram": "None", "facebook": "None", "youtube": "None", "website": "None", "summary": "None", "logo": "None", "latitude": 45.77961615946659, "longitude": -65.36533070447493}, "119260420RR0001": {"name": "THE UNITED CHURCH DOWNTOWN MISSION OF WINDSOR INC.", "designationCode": "C", "categoryCode": "09", "address": "664 VICTORIA AVE", "city": "WINDSOR", "province": "ON", "country": "CA", "postalCode": "N9A4N2", "twitter": "None", "instagram": "None", "facebook": "None", "youtube": "None", "website": "None", "summary": "None", "logo": "None", "latitude": 42.31259593395458, "longitude": -83.03821278847619}, "119216703RR0001": {"name": "THE UNITED CHURCH HOME FOR SENIOR CITIZENS, INC.", "designationCode": "C", "categoryCode": "01", "address": "165 MAIN ST", "city": "SACKVILLE", "province": "NB", "country": "CA", "postalCode": "E4L4S2", "twitter": "None", "instagram": "None", "facebook": "None", "youtube": "None", "website": "None", "summary": "None", "logo": "None", "latitude": 45.90326465306711, "longitude": -64.37347263001338}, "108152745RR0001": {"name": "THE UNITED CHURCH IN MEADOWOOD", "designationCode": "C", "categoryCode": "44", "address": "1111 DAKOTA ST", "city": "WINNIPEG", "province": "MB", "country": "CA", "postalCode": "R2N3T7", "twitter": "None", "instagram": "None", "facebook": "None", "youtube": "None", "website": "None", "summary": "None", "logo": "None", "latitude": 49.8216537438397, "longitude": -97.09956205767823}, "108102435RR0003": {"name": "THE UNITED CHURCH OF CANADA", "designationCode": "C", "categoryCode": "44", "address": "3250 BLOOR STREET WEST        SUITE 300", "city": "TORONTO", "province": "ON", "country": "CA", "postalCode": "M8X2Y4", "twitter": "None", "instagram": "None", "facebook": "None", "youtube": "None", "website": "None", "summary": "None", "logo": "None", "latitude": 43.64531418347844, "longitude": -79.52077818194921}, "863109021RR0001": {"name": "THE UNITED CHURCH OF CANADA FOUNDATION / FONDATION DE L'EGLISE UNIE DU CANADA", "designationCode": "A", "categoryCode": "03", "address": "3250 BLOOR STREET WEST        SUITE 300", "city": "TORONTO", "province": "ON", "country": "CA", "postalCode": "M8X2Y4", "twitter": "None", "instagram": "None", "facebook": "None", "youtube": "None", "website": "None", "summary": "None", "logo": "None", "latitude": 43.64531418347844, "longitude": -79.52077818194921}, "107437063RR0001": {"name": "THE UNITED CHURCH OF CANADA GLEN VIEW UNITED CHURCH PASTORAL CHARGE", "designationCode": "C", "categoryCode": "44", "address": "8 UPLAND RD", "city": "SAINT JOHN", "province": "NB", "country": "CA", "postalCode": "E2H2W5", "twitter": "None", "instagram": "None", "facebook": "None", "youtube": "None", "website": "None", "summary": "None", "logo": "None", "latitude": 45.32031684234527, "longitude": -66.00885885815696}, "108152620RR0001": {"name": "THE UNITED CHURCH OF CANADA, CALGARY PRESBYTERY", "designationCode": "C", "categoryCode": "44", "address": "201B 4TH STREET NE", "city": "CALGARY", "province": "AB", "country": "CA", "postalCode": "T2E3S1", "twitter": "None", "instagram": "None", "facebook": "None", "youtube": "None", "website": "None", "summary": "None", "logo": "None", "latitude": 51.05343926777201, "longitude": -114.051769767772}, "891050551RR0001": {"name": "THE UNITED CHURCH OF GOD - CANADA", "designationCode": "C", "categoryCode": "39", "address": "P.O. BOX 144                  STATION D", "city": "ETOBICOKE", "province": "ON", "country": "CA", "postalCode": "M9A4X1", "twitter": "None", "instagram": "None", "facebook": "None", "youtube": "None", "website": "None", "summary": "None", "logo": "None", "latitude": 43.64439900000005, "longitude": -79.56714049999994}, "872033808RR0001": {"name": "THE UNITED OSTOMY ASSOCIATION OF CANADA INC.-MIRAMICHI CHAPTER", "designationCode": "C", "categoryCode": "11", "address": "271 DAWSON STREET", "city": "MIRAMICHI", "province": "NB", "country": "CA", "postalCode": "E1V1E6", "twitter": "None", "instagram": "None", "facebook": "None", "youtube": "None", "website": "None", "summary": "None", "logo": "None", "latitude": 47.005217831265405, "longitude": -65.57515564475723}, "894813815RR0001": {"name": "THE UNITED SPIRITUAL BAPTIST CHURCH OF ONTARIO INC.", "designationCode": "C", "categoryCode": "31", "address": "PO BOX 21043 RPO HARWOOD PLACE", "city": "AJAX", "province": "ON", "country": "CA", "postalCode": "L1S7H2", "twitter": "None", "instagram": "None", "facebook": "None", "youtube": "None", "website": "None", "summary": "None", "logo": "None", "latitude": 43.84392189518328, "longitude": -79.01842894759163}, "887332237RR0001": {"name": "THE UNITED SYNAGOGUE OF CONSERVATIVE JUDAISM", "designationCode": "C", "categoryCode": "29", "address": "1700 BATHURST ST", "city": "TORONTO", "province": "ON", "country": "CA", "postalCode": "M5P3K3", "twitter": "None", "instagram": "None", "facebook": "None", "youtube": "None", "website": "None", "summary": "None", "logo": "None", "latitude": 43.69565432970755, "longitude": -79.42344648704423}, "119260479RR0001": {"name": "THE UNITED THEOLOGICAL COLLEGE", "designationCode": "C", "categoryCode": "20", "address": "3521 RUE UNIVERSITY", "city": "MONTREAL", "province": "QC", "country": "CA", "postalCode": "H3A2A9", "twitter": "None", "instagram": "None", "facebook": "None", "youtube": "None", "website": "None", "summary": "None", "logo": "None", "latitude": 45.506734049973936, "longitude": -73.57702155424444}, "108160086RR0001": {"name": "THE UNITED WAY OF CAPE BRETON", "designationCode": "A", "categoryCode": "03", "address": "245 CHARLOTTE STREET", "city": "SYDNEY", "province": "NS", "country": "CA", "postalCode": "B1P1C4", "twitter": "None", "instagram": "None", "facebook": "None", "youtube": "None", "website": "None", "summary": "None", "logo": "None", "latitude": 46.1395882245369, "longitude": -60.19512681513659}, "119260495RR0001": {"name": "THE UNITED WAY OF FORT MCMURRAY", "designationCode": "A", "categoryCode": "03", "address": "REDPOLL CENTRE AT SHELL PLACE 1 C.A. KNIGHT WAY", "city": "FORT MCMURRAY", "province": "AB", "country": "CA", "postalCode": "T9H5C5", "twitter": "None", "instagram": "None", "facebook": "None", "youtube": "None", "website": "None", "summary": "None", "logo": "None", "latitude": 56.73745000000008, "longitude": -111.38605999999999}, "896060514RR0001": {"name": "THE UNITED WAY OF HALDIMAND AND NORFOLK", "designationCode": "A", "categoryCode": "05", "address": "P.O. BOX 472, 45 KENT STREET N", "city": "SIMCOE", "province": "ON", "country": "CA", "postalCode": "N3Y3S1", "twitter": "None", "instagram": "None", "facebook": "None", "youtube": "None", "website": "None", "summary": "None", "logo": "None", "latitude": 42.83808089370417, "longitude": -80.30549035426182}, "119260545RR0001": {"name": "THE UNITED WAY OF NIAGARA FALLS AND GREATER FORT ERIE", "designationCode": "C", "categoryCode": "05", "address": "7150 MONTROSE ROAD            UNIT 5", "city": "NIAGARA FALLS", "province": "ON", "country": "CA", "postalCode": "L2H3N3", "twitter": "None", "instagram": "None", "facebook": "None", "youtube": "None", "website": "None", "summary": "None", "logo": "None", "latitude": 43.07298447902374, "longitude": -79.12541716559018}, "108102807RR0001": {"name": "THE UNITED WAY OF PEEL REGION", "designationCode": "A", "categoryCode": "05", "address": "408-90 BURNHAMTHORPE RD W     BOX 58", "city": "MISSISSAUGA", "province": "ON", "country": "CA", "postalCode": "L5B3C3", "twitter": "None", "instagram": "None", "facebook": "None", "youtube": "None", "website": "None", "summary": "None", "logo": "None", "latitude": 43.58655887043523, "longitude": -79.64347585545782}, "119260560RR0001": {"name": "THE UNITED WAY OF PICTOU COUNTY", "designationCode": "A", "categoryCode": "03", "address": "P O BOX 75", "city": "NEW GLASGOW", "province": "NS", "country": "CA", "postalCode": "B2H5E1", "twitter": "None", "instagram": "None", "facebook": "None", "youtube": "None", "website": "None", "summary": "None", "logo": "None", "latitude": 45.591837000000055, "longitude": -62.643414499999935}, "130532443RR0001": {"name": "THE UNITED WAY OF ST CATHARINES & DISTRICT", "designationCode": "A", "categoryCode": "05", "address": "63 CHURCH STREET SUITE LC100", "city": "ST.CATHARINES", "province": "ON", "country": "CA", "postalCode": "L2R3C4", "twitter": "None", "instagram": "None", "facebook": "None", "youtube": "None", "website": "None", "summary": "None", "logo": "None", "latitude": 43.16026538553853, "longitude": -79.24672571140823}, "119260594RR0001": {"name": "THE UNITY AND DISTRICT DONOR'S CHOICE", "designationCode": "A", "categoryCode": "05", "address": "BOX 1207", "city": "UNITY", "province": "SK", "country": "CA", "postalCode": "S0K4L0", "twitter": "None", "instagram": "None", "facebook": "None", "youtube": "None", "website": "None", "summary": "None", "logo": "None", "latitude": 52.437110000000075, "longitude": -109.14557999999994}, "893334771RR0001": {"name": "THE UNIVERSAL ENLIGHTENMENT SOCIETY", "designationCode": "C", "categoryCode": "47", "address": "PO BOX 88638 CPO", "city": "VANCOUVER", "province": "BC", "country": "CA", "postalCode": "V6A4A5", "twitter": "None", "instagram": "None", "facebook": "None", "youtube": "None", "website": "None", "summary": "None", "logo": "None", "latitude": 49.26037200000006, "longitude": -123.11336149999994}, "868643370RR0001": {"name": "THE UNIVERSITY AVENUE DEPARTMENT OF MEDICINE, MEDICAL RESEARCH AND EDUCATION ASSOCIATION", "designationCode": "A", "categoryCode": "13", "address": "300 SHEPPARD AVE. WEST        SUITE 200", "city": "TORONTO", "province": "ON", "country": "CA", "postalCode": "M2N1N5", "twitter": "None", "instagram": "None", "facebook": "None", "youtube": "None", "website": "None", "summary": "None", "logo": "None", "latitude": 43.758320132407974, "longitude": -79.42540898058161}, "140852195RR0001": {"name": "THE UNIVERSITY EYE FOUNDATION (CALGARY)", "designationCode": "C", "categoryCode": "21", "address": "104 - 5340 1 ST SW", "city": "CALGARY", "province": "AB", "country": "CA", "postalCode": "T2H0C8", "twitter": "None", "instagram": "None", "facebook": "None", "youtube": "None", "website": "None", "summary": "None", "logo": "None", "latitude": 51.00608462170351, "longitude": -114.06630714998003}, "119260610RR0001": {"name": "THE UNIVERSITY LODGE 496 EDUCATIONAL AWARDS FUND", "designationCode": "C", "categoryCode": "21", "address": "17 KENTISH CRESCENT", "city": "SCARBOROUGH", "province": "ON", "country": "CA", "postalCode": "M1S2Z3", "twitter": "None", "instagram": "None", "facebook": "None", "youtube": "None", "website": "None", "summary": "None", "logo": "None", "latitude": 43.78849308855089, "longitude": -79.24922734860633}, "108161779RR0001": {"name": "THE UNIVERSITY OF BRITISH COLUMBIA", "designationCode": "C", "categoryCode": "20", "address": "200 - 2386 EAST MALL", "city": "VANCOUVER", "province": "BC", "country": "CA", "postalCode": "V6T1Z3", "twitter": "None", "instagram": "None", "facebook": "None", "youtube": "None", "website": "None", "summary": "None", "logo": "None", "latitude": 49.26156645450634, "longitude": -123.24699678631076}, "108161829RR0003": {"name": "THE UNIVERSITY OF GUELPH ECUMENICAL CAMPUS MINISTRY", "designationCode": "C", "categoryCode": "39", "address": "50 STONE RD E.", "city": "GUELPH", "province": "ON", "country": "CA", "postalCode": "N1G2W1", "twitter": "None", "instagram": "None", "facebook": "None", "youtube": "None", "website": "None", "summary": "None", "logo": "None", "latitude": 43.52791024578851, "longitude": -80.2231394511997}, "119279248RR0001": {"name": "THE UNIVERSITY OF LETHBRIDGE", "designationCode": "C", "categoryCode": "20", "address": "4401 UNIVERSITY DRIVE W", "city": "LETHBRIDGE", "province": "AB", "country": "CA", "postalCode": "T1K3M4", "twitter": "None", "instagram": "None", "facebook": "None", "youtube": "None", "website": "None", "summary": "None", "logo": "None", "latitude": 49.66961513938342, "longitude": -112.86776871247449}, "119260669RR0001": {"name": "THE UNIVERSITY OF MANITOBA", "designationCode": "C", "categoryCode": "20", "address": "ROOM 402                      ADMINISTRATION BUILDING", "city": "WINNIPEG", "province": "MB", "country": "CA", "postalCode": "R3T2N2", "twitter": "None", "instagram": "None", "facebook": "None", "youtube": "None", "website": "None", "summary": "None", "logo": "None", "latitude": 49.90256209037736, "longitude": -97.22510178978153}, "128963519RR0001": {"name": "THE UNIVERSITY OF MANITOBA BUSINESS SCHOOL FOUNDATION INC.", "designationCode": "A", "categoryCode": "23", "address": "547 - 181 FREEDMAN CRESCENT", "city": "WINNIPEG", "province": "MB", "country": "CA", "postalCode": "R3T5V4", "twitter": "None", "instagram": "None", "facebook": "None", "youtube": "None", "website": "None", "summary": "None", "logo": "None", "latitude": 49.80789286929412, "longitude": -97.12972076259426}, "889678975RR0001": {"name": "THE UNIVERSITY OF THE WEST INDIES MEDICAL ALUMNI ASSOCIATION OF CANADA TRUST", "designationCode": "A", "categoryCode": "23", "address": "47 RAVENSBOURNE CRESCENT", "city": "TORONTO", "province": "ON", "country": "CA", "postalCode": "M9A2A9", "twitter": "None", "instagram": "None", "facebook": "None", "youtube": "None", "website": "None", "summary": "None", "logo": "None", "latitude": 43.67646156064974, "longitude": -79.53832602758402}, "865171045RR0001": {"name": "THE UNIVERSITY OF WINNIPEG FOUNDATION INC.", "designationCode": "A", "categoryCode": "23", "address": "901 - 491 PORTAGE AVE", "city": "WINNIPEG", "province": "MB", "country": "CA", "postalCode": "R3B2E4", "twitter": "None", "instagram": "None", "facebook": "None", "youtube": "None", "website": "None", "summary": "None", "logo": "None", "latitude": 49.89064372052618, "longitude": -97.15199132183035}, "887536274RR0001": {"name": "THE UNIVERSITY WOMEN'S CLUB (TORONTO) HERITAGE FUND", "designationCode": "C", "categoryCode": "21", "address": "41 WILLCOCKS STREET", "city": "TORONTO", "province": "ON", "country": "CA", "postalCode": "M5S1C7", "twitter": "None", "instagram": "None", "facebook": "None", "youtube": "None", "website": "None", "summary": "None", "logo": "None", "latitude": 43.661404856483536, "longitude": -79.40057460323742}, "119260750RR0001": {"name": "THE UNIVERSITY WOMEN'S CLUB OF PRINCE ALBERT'S TRUST FUND", "designationCode": "C", "categoryCode": "21", "address": "331 20 ST.W.", "city": "PRINCE ALBERT", "province": "SK", "country": "CA", "postalCode": "S6V4G7", "twitter": "None", "instagram": "None", "facebook": "None", "youtube": "None", "website": "None", "summary": "None", "logo": "None", "latitude": 53.19490554674263, "longitude": -105.76354041618097}, "894046473RR0001": {"name": "THE UPPER ASSINIBOINE RIVER CONSERVATION DISTRICT", "designationCode": "C", "categoryCode": "52", "address": "BOX 223", "city": "MINIOTA", "province": "MB", "country": "CA", "postalCode": "R0M1M0", "twitter": "None", "instagram": "None", "facebook": "None", "youtube": "None", "website": "None", "summary": "None", "logo": "None", "latitude": 50.14250000000004, "longitude": -101.03465999999997}, "119260776RR0001": {"name": "THE UPPER CANADA COLLEGE FOUNDATION", "designationCode": "A", "categoryCode": "21", "address": "200 LONSDALE ROAD", "city": "TORONTO", "province": "ON", "country": "CA", "postalCode": "M4V1W6", "twitter": "None", "instagram": "None", "facebook": "None", "youtube": "None", "website": "None", "summary": "None", "logo": "None", "latitude": 43.690779173523765, "longitude": -79.40314577687674}, "875279101RR0001": {"name": "THE UPPER GRAND DISTRICT SCHOOL BOARD TRUST", "designationCode": "C", "categoryCode": "21", "address": "500 VICTORIA ROAD NORTH", "city": "GUELPH", "province": "ON", "country": "CA", "postalCode": "N1E6K2", "twitter": "None", "instagram": "None", "facebook": "None", "youtube": "None", "website": "None", "summary": "None", "logo": "None", "latitude": 43.57901545340106, "longitude": -80.26180499687803}, "108163338RR0001": {"name": "THE UPPER ROOM", "designationCode": "C", "categoryCode": "49", "address": "919 PANDORA AVE", "city": "VICTORIA", "province": "BC", "country": "CA", "postalCode": "V8V3P4", "twitter": "None", "instagram": "None", "facebook": "None", "youtube": "None", "website": "None", "summary": "None", "logo": "None", "latitude": 48.42725162334829, "longitude": -123.35773619914589}, "891337982RR0001": {"name": "THE UPPER SKEENA COUNSELLING AND LEGAL ASSISTANCE SOCIETY", "designationCode": "C", "categoryCode": "59", "address": "BOX 130", "city": "HAZELTON", "province": "BC", "country": "CA", "postalCode": "V0J1Y0", "twitter": "None", "instagram": "None", "facebook": "None", "youtube": "None", "website": "None", "summary": "None", "logo": "None", "latitude": 55.2675692820996, "longitude": -127.62287325854736}, "131636086RR0001": {"name": "THE URBAN IDEA CENTRE INCORPORATED", "designationCode": "C", "categoryCode": "09", "address": "103-110 PRINCESS STREET", "city": "WINNIPEG", "province": "MB", "country": "CA", "postalCode": "R3B1K7", "twitter": "None", "instagram": "None", "facebook": "None", "youtube": "None", "website": "None", "summary": "None", "logo": "None", "latitude": 49.89910355698091, "longitude": -97.14171338106601}, "119260834RR0001": {"name": "THE URBAN LEAGUE OF LONDON", "designationCode": "C", "categoryCode": "59", "address": "1017 WESTERN ROAD", "city": "LONDON", "province": "ON", "country": "CA", "postalCode": "N6G1G5", "twitter": "None", "instagram": "None", "facebook": "None", "youtube": "None", "website": "None", "summary": "None", "logo": "None", "latitude": 42.9963403568056, "longitude": -81.27279434492367}, "119260842RR0002": {"name": "THE URSULINE NUNS OF BRUNO", "designationCode": "C", "categoryCode": "46", "address": "74 - 331 CORNISH RD", "city": "SASKATOON", "province": "SK", "country": "CA", "postalCode": "S7T0T9", "twitter": "None", "instagram": "None", "facebook": "None", "youtube": "None", "website": "None", "summary": "None", "logo": "None", "latitude": 52.08652547994646, "longitude": -106.63019180682672}, "132542861RR0001": {"name": "THE URSULINES OF ST ANGELA'S CONVENT", "designationCode": "C", "categoryCode": "46", "address": "305 HILLIARD ST E", "city": "SASKATOON", "province": "SK", "country": "CA", "postalCode": "S7J0E5", "twitter": "None", "instagram": "None", "facebook": "None", "youtube": "None", "website": "None", "summary": "None", "logo": "None", "latitude": 52.103623493219324, "longitude": -106.66399402553522}, "886711993RR0001": {"name": "THE USONA AGRICULTURAL SOCIETY", "designationCode": "C", "categoryCode": "56", "address": "SITE 6 BOX 2                  RR 1 LCD MAIN", "city": "WETASKIWIN", "province": "AB", "country": "CA", "postalCode": "T9A1W8", "twitter": "None", "instagram": "None", "facebook": "None", "youtube": "None", "website": "None", "summary": "None", "logo": "None", "latitude": 52.96987500000006, "longitude": -113.37725149999994}, "811052745RR0001": {"name": "THE UTKHEDE FOUNDATION", "designationCode": "B", "categoryCode": "25", "address": "6489-184 ST.", "city": "SURREY", "province": "BC", "country": "CA", "postalCode": "V3S1G5", "twitter": "None", "instagram": "None", "facebook": "None", "youtube": "None", "website": "None", "summary": "None", "logo": "None", "latitude": 49.12069394445751, "longitude": -122.71262296116323}, "140800996RR0001": {"name": "THE UXBRIDGE PLAYERS", "designationCode": "C", "categoryCode": "22", "address": "19 LORMIK DR", "city": "UXBRIDGE", "province": "ON", "country": "CA", "postalCode": "L9P1R6", "twitter": "None", "instagram": "None", "facebook": "None", "youtube": "None", "website": "None", "summary": "None", "logo": "None", "latitude": 44.121897092446034, "longitude": -79.12944031253951}, "882672785RR0001": {"name": "THE V K EDDIE HSU FOUNDATION", "designationCode": "B", "categoryCode": "03", "address": "1050 WEST PENDER ST           11TH FLOOR", "city": "VANCOUVER", "province": "BC", "country": "CA", "postalCode": "V6E3S7", "twitter": "None", "instagram": "None", "facebook": "None", "youtube": "None", "website": "None", "summary": "None", "logo": "None", "latitude": 49.287203038548306, "longitude": -123.11938990510112}, "119260875RR0001": {"name": "THE VALEMOUNT HISTORIC SOCIETY", "designationCode": "C", "categoryCode": "50", "address": "BOX 850", "city": "VALEMOUNT", "province": "BC", "country": "CA", "postalCode": "V0E2Z0", "twitter": "None", "instagram": "None", "facebook": "None", "youtube": "None", "website": "None", "summary": "None", "logo": "None", "latitude": 52.82816000000008, "longitude": -119.27765}, "119260883RR0001": {"name": "THE VALHALLA WILDERNESS SOCIETY", "designationCode": "C", "categoryCode": "56", "address": "BOX 329", "city": "NEW DENVER", "province": "BC", "country": "CA", "postalCode": "V0G1S0", "twitter": "None", "instagram": "None", "facebook": "None", "youtube": "None", "website": "None", "summary": "None", "logo": "None", "latitude": 49.99242000000004, "longitude": -117.37212999999997}}