{"890946445RR0001": {"name": "HERITAGE UNITED CHURCH", "designationCode": "C", "categoryCode": "44", "address": "7046 11TH CONCESSION RD.", "city": "MARKHAM", "province": "ON", "country": "CA", "postalCode": "L6B1A8", "twitter": "None", "instagram": "None", "facebook": "None", "youtube": "None", "website": "None", "summary": "None", "logo": "None", "latitude": 43.85474534831787, "longitude": -79.17780718154519}, "118956572RR0001": {"name": "HERITAGE WINNIPEG CORPORATION", "designationCode": "C", "categoryCode": "52", "address": "509-63 ALBERT ST", "city": "WINNIPEG", "province": "MB", "country": "CA", "postalCode": "R3B1G4", "twitter": "None", "instagram": "None", "facebook": "None", "youtube": "None", "website": "None", "summary": "None", "logo": "None", "latitude": 49.89691645148467, "longitude": -97.14020873611877}, "893266379RR0001": {"name": "HERITAGE YORK", "designationCode": "C", "categoryCode": "52", "address": "4066 OLD DUNDAS STREET", "city": "YORK", "province": "ON", "country": "CA", "postalCode": "M6S2R6", "twitter": "None", "instagram": "None", "facebook": "None", "youtube": "None", "website": "None", "summary": "None", "logo": "None", "latitude": 43.66307202276526, "longitude": -79.50339272274788}, "118977990RR0001": {"name": "HERMAN KASSINGER FOUNDATION", "designationCode": "B", "categoryCode": "03", "address": "500 MAYFAIR AVE", "city": "OSHAWA", "province": "ON", "country": "CA", "postalCode": "L1G2Y2", "twitter": "None", "instagram": "None", "facebook": "None", "youtube": "None", "website": "None", "summary": "None", "logo": "None", "latitude": 43.9208281111018, "longitude": -78.85586270907277}, "108084211RR0001": {"name": "HERMAN PRIOR SENIOR SERVICES CENTRE INC.", "designationCode": "C", "categoryCode": "56", "address": "40 ROYAL RD N", "city": "PORTAGE LA PRAIRIE", "province": "MB", "country": "CA", "postalCode": "R1N1V1", "twitter": "None", "instagram": "None", "facebook": "None", "youtube": "None", "website": "None", "summary": "None", "logo": "None", "latitude": 49.97385968308272, "longitude": -98.28978211320788}, "119288918RR0787": {"name": "HERMANDAD CONGREGATION OF JEHOVAH'S WITNESSES, KITCHENER, ONTARIO", "designationCode": "C", "categoryCode": "61", "address": "64 TAMVALE CRES", "city": "KITCHENER", "province": "ON", "country": "CA", "postalCode": "N2E3K7", "twitter": "None", "instagram": "None", "facebook": "None", "youtube": "None", "website": "None", "summary": "None", "logo": "None", "latitude": 43.403039675543916, "longitude": -80.4937957527265}, "118956598RR0001": {"name": "HERMES LODGE THEOSOPHICAL SOCIETY", "designationCode": "C", "categoryCode": "49", "address": "220-3150 EAST 54TH AVENUE", "city": "VANCOUVER", "province": "BC", "country": "CA", "postalCode": "V5S1Z1", "twitter": "None", "instagram": "None", "facebook": "None", "youtube": "None", "website": "None", "summary": "None", "logo": "None", "latitude": 49.22007935781973, "longitude": -123.03948241541335}, "804694271RR0001": {"name": "HERO (HELPING EVERYONE REMEMBER ORPHANS) FOUNDATION", "designationCode": "A", "categoryCode": "03", "address": "208 WOODFIELD PLACE SW", "city": "CALGARY", "province": "AB", "country": "CA", "postalCode": "T2W3T8", "twitter": "None", "instagram": "None", "facebook": "None", "youtube": "None", "website": "None", "summary": "None", "logo": "None", "latitude": 50.937059126839415, "longitude": -114.1220983513763}, "889231197RR0001": {"name": "HEROES MEMORIAL STUDENT BURSARY FUND", "designationCode": "C", "categoryCode": "21", "address": "140 RUE WELLINGTON", "city": "COWANSVILLE", "province": "QC", "country": "CA", "postalCode": "J2K3G6", "twitter": "None", "instagram": "None", "facebook": "None", "youtube": "None", "website": "None", "summary": "None", "logo": "None", "latitude": 45.215243633360274, "longitude": -72.81281400799277}, "890043540RR0001": {"name": "HERON EMERGENCY FOOD CENTRE SOUTH EAST OTTAWA", "designationCode": "C", "categoryCode": "09", "address": "P.O. BOX 39110", "city": "OTTAWA", "province": "ON", "country": "CA", "postalCode": "K1H1A1", "twitter": "None", "instagram": "None", "facebook": "None", "youtube": "None", "website": "None", "summary": "None", "logo": "None", "latitude": 45.42177300000006, "longitude": -75.69115999999994}, "848406526RR0001": {"name": "HERON FAMILY FOUNDATION", "designationCode": "B", "categoryCode": "03", "address": "43 MAPLE EDGE LANE", "city": "WHITBY", "province": "ON", "country": "CA", "postalCode": "L1R2N1", "twitter": "None", "instagram": "None", "facebook": "None", "youtube": "None", "website": "None", "summary": "None", "logo": "None", "latitude": 43.90526481262644, "longitude": -78.95908833637264}, "118956614RR0001": {"name": "HERON PARK BAPTIST CHURCH", "designationCode": "C", "categoryCode": "31", "address": "4260 LAWRENCE AVE E", "city": "WEST HILL", "province": "ON", "country": "CA", "postalCode": "M1E2S6", "twitter": "None", "instagram": "None", "facebook": "None", "youtube": "None", "website": "None", "summary": "None", "logo": "None", "latitude": 43.76976118405535, "longitude": -79.18024692619294}, "121336580RR0001": {"name": "HERON ROCKS FRIENDSHIP CENTRE SOCIETY", "designationCode": "C", "categoryCode": "56", "address": "GENERAL DELIVERY", "city": "HORNBY ISLAND", "province": "BC", "country": "CA", "postalCode": "V0R1Z0", "twitter": "None", "instagram": "None", "facebook": "None", "youtube": "None", "website": "None", "summary": "None", "logo": "None", "latitude": 49.51271000000003, "longitude": -124.70406999999994}, "864136395RR0001": {"name": "HERONBROOK FOUNDATION", "designationCode": "B", "categoryCode": "03", "address": "3326 236 ST", "city": "LANGLEY", "province": "BC", "country": "CA", "postalCode": "V2Z2H9", "twitter": "None", "instagram": "None", "facebook": "None", "youtube": "None", "website": "None", "summary": "None", "logo": "None", "latitude": 49.062157470165594, "longitude": -122.57048905413073}, "131017303RR0001": {"name": "HERRING NECK PASTORAL CHARGE,", "designationCode": "C", "categoryCode": "44", "address": "23 ROAD TO THE ISLES          BOX 34 R.R.1", "city": "NEWVILLE", "province": "NL", "country": "CA", "postalCode": "A0G2R0", "twitter": "None", "instagram": "None", "facebook": "None", "youtube": "None", "website": "None", "summary": "None", "logo": "None", "latitude": 49.216698423078995, "longitude": -55.04731942856026}, "107479677RR0001": {"name": "HERSCHEL EBENFELD MENNONITE CHURCH INC.", "designationCode": "C", "categoryCode": "34", "address": "BOX 160", "city": "HERSCHEL", "province": "SK", "country": "CA", "postalCode": "S0L1L0", "twitter": "None", "instagram": "None", "facebook": "None", "youtube": "None", "website": "None", "summary": "None", "logo": "None", "latitude": 51.560901000000015, "longitude": -107.9856135}, "830922928RR0001": {"name": "HERZOG FAMILY TRUST", "designationCode": "B", "categoryCode": "21", "address": "1010 SHERBROOKE ST. W.        SUITE 702", "city": "MONTREAL", "province": "QC", "country": "CA", "postalCode": "H3A2R7", "twitter": "None", "instagram": "None", "facebook": "None", "youtube": "None", "website": "None", "summary": "None", "logo": "None", "latitude": 45.50228551760071, "longitude": -73.57608097316671}, "867600967RR0001": {"name": "HESED CHRISTIAN FOUNDATION", "designationCode": "B", "categoryCode": "03", "address": "12 FIELDSTONE ROAD", "city": "TORONTO", "province": "ON", "country": "CA", "postalCode": "M9C2J6", "twitter": "None", "instagram": "None", "facebook": "None", "youtube": "None", "website": "None", "summary": "None", "logo": "None", "latitude": 43.633899051358924, "longitude": -79.57831615641399}, "834998965RR0001": {"name": "HESEG FOUNDATION", "designationCode": "C", "categoryCode": "21", "address": "161 BAY STREET                SUITE 4900; 49TH FLOOR", "city": "TORONTO", "province": "ON", "country": "CA", "postalCode": "M5J2S1", "twitter": "None", "instagram": "None", "facebook": "None", "youtube": "None", "website": "None", "summary": "None", "logo": "None", "latitude": 43.64640116209816, "longitude": -79.3792674731667}, "118956671RR0001": {"name": "HESPELER BAPTIST CHURCH", "designationCode": "C", "categoryCode": "31", "address": "76 ADAM STREET", "city": "CAMBRIDGE", "province": "ON", "country": "CA", "postalCode": "N3C2K5", "twitter": "None", "instagram": "None", "facebook": "None", "youtube": "None", "website": "None", "summary": "None", "logo": "None", "latitude": 43.42968407631721, "longitude": -80.30839808993586}, "119288918RR0679": {"name": "HESPELER CONGREGATION OF JEHOVAH'S WITNESSES", "designationCode": "C", "categoryCode": "61", "address": "108 ROSEBRIDGE CRES", "city": "CAMBRIDGE", "province": "ON", "country": "CA", "postalCode": "N3C3Z2", "twitter": "None", "instagram": "None", "facebook": "None", "youtube": "None", "website": "None", "summary": "None", "logo": "None", "latitude": 43.420328738819386, "longitude": -80.29456454942566}, "886841220RR0001": {"name": "HESPELER HORTICULTURAL SOCIETY", "designationCode": "C", "categoryCode": "56", "address": "1623 BRANCHTON RD", "city": "BRANCHTON", "province": "ON", "country": "CA", "postalCode": "N0B1L0", "twitter": "None", "instagram": "None", "facebook": "None", "youtube": "None", "website": "None", "summary": "None", "logo": "None", "latitude": 43.31091000521103, "longitude": -80.25926388637987}, "118956705RR0001": {"name": "HESPERUS FELLOWSHIP COMMUNITY OF ONTARIO", "designationCode": "C", "categoryCode": "01", "address": "130 - 1 HESPERUS RD", "city": "THORNHILL", "province": "ON", "country": "CA", "postalCode": "L4J0G9", "twitter": "None", "instagram": "None", "facebook": "None", "youtube": "None", "website": "None", "summary": "None", "logo": "None", "latitude": 43.84419412155928, "longitude": -79.46447902969015}, "861132637RR0001": {"name": "HESPERUS FELLOWSHIP VILLAGE", "designationCode": "C", "categoryCode": "09", "address": "130 - 1 HESPERUS RD", "city": "THORNHILL", "province": "ON", "country": "CA", "postalCode": "L4J0G9", "twitter": "None", "instagram": "None", "facebook": "None", "youtube": "None", "website": "None", "summary": "None", "logo": "None", "latitude": 43.84419412155928, "longitude": -79.46447902969015}, "107479958RR0001": {"name": "HESS STREET BAPTIST MISSION, INC.", "designationCode": "C", "categoryCode": "39", "address": "179 HESS STREET NORTH", "city": "HAMILTON", "province": "ON", "country": "CA", "postalCode": "L8R2T1", "twitter": "None", "instagram": "None", "facebook": "None", "youtube": "None", "website": "None", "summary": "None", "logo": "None", "latitude": 43.264483145161265, "longitude": -79.87491417848676}, "107479966RR0001": {"name": "HESTIA HOUSE INC.", "designationCode": "C", "categoryCode": "01", "address": "PO BOX 22080  RPO LANSDOWNE", "city": "SAINT JOHN", "province": "NB", "country": "CA", "postalCode": "E2K4T7", "twitter": "None", "instagram": "None", "facebook": "None", "youtube": "None", "website": "None", "summary": "None", "logo": "None", "latitude": 45.27825409134918, "longitude": -66.07661935522188}, "830751871RR0001": {"name": "HETLAND EDUCATIONAL FOUNDATION, INC.", "designationCode": "B", "categoryCode": "21", "address": "4834 MARYGOLD DR", "city": "REGINA", "province": "SK", "country": "CA", "postalCode": "S4X4R1", "twitter": "None", "instagram": "None", "facebook": "None", "youtube": "None", "website": "None", "summary": "None", "logo": "None", "latitude": 50.496091103525885, "longitude": -104.65021307576895}, "118956747RR0001": {"name": "HEVEY JESUIT COMMUNITY", "designationCode": "C", "categoryCode": "39", "address": "2 DALE AVE", "city": "TORONTO", "province": "ON", "country": "CA", "postalCode": "M4W1K4", "twitter": "None", "instagram": "None", "facebook": "None", "youtube": "None", "website": "None", "summary": "None", "logo": "None", "latitude": 43.6737088482023, "longitude": -79.37471017819831}, "131476640RR0001": {"name": "HEY-WAY' -NOQU' HEALING CIRCLE FOR ADDICTIONS SOCIETY", "designationCode": "C", "categoryCode": "57", "address": "411 - 400 KINGS RD", "city": "SYDNEY", "province": "NS", "country": "CA", "postalCode": "B1S3N3", "twitter": "None", "instagram": "None", "facebook": "None", "youtube": "None", "website": "None", "summary": "None", "logo": "None", "latitude": 46.12262172113177, "longitude": -60.20195147720515}, "759678923RR0001": {"name": "HFA Affordable Housing in Africa", "designationCode": "B", "categoryCode": "03", "address": "910 RIDEAU ROAD SW", "city": "CALGARY", "province": "AB", "country": "CA", "postalCode": "T2S0R6", "twitter": "None", "instagram": "None", "facebook": "None", "youtube": "None", "website": "None", "summary": "None", "logo": "None", "latitude": 51.0246920224768, "longitude": -114.07665645449812}, "118818657RR0001": {"name": "HFBC HOUSING FOUNDATION", "designationCode": "C", "categoryCode": "59", "address": "101-1025 13TH AVE W", "city": "VANCOUVER", "province": "BC", "country": "CA", "postalCode": "V6H1N1", "twitter": "None", "instagram": "None", "facebook": "None", "youtube": "None", "website": "None", "summary": "None", "logo": "None", "latitude": 49.25969549321932, "longitude": -123.12743391618096}, "828455337RR0001": {"name": "HFG Happy Families Support Network Inc.", "designationCode": "C", "categoryCode": "09", "address": "4-1550 KINGSTON RD            SUITE 1285", "city": "PICKERING", "province": "ON", "country": "CA", "postalCode": "L1V6W9", "twitter": "None", "instagram": "None", "facebook": "None", "youtube": "None", "website": "None", "summary": "None", "logo": "None", "latitude": 43.84350765779899, "longitude": -79.08069893202133}, "808798193RR0001": {"name": "HFS Learning Kitchen Inc.", "designationCode": "C", "categoryCode": "09", "address": "214 MONTREAL AVENUE NORTH", "city": "SASKATOON", "province": "SK", "country": "CA", "postalCode": "S7L3N5", "twitter": "None", "instagram": "None", "facebook": "None", "youtube": "None", "website": "None", "summary": "None", "logo": "None", "latitude": 52.130843497085806, "longitude": -106.71178721394799}, "838458248RR0001": {"name": "HHTCanadaTHH", "designationCode": "C", "categoryCode": "11", "address": "70 HEATHDALE ROAD", "city": "TORONTO", "province": "ON", "country": "CA", "postalCode": "M6C1M8", "twitter": "None", "instagram": "None", "facebook": "None", "youtube": "None", "website": "None", "summary": "None", "logo": "None", "latitude": 43.69010548600596, "longitude": -79.42749288481735}, "827150343RR0001": {"name": "HI-SPEED HOUNDS GREYHOUND RESCUE AND ADOPTION INC.", "designationCode": "C", "categoryCode": "54", "address": "125 DISRAELI STREET", "city": "WINNIPEG", "province": "MB", "country": "CA", "postalCode": "R2W3J4", "twitter": "None", "instagram": "None", "facebook": "None", "youtube": "None", "website": "None", "summary": "None", "logo": "None", "latitude": 49.90596882405207, "longitude": -97.12563877104837}, "873519516RR0001": {"name": "HI-WAY HARVEST FELLOWSHIP", "designationCode": "C", "categoryCode": "39", "address": "BOX 22", "city": "SMEATON", "province": "SK", "country": "CA", "postalCode": "S0J2J0", "twitter": "None", "instagram": "None", "facebook": "None", "youtube": "None", "website": "None", "summary": "None", "logo": "None", "latitude": 53.50009000000006, "longitude": -104.81764999999996}, "118958701RR0001": {"name": "HI-WAY PENTECOSTAL CHURCH", "designationCode": "C", "categoryCode": "36", "address": "RR 2", "city": "INGERSOLL", "province": "ON", "country": "CA", "postalCode": "N5C3J5", "twitter": "None", "instagram": "None", "facebook": "None", "youtube": "None", "website": "None", "summary": "None", "logo": "None", "latitude": 43.085512461994405, "longitude": -80.91122014735551}, "131621773RR0001": {"name": "HI-WAY PENTECOSTAL TABERNACLE", "designationCode": "C", "categoryCode": "36", "address": "BOX 1184", "city": "TRURO", "province": "NS", "country": "CA", "postalCode": "B2N5H1", "twitter": "None", "instagram": "None", "facebook": "None", "youtube": "None", "website": "None", "summary": "None", "logo": "None", "latitude": 45.36602700000006, "longitude": -63.289042999999936}, "871885943RR0001": {"name": "HI-WAY TABERNACLE", "designationCode": "C", "categoryCode": "36", "address": "BOX 188", "city": "WHITE FOX", "province": "SK", "country": "CA", "postalCode": "S0J3B0", "twitter": "None", "instagram": "None", "facebook": "None", "youtube": "None", "website": "None", "summary": "None", "logo": "None", "latitude": 53.452810000000056, "longitude": -104.08603999999997}, "129209300RR0001": {"name": "HIATUS HOUSE", "designationCode": "C", "categoryCode": "01", "address": "250 LOUIS AVE.", "city": "WINDSOR", "province": "ON", "country": "CA", "postalCode": "N9A1W2", "twitter": "None", "instagram": "None", "facebook": "None", "youtube": "None", "website": "None", "summary": "None", "logo": "None", "latitude": 42.32063170803269, "longitude": -83.02912351148387}, "118956820RR0001": {"name": "HIAWATHA PASTORAL CHARGE", "designationCode": "C", "categoryCode": "44", "address": "40 PAUDASH ST.", "city": "HIAWATHA FIRST NATION", "province": "ON", "country": "CA", "postalCode": "K9J0E6", "twitter": "None", "instagram": "None", "facebook": "None", "youtube": "None", "website": "None", "summary": "None", "logo": "None", "latitude": 44.1775435468797, "longitude": -78.20695580902682}, "102345519RR0001": {"name": "HICHAUD INC.", "designationCode": "C", "categoryCode": "09", "address": "2485 BOUL NEUVIALLE", "city": "QUEBEC", "province": "QC", "country": "CA", "postalCode": "G1P3A6", "twitter": "None", "instagram": "None", "facebook": "None", "youtube": "None", "website": "None", "summary": "None", "logo": "None", "latitude": 46.811590178169645, "longitude": -71.31280030743228}, "118956861RR0001": {"name": "HIDDEN ACRES MENNONITE CAMP INC.", "designationCode": "C", "categoryCode": "34", "address": "1921 LINE 37", "city": "NEW HAMBURG", "province": "ON", "country": "CA", "postalCode": "N3A4B5", "twitter": "None", "instagram": "None", "facebook": "None", "youtube": "None", "website": "None", "summary": "None", "logo": "None", "latitude": 43.38755948942494, "longitude": -80.80220083739621}, "870228236RR0001": {"name": "HIDDEN VALLEY CHARITABLE TRUST", "designationCode": "B", "categoryCode": "39", "address": "780 SASKATCHEWAN AVE W", "city": "PORTAGE LA PRAIRIE", "province": "MB", "country": "CA", "postalCode": "R1N0M7", "twitter": "None", "instagram": "None", "facebook": "None", "youtube": "None", "website": "None", "summary": "None", "logo": "None", "latitude": 49.97373494820344, "longitude": -98.30132080652011}, "890366818RR0001": {"name": "HIEBERT INSPIRATIONAL SUPPORT FOUNDATION INC.", "designationCode": "B", "categoryCode": "03", "address": "27 DUNBAR CRES", "city": "WINNIPEG", "province": "MB", "country": "CA", "postalCode": "R3C0W6", "twitter": "None", "instagram": "None", "facebook": "None", "youtube": "None", "website": "None", "summary": "None", "logo": "None", "latitude": 49.853294716082786, "longitude": -97.21945217779428}, "853114999RR0001": {"name": "HIGGINSVILLE CEMETERY SOCIETY", "designationCode": "C", "categoryCode": "59", "address": "1181 HIGGINSVILLE ROAD", "city": "MIDDLE MUSQUODOBOIT", "province": "NS", "country": "CA", "postalCode": "B0N1X0", "twitter": "None", "instagram": "None", "facebook": "None", "youtube": "None", "website": "None", "summary": "None", "logo": "None", "latitude": 45.04127284652887, "longitude": -63.08623218806605}, "118956887RR0001": {"name": "HIGGINSVILLE UNITED CHURCH", "designationCode": "C", "categoryCode": "44", "address": "70 BROWNS PLACE ROAD          RR#2", "city": "MIDDLE MUSQUODOBOIT", "province": "NS", "country": "CA", "postalCode": "B0N1X0", "twitter": "None", "instagram": "None", "facebook": "None", "youtube": "None", "website": "None", "summary": "None", "logo": "None", "latitude": 45.03639460877829, "longitude": -63.0841541100754}, "107480626RR0001": {"name": "HIGH ADVENTURE GOSPEL COMMUNICATION MINISTRIES", "designationCode": "C", "categoryCode": "47", "address": "PO BOX 95561                  350 DAVIS DRIVE", "city": "NEWMARKET", "province": "ON", "country": "CA", "postalCode": "L3Y8J8", "twitter": "None", "instagram": "None", "facebook": "None", "youtube": "None", "website": "None", "summary": "None", "logo": "None", "latitude": 44.058312882018754, "longitude": -79.46471391006413}, "118956911RR0001": {"name": "HIGH BLUFF CEMETERY ASSOCIATION", "designationCode": "C", "categoryCode": "59", "address": "BOX 44", "city": "HIGH BLUFF", "province": "MB", "country": "CA", "postalCode": "R0H0K0", "twitter": "None", "instagram": "None", "facebook": "None", "youtube": "None", "website": "None", "summary": "None", "logo": "None", "latitude": 33.492825754932575, "longitude": -117.70612951470541}, "132290115RR0001": {"name": "HIGH COUNTRY UNITED CHURCH", "designationCode": "C", "categoryCode": "44", "address": "346255 15TH SIDEROAD", "city": "MONO", "province": "ON", "country": "CA", "postalCode": "L9W6R9", "twitter": "None", "instagram": "None", "facebook": "None", "youtube": "None", "website": "None", "summary": "None", "logo": "None", "latitude": 43.99953808568202, "longitude": -80.1202883732322}, "890072929RR0001": {"name": "HIGH COURT YOUTH MINISTRIES", "designationCode": "B", "categoryCode": "47", "address": "1057 DEACON DRIVE", "city": "MILTON", "province": "ON", "country": "CA", "postalCode": "L9T5S5", "twitter": "None", "instagram": "None", "facebook": "None", "youtube": "None", "website": "None", "summary": "None", "logo": "None", "latitude": 43.509963677765604, "longitude": -79.83751621859294}, "874047491RR0001": {"name": "HIGH LEVEL CHRISTIAN EDUCATION SOCIETY", "designationCode": "C", "categoryCode": "20", "address": "P.O. BOX 1110", "city": "HIGH LEVEL", "province": "AB", "country": "CA", "postalCode": "T0H1Z0", "twitter": "None", "instagram": "None", "facebook": "None", "youtube": "None", "website": "None", "summary": "None", "logo": "None", "latitude": 58.52077909031678, "longitude": -117.13094845132863}, "118957174RR0001": {"name": "HIGH LEVEL CHRISTIAN FELLOWSHIP", "designationCode": "C", "categoryCode": "34", "address": "BOX 486", "city": "HIGH LEVEL", "province": "AB", "country": "CA", "postalCode": "T0H1Z0", "twitter": "None", "instagram": "None", "facebook": "None", "youtube": "None", "website": "None", "summary": "None", "logo": "None", "latitude": 58.52077909031678, "longitude": -117.13094845132863}, "878848217RR0001": {"name": "HIGH LEVEL COMMUNITY POLICING SOCIETY", "designationCode": "C", "categoryCode": "59", "address": "10203 100 AVE, PO BOX 2001", "city": "HIGH LEVEL", "province": "AB", "country": "CA", "postalCode": "T0H1Z0", "twitter": "None", "instagram": "None", "facebook": "None", "youtube": "None", "website": "None", "summary": "None", "logo": "None", "latitude": 58.51953584041802, "longitude": -117.13524160084756}, "119288918RR0335": {"name": "HIGH LEVEL CONGREGATION OF JEHOVAH'S WITNESSES", "designationCode": "C", "categoryCode": "61", "address": "P.O. BOX 1632", "city": "HIGH LEVEL", "province": "AB", "country": "CA", "postalCode": "T0H1Z0", "twitter": "None", "instagram": "None", "facebook": "None", "youtube": "None", "website": "None", "summary": "None", "logo": "None", "latitude": 58.52077909031678, "longitude": -117.13094845132863}, "118957208RR0001": {"name": "HIGH LEVEL EVANGELICAL CHURCH", "designationCode": "C", "categoryCode": "34", "address": "P.O. BOX 933", "city": "HIGH LEVEL", "province": "AB", "country": "CA", "postalCode": "T0H1Z0", "twitter": "None", "instagram": "None", "facebook": "None", "youtube": "None", "website": "None", "summary": "None", "logo": "None", "latitude": 58.52077909031678, "longitude": -117.13094845132863}, "118957216RR0001": {"name": "HIGH LEVEL FULL GOSPEL CHURCH", "designationCode": "C", "categoryCode": "36", "address": "#5 CHONKOLAY DRIVE", "city": "HIGH LEVEL", "province": "AB", "country": "CA", "postalCode": "T0H1Z0", "twitter": "None", "instagram": "None", "facebook": "None", "youtube": "None", "website": "None", "summary": "None", "logo": "None", "latitude": 58.51102572410421, "longitude": -117.15108815274999}, "107481194RR0001": {"name": "HIGH LEVEL NATIVE FRIENDSHIP CENTRE SOCIETY", "designationCode": "C", "categoryCode": "56", "address": "BOX 1735", "city": "HIGH LEVEL", "province": "AB", "country": "CA", "postalCode": "T0H1Z0", "twitter": "None", "instagram": "None", "facebook": "None", "youtube": "None", "website": "None", "summary": "None", "logo": "None", "latitude": 58.52077909031678, "longitude": -117.13094845132863}, "878392059RR0001": {"name": "HIGH LEVEL TOY LENDING LIBRARY SOCIETY", "designationCode": "C", "categoryCode": "50", "address": "BOX 3147", "city": "HIGH LEVEL", "province": "AB", "country": "CA", "postalCode": "T0H1Z0", "twitter": "None", "instagram": "None", "facebook": "None", "youtube": "None", "website": "None", "summary": "None", "logo": "None", "latitude": 58.52077909031678, "longitude": -117.13094845132863}, "866389505RR0001": {"name": "HIGH PARK INITIATIVES", "designationCode": "C", "categoryCode": "59", "address": "P.O. BOX 30044 HIGH PARK P.O.", "city": "TORONTO", "province": "ON", "country": "CA", "postalCode": "M6P4J2", "twitter": "None", "instagram": "None", "facebook": "None", "youtube": "None", "website": "None", "summary": "None", "logo": "None", "latitude": 43.65950436984295, "longitude": -79.46781488629269}, "107481335RR0001": {"name": "HIGH PARK UNITED CHURCH", "designationCode": "C", "categoryCode": "44", "address": "1081 BRENCHLEY ST", "city": "SARNIA", "province": "ON", "country": "CA", "postalCode": "N7S1R6", "twitter": "None", "instagram": "None", "facebook": "None", "youtube": "None", "website": "None", "summary": "None", "logo": "None", "latitude": 42.979935553404374, "longitude": -82.36874788077442}, "891425845RR0001": {"name": "HIGH PRAIRIE & DISTRICT HOLISTIC PALLIATIVE CARE SOCIETY", "designationCode": "C", "categoryCode": "11", "address": "PO BOX 2253", "city": "HIGH PRAIRIE", "province": "AB", "country": "CA", "postalCode": "T0G1E0", "twitter": "None", "instagram": "None", "facebook": "None", "youtube": "None", "website": "None", "summary": "None", "logo": "None", "latitude": 55.43288000000007, "longitude": -116.48133999999999}, "107481392RR0001": {"name": "HIGH PRAIRIE & DISTRICT MUSEUM AND HISTORICAL SOCIETY", "designationCode": "C", "categoryCode": "50", "address": "BOX 1442", "city": "HIGH PRAIRIE", "province": "AB", "country": "CA", "postalCode": "T0G1E0", "twitter": "None", "instagram": "None", "facebook": "None", "youtube": "None", "website": "None", "summary": "None", "logo": "None", "latitude": 55.43123005496565, "longitude": -116.49809993060764}, "892819368RR0001": {"name": "HIGH PRAIRIE & DISTRICT SPORTS COMPLEX SOCIETY", "designationCode": "C", "categoryCode": "56", "address": "5101-43 STREET                POST OFFICE BOX 566", "city": "HIGH PRAIRIE", "province": "AB", "country": "CA", "postalCode": "T0G1E0", "twitter": "None", "instagram": "None", "facebook": "None", "youtube": "None", "website": "None", "summary": "None", "logo": "None", "latitude": 55.43121695337297, "longitude": -116.4766141863353}, "134234939RR0001": {"name": "HIGH PRAIRIE AND DISTRICT AGRICULTURAL SOCIETY", "designationCode": "C", "categoryCode": "56", "address": "PO BOX 1773", "city": "HIGH PRAIRIE", "province": "AB", "country": "CA", "postalCode": "T0G1E0", "twitter": "None", "instagram": "None", "facebook": "None", "youtube": "None", "website": "None", "summary": "None", "logo": "None", "latitude": 55.43288000000007, "longitude": -116.48133999999999}, "891029860RR0001": {"name": "HIGH PRAIRIE AND DISTRICT FOOD BANK SOCIETY", "designationCode": "C", "categoryCode": "09", "address": "P.O. BOX 833", "city": "HIGH PRAIRIE", "province": "AB", "country": "CA", "postalCode": "T0G1E0", "twitter": "None", "instagram": "None", "facebook": "None", "youtube": "None", "website": "None", "summary": "None", "logo": "None", "latitude": 55.43123005496565, "longitude": -116.49809993060764}, "888587995RR0001": {"name": "HIGH PRAIRIE CHRISTIAN CENTRE", "designationCode": "C", "categoryCode": "36", "address": "BOX 1076", "city": "HIGH PRAIRIE", "province": "AB", "country": "CA", "postalCode": "T0G1E0", "twitter": "None", "instagram": "None", "facebook": "None", "youtube": "None", "website": "None", "summary": "None", "logo": "None", "latitude": 55.43123005496565, "longitude": -116.49809993060764}, "853504686RR0001": {"name": "HIGH PRAIRIE COMMUNITY CHURCH AND MINISTRIES", "designationCode": "C", "categoryCode": "39", "address": "BOX 16", "city": "HIGH PRAIRIE", "province": "AB", "country": "CA", "postalCode": "T0G1E0", "twitter": "None", "instagram": "None", "facebook": "None", "youtube": "None", "website": "None", "summary": "None", "logo": "None", "latitude": 55.43123005496565, "longitude": -116.49809993060764}, "119237600RR0002": {"name": "HIGH PRAIRIE CONGREGATION OF JEHOVAH'S WITNESSES", "designationCode": "C", "categoryCode": "61", "address": "P.O. BOX 1765", "city": "HIGH PRAIRIE", "province": "AB", "country": "CA", "postalCode": "T0G1E0", "twitter": "None", "instagram": "None", "facebook": "None", "youtube": "None", "website": "None", "summary": "None", "logo": "None", "latitude": 55.43288000000007, "longitude": -116.48133999999999}, "130592926RR0001": {"name": "HIGH PRAIRIE HEALTH CARE AUXILIARY SOCIETY", "designationCode": "C", "categoryCode": "19", "address": "PO BOX 535", "city": "HIGH PRAIRIE", "province": "AB", "country": "CA", "postalCode": "T0G1E0", "twitter": "None", "instagram": "None", "facebook": "None", "youtube": "None", "website": "None", "summary": "None", "logo": "None", "latitude": 55.43123005496565, "longitude": -116.49809993060764}, "107481400RR0001": {"name": "HIGH PRAIRIE MUNICIPAL LIBRARY BOARD", "designationCode": "C", "categoryCode": "50", "address": "BOX 890", "city": "HIGH PRAIRIE", "province": "AB", "country": "CA", "postalCode": "T0G1E0", "twitter": "None", "instagram": "None", "facebook": "None", "youtube": "None", "website": "None", "summary": "None", "logo": "None", "latitude": 55.43123005496565, "longitude": -116.49809993060764}, "118957307RR0001": {"name": "HIGH PRAIRIE NATIVE FRIENDSHIP CENTRE SOCIETY", "designationCode": "C", "categoryCode": "56", "address": "4919-51 AVENUE                BOX 1448", "city": "HIGH PRAIRIE", "province": "AB", "country": "CA", "postalCode": "T0G1E0", "twitter": "None", "instagram": "None", "facebook": "None", "youtube": "None", "website": "None", "summary": "None", "logo": "None", "latitude": 55.431024539529254, "longitude": -116.4930615}, "118957315RR0001": {"name": "HIGH PRAIRIE SCHOOL DIVISION NO. 48", "designationCode": "C", "categoryCode": "20", "address": "BOX 870", "city": "HIGH PRAIRIE", "province": "AB", "country": "CA", "postalCode": "T0G1E0", "twitter": "None", "instagram": "None", "facebook": "None", "youtube": "None", "website": "None", "summary": "None", "logo": "None", "latitude": 55.43123005496565, "longitude": -116.49809993060764}, "891569774RR0001": {"name": "HIGH PRAIRIE UNITED CHURCH", "designationCode": "C", "categoryCode": "44", "address": "BOX 966", "city": "HIGH PRAIRIE", "province": "AB", "country": "CA", "postalCode": "T0G1E0", "twitter": "None", "instagram": "None", "facebook": "None", "youtube": "None", "website": "None", "summary": "None", "logo": "None", "latitude": 55.43123005496565, "longitude": -116.49809993060764}, "816146948RR0001": {"name": "HIGH PRAIRIE VICTORY LIFE CHURCH", "designationCode": "C", "categoryCode": "56", "address": "PO BOX 771", "city": "HIGH PRAIRIE", "province": "AB", "country": "CA", "postalCode": "T0G1E0", "twitter": "None", "instagram": "None", "facebook": "None", "youtube": "None", "website": "None", "summary": "None", "logo": "None", "latitude": 55.43123005496565, "longitude": -116.49809993060764}, "107481483RR0001": {"name": "HIGH RIVER ALLIANCE CHURCH", "designationCode": "C", "categoryCode": "39", "address": "1318 9 AVE SE", "city": "HIGH RIVER", "province": "AB", "country": "CA", "postalCode": "T1V1L2", "twitter": "None", "instagram": "None", "facebook": "None", "youtube": "None", "website": "None", "summary": "None", "logo": "None", "latitude": 50.57649449321932, "longitude": -113.84715813765945}, "118957349RR0001": {"name": "HIGH RIVER ALTA - CONGREGATION OF JEHOVAH'S WITNESSES", "designationCode": "C", "categoryCode": "61", "address": "PO BOX 45144 RPO HIGWOOD", "city": "HIGH RIVER", "province": "AB", "country": "CA", "postalCode": "T1V1R7", "twitter": "None", "instagram": "None", "facebook": "None", "youtube": "None", "website": "None", "summary": "None", "logo": "None", "latitude": 50.57484016940314, "longitude": -113.88951}, "892956160RR0001": {"name": "HIGH RIVER CHARITABLE TRUST", "designationCode": "B", "categoryCode": "39", "address": "3425-2 AVENUE SOUTH", "city": "LETHBRIDGE", "province": "AB", "country": "CA", "postalCode": "T1J4A1", "twitter": "None", "instagram": "None", "facebook": "None", "youtube": "None", "website": "None", "summary": "None", "logo": "None", "latitude": 49.696839530439966, "longitude": -112.78914308381903}, "118957372RR0001": {"name": "HIGH RIVER DISTRICT HEALTH CARE FOUNDATION", "designationCode": "A", "categoryCode": "03", "address": "560 - 9 AVENUE SW", "city": "HIGH RIVER", "province": "AB", "country": "CA", "postalCode": "T1V1B3", "twitter": "None", "instagram": "None", "facebook": "None", "youtube": "None", "website": "None", "summary": "None", "logo": "None", "latitude": 50.575175939007345, "longitude": -113.87947056099264}, "118957380RR0001": {"name": "HIGH RIVER FRIENDSHIP GROUP", "designationCode": "C", "categoryCode": "56", "address": "504 7TH STREET SW", "city": "HIGH RIVER", "province": "AB", "country": "CA", "postalCode": "T1V1B7", "twitter": "None", "instagram": "None", "facebook": "None", "youtube": "None", "website": "None", "summary": "None", "logo": "None", "latitude": 50.578568497085826, "longitude": -113.88205676654765}, "891437378RR0001": {"name": "HIGH RIVER HANDIBUS SOCIETY", "designationCode": "C", "categoryCode": "59", "address": "PO BOX 5976 STN MAIN", "city": "HIGH RIVER", "province": "AB", "country": "CA", "postalCode": "T1V1P6", "twitter": "None", "instagram": "None", "facebook": "None", "youtube": "None", "website": "None", "summary": "None", "logo": "None", "latitude": 50.57803500000006, "longitude": -113.85914299999993}, "892224445RR0001": {"name": "HIGH RIVER MEALS ON WHEELS", "designationCode": "C", "categoryCode": "09", "address": "560 - 9 AVENUE SW", "city": "HIGH RIVER", "province": "AB", "country": "CA", "postalCode": "T1V1B3", "twitter": "None", "instagram": "None", "facebook": "None", "youtube": "None", "website": "None", "summary": "None", "logo": "None", "latitude": 50.575175939007345, "longitude": -113.87947056099264}, "107481624RR0001": {"name": "HIGH RIVER PASTORAL CHARGE", "designationCode": "C", "categoryCode": "44", "address": "PO BOX 5520  STN MAIN", "city": "HIGH RIVER", "province": "AB", "country": "CA", "postalCode": "T1V1M6", "twitter": "None", "instagram": "None", "facebook": "None", "youtube": "None", "website": "None", "summary": "None", "logo": "None", "latitude": 50.57803500000006, "longitude": -113.85914299999993}, "136909918RR0001": {"name": "HIGH SIERRA TEENS SOCIETY", "designationCode": "C", "categoryCode": "09", "address": "4102 PLEASANT VALLEY RD", "city": "VERNON", "province": "BC", "country": "CA", "postalCode": "V1T4M2", "twitter": "None", "instagram": "None", "facebook": "None", "youtube": "None", "website": "None", "summary": "None", "logo": "None", "latitude": 50.272800463240706, "longitude": -119.25337979089944}, "119304202RR0001": {"name": "HIGH WAY CHURCH", "designationCode": "C", "categoryCode": "39", "address": "21746 LOUGHEED HWY            BOX 322", "city": "MAPLE RIDGE", "province": "BC", "country": "CA", "postalCode": "V2X7G2", "twitter": "None", "instagram": "None", "facebook": "None", "youtube": "None", "website": "None", "summary": "None", "logo": "None", "latitude": 49.21696647619647, "longitude": -122.61902230252755}, "878145713RR0001": {"name": "HIGHBANKS INDEPENDANT LIVING FOR PARENTING YOUTH SOCIETY", "designationCode": "C", "categoryCode": "09", "address": "317 19TH STREET N.W.", "city": "CALGARY", "province": "AB", "country": "CA", "postalCode": "T2N2J2", "twitter": "None", "instagram": "None", "facebook": "None", "youtube": "None", "website": "None", "summary": "None", "logo": "None", "latitude": 51.06314894848872, "longitude": -114.10631616443783}, "107480642RR0001": {"name": "HIGHBURY AVENUE GOSPEL HALL", "designationCode": "C", "categoryCode": "39", "address": "29-99 EDGEVALLEY RD", "city": "LONDON", "province": "ON", "country": "CA", "postalCode": "N5Y5N1", "twitter": "None", "instagram": "None", "facebook": "None", "youtube": "None", "website": "None", "summary": "None", "logo": "None", "latitude": 43.03583697977356, "longitude": -81.22461919069178}, "140844960RR0001": {"name": "HIGHBURY SCHOOL PARENT ASSOCIATION", "designationCode": "C", "categoryCode": "21", "address": "99 HIGHBURY RD", "city": "WINNIPEG", "province": "MB", "country": "CA", "postalCode": "R2N2N5", "twitter": "None", "instagram": "None", "facebook": "None", "youtube": "None", "website": "None", "summary": "None", "logo": "None", "latitude": 49.806207440187, "longitude": -97.09634949033473}, "869310540RR0001": {"name": "HIGHER GROUND CHRISTIAN MINISTRIES", "designationCode": "C", "categoryCode": "39", "address": "70 TAWNBERRY CIRCLE", "city": "BRAMPTON", "province": "ON", "country": "CA", "postalCode": "L7A0J8", "twitter": "None", "instagram": "None", "facebook": "None", "youtube": "None", "website": "None", "summary": "None", "logo": "None", "latitude": 43.69490712796459, "longitude": -79.84272839774354}, "836343962RR0001": {"name": "HIGHER GROUND NEIGHBOURHOOD OUTREACH", "designationCode": "C", "categoryCode": "22", "address": "2917 DUKELOW RD", "city": "SPENCERVILLE", "province": "ON", "country": "CA", "postalCode": "K0E1X0", "twitter": "None", "instagram": "None", "facebook": "None", "youtube": "None", "website": "None", "summary": "None", "logo": "None", "latitude": 44.85696295429941, "longitude": -75.57533832107164}, "833081474RR0001": {"name": "HIGHER HEIGHTS CHRISTIAN FELLOWSHIP", "designationCode": "C", "categoryCode": "39", "address": "BOX 223", "city": "SOUTH RIVER", "province": "ON", "country": "CA", "postalCode": "P0A1X0", "twitter": "None", "instagram": "None", "facebook": "None", "youtube": "None", "website": "None", "summary": "None", "logo": "None", "latitude": 45.65848557895783, "longitude": -79.6392448421024}, "866249808RR0001": {"name": "HIGHER PURPOSE MINISTRIES", "designationCode": "C", "categoryCode": "36", "address": "1295 NORTH SERVICES RD.", "city": "BURLINGTON", "province": "ON", "country": "CA", "postalCode": "L7R4M2", "twitter": "None", "instagram": "None", "facebook": "None", "youtube": "None", "website": "None", "summary": "None", "logo": "None", "latitude": 43.33626881605931, "longitude": -79.83474683259213}, "838748218RR0001": {"name": "HIGHER THAN AN EAGLE EVANGELISTIC MINISTRIES", "designationCode": "C", "categoryCode": "39", "address": "25 BRITTANY AV #307", "city": "MONT-ROYAL", "province": "QC", "country": "CA", "postalCode": "H3P1A2", "twitter": "None", "instagram": "None", "facebook": "None", "youtube": "None", "website": "None", "summary": "None", "logo": "None", "latitude": 45.52023226923069, "longitude": -73.65331079395786}, "118956945RR0001": {"name": "HIGHFIELD CEMETERY TRUST INC.", "designationCode": "C", "categoryCode": "59", "address": "33 SHERWOOD ROAD", "city": "CHARLOTTETOWN", "province": "PE", "country": "CA", "postalCode": "C1E1S7", "twitter": "None", "instagram": "None", "facebook": "None", "youtube": "None", "website": "None", "summary": "None", "logo": "None", "latitude": 46.27860305190718, "longitude": -63.16242041701769}, "869020420RR0001": {"name": "HIGHFIELD CHRISTIAN MINISTRIES", "designationCode": "B", "categoryCode": "49", "address": "88 AGASSIZ DR", "city": "WINNIPEG", "province": "MB", "country": "CA", "postalCode": "R3T2K7", "twitter": "None", "instagram": "None", "facebook": "None", "youtube": "None", "website": "None", "summary": "None", "logo": "None", "latitude": 49.81659147879261, "longitude": -97.14510291771018}, "118956952RR0001": {"name": "HIGHFIELD STREET UNITED BAPTIST CHURCH", "designationCode": "C", "categoryCode": "31", "address": "290 ST GEORGE ST", "city": "MONCTON", "province": "NB", "country": "CA", "postalCode": "E1C1W5", "twitter": "None", "instagram": "None", "facebook": "None", "youtube": "None", "website": "None", "summary": "None", "logo": "None", "latitude": 46.09060277655963, "longitude": -64.7853674568354}, "118956960RR0001": {"name": "HIGHGATE DISTRICT AGRICULTURAL SOCIETY", "designationCode": "C", "categoryCode": "56", "address": "PO BOX 58", "city": "HIGHGATE", "province": "ON", "country": "CA", "postalCode": "N0P1T0", "twitter": "None", "instagram": "None", "facebook": "None", "youtube": "None", "website": "None", "summary": "None", "logo": "None", "latitude": 42.49947000000003, "longitude": -81.81440999999995}, "867892143RR0001": {"name": "HIGHLAND ACADEMY OF LEARNING SOCIETY", "designationCode": "C", "categoryCode": "20", "address": "PO BOX 1593", "city": "ANTIGONISH", "province": "NS", "country": "CA", "postalCode": "B2G2L8", "twitter": "None", "instagram": "None", "facebook": "None", "youtube": "None", "website": "None", "summary": "None", "logo": "None", "latitude": 45.62219400000005, "longitude": -61.99427149999994}, "837390749RR0001": {"name": "HIGHLAND ANIMAL RELIEF TEAM INC.", "designationCode": "C", "categoryCode": "54", "address": "P.O. BOX 1713", "city": "BANCROFT", "province": "ON", "country": "CA", "postalCode": "K0L1C0", "twitter": "None", "instagram": "None", "facebook": "None", "youtube": "None", "website": "None", "summary": "None", "logo": "None", "latitude": 45.03567300000006, "longitude": -77.98000849999994}, "107480816RR0001": {"name": "HIGHLAND BAPTIST CHURCH", "designationCode": "C", "categoryCode": "31", "address": "135 HIGHLAND RD W", "city": "KITCHENER", "province": "ON", "country": "CA", "postalCode": "N2M3B9", "twitter": "None", "instagram": "None", "facebook": "None", "youtube": "None", "website": "None", "summary": "None", "logo": "None", "latitude": 43.44094176876936, "longitude": -80.50334730653825}}