{"889216594RR0001": {"name": "ST ANTHONY'S HEALTH CARE AUXILIARY", "designationCode": "C", "categoryCode": "19", "address": "P.O. BOX 533", "city": "ESTERHAZY", "province": "SK", "country": "CA", "postalCode": "S0A0X0", "twitter": "None", "instagram": "None", "facebook": "None", "youtube": "None", "website": "None", "summary": "None", "logo": "None", "latitude": 50.65157000000005, "longitude": -102.05784999999997}, "119264174RR0026": {"name": "ST ANTHONY'S PARISH", "designationCode": "C", "categoryCode": "38", "address": "123 HILLDALE RD.", "city": "THUNDER BAY", "province": "ON", "country": "CA", "postalCode": "P7G1H6", "twitter": "None", "instagram": "None", "facebook": "None", "youtube": "None", "website": "None", "summary": "None", "logo": "None", "latitude": 48.454539074960906, "longitude": -89.25883355222429}, "122418601RR0006": {"name": "ST ANTHONY'S PARISH", "designationCode": "C", "categoryCode": "38", "address": "P O BOX 250", "city": "BERWICK", "province": "NS", "country": "CA", "postalCode": "B0P1E0", "twitter": "None", "instagram": "None", "facebook": "None", "youtube": "None", "website": "None", "summary": "None", "logo": "None", "latitude": 45.04982000000007, "longitude": -64.73769999999996}, "131850893RR0001": {"name": "ST ANTHONY'S R C PARISH", "designationCode": "C", "categoryCode": "38", "address": "4609 50 AVE", "city": "ST PAUL", "province": "AB", "country": "CA", "postalCode": "T0A3A3", "twitter": "None", "instagram": "None", "facebook": "None", "youtube": "None", "website": "None", "summary": "None", "logo": "None", "latitude": 53.99135148730496, "longitude": -111.28695202553523}, "120969175RR0001": {"name": "ST AUGUSTINE EDUCATIONAL SOCIETY", "designationCode": "C", "categoryCode": "21", "address": "7112-7 STREET S.W.", "city": "CALGARY", "province": "AB", "country": "CA", "postalCode": "T2V1E9", "twitter": "None", "instagram": "None", "facebook": "None", "youtube": "None", "website": "None", "summary": "None", "logo": "None", "latitude": 50.9907697857349, "longitude": -114.08165697902375}, "119264174RR0004": {"name": "ST AUGUSTINE PARISH", "designationCode": "C", "categoryCode": "38", "address": "5045 TOWNLINE ROAD", "city": "MURILLO", "province": "ON", "country": "CA", "postalCode": "P7G1G5", "twitter": "None", "instagram": "None", "facebook": "None", "youtube": "None", "website": "None", "summary": "None", "logo": "None", "latitude": 48.43678474854292, "longitude": -89.4270214432454}, "134665538RR0002": {"name": "ST AUGUSTINE'S ANGLICAN CHURCH", "designationCode": "C", "categoryCode": "30", "address": "6110 FULTON ROAD", "city": "EDMONTON", "province": "AB", "country": "CA", "postalCode": "T6A3T3", "twitter": "None", "instagram": "None", "facebook": "None", "youtube": "None", "website": "None", "summary": "None", "logo": "None", "latitude": 53.54653756538159, "longitude": -113.42594802363064}, "892267642RR0001": {"name": "ST AUGUSTINE'S CHURCH", "designationCode": "C", "categoryCode": "30", "address": "BOITE POSTALE #185", "city": "RIVIERE-ST-AUGUSTIN", "province": "QC", "country": "CA", "postalCode": "G0G2R0", "twitter": "None", "instagram": "None", "facebook": "None", "youtube": "None", "website": "None", "summary": "None", "logo": "None", "latitude": 50.211591000000055, "longitude": -66.66665749999993}, "128967353RR0024": {"name": "ST AUGUSTINE'S PARISH", "designationCode": "C", "categoryCode": "38", "address": "1060 BASELINE ROAD", "city": "OTTAWA", "province": "ON", "country": "CA", "postalCode": "K2C0A6", "twitter": "None", "instagram": "None", "facebook": "None", "youtube": "None", "website": "None", "summary": "None", "logo": "None", "latitude": 45.36581369020177, "longitude": -75.7293987559874}, "130396609RR0001": {"name": "ST AUGUSTINE'S PARKLAND", "designationCode": "C", "categoryCode": "30", "address": "131 CHURCH ROAD", "city": "SPRUCE GROVE", "province": "AB", "country": "CA", "postalCode": "T7X3A5", "twitter": "None", "instagram": "None", "facebook": "None", "youtube": "None", "website": "None", "summary": "None", "logo": "None", "latitude": 53.543271497114475, "longitude": -113.90647155259965}, "129144549RR0036": {"name": "ST BARBARA'S CHURCH", "designationCode": "C", "categoryCode": "30", "address": "BOX 150", "city": "OKANAGAN FALLS", "province": "BC", "country": "CA", "postalCode": "V0H1R0", "twitter": "None", "instagram": "None", "facebook": "None", "youtube": "None", "website": "None", "summary": "None", "logo": "None", "latitude": 49.34373000000005, "longitude": -119.57151999999996}, "131595399RR0001": {"name": "ST BARNABAS ANGLICAN CHURCH", "designationCode": "C", "categoryCode": "30", "address": "PO BOX 304", "city": "THREE HILLS", "province": "AB", "country": "CA", "postalCode": "T0M2A0", "twitter": "None", "instagram": "None", "facebook": "None", "youtube": "None", "website": "None", "summary": "None", "logo": "None", "latitude": 52.38329400000001, "longitude": -114.606927}, "131910507RR0002": {"name": "ST BARTHOLOMEW ANGLICAN CHURCH", "designationCode": "C", "categoryCode": "30", "address": "881 AUTUMNWOOD DRIVE", "city": "WINNIPEG", "province": "MB", "country": "CA", "postalCode": "R2J1C2", "twitter": "None", "instagram": "None", "facebook": "None", "youtube": "None", "website": "None", "summary": "None", "logo": "None", "latitude": 49.86731645325739, "longitude": -97.08099252844941}, "890331648RR0001": {"name": "ST BARTHOLOMEW'S CHURCH", "designationCode": "C", "categoryCode": "30", "address": "668 CHUTE PANET", "city": "ST RAYMOND", "province": "QC", "country": "CA", "postalCode": "G3L4P2", "twitter": "None", "instagram": "None", "facebook": "None", "youtube": "None", "website": "None", "summary": "None", "logo": "None", "latitude": 46.86873632030114, "longitude": -71.86453054501092}, "135462919RR0001": {"name": "ST BARTHOLOMEWS ANGLICAN CHURCH", "designationCode": "C", "categoryCode": "30", "address": "PO BOX 665", "city": "WINNIPEG BEACH", "province": "MB", "country": "CA", "postalCode": "R0C3G0", "twitter": "None", "instagram": "None", "facebook": "None", "youtube": "None", "website": "None", "summary": "None", "logo": "None", "latitude": 50.49416000000008, "longitude": -96.96995999999996}, "888578598RR0001": {"name": "ST BASIL THE GREAT CHURCH", "designationCode": "C", "categoryCode": "38", "address": "201 - 940 THE EAST MALL", "city": "ETOBICOKE", "province": "ON", "country": "CA", "postalCode": "M9B6J7", "twitter": "None", "instagram": "None", "facebook": "None", "youtube": "None", "website": "None", "summary": "None", "logo": "None", "latitude": 43.67135190867915, "longitude": -79.57105579020694}, "128967353RR0060": {"name": "ST BASIL'S PARISH", "designationCode": "C", "categoryCode": "38", "address": "940 REX AVE ST", "city": "OTTAWA", "province": "ON", "country": "CA", "postalCode": "K2A2P7", "twitter": "None", "instagram": "None", "facebook": "None", "youtube": "None", "website": "None", "summary": "None", "logo": "None", "latitude": 45.373269429078654, "longitude": -75.7549451720227}, "891088742RR0001": {"name": "ST BENEDICT'S FOUNDATION INC", "designationCode": "A", "categoryCode": "43", "address": "225 MASTERS AVENUE", "city": "WINNIPEG", "province": "MB", "country": "CA", "postalCode": "R4A2A1", "twitter": "None", "instagram": "None", "facebook": "None", "youtube": "None", "website": "None", "summary": "None", "logo": "None", "latitude": 49.994993370488444, "longitude": -97.04900072304771}, "135866721RR0001": {"name": "ST BERNADETTE'S FAMILY RESOURCE CENTRE (METROPOLITAN TORONTO) INC", "designationCode": "C", "categoryCode": "09", "address": "128 EWART AVE", "city": "TORONTO", "province": "ON", "country": "CA", "postalCode": "M6M1M9", "twitter": "None", "instagram": "None", "facebook": "None", "youtube": "None", "website": "None", "summary": "None", "logo": "None", "latitude": 43.68694519790514, "longitude": -79.47273823633789}, "130091135RR0018": {"name": "ST BERNARD'S PARISH", "designationCode": "C", "categoryCode": "38", "address": "43 BOTSFORD STREET", "city": "MONCTON", "province": "NB", "country": "CA", "postalCode": "E1C4W9", "twitter": "None", "instagram": "None", "facebook": "None", "youtube": "None", "website": "None", "summary": "None", "logo": "None", "latitude": 46.09030440244674, "longitude": -64.77641973478}, "890569346RR0001": {"name": "ST BONAVENTURE JUNIOR HIGH EDUCATIONAL SOCIETY", "designationCode": "C", "categoryCode": "21", "address": "1710 ACADIA DRIVE SE", "city": "CALGARY", "province": "AB", "country": "CA", "postalCode": "T2J3X8", "twitter": "None", "instagram": "None", "facebook": "None", "youtube": "None", "website": "None", "summary": "None", "logo": "None", "latitude": 50.93185500000001, "longitude": -114.048098880778}, "886155795RR0001": {"name": "ST BONAVENTURE SCHOLARSHIP SOCIETY", "designationCode": "C", "categoryCode": "21", "address": "44 LAKE LINNET CLOSE SE", "city": "CALGARY", "province": "AB", "country": "CA", "postalCode": "T2J2J1", "twitter": "None", "instagram": "None", "facebook": "None", "youtube": "None", "website": "None", "summary": "None", "logo": "None", "latitude": 50.94742097668649, "longitude": -114.05235733651686}, "129958724RR0001": {"name": "ST BONIFACE DIOCESAN HIGH SCHOOL INC", "designationCode": "C", "categoryCode": "20", "address": "282 DUBUC STREET", "city": "WINNIPEG", "province": "MB", "country": "CA", "postalCode": "R2H1E4", "twitter": "None", "instagram": "None", "facebook": "None", "youtube": "None", "website": "None", "summary": "None", "logo": "None", "latitude": 49.87728751399405, "longitude": -97.11436199847078}, "889390043RR0001": {"name": "ST BONIFACE GENERAL HOSPITAL EMPLOYEES, CHARITY TRUST", "designationCode": "B", "categoryCode": "75", "address": "409 TACHE AVENUE, RM A1108", "city": "WINNIPEG", "province": "MB", "country": "CA", "postalCode": "R2M2A6", "twitter": "None", "instagram": "None", "facebook": "None", "youtube": "None", "website": "None", "summary": "None", "logo": "None", "latitude": 49.88406859893824, "longitude": -97.12368486190692}, "128967353RR0067": {"name": "ST BRIGID R C COMMUNITY CHURCH (MANOTICK)", "designationCode": "C", "categoryCode": "38", "address": "2546 STAGECOACH ROAD", "city": "OSGOODE", "province": "ON", "country": "CA", "postalCode": "K0A2W0", "twitter": "None", "instagram": "None", "facebook": "None", "youtube": "None", "website": "None", "summary": "None", "logo": "None", "latitude": 45.195343937930524, "longitude": -75.56759166909056}, "891290967RR0001": {"name": "ST BRIGIDS HOME FOUNDATION", "designationCode": "A", "categoryCode": "03", "address": "1645, CHEMIN SAINT LOUIS", "city": "SILLERY", "province": "QC", "country": "CA", "postalCode": "G1S4M3", "twitter": "None", "instagram": "None", "facebook": "None", "youtube": "None", "website": "None", "summary": "None", "logo": "None", "latitude": 46.78417698335157, "longitude": -71.24603280743322}, "119264174RR0012": {"name": "ST CASIMIR'S R C CHURCH", "designationCode": "C", "categoryCode": "38", "address": "93 ALGOMA ST N", "city": "THUNDER BAY", "province": "ON", "country": "CA", "postalCode": "P7A4Z5", "twitter": "None", "instagram": "None", "facebook": "None", "youtube": "None", "website": "None", "summary": "None", "logo": "None", "latitude": 48.43973392033592, "longitude": -89.2211673682845}, "892237843RR0001": {"name": "ST CATHARINES COLLEGIATE INSTITUTE AND VOCATIONAL SCHOOL ALUMNI FUND", "designationCode": "C", "categoryCode": "25", "address": "401-321 GENEVA ST", "city": "ST CATHARINES", "province": "ON", "country": "CA", "postalCode": "L2N7N4", "twitter": "None", "instagram": "None", "facebook": "None", "youtube": "None", "website": "None", "summary": "None", "logo": "None", "latitude": 43.17955687177561, "longitude": -79.24097805150313}, "140774480RR0001": {"name": "ST CATHARINES FIRST NETHERLANDS REFORMED CONGREGATION", "designationCode": "C", "categoryCode": "39", "address": "37 ZIRALDO ROAD", "city": "ST CATHARINES", "province": "ON", "country": "CA", "postalCode": "L2N6S7", "twitter": "None", "instagram": "None", "facebook": "None", "youtube": "None", "website": "None", "summary": "None", "logo": "None", "latitude": 43.192651799873154, "longitude": -79.26476126239271}, "135323525RR0001": {"name": "ST CATHARINES NETHERLANDS REFORMED CONGREGATION", "designationCode": "C", "categoryCode": "39", "address": "1372 GREGORY RD N             RR 3", "city": "ST CATHARINES", "province": "ON", "country": "CA", "postalCode": "L2R6P9", "twitter": "None", "instagram": "None", "facebook": "None", "youtube": "None", "website": "None", "summary": "None", "logo": "None", "latitude": 43.17949348157852, "longitude": -79.31531033802503}, "132395740RR0001": {"name": "ST CATHARINES UNITED MENNONITE CHURCH", "designationCode": "C", "categoryCode": "34", "address": "PO BOX 20299", "city": "ST CATHARINES", "province": "ON", "country": "CA", "postalCode": "L2M7W7", "twitter": "None", "instagram": "None", "facebook": "None", "youtube": "None", "website": "None", "summary": "None", "logo": "None", "latitude": 43.15634700000005, "longitude": -79.24869349999993}, "128967353RR0059": {"name": "ST CATHERINES PARISH", "designationCode": "C", "categoryCode": "38", "address": "PO BOX 220", "city": "METCALFE", "province": "ON", "country": "CA", "postalCode": "K0A2P0", "twitter": "None", "instagram": "None", "facebook": "None", "youtube": "None", "website": "None", "summary": "None", "logo": "None", "latitude": 45.216193377378154, "longitude": -76.19296584601686}, "132409459RR0002": {"name": "ST CECILIA'S CHURCH (MISSION OF STONEWALL)", "designationCode": "C", "categoryCode": "38", "address": "PO BOX 1159", "city": "STONEWALL", "province": "MB", "country": "CA", "postalCode": "R0C2Z0", "twitter": "None", "instagram": "None", "facebook": "None", "youtube": "None", "website": "None", "summary": "None", "logo": "None", "latitude": 50.36947800000006, "longitude": -96.84479599999993}, "887619997RR0001": {"name": "ST CHARLES-HEADINGLY PASTORAL CHARGE", "designationCode": "C", "categoryCode": "44", "address": "8707 ROBLIN BLVD", "city": "HEADINGLEY", "province": "MB", "country": "CA", "postalCode": "R4J1B7", "twitter": "None", "instagram": "None", "facebook": "None", "youtube": "None", "website": "None", "summary": "None", "logo": "None", "latitude": 49.8661465524724, "longitude": -97.42436128418488}, "129144549RR0034": {"name": "ST CHRISTOPHER'S CHURCH", "designationCode": "C", "categoryCode": "30", "address": "BOX 446", "city": "OSOYOOS", "province": "BC", "country": "CA", "postalCode": "V0H1V0", "twitter": "None", "instagram": "None", "facebook": "None", "youtube": "None", "website": "None", "summary": "None", "logo": "None", "latitude": 49.03284000000008, "longitude": -119.46625999999998}, "892003666RR0001": {"name": "ST CHRISTOPHER'S CHURCH", "designationCode": "C", "categoryCode": "38", "address": "78 BALSAM. P.O. BOX 910", "city": "COPPER CLIFF", "province": "ON", "country": "CA", "postalCode": "P0M1N0", "twitter": "None", "instagram": "None", "facebook": "None", "youtube": "None", "website": "None", "summary": "None", "logo": "None", "latitude": 46.469887773289116, "longitude": -81.06394731559944}, "877722470RR0001": {"name": "ST CLAIR COLLEGE FOUNDATION", "designationCode": "A", "categoryCode": "23", "address": "2000 TALBOT RD WEST", "city": "WINDSOR", "province": "ON", "country": "CA", "postalCode": "N9A6S4", "twitter": "None", "instagram": "None", "facebook": "None", "youtube": "None", "website": "None", "summary": "None", "logo": "None", "latitude": 42.239827793249944, "longitude": -82.96766610702328}, "887398592RR0001": {"name": "ST CLAIR COLLEGE OF APPLIED ARTS & TECHNOLOGY EMPLOYEES CHARITY TRUST", "designationCode": "C", "categoryCode": "75", "address": "2000 TALBOT ROAD WEST", "city": "WINDSOR", "province": "ON", "country": "CA", "postalCode": "N9A6S4", "twitter": "None", "instagram": "None", "facebook": "None", "youtube": "None", "website": "None", "summary": "None", "logo": "None", "latitude": 42.239827793249944, "longitude": -82.96766610702328}, "883654899RR0001": {"name": "ST CLAIR O'CONNOR COMMUNITY FOUNDATION", "designationCode": "A", "categoryCode": "53", "address": "2701 ST CLAIR AVENUE EAST", "city": "TORONTO", "province": "ON", "country": "CA", "postalCode": "M4B3M3", "twitter": "None", "instagram": "None", "facebook": "None", "youtube": "None", "website": "None", "summary": "None", "logo": "None", "latitude": 43.70561283484345, "longitude": -79.31187578919733}, "871594354RR0001": {"name": "ST CLAIR RIVER TRAIL COMMITTEE", "designationCode": "C", "categoryCode": "56", "address": "1155 EMILY STREET", "city": "MOORETOWN", "province": "ON", "country": "CA", "postalCode": "N0N1M0", "twitter": "None", "instagram": "None", "facebook": "None", "youtube": "None", "website": "None", "summary": "None", "logo": "None", "latitude": 42.842923375526524, "longitude": -82.46332972225693}, "896252855RR0001": {"name": "ST CLAIR UNITED CHURCH", "designationCode": "C", "categoryCode": "44", "address": "978 TASHMOO AVE               RR 4", "city": "SARNIA", "province": "ON", "country": "CA", "postalCode": "N7T7H5", "twitter": "None", "instagram": "None", "facebook": "None", "youtube": "None", "website": "None", "summary": "None", "logo": "None", "latitude": 42.94345491618097, "longitude": -82.41675395960536}, "128967353RR0035": {"name": "ST CLARE'S MISSION", "designationCode": "C", "categoryCode": "38", "address": "BOX 59", "city": "RICHMOND", "province": "ON", "country": "CA", "postalCode": "K0A2Z0", "twitter": "None", "instagram": "None", "facebook": "None", "youtube": "None", "website": "None", "summary": "None", "logo": "None", "latitude": 45.07289024235629, "longitude": -76.0222203768388}, "873058192RR0001": {"name": "ST CLARE'S MULTIFAITH HOUSING SOCIETY", "designationCode": "C", "categoryCode": "01", "address": "801 - 138 PEARS AVE", "city": "TORONTO", "province": "ON", "country": "CA", "postalCode": "M5R3K6", "twitter": "None", "instagram": "None", "facebook": "None", "youtube": "None", "website": "None", "summary": "None", "logo": "None", "latitude": 43.675339157943206, "longitude": -79.39800567805408}, "128967353RR0066": {"name": "ST CLEMENT'S PARISH/LA PAROISSE ST-CLEMENT", "designationCode": "C", "categoryCode": "38", "address": "528 OLD ST. PATRICK STREET", "city": "OTTAWA", "province": "ON", "country": "CA", "postalCode": "K1N5L5", "twitter": "None", "instagram": "None", "facebook": "None", "youtube": "None", "website": "None", "summary": "None", "logo": "None", "latitude": 45.4348056547119, "longitude": -75.68344881874327}, "119238210RR0004": {"name": "ST CLEMENTS ANGLICAN CHURCH", "designationCode": "C", "categoryCode": "30", "address": "BOX 599", "city": "HOUSTON", "province": "BC", "country": "CA", "postalCode": "V0J1Z0", "twitter": "None", "instagram": "None", "facebook": "None", "youtube": "None", "website": "None", "summary": "None", "logo": "None", "latitude": 55.240365186846496, "longitude": -127.654727473102}, "888687647RR0001": {"name": "ST COLUMBA ANGLICAN CHURCH", "designationCode": "C", "categoryCode": "30", "address": "12109 HARRIS ROAD", "city": "PITT MEADOWS", "province": "BC", "country": "CA", "postalCode": "V3Y2B6", "twitter": "None", "instagram": "None", "facebook": "None", "youtube": "None", "website": "None", "summary": "None", "logo": "None", "latitude": 49.22263752844941, "longitude": -122.68964407441264}, "889380622RR0001": {"name": "ST COLUMBA CATHOLIC CEMETERY", "designationCode": "C", "categoryCode": "59", "address": "BOX 569", "city": "ELK POINT", "province": "AB", "country": "CA", "postalCode": "T0A1A0", "twitter": "None", "instagram": "None", "facebook": "None", "youtube": "None", "website": "None", "summary": "None", "logo": "None", "latitude": 54.815265, "longitude": -111.92067675}, "888511664RR0001": {"name": "ST COLUMBA CEMETERY COMPANY", "designationCode": "B", "categoryCode": "59", "address": "3559 TRAFALGAR RD             RR # 1", "city": "HOPEWELL", "province": "NS", "country": "CA", "postalCode": "B0K1C0", "twitter": "None", "instagram": "None", "facebook": "None", "youtube": "None", "website": "None", "summary": "None", "logo": "None", "latitude": 45.46349700000006, "longitude": -62.73608749999994}, "129374633RR0001": {"name": "ST COLUMBA-BY-THE-LAKE PRESBYTERIAN CHURCH", "designationCode": "C", "categoryCode": "37", "address": "11 RODNEY AVE", "city": "POINTE CLAIRE", "province": "QC", "country": "CA", "postalCode": "H9R4L8", "twitter": "None", "instagram": "None", "facebook": "None", "youtube": "None", "website": "None", "summary": "None", "logo": "None", "latitude": 45.455370558428044, "longitude": -73.78389915955931}, "891472193RR0001": {"name": "ST COLUMBKILLE R C CHURCH", "designationCode": "C", "categoryCode": "38", "address": "BOX 695", "city": "GRENFELL", "province": "SK", "country": "CA", "postalCode": "S0G2B0", "twitter": "None", "instagram": "None", "facebook": "None", "youtube": "None", "website": "None", "summary": "None", "logo": "None", "latitude": 50.411193000000054, "longitude": -102.92259049999993}, "870949377RR0001": {"name": "ST CRISPIN'S DAY CARE CENTRE", "designationCode": "C", "categoryCode": "01", "address": "530 MIDLAND AVE", "city": "SCARBOROUGH", "province": "ON", "country": "CA", "postalCode": "M1N1T1", "twitter": "None", "instagram": "None", "facebook": "None", "youtube": "None", "website": "None", "summary": "None", "logo": "None", "latitude": 43.71742182930352, "longitude": -79.25081382448474}, "135939643RR0001": {"name": "ST CROIX ESTUARY PROJECT INC", "designationCode": "C", "categoryCode": "52", "address": "350 TODDS POINT RD", "city": "DUFFERIN CHARLOTTE CO", "province": "NB", "country": "CA", "postalCode": "E3L3R8", "twitter": "None", "instagram": "None", "facebook": "None", "youtube": "None", "website": "None", "summary": "None", "logo": "None", "latitude": 45.17216576941831, "longitude": -67.16472112626388}, "891421265RR0001": {"name": "ST CROIX VINEYARD, INC", "designationCode": "C", "categoryCode": "39", "address": "8 MAIN ST", "city": "ST STEPHEN", "province": "NB", "country": "CA", "postalCode": "E3L3E2", "twitter": "None", "instagram": "None", "facebook": "None", "youtube": "None", "website": "None", "summary": "None", "logo": "None", "latitude": 45.19285578212821, "longitude": -67.28178031406874}, "131437642RR0001": {"name": "ST CUTHBERT'S & ST GEORGE'S ANGLICAN CHURCH", "designationCode": "C", "categoryCode": "30", "address": "P O BOX 1035", "city": "SUNDRE", "province": "AB", "country": "CA", "postalCode": "T0M1X0", "twitter": "None", "instagram": "None", "facebook": "None", "youtube": "None", "website": "None", "summary": "None", "logo": "None", "latitude": 51.797180000000026, "longitude": -114.64119999999997}, "129921359RR0001": {"name": "ST CUTHBERT'S PRESBYTERIAN CHURCH", "designationCode": "C", "categoryCode": "37", "address": "2 BOND NORTH", "city": "HAMILTON", "province": "ON", "country": "CA", "postalCode": "L8S3W1", "twitter": "None", "instagram": "None", "facebook": "None", "youtube": "None", "website": "None", "summary": "None", "logo": "None", "latitude": 43.26345157201804, "longitude": -79.90155035287684}, "130002496RR0001": {"name": "ST CYPRIAN'S ANGLICAN CHURCH", "designationCode": "C", "categoryCode": "30", "address": "5005 C & E TRAIL", "city": "LACOMBE", "province": "AB", "country": "CA", "postalCode": "T4L1N5", "twitter": "None", "instagram": "None", "facebook": "None", "youtube": "None", "website": "None", "summary": "None", "logo": "None", "latitude": 52.46310099307652, "longitude": -113.74049566616354}, "129904181RR0001": {"name": "ST CYPRIAN'S CHURCH", "designationCode": "C", "categoryCode": "30", "address": "BOX 1635", "city": "DIDSBURY", "province": "AB", "country": "CA", "postalCode": "T0M0W0", "twitter": "None", "instagram": "None", "facebook": "None", "youtube": "None", "website": "None", "summary": "None", "logo": "None", "latitude": 51.666270000000054, "longitude": -114.13792999999998}, "871951562RR0001": {"name": "ST CYPRIANS ANGLICAN CHURCH DALHOUSIE N S", "designationCode": "C", "categoryCode": "30", "address": "34 BEZANSON LANE", "city": "EAST DALHOUSIE", "province": "NS", "country": "CA", "postalCode": "B0R1H0", "twitter": "None", "instagram": "None", "facebook": "None", "youtube": "None", "website": "None", "summary": "None", "logo": "None", "latitude": 44.67507000000006, "longitude": -64.85750899999994}, "887944247RR0001": {"name": "ST CYRIL AND METHODIUS RUSSIAN ORTHODOX EDUCATION ORGANIZATION IN OTTAWA INC", "designationCode": "C", "categoryCode": "29", "address": "530 KOCHAR DRIVE", "city": "OTTAWA", "province": "ON", "country": "CA", "postalCode": "K2C4H3", "twitter": "None", "instagram": "None", "facebook": "None", "youtube": "None", "website": "None", "summary": "None", "logo": "None", "latitude": 45.36054751399405, "longitude": -75.69699202553522}, "856362348RR0001": {"name": "ST CYRIL CATHOLIC SCHOOL FOUNDATION", "designationCode": "C", "categoryCode": "21", "address": "18 KEMPFORD BLVD.", "city": "TORONTO", "province": "ON", "country": "CA", "postalCode": "M2N2B9", "twitter": "None", "instagram": "None", "facebook": "None", "youtube": "None", "website": "None", "summary": "None", "logo": "None", "latitude": 43.77661107470108, "longitude": -79.41643837373752}, "131634073RR0001": {"name": "ST DAVID & ST MARTIN PRESBYTERIAN CHURCH", "designationCode": "C", "categoryCode": "37", "address": "444 ST LAURENT BLVD", "city": "OTTAWA", "province": "ON", "country": "CA", "postalCode": "K1K2Z6", "twitter": "None", "instagram": "None", "facebook": "None", "youtube": "None", "website": "None", "summary": "None", "logo": "None", "latitude": 45.446144459605364, "longitude": -75.6497331687919}, "130654593RR0002": {"name": "ST DAVID'S ANGLICAN CHURCH", "designationCode": "C", "categoryCode": "30", "address": "8345 79 AVE NW", "city": "EDMONTON", "province": "AB", "country": "CA", "postalCode": "T6C0R2", "twitter": "None", "instagram": "None", "facebook": "None", "youtube": "None", "website": "None", "summary": "None", "logo": "None", "latitude": 53.51509949956731, "longitude": -113.45774383236194}, "129144549RR0038": {"name": "ST DAVID'S ANGLICAN CHURCH OF CANADA", "designationCode": "C", "categoryCode": "30", "address": "614 CHRISTINA PLACE", "city": "CASTLEGAR", "province": "BC", "country": "CA", "postalCode": "V1N2K7", "twitter": "None", "instagram": "None", "facebook": "None", "youtube": "None", "website": "None", "summary": "None", "logo": "None", "latitude": 49.309582514859414, "longitude": -117.6599517171793}, "135286763RR0001": {"name": "ST DAVID'S PRESBYTERIAN CHURCH", "designationCode": "C", "categoryCode": "37", "address": "BOX 235                       130 MAIN STREET NORTH", "city": "CAMPBELLVILLE", "province": "ON", "country": "CA", "postalCode": "L0P1B0", "twitter": "None", "instagram": "None", "facebook": "None", "youtube": "None", "website": "None", "summary": "None", "logo": "None", "latitude": 43.48939733618112, "longitude": -79.98546587553396}, "890837594RR0001": {"name": "ST DAVID'S PRESBYTERIAN CHURCH", "designationCode": "C", "categoryCode": "37", "address": "1017 LAMBERT RD               RR 3", "city": "BRACEBRIDGE", "province": "ON", "country": "CA", "postalCode": "P1L1X1", "twitter": "None", "instagram": "None", "facebook": "None", "youtube": "None", "website": "None", "summary": "None", "logo": "None", "latitude": 44.9876433871833, "longitude": -79.05031909325409}, "130694664RR0001": {"name": "ST DAVID'S UNITED CHURCH", "designationCode": "C", "categoryCode": "44", "address": "190 SPRINGBANK AVE NORTH", "city": "WOODSTOCK", "province": "ON", "country": "CA", "postalCode": "N4S7R1", "twitter": "None", "instagram": "None", "facebook": "None", "youtube": "None", "website": "None", "summary": "None", "logo": "None", "latitude": 43.14098857525533, "longitude": -80.73211432270199}, "890918865RR0001": {"name": "ST DAVID'S UNITED CHURCH FOUNDATION OF CALGARY", "designationCode": "A", "categoryCode": "43", "address": "3303 CAPITOL HILL CRES N.W.", "city": "CALGARY", "province": "AB", "country": "CA", "postalCode": "T2M2R2", "twitter": "None", "instagram": "None", "facebook": "None", "youtube": "None", "website": "None", "summary": "None", "logo": "None", "latitude": 51.08158548542906, "longitude": -114.12264141618097}, "132279001RR0001": {"name": "ST DAVID'S WELSH MALE VOICE CHOIR ASSOCIATION", "designationCode": "C", "categoryCode": "22", "address": "8727-163 STREET", "city": "EDMONTON", "province": "AB", "country": "CA", "postalCode": "T5R2N7", "twitter": "None", "instagram": "None", "facebook": "None", "youtube": "None", "website": "None", "summary": "None", "logo": "None", "latitude": 53.52193682653356, "longitude": -113.60260582234996}, "888186798RR0001": {"name": "ST DAVIDS QUEENSTON UNITED CHURCH", "designationCode": "C", "categoryCode": "44", "address": "P.O BOX 89", "city": "ST. DAVIDS", "province": "ON", "country": "CA", "postalCode": "L0S1P0", "twitter": "None", "instagram": "None", "facebook": "None", "youtube": "None", "website": "None", "summary": "None", "logo": "None", "latitude": 43.12485443831538, "longitude": -79.22158421231498}, "124076555RR0001": {"name": "ST DEMETRIUS (UKRAINIAN CATHOLIC) DEVELOPMENT CORPORATION", "designationCode": "C", "categoryCode": "59", "address": "60 RICHVIEW RD", "city": "TORONTO", "province": "ON", "country": "CA", "postalCode": "M9A5E4", "twitter": "None", "instagram": "None", "facebook": "None", "youtube": "None", "website": "None", "summary": "None", "logo": "None", "latitude": 43.68410511466305, "longitude": -79.51872668486341}, "124077215RR0001": {"name": "ST DEMETRIUS CHURCH", "designationCode": "C", "categoryCode": "38", "address": "135 LAROSE AVE", "city": "TORONTO", "province": "ON", "country": "CA", "postalCode": "M9P1A6", "twitter": "None", "instagram": "None", "facebook": "None", "youtube": "None", "website": "None", "summary": "None", "logo": "None", "latitude": 47.40257446894174, "longitude": -79.67570354690997}, "886351394RR0001": {"name": "ST DEMETRIUS RUSSO-GREEK ORTHODOX CHURCH OF MUNDARE, AB", "designationCode": "C", "categoryCode": "39", "address": "5514 51 ST", "city": "VEGREVILLE", "province": "AB", "country": "CA", "postalCode": "T9C1K2", "twitter": "None", "instagram": "None", "facebook": "None", "youtube": "None", "website": "None", "summary": "None", "logo": "None", "latitude": 53.49852000000001, "longitude": -112.05126964158323}, "878784941RR0002": {"name": "ST DEMETRIUS UKRAINIAN ORTHODOX CHURCH IN YAROSLAW", "designationCode": "C", "categoryCode": "39", "address": "PO BOX 143", "city": "BRUDERHEIM", "province": "AB", "country": "CA", "postalCode": "T0B0S0", "twitter": "None", "instagram": "None", "facebook": "None", "youtube": "None", "website": "None", "summary": "None", "logo": "None", "latitude": 53.803450000000055, "longitude": -112.92708999999996}, "886062694RR0001": {"name": "ST DENNIS CEMETERY", "designationCode": "C", "categoryCode": "59", "address": "4899 BARRONSFIELD RD.         RR 2", "city": "RIVER HEBERT", "province": "NS", "country": "CA", "postalCode": "B0L1G0", "twitter": "None", "instagram": "None", "facebook": "None", "youtube": "None", "website": "None", "summary": "None", "logo": "None", "latitude": 45.75488254316461, "longitude": -64.34255300072114}, "119264174RR0019": {"name": "ST DOMENIC'S CHURCH", "designationCode": "C", "categoryCode": "38", "address": "130 REDWOOD AVE", "city": "THUNDER BAY", "province": "ON", "country": "CA", "postalCode": "P7C1Z4", "twitter": "None", "instagram": "None", "facebook": "None", "youtube": "None", "website": "None", "summary": "None", "logo": "None", "latitude": 48.394231954729285, "longitude": -89.2821563974264}, "870949393RR0001": {"name": "ST DOMINIC CEMETERY SOCIETY", "designationCode": "C", "categoryCode": "59", "address": "PO BOX 8244 RPO MARINE LAKE", "city": "COLD LAKE", "province": "AB", "country": "CA", "postalCode": "T9M1N2", "twitter": "None", "instagram": "None", "facebook": "None", "youtube": "None", "website": "None", "summary": "None", "logo": "None", "latitude": 54.479156561859355, "longitude": -110.20444827874415}, "131626905RR0001": {"name": "ST DOMINIC PARISH", "designationCode": "C", "categoryCode": "38", "address": "PO BOX 926 416 FIRST AVENUE", "city": "NEEPAWA", "province": "MB", "country": "CA", "postalCode": "R0J1H0", "twitter": "None", "instagram": "None", "facebook": "None", "youtube": "None", "website": "None", "summary": "None", "logo": "None", "latitude": 50.229305050900415, "longitude": -99.46767746897451}, "133638809RR0001": {"name": "ST EDMUND K AND M ANGLICAN CHURCH", "designationCode": "C", "categoryCode": "30", "address": "8336 34 AVE NW", "city": "CALGARY", "province": "AB", "country": "CA", "postalCode": "T3B1R2", "twitter": "None", "instagram": "None", "facebook": "None", "youtube": "None", "website": "None", "summary": "None", "logo": "None", "latitude": 51.0895931265796, "longitude": -114.20867885134764}, "129144549RR0033": {"name": "ST EDWARD THE CONFESSOR", "designationCode": "C", "categoryCode": "30", "address": "BOX 348", "city": "OLIVER", "province": "BC", "country": "CA", "postalCode": "V0H1T0", "twitter": "None", "instagram": "None", "facebook": "None", "youtube": "None", "website": "None", "summary": "None", "logo": "None", "latitude": 49.17993514796058, "longitude": -119.55060753230218}, "129950804RR0019": {"name": "ST EDWARD'S PARISH AND MISSIONS", "designationCode": "C", "categoryCode": "38", "address": "2085 MAPLE BAY ROAD", "city": "DUNCAN", "province": "BC", "country": "CA", "postalCode": "V9L5L9", "twitter": "None", "instagram": "None", "facebook": "None", "youtube": "None", "website": "None", "summary": "None", "logo": "None", "latitude": 48.78194186155186, "longitude": -123.67143330112368}, "132055906RR0001": {"name": "ST ELIAS UKRAINIAN CATHOLIC CHURCH", "designationCode": "C", "categoryCode": "38", "address": "10193 HERITAGE RD", "city": "BRAMPTON", "province": "ON", "country": "CA", "postalCode": "L7A0A1", "twitter": "None", "instagram": "None", "facebook": "None", "youtube": "None", "website": "None", "summary": "None", "logo": "None", "latitude": 43.660629309249956, "longitude": -79.84458374248432}, "858849748RR0001": {"name": "ST ELIAS UKRAINIAN ORTHODOX CHURCH CEMETERY", "designationCode": "C", "categoryCode": "59", "address": "BOX 2535                      368 MANITOBA ST", "city": "MELVILLE", "province": "SK", "country": "CA", "postalCode": "S0A2P0", "twitter": "None", "instagram": "None", "facebook": "None", "youtube": "None", "website": "None", "summary": "None", "logo": "None", "latitude": 50.92655577618427, "longitude": -102.79295858469908}, "132198441RR0001": {"name": "ST ELIZABETH'S COMMUNITY CENTRE INC.", "designationCode": "C", "categoryCode": "56", "address": "BOX 324", "city": "CUPAR", "province": "SK", "country": "CA", "postalCode": "S0G0Y0", "twitter": "None", "instagram": "None", "facebook": "None", "youtube": "None", "website": "None", "summary": "None", "logo": "None", "latitude": 50.95008000000007, "longitude": -104.21777999999995}, "136194370RR0001": {"name": "ST ELIZABETH'S PARISH", "designationCode": "C", "categoryCode": "38", "address": "47 CHEMIN STE-ELISABETH", "city": "CANTLEY", "province": "QC", "country": "CA", "postalCode": "J8V3E8", "twitter": "None", "instagram": "None", "facebook": "None", "youtube": "None", "website": "None", "summary": "None", "logo": "None", "latitude": 45.56467948600596, "longitude": -75.77431542062438}, "119264174RR0028": {"name": "ST ELIZBETH'S CHURCH", "designationCode": "C", "categoryCode": "38", "address": "766 SPRAGUE STREET", "city": "THUNDER BAY F", "province": "ON", "country": "CA", "postalCode": "P7E1V6", "twitter": "None", "instagram": "None", "facebook": "None", "youtube": "None", "website": "None", "summary": "None", "logo": "None", "latitude": 48.37181327699233, "longitude": -89.26135862499306}, "132689878RR0001": {"name": "ST EPHREM SYRIAN ORTHODOX CHURCH", "designationCode": "C", "categoryCode": "39", "address": "C.P. 671                      SUCCURSALE PLACE DE LA CITE", "city": "SHERBROOKE", "province": "QC", "country": "CA", "postalCode": "J1H5K8", "twitter": "None", "instagram": "None", "facebook": "None", "youtube": "None", "website": "None", "summary": "None", "logo": "None", "latitude": 45.39993924181269, "longitude": -71.89518081045317}, "888419041RR0001": {"name": "ST EUGENE CHURCH RESTORATION SOCIETY", "designationCode": "C", "categoryCode": "52", "address": "7470 MISSION ROAD", "city": "CRANBROOK", "province": "BC", "country": "CA", "postalCode": "V1C7E5", "twitter": "None", "instagram": "None", "facebook": "None", "youtube": "None", "website": "None", "summary": "None", "logo": "None", "latitude": 49.56873226482553, "longitude": -115.75879038917708}, "890107444RR0001": {"name": "ST FELIX PARISH", "designationCode": "C", "categoryCode": "38", "address": "BOX 400", "city": "KINUSO", "province": "AB", "country": "CA", "postalCode": "T0G1K0", "twitter": "None", "instagram": "None", "facebook": "None", "youtube": "None", "website": "None", "summary": "None", "logo": "None", "latitude": 55.331460104780774, "longitude": -115.43362282193122}, "891920175RR0001": {"name": "ST FINNAN'S PARISH", "designationCode": "C", "categoryCode": "38", "address": "4609 50 AVE", "city": "ST PAUL", "province": "AB", "country": "CA", "postalCode": "T0A3A3", "twitter": "None", "instagram": "None", "facebook": "None", "youtube": "None", "website": "None", "summary": "None", "logo": "None", "latitude": 53.99135148730496, "longitude": -111.28695202553523}, "136937687RR0001": {"name": "ST FRANCIS ADVOCATES FOR THE AUTISTIC & DEVELOPMENTALLY DISABLED (SARNIA) INC", "designationCode": "C", "categoryCode": "01", "address": "7346 ARKONA ROAD              PO BOX 218", "city": "ARKONA", "province": "ON", "country": "CA", "postalCode": "N0M1B0", "twitter": "None", "instagram": "None", "facebook": "None", "youtube": "None", "website": "None", "summary": "None", "logo": "None", "latitude": 43.07367547088994, "longitude": -81.83403633982175}, "135750750RR0001": {"name": "ST FRANCIS CHURCH", "designationCode": "C", "categoryCode": "38", "address": "PO BOX 26", "city": "FRANCIS", "province": "SK", "country": "CA", "postalCode": "S0G1V0", "twitter": "None", "instagram": "None", "facebook": "None", "youtube": "None", "website": "None", "summary": "None", "logo": "None", "latitude": 50.033573981333554, "longitude": -103.7310423029114}, "890239247RR0001": {"name": "ST FRANCIS COUNCIL NO 5080 CHARITABLE TRUST, Knights of Columbus", "designationCode": "A", "categoryCode": "65", "address": "48 TOTTENHAM ROAD", "city": "TORONTO", "province": "ON", "country": "CA", "postalCode": "M3C2J4", "twitter": "None", "instagram": "None", "facebook": "None", "youtube": "None", "website": "None", "summary": "None", "logo": "None", "latitude": 43.733568740492814, "longitude": -79.35500870609945}, "890020399RR0001": {"name": "ST FRANCIS FRATERNITY OF THE SECULAR FRANCISCAN ORDER", "designationCode": "C", "categoryCode": "46", "address": "2025 NAPIER STREET", "city": "VANCOUVER", "province": "BC", "country": "CA", "postalCode": "V5L2N8", "twitter": "None", "instagram": "None", "facebook": "None", "youtube": "None", "website": "None", "summary": "None", "logo": "None", "latitude": 49.27486053375821, "longitude": -123.06337102553522}, "877015271RR0001": {"name": "ST FRANCIS MUSIC SOCIETY", "designationCode": "C", "categoryCode": "22", "address": "877 NORTHMOUNT DRIVE", "city": "CALGARY", "province": "AB", "country": "CA", "postalCode": "T2L0A3", "twitter": "None", "instagram": "None", "facebook": "None", "youtube": "None", "website": "None", "summary": "None", "logo": "None", "latitude": 51.08535995392121, "longitude": -114.10130816209814}, "135950327RR0001": {"name": "ST FRANCIS NATIONAL EVANGELICAL SPIRITUAL BAPTIST FAITH ARCHIDIOCESE OF CANADA", "designationCode": "C", "categoryCode": "39", "address": "6 CURITY AVE                  PO BOX 14", "city": "EAST YORK", "province": "ON", "country": "CA", "postalCode": "M4B1X2", "twitter": "None", "instagram": "None", "facebook": "None", "youtube": "None", "website": "None", "summary": "None", "logo": "None", "latitude": 43.70870326594114, "longitude": -79.31290279263112}, "129950804RR0020": {"name": "ST FRANCIS OF ASSISI PARISH AND MISSIONS", "designationCode": "C", "categoryCode": "38", "address": "BOX 180", "city": "TOFINO", "province": "BC", "country": "CA", "postalCode": "V0R2Z0", "twitter": "None", "instagram": "None", "facebook": "None", "youtube": "None", "website": "None", "summary": "None", "logo": "None", "latitude": 49.15262000000007, "longitude": -125.90403999999995}, "888312246RR0001": {"name": "ST FRANCIS OF ASSISI PARISH PAROISSE ST-FRANCOIS D'ASSISE", "designationCode": "C", "categoryCode": "38", "address": "C F B PETAWAWA", "city": "PETAWAWA", "province": "ON", "country": "CA", "postalCode": "K8H2X3", "twitter": "None", "instagram": "None", "facebook": "None", "youtube": "None", "website": "None", "summary": "None", "logo": "None", "latitude": 45.89938500000005, "longitude": -77.28330049999994}, "886899673RR0001": {"name": "ST FRANCIS SOCIETY OF ONTARIO", "designationCode": "C", "categoryCode": "38", "address": "2747 JANE STREET", "city": "NORTH YORK", "province": "ON", "country": "CA", "postalCode": "M3L2E8", "twitter": "None", "instagram": "None", "facebook": "None", "youtube": "None", "website": "None", "summary": "None", "logo": "None", "latitude": 43.742805275059084, "longitude": -79.51402471086091}, "119264174RR0027": {"name": "ST FRANCIS XAVIER R C PARISH", "designationCode": "C", "categoryCode": "38", "address": "BOX 130", "city": "BALMERTOWN", "province": "ON", "country": "CA", "postalCode": "P0V1C0", "twitter": "None", "instagram": "None", "facebook": "None", "youtube": "None", "website": "None", "summary": "None", "logo": "None", "latitude": 51.05986000000007, "longitude": -93.74009999999998}, "128967353RR0097": {"name": "ST GABRIEL'S PARISH OF CONSTANCE BAY", "designationCode": "C", "categoryCode": "38", "address": "205 BAYVIEW DRIVE             RR #3 BOX 9", "city": "OTTAWA", "province": "ON", "country": "CA", "postalCode": "K0A3M0", "twitter": "None", "instagram": "None", "facebook": "None", "youtube": "None", "website": "None", "summary": "None", "logo": "None", "latitude": 45.491411232298525, "longitude": -76.07619409411947}}