{"131917528RR0001": {"name": "PAROISSE ST-JOACHIM", "designationCode": "C", "categoryCode": "38", "address": "CP 129", "city": "LA BROQUERIE", "province": "MB", "country": "CA", "postalCode": "R0A0W0", "twitter": "None", "instagram": "None", "facebook": "None", "youtube": "None", "website": "None", "summary": "None", "logo": "None", "latitude": 49.52402700000006, "longitude": -96.51053149999993}, "107369019RR0001": {"name": "PAROISSE ST-JOSEPH", "designationCode": "C", "categoryCode": "38", "address": "10 RUE DE L'\u00c9GLISE", "city": "NOTRE-DAME-DU-NORD", "province": "QC", "country": "CA", "postalCode": "J0Z3B0", "twitter": "None", "instagram": "None", "facebook": "None", "youtube": "None", "website": "None", "summary": "None", "logo": "None", "latitude": 47.59196770720936, "longitude": -79.48615275}, "107876476RR0010": {"name": "PAROISSE ST-JOSEPH", "designationCode": "C", "categoryCode": "38", "address": "3594 ERRINGTON AVE", "city": "CHELMSFORD", "province": "ON", "country": "CA", "postalCode": "P0M1L0", "twitter": "None", "instagram": "None", "facebook": "None", "youtube": "None", "website": "None", "summary": "None", "logo": "None", "latitude": 46.582986216171506, "longitude": -81.19761614325765}, "119018737RR0046": {"name": "PAROISSE ST-JOSEPH", "designationCode": "C", "categoryCode": "38", "address": "4 CENTRAL ST", "city": "CAMPBELLTON", "province": "NB", "country": "CA", "postalCode": "E3N1Z5", "twitter": "None", "instagram": "None", "facebook": "None", "youtube": "None", "website": "None", "summary": "None", "logo": "None", "latitude": 48.00584310750667, "longitude": -66.67064434014542}, "119085199RR0001": {"name": "PAROISSE ST-JOSEPH", "designationCode": "C", "categoryCode": "38", "address": "245 BOUL ST-JOSEPH", "city": "GATINEAU", "province": "QC", "country": "CA", "postalCode": "J8Y3X1", "twitter": "None", "instagram": "None", "facebook": "None", "youtube": "None", "website": "None", "summary": "None", "logo": "None", "latitude": 45.43584435137628, "longitude": -75.73310170780155}, "131106098RR0018": {"name": "PAROISSE ST-JOSEPH", "designationCode": "C", "categoryCode": "38", "address": "23 MECATINA C.P.136", "city": "LA TABARIERE", "province": "QC", "country": "CA", "postalCode": "G0G1T0", "twitter": "None", "instagram": "None", "facebook": "None", "youtube": "None", "website": "None", "summary": "None", "logo": "None", "latitude": 50.83084347377229, "longitude": -58.96203038051819}, "119085108RR0001": {"name": "PAROISSE ST-JOSEPH DE FORT KENT", "designationCode": "C", "categoryCode": "38", "address": "4609 50 AVE", "city": "ST PAUL", "province": "AB", "country": "CA", "postalCode": "T0A3A3", "twitter": "None", "instagram": "None", "facebook": "None", "youtube": "None", "website": "None", "summary": "None", "logo": "None", "latitude": 53.99135148730496, "longitude": -111.28695202553523}, "119018737RR0029": {"name": "PAROISSE ST-JOSEPH ET ST-JEAN-BAPTISTE", "designationCode": "C", "categoryCode": "38", "address": "C.P. 3238 SUCC BUREAU CHEF", "city": "TRACADIE-SHEILA", "province": "NB", "country": "CA", "postalCode": "E1X1G5", "twitter": "None", "instagram": "None", "facebook": "None", "youtube": "None", "website": "None", "summary": "None", "logo": "None", "latitude": 47.52130200000006, "longitude": -64.91063149999994}, "119085256RR0001": {"name": "PAROISSE ST-LAURENT-DE-BROSSEAU", "designationCode": "C", "categoryCode": "38", "address": "4609 50 AVE", "city": "ST PAUL", "province": "AB", "country": "CA", "postalCode": "T0A3A3", "twitter": "None", "instagram": "None", "facebook": "None", "youtube": "None", "website": "None", "summary": "None", "logo": "None", "latitude": 53.99135148730496, "longitude": -111.28695202553523}, "119085348RR0001": {"name": "PAROISSE ST-LOUIS-DE-FRANCE", "designationCode": "C", "categoryCode": "38", "address": "66, CHEMIN DU PONT", "city": "VAL-DES-MONTS", "province": "QC", "country": "CA", "postalCode": "J8N2J1", "twitter": "None", "instagram": "None", "facebook": "None", "youtube": "None", "website": "None", "summary": "None", "logo": "None", "latitude": 45.78585958006813, "longitude": -75.7006493731606}, "107876476RR0022": {"name": "PAROISSE ST-MARC", "designationCode": "C", "categoryCode": "38", "address": "19 CHURCH ST. P.O. BOX 49", "city": "MARKSTAY", "province": "ON", "country": "CA", "postalCode": "P0M2G0", "twitter": "None", "instagram": "None", "facebook": "None", "youtube": "None", "website": "None", "summary": "None", "logo": "None", "latitude": 46.491247666108855, "longitude": -80.5446373576087}, "119122778RR0006": {"name": "PAROISSE ST-MARTIN-DE-TOURS", "designationCode": "C", "categoryCode": "38", "address": "CP 10 21947 RUE MAIN ST.", "city": "GLEN ROBERTSON", "province": "ON", "country": "CA", "postalCode": "K0B1H0", "twitter": "None", "instagram": "None", "facebook": "None", "youtube": "None", "website": "None", "summary": "None", "logo": "None", "latitude": 45.359869719545074, "longitude": -74.5023552947061}, "119085454RR0001": {"name": "PAROISSE ST-MATTHIEU", "designationCode": "C", "categoryCode": "38", "address": "69 DE PROVENCE", "city": "GATINEAU", "province": "QC", "country": "CA", "postalCode": "J8T4V2", "twitter": "None", "instagram": "None", "facebook": "None", "youtube": "None", "website": "None", "summary": "None", "logo": "None", "latitude": 45.475131228951625, "longitude": -75.72475850530878}, "119018737RR0024": {"name": "PAROISSE ST-MICHEL", "designationCode": "C", "categoryCode": "38", "address": "110 RUE DE L'UNIVERSITE", "city": "SHIPPAGAN", "province": "NB", "country": "CA", "postalCode": "E8S1J4", "twitter": "None", "instagram": "None", "facebook": "None", "youtube": "None", "website": "None", "summary": "None", "logo": "None", "latitude": 47.74502280501813, "longitude": -64.71168897498352}, "119018737RR0014": {"name": "PAROISSE ST-NOM-DE-JESUS", "designationCode": "C", "categoryCode": "38", "address": "598 RUE PRINCIPALE", "city": "PETIT-ROCHER", "province": "NB", "country": "CA", "postalCode": "E8J1T7", "twitter": "None", "instagram": "None", "facebook": "None", "youtube": "None", "website": "None", "summary": "None", "logo": "None", "latitude": 47.782085637515216, "longitude": -65.71772888487467}, "119018737RR0034": {"name": "PAROISSE ST-PAUL", "designationCode": "C", "categoryCode": "38", "address": "213 BOUL. ST-PIERRE OUEST", "city": "CARAQUET", "province": "NB", "country": "CA", "postalCode": "E1W1A5", "twitter": "None", "instagram": "None", "facebook": "None", "youtube": "None", "website": "None", "summary": "None", "logo": "None", "latitude": 47.78971263154629, "longitude": -64.96383676474412}, "107307191RR0005": {"name": "PAROISSE ST-PHILIPPE CHURCH", "designationCode": "C", "categoryCode": "38", "address": "BOX 288", "city": "VONDA", "province": "SK", "country": "CA", "postalCode": "S0K4N0", "twitter": "None", "instagram": "None", "facebook": "None", "youtube": "None", "website": "None", "summary": "None", "logo": "None", "latitude": 52.318260000000066, "longitude": -106.09987999999998}, "119018737RR0055": {"name": "PAROISSE ST-PIE-X", "designationCode": "C", "categoryCode": "38", "address": "PO BOX 2039 STN MAIN", "city": "LAMEQUE", "province": "NB", "country": "CA", "postalCode": "E8T3N4", "twitter": "None", "instagram": "None", "facebook": "None", "youtube": "None", "website": "None", "summary": "None", "logo": "None", "latitude": 47.79344400000005, "longitude": -64.65094999999994}, "119018737RR0010": {"name": "PAROISSE ST-PIERRE-AUX-LIENS", "designationCode": "C", "categoryCode": "38", "address": "213 BOUL. ST-PIERRE OUEST", "city": "CARAQUET", "province": "NB", "country": "CA", "postalCode": "E1W1A5", "twitter": "None", "instagram": "None", "facebook": "None", "youtube": "None", "website": "None", "summary": "None", "logo": "None", "latitude": 47.78971263154629, "longitude": -64.96383676474412}, "106880107RR0002": {"name": "PAROISSE ST-PIERRE, CHETICAMP", "designationCode": "C", "categoryCode": "38", "address": "PO BOX 99", "city": "CHETICAMP", "province": "NS", "country": "CA", "postalCode": "B0E1H0", "twitter": "None", "instagram": "None", "facebook": "None", "youtube": "None", "website": "None", "summary": "None", "logo": "None", "latitude": 46.60719600312706, "longitude": -61.03849596133188}, "119018737RR0004": {"name": "PAROISSE ST-POLYCARPE", "designationCode": "C", "categoryCode": "38", "address": "4 CENTRAL ST", "city": "CAMPBELLTON", "province": "NB", "country": "CA", "postalCode": "E3N1Z5", "twitter": "None", "instagram": "None", "facebook": "None", "youtube": "None", "website": "None", "summary": "None", "logo": "None", "latitude": 48.00584310750667, "longitude": -66.67064434014542}, "119018737RR0033": {"name": "PAROISSE ST-RAPHAEL", "designationCode": "C", "categoryCode": "38", "address": "4 CENTRAL ST", "city": "CAMPBELLTON", "province": "NB", "country": "CA", "postalCode": "E3N1Z5", "twitter": "None", "instagram": "None", "facebook": "None", "youtube": "None", "website": "None", "summary": "None", "logo": "None", "latitude": 48.00584310750667, "longitude": -66.67064434014542}, "119018737RR0031": {"name": "PAROISSE ST-SIMON", "designationCode": "C", "categoryCode": "38", "address": "4 CENTRAL ST", "city": "CAMPBELLTON", "province": "NB", "country": "CA", "postalCode": "E3N1Z5", "twitter": "None", "instagram": "None", "facebook": "None", "youtube": "None", "website": "None", "summary": "None", "logo": "None", "latitude": 48.00584310750667, "longitude": -66.67064434014542}, "107876476RR0071": {"name": "PAROISSE ST-THOMAS APOTRE PARISH", "designationCode": "C", "categoryCode": "38", "address": "BOX 130 - 17 RUTLAND ST.", "city": "WARREN", "province": "ON", "country": "CA", "postalCode": "P0H2N0", "twitter": "None", "instagram": "None", "facebook": "None", "youtube": "None", "website": "None", "summary": "None", "logo": "None", "latitude": 46.44180625287074, "longitude": -80.30469769288483}, "130091135RR0054": {"name": "PAROISSE ST-TIMOTH\u00c9E D'ADAMSVILLE", "designationCode": "C", "categoryCode": "38", "address": "7041 ROUTE 126", "city": "ADAMSVILLE", "province": "NB", "country": "CA", "postalCode": "E4T2C7", "twitter": "None", "instagram": "None", "facebook": "None", "youtube": "None", "website": "None", "summary": "None", "logo": "None", "latitude": 46.39157451388499, "longitude": -65.17963186992674}, "119018737RR0042": {"name": "PAROISSE ST-VINCENT-DE-PAUL", "designationCode": "C", "categoryCode": "38", "address": "4 CENTRAL ST", "city": "CAMPBELLTON", "province": "NB", "country": "CA", "postalCode": "E3N1Z5", "twitter": "None", "instagram": "None", "facebook": "None", "youtube": "None", "website": "None", "summary": "None", "logo": "None", "latitude": 48.00584310750667, "longitude": -66.67064434014542}, "122418601RR0017": {"name": "PAROISSE STE AGNES", "designationCode": "C", "categoryCode": "38", "address": "7317 RTE 3", "city": "STE ANNE DU RUISSEAU YAR. CO.", "province": "NS", "country": "CA", "postalCode": "B0W2X0", "twitter": "None", "instagram": "None", "facebook": "None", "youtube": "None", "website": "None", "summary": "None", "logo": "None", "latitude": 43.84113000000005, "longitude": -65.94083899999994}, "128967353RR0007": {"name": "PAROISSE STE ANNE", "designationCode": "C", "categoryCode": "38", "address": "", "city": "STE-ANNE-DE-PRESCOTT", "province": "ON", "country": "CA", "postalCode": "K0B1M0", "twitter": "None", "instagram": "None", "facebook": "None", "youtube": "None", "website": "None", "summary": "None", "logo": "None"}, "130599442RR0028": {"name": "PAROISSE STE ANNE", "designationCode": "C", "categoryCode": "38", "address": "222 RUE FYFE, C.P. 100", "city": "IROQUOIS FALLS", "province": "ON", "country": "CA", "postalCode": "P0K1E0", "twitter": "None", "instagram": "None", "facebook": "None", "youtube": "None", "website": "None", "summary": "None", "logo": "None", "latitude": 48.76610915448468, "longitude": -80.68224873310156}, "131637894RR0001": {"name": "PAROISSE STE BRIGITTE", "designationCode": "C", "categoryCode": "38", "address": "9, 1ERE AVENUE EST            C.P. 250", "city": "ROUYN-NORANDA", "province": "QC", "country": "CA", "postalCode": "J0Y1C0", "twitter": "None", "instagram": "None", "facebook": "None", "youtube": "None", "website": "None", "summary": "None", "logo": "None", "latitude": 48.22583573691482, "longitude": -78.38496856734349}, "130599442RR0027": {"name": "PAROISSE STE CROIX", "designationCode": "C", "categoryCode": "38", "address": "341 SUTHERLAND WAY PO BOX 1028", "city": "HAILEYBURY", "province": "ON", "country": "CA", "postalCode": "P0J1K0", "twitter": "None", "instagram": "None", "facebook": "None", "youtube": "None", "website": "None", "summary": "None", "logo": "None", "latitude": 47.445709902094684, "longitude": -79.63337201400172}, "128967353RR0037": {"name": "PAROISSE STE EUPHEMIE", "designationCode": "C", "categoryCode": "38", "address": "CP 129", "city": "CASSELMAN", "province": "ON", "country": "CA", "postalCode": "K0A1M0", "twitter": "None", "instagram": "None", "facebook": "None", "youtube": "None", "website": "None", "summary": "None", "logo": "None", "latitude": 38.66275027947382, "longitude": -121.1634715814531}, "122418601RR0007": {"name": "PAROISSE STE FAMILLE", "designationCode": "C", "categoryCode": "38", "address": "RR 2 AMIRAULTS HILL PO BOX 115", "city": "TUSKET", "province": "NS", "country": "CA", "postalCode": "B0W3M0", "twitter": "None", "instagram": "None", "facebook": "None", "youtube": "None", "website": "None", "summary": "None", "logo": "None", "latitude": 44.2657992100523, "longitude": -66.13046221005231}, "128967353RR0077": {"name": "PAROISSE STE GENEVIEVE", "designationCode": "C", "categoryCode": "38", "address": "825, AVENUE CANTERBURY", "city": "OTTAWA", "province": "ON", "country": "CA", "postalCode": "K1G3A2", "twitter": "None", "instagram": "None", "facebook": "None", "youtube": "None", "website": "None", "summary": "None", "logo": "None", "latitude": 45.389122457152524, "longitude": -75.63122413780367}, "128967353RR0044": {"name": "PAROISSE STE MARGUERITE MARIE", "designationCode": "C", "categoryCode": "38", "address": "P.O.BOX 99", "city": "CUMBERLAND", "province": "ON", "country": "CA", "postalCode": "K4C1E5", "twitter": "None", "instagram": "None", "facebook": "None", "youtube": "None", "website": "None", "summary": "None", "logo": "None", "latitude": 45.51628200000006, "longitude": -75.40533349999993}, "130959018RR0001": {"name": "PAROISSE STE MARIE MEDIATRICE BRIGHAM", "designationCode": "C", "categoryCode": "38", "address": "306 AVENUE DES ERABLES", "city": "BRIGHAM", "province": "QC", "country": "CA", "postalCode": "J2K4C7", "twitter": "None", "instagram": "None", "facebook": "None", "youtube": "None", "website": "None", "summary": "None", "logo": "None", "latitude": 45.246531018033394, "longitude": -72.84524762585845}, "849492368RR0001": {"name": "PAROISSE STE RADEGONDE", "designationCode": "C", "categoryCode": "38", "address": "BOX 518", "city": "LAFLECHE", "province": "SK", "country": "CA", "postalCode": "S0H2K0", "twitter": "None", "instagram": "None", "facebook": "None", "youtube": "None", "website": "None", "summary": "None", "logo": "None", "latitude": 49.71676000000008, "longitude": -106.58451999999994}, "128967353RR0023": {"name": "PAROISSE STE THERESE", "designationCode": "C", "categoryCode": "38", "address": "9605 CHEMIN MARIONVILLE", "city": "MARIONVILLE", "province": "ON", "country": "CA", "postalCode": "K4R1E5", "twitter": "None", "instagram": "None", "facebook": "None", "youtube": "None", "website": "None", "summary": "None", "logo": "None", "latitude": 45.18223291722379, "longitude": -75.35299163578844}, "128967353RR0086": {"name": "PAROISSE STE TRINITE", "designationCode": "C", "categoryCode": "38", "address": "CP 59", "city": "ROCKLAND", "province": "ON", "country": "CA", "postalCode": "K4K1K2", "twitter": "None", "instagram": "None", "facebook": "None", "youtube": "None", "website": "None", "summary": "None", "logo": "None", "latitude": 45.54602700000005, "longitude": -75.29304049999993}, "107876476RR0004": {"name": "PAROISSE STE-AGNES", "designationCode": "C", "categoryCode": "38", "address": "C.P. 519", "city": "AZILDA", "province": "ON", "country": "CA", "postalCode": "P0M1B0", "twitter": "None", "instagram": "None", "facebook": "None", "youtube": "None", "website": "None", "summary": "None", "logo": "None", "latitude": 46.56151775386481, "longitude": -81.1340142538648}, "131106098RR0019": {"name": "PAROISSE STE-ANNE DE TETE-A-LA-BALEINE", "designationCode": "C", "categoryCode": "38", "address": "C.P. 99", "city": "TETE-A-LA-BALEINE", "province": "QC", "country": "CA", "postalCode": "G0G2W0", "twitter": "None", "instagram": "None", "facebook": "None", "youtube": "None", "website": "None", "summary": "None", "logo": "None", "latitude": 50.701245730562555, "longitude": -59.325025655499665}, "107876476RR0057": {"name": "PAROISSE STE-ANNE-DES-PINS", "designationCode": "C", "categoryCode": "38", "address": "14, RUE BEECH, CP 39, SUCC.B", "city": "SUDBURY", "province": "ON", "country": "CA", "postalCode": "P3E4N3", "twitter": "None", "instagram": "None", "facebook": "None", "youtube": "None", "website": "None", "summary": "None", "logo": "None", "latitude": 46.494077355863816, "longitude": -80.99527073156959}, "119110385RR0051": {"name": "PAROISSE STE-BERNADETTE", "designationCode": "C", "categoryCode": "38", "address": "BOX 70", "city": "BONFIELD", "province": "ON", "country": "CA", "postalCode": "P0H1E0", "twitter": "None", "instagram": "None", "facebook": "None", "youtube": "None", "website": "None", "summary": "None", "logo": "None", "latitude": 46.238950000000045, "longitude": -79.14709999999997}, "119018737RR0043": {"name": "PAROISSE STE-CECILE", "designationCode": "C", "categoryCode": "38", "address": "4 CENTRAL ST", "city": "CAMPBELLTON", "province": "NB", "country": "CA", "postalCode": "E3N1Z5", "twitter": "None", "instagram": "None", "facebook": "None", "youtube": "None", "website": "None", "summary": "None", "logo": "None", "latitude": 48.00584310750667, "longitude": -66.67064434014542}, "119084184RR0001": {"name": "PAROISSE STE-CECILE", "designationCode": "C", "categoryCode": "38", "address": "C P 66", "city": "DUBREUILVILLE", "province": "ON", "country": "CA", "postalCode": "P0S1B0", "twitter": "None", "instagram": "None", "facebook": "None", "youtube": "None", "website": "None", "summary": "None", "logo": "None", "latitude": 48.35053000000005, "longitude": -84.55300999999997}, "119084168RR0001": {"name": "PAROISSE STE-CECILE DE LA PECHE", "designationCode": "C", "categoryCode": "38", "address": "1 PRINCIPALE-EST", "city": "LA PECHE", "province": "QC", "country": "CA", "postalCode": "J0X2W0", "twitter": "None", "instagram": "None", "facebook": "None", "youtube": "None", "website": "None", "summary": "None", "logo": "None", "latitude": 45.64210992258626, "longitude": -76.03657555874514}, "107876476RR0007": {"name": "PAROISSE STE-FAMILLE", "designationCode": "C", "categoryCode": "38", "address": "C.P. 249", "city": "BLIND RIVER", "province": "ON", "country": "CA", "postalCode": "P0R1B0", "twitter": "None", "instagram": "None", "facebook": "None", "youtube": "None", "website": "None", "summary": "None", "logo": "None", "latitude": 46.184899605915135, "longitude": -82.96119968165449}, "134302611RR0001": {"name": "PAROISSE STE-JEANNE D'ARC BFC VALCARTIER", "designationCode": "C", "categoryCode": "38", "address": "BFC VALCARTIER                C.P. 1000 SUCC. FORCES", "city": "COURCELETTE", "province": "QC", "country": "CA", "postalCode": "G0A4Z0", "twitter": "None", "instagram": "None", "facebook": "None", "youtube": "None", "website": "None", "summary": "None", "logo": "None", "latitude": 46.88734200000006, "longitude": -71.50947199999993}, "107876476RR0060": {"name": "PAROISSE STE-MARGUERITE D'YOUVILLE", "designationCode": "C", "categoryCode": "38", "address": "4290 ROUTE 69 NORD", "city": "VAL THERESE", "province": "ON", "country": "CA", "postalCode": "P3P1S7", "twitter": "None", "instagram": "None", "facebook": "None", "youtube": "None", "website": "None", "summary": "None", "logo": "None", "latitude": 46.64606849972323, "longitude": -81.00833638802057}, "119122778RR0008": {"name": "PAROISSE STE-MARIE", "designationCode": "C", "categoryCode": "38", "address": "CP 119", "city": "GREEN VALLEY", "province": "ON", "country": "CA", "postalCode": "K0C1L0", "twitter": "None", "instagram": "None", "facebook": "None", "youtube": "None", "website": "None", "summary": "None", "logo": "None", "latitude": 43.39606122136242, "longitude": -80.42963199699658}, "119084374RR0001": {"name": "PAROISSE STE-MONIQUE DE ROLLET", "designationCode": "C", "categoryCode": "38", "address": "12592 BOULEVARD RIDEAU        CP 3", "city": "ROUYN-NORANDA", "province": "QC", "country": "CA", "postalCode": "J0Z3J0", "twitter": "None", "instagram": "None", "facebook": "None", "youtube": "None", "website": "None", "summary": "None", "logo": "None", "latitude": 47.91371900530879, "longitude": -79.24311887235254}, "119018737RR0036": {"name": "PAROISSE STE-TH\u00c9R\u00c8SE-D'AVILA", "designationCode": "C", "categoryCode": "38", "address": "4 CENTRAL ST", "city": "CAMPBELLTON", "province": "NB", "country": "CA", "postalCode": "E3N1Z5", "twitter": "None", "instagram": "None", "facebook": "None", "youtube": "None", "website": "None", "summary": "None", "logo": "None", "latitude": 48.00584310750667, "longitude": -66.67064434014542}, "107876476RR0088": {"name": "PAROISSE STE-THERESE D'AVILA", "designationCode": "C", "categoryCode": "38", "address": "59 CACHE STREET", "city": "CACHE BAY", "province": "ON", "country": "CA", "postalCode": "P0H1G0", "twitter": "None", "instagram": "None", "facebook": "None", "youtube": "None", "website": "None", "summary": "None", "logo": "None", "latitude": 46.374342075243476, "longitude": -79.98406555066926}, "130091135RR0014": {"name": "PAROISSE STE-THERESE DE L'ENFANT-JESUS", "designationCode": "C", "categoryCode": "38", "address": "1014 RUE AMIRAULT", "city": "DIEPPE", "province": "NB", "country": "CA", "postalCode": "E1A1C9", "twitter": "None", "instagram": "None", "facebook": "None", "youtube": "None", "website": "None", "summary": "None", "logo": "None", "latitude": 46.07034063142704, "longitude": -64.72101203647084}, "122418601RR0011": {"name": "PAROISSE STELLA MARIS", "designationCode": "C", "categoryCode": "38", "address": "C.P. 159", "city": "METEGHAN", "province": "NS", "country": "CA", "postalCode": "B0W2J0", "twitter": "None", "instagram": "None", "facebook": "None", "youtube": "None", "website": "None", "summary": "None", "logo": "None", "latitude": 44.17500446384011, "longitude": -66.1688141761654}, "130599442RR0034": {"name": "PAROISSE STS MARTYRS CANADIENS", "designationCode": "C", "categoryCode": "38", "address": "P O BOX 697", "city": "IROQUOIS FALLS A", "province": "ON", "country": "CA", "postalCode": "P0K1G0", "twitter": "None", "instagram": "None", "facebook": "None", "youtube": "None", "website": "None", "summary": "None", "logo": "None", "latitude": 48.75883001500371, "longitude": -80.69020006996918}, "130599442RR0008": {"name": "PAROISSE TRES SAINT REDEMPTEUR", "designationCode": "C", "categoryCode": "38", "address": "CP 143", "city": "HOLTYRE", "province": "ON", "country": "CA", "postalCode": "P0K1C0", "twitter": "None", "instagram": "None", "facebook": "None", "youtube": "None", "website": "None", "summary": "None", "logo": "None", "latitude": 48.46914000000004, "longitude": -80.27984999999995}, "891564841RR0001": {"name": "PAROISSE TRES SAINTE TRINITE GRANBY", "designationCode": "C", "categoryCode": "38", "address": "109 RUE PRINCIPALE", "city": "GRANBY", "province": "QC", "country": "CA", "postalCode": "J2G2T9", "twitter": "None", "instagram": "None", "facebook": "None", "youtube": "None", "website": "None", "summary": "None", "logo": "None", "latitude": 45.398731358006415, "longitude": -72.72357314401468}, "107507857RR0001": {"name": "PAROLE DE VIE - BETHEL, INCORPOREE", "designationCode": "C", "categoryCode": "20", "address": "1175 CH THOMAS-WOODWARD", "city": "SHERBOOKE", "province": "QC", "country": "CA", "postalCode": "J1M0B4", "twitter": "None", "instagram": "None", "facebook": "None", "youtube": "None", "website": "None", "summary": "None", "logo": "None", "latitude": 45.39097950262031, "longitude": -71.85305332139716}, "890496862RR0001": {"name": "PAROLE PLUS INC", "designationCode": "C", "categoryCode": "22", "address": "6805 8E AVE", "city": "MONTR\u00c9AL", "province": "QC", "country": "CA", "postalCode": "H1Y2M4", "twitter": "None", "instagram": "None", "facebook": "None", "youtube": "None", "website": "None", "summary": "None", "logo": "None", "latitude": 45.55482188816426, "longitude": -73.59318364695027}, "760171090RR0001": {"name": "PAROLIC\u00d4NE", "designationCode": "C", "categoryCode": "22", "address": "4125 RUE PIE-X", "city": "QUEBEC", "province": "QC", "country": "CA", "postalCode": "G1P1Y6", "twitter": "None", "instagram": "None", "facebook": "None", "youtube": "None", "website": "None", "summary": "None", "logo": "None", "latitude": 46.80174103523008, "longitude": -71.31078240562071}, "890929292RR0001": {"name": "PARRAINAGE CIVIQUE BASSES-LAURENTIDES", "designationCode": "C", "categoryCode": "09", "address": "1-141 RUE ST-CHARLES", "city": "STE-THERESE", "province": "QC", "country": "CA", "postalCode": "J7E2A9", "twitter": "None", "instagram": "None", "facebook": "None", "youtube": "None", "website": "None", "summary": "None", "logo": "None", "latitude": 45.64220067052359, "longitude": -73.85467777575155}, "887024552RR0001": {"name": "PARRAINAGE CIVIQUE CHAMPLAIN", "designationCode": "C", "categoryCode": "09", "address": "3222, RUE WINDSOR", "city": "SAINT-HUBERT", "province": "QC", "country": "CA", "postalCode": "J4T2X2", "twitter": "None", "instagram": "None", "facebook": "None", "youtube": "None", "website": "None", "summary": "None", "logo": "None", "latitude": 45.5001963224942, "longitude": -73.47293985126072}, "898160502RR0001": {"name": "PARRAINAGE CIVIQUE DE L'ABITIBI-TEMISCAMINGUE", "designationCode": "C", "categoryCode": "09", "address": "100 - 330 RUE PERREAULT E", "city": "ROUYN-NORANDA", "province": "QC", "country": "CA", "postalCode": "J9X3C6", "twitter": "None", "instagram": "None", "facebook": "None", "youtube": "None", "website": "None", "summary": "None", "logo": "None", "latitude": 48.23814053231591, "longitude": -79.0101225}, "107820177RR0001": {"name": "PARRAINAGE CIVIQUE DE L'EST DE L'ILE DE MONTREAL", "designationCode": "C", "categoryCode": "09", "address": "5350, RUE LAFOND", "city": "MONTREAL", "province": "QC", "country": "CA", "postalCode": "H1X2X2", "twitter": "None", "instagram": "None", "facebook": "None", "youtube": "None", "website": "None", "summary": "None", "logo": "None", "latitude": 45.55238905297504, "longitude": -73.5710193212821}, "119085983RR0001": {"name": "PARRAINAGE CIVIQUE DE LA BANLIEUE OUEST DE MONTREAL", "designationCode": "C", "categoryCode": "09", "address": "68 PRINCE EDWARD AVENUE", "city": "POINTE CLAIRE", "province": "QC", "country": "CA", "postalCode": "H9R4C7", "twitter": "None", "instagram": "None", "facebook": "None", "youtube": "None", "website": "None", "summary": "None", "logo": "None", "latitude": 45.4544487454845, "longitude": -73.79226682309977}, "890131477RR0001": {"name": "PARRAINAGE CIVIQUE DE LA VALLEE DU RICHELIEU", "designationCode": "C", "categoryCode": "09", "address": "307 RUE MONTSABR\u00c9             LOCAL 132", "city": "BELOEIL", "province": "QC", "country": "CA", "postalCode": "J3G2H5", "twitter": "None", "instagram": "None", "facebook": "None", "youtube": "None", "website": "None", "summary": "None", "logo": "None", "latitude": 45.557142107321006, "longitude": -73.21159900222328}, "893421677RR0001": {"name": "PARRAINAGE CIVIQUE DES BOIS-FRANCS INC.", "designationCode": "C", "categoryCode": "19", "address": "104-59 RUE MONFETTE", "city": "VICTORIAVILLE", "province": "QC", "country": "CA", "postalCode": "G6P1J8", "twitter": "None", "instagram": "None", "facebook": "None", "youtube": "None", "website": "None", "summary": "None", "logo": "None", "latitude": 46.06164779188039, "longitude": -71.9668892342031}, "129998282RR0001": {"name": "PARRAINAGE CIVIQUE DES MRC D'ACTON ET DES MASKOUTAINS", "designationCode": "C", "categoryCode": "09", "address": "1195 ST-ANTOINE               BUREAU 206", "city": "SAINT-HYACINTHE", "province": "QC", "country": "CA", "postalCode": "J2S3K6", "twitter": "None", "instagram": "None", "facebook": "None", "youtube": "None", "website": "None", "summary": "None", "logo": "None", "latitude": 45.625280134601034, "longitude": -72.94288513737098}, "119086015RR0001": {"name": "PARRAINAGE CIVIQUE DRUMMOND INC.", "designationCode": "C", "categoryCode": "09", "address": "130 RUE SAINT-DAMASE", "city": "DRUMMONDVILLE", "province": "QC", "country": "CA", "postalCode": "J2B6G1", "twitter": "None", "instagram": "None", "facebook": "None", "youtube": "None", "website": "None", "summary": "None", "logo": "None", "latitude": 45.87395186343709, "longitude": -72.49061363292758}, "132481276RR0001": {"name": "PARRAINAGE CIVIQUE DU HAUT-RICHELIEU", "designationCode": "C", "categoryCode": "09", "address": "BUREAU 8 125 RUE JACQUES-CARTI", "city": "ST-JEAN-SUR-RICHELIEU", "province": "QC", "country": "CA", "postalCode": "J3B8C9", "twitter": "None", "instagram": "None", "facebook": "None", "youtube": "None", "website": "None", "summary": "None", "logo": "None", "latitude": 45.30219000000005, "longitude": -73.25337949999994}, "868893694RR0001": {"name": "PARRAINAGE CIVIQUE DU TROIS-RIVI\u00c8RES METROPOLITAIN", "designationCode": "C", "categoryCode": "09", "address": "110 RUE DES FORGES            3IEME ETAGE", "city": "TROIS-RIVIERES", "province": "QC", "country": "CA", "postalCode": "G9A2G8", "twitter": "None", "instagram": "None", "facebook": "None", "youtube": "None", "website": "None", "summary": "None", "logo": "None", "latitude": 46.341872307259415, "longitude": -72.54064554356863}, "896483070RR0001": {"name": "PARRAINAGE CIVIQUE LANAUDIERE", "designationCode": "C", "categoryCode": "09", "address": "688, BOUL. MANSEAU", "city": "JOLIETTE", "province": "QC", "country": "CA", "postalCode": "J6E3E6", "twitter": "None", "instagram": "None", "facebook": "None", "youtube": "None", "website": "None", "summary": "None", "logo": "None", "latitude": 46.02262884375891, "longitude": -73.44338100141364}, "119086049RR0001": {"name": "PARRAINAGE CIVIQUE LES MARRONNIERS", "designationCode": "C", "categoryCode": "09", "address": "2590, JARRY EST", "city": "MONTREAL", "province": "QC", "country": "CA", "postalCode": "H1Z0A3", "twitter": "None", "instagram": "None", "facebook": "None", "youtube": "None", "website": "None", "summary": "None", "logo": "None", "latitude": 45.560347711350914, "longitude": -73.61260941312254}, "104083498RR0001": {"name": "PARRAINAGE CIVIQUE MONTREAL", "designationCode": "C", "categoryCode": "01", "address": "282-3740 RUE BERRI", "city": "MONTREAL", "province": "QC", "country": "CA", "postalCode": "H2L4G9", "twitter": "None", "instagram": "None", "facebook": "None", "youtube": "None", "website": "None", "summary": "None", "logo": "None", "latitude": 45.52026986288883, "longitude": -73.57184633250617}, "119086080RR0001": {"name": "PARRAINAGE TIERS MONDE INC.", "designationCode": "C", "categoryCode": "09", "address": "C.P. 1002", "city": "EDMUNDSTON", "province": "NB", "country": "CA", "postalCode": "E3V2S7", "twitter": "None", "instagram": "None", "facebook": "None", "youtube": "None", "website": "None", "summary": "None", "logo": "None", "latitude": 47.373774000000054, "longitude": -68.31570949999994}, "867963290RR0001": {"name": "PARRSBORO AND AREA FOOD BANK SOCIETY", "designationCode": "C", "categoryCode": "09", "address": "67 LAYTON STREET              BOX 20", "city": "PARRSBORO", "province": "NS", "country": "CA", "postalCode": "B0M1S0", "twitter": "None", "instagram": "None", "facebook": "None", "youtube": "None", "website": "None", "summary": "None", "logo": "None", "latitude": 45.40679121899697, "longitude": -64.32112675976697}, "119086114RR0001": {"name": "PARRSBORO BAND ASSOCIATION", "designationCode": "C", "categoryCode": "22", "address": "PO BOX 712", "city": "PARRSBORO", "province": "NS", "country": "CA", "postalCode": "B0M1S0", "twitter": "None", "instagram": "None", "facebook": "None", "youtube": "None", "website": "None", "summary": "None", "logo": "None", "latitude": 45.385971000000055, "longitude": -64.25530099999993}, "119086148RR0001": {"name": "PARRSBORO REGIONAL HIGH SCHOOL SCHOLARSHIP SOCIETY", "designationCode": "C", "categoryCode": "21", "address": "PO BOX 370", "city": "PARRSBORO", "province": "NS", "country": "CA", "postalCode": "B0M1S0", "twitter": "None", "instagram": "None", "facebook": "None", "youtube": "None", "website": "None", "summary": "None", "logo": "None", "latitude": 45.385971000000055, "longitude": -64.25530099999993}, "119086163RR0001": {"name": "PARRSBORO UNITED BAPTIST CHURCH", "designationCode": "C", "categoryCode": "39", "address": "3919 EASTERN AVENUE           POST OFFICE BOX 758", "city": "PARRSBORO", "province": "NS", "country": "CA", "postalCode": "B0M1S0", "twitter": "None", "instagram": "None", "facebook": "None", "youtube": "None", "website": "None", "summary": "None", "logo": "None", "latitude": 45.407457405460214, "longitude": -64.32276833124428}, "119086155RR0001": {"name": "PARRSBOROUGH SHORE HISTORICAL SOCIETY", "designationCode": "C", "categoryCode": "50", "address": "P.O. BOX 98", "city": "PARRSBORO", "province": "NS", "country": "CA", "postalCode": "B0M1S0", "twitter": "None", "instagram": "None", "facebook": "None", "youtube": "None", "website": "None", "summary": "None", "logo": "None", "latitude": 45.385971000000055, "longitude": -64.25530099999993}, "849505276RR0001": {"name": "PARRY SOUND AND DISTRICT HORTICULTURAL SOCIETY", "designationCode": "C", "categoryCode": "56", "address": "10 REDWOOD DR", "city": "PARRY SOUND", "province": "ON", "country": "CA", "postalCode": "P2A2S4", "twitter": "None", "instagram": "None", "facebook": "None", "youtube": "None", "website": "None", "summary": "None", "logo": "None", "latitude": 45.34532746543374, "longitude": -80.02593278088746}, "119288918RR1106": {"name": "PARRY SOUND CONGREGATION OF JEHOVAH'S WITNESSES", "designationCode": "C", "categoryCode": "61", "address": "BOX 53", "city": "PARRY SOUND", "province": "ON", "country": "CA", "postalCode": "P2A2X2", "twitter": "None", "instagram": "None", "facebook": "None", "youtube": "None", "website": "None", "summary": "None", "logo": "None", "latitude": 45.34362600000006, "longitude": -80.03579299999993}, "889963971RR0001": {"name": "PARRY SOUND GOSPEL HALL", "designationCode": "C", "categoryCode": "39", "address": "734 HURDVILLE ROAD", "city": "MCKELLAR", "province": "ON", "country": "CA", "postalCode": "P2A0B5", "twitter": "None", "instagram": "None", "facebook": "None", "youtube": "None", "website": "None", "summary": "None", "logo": "None", "latitude": 45.43829544993917, "longitude": -79.88349521885274}, "868078239RR0001": {"name": "PARRY SOUND PUBLIC LIBRARY BOARD", "designationCode": "C", "categoryCode": "50", "address": "29 MARY STREET", "city": "PARRY SOUND", "province": "ON", "country": "CA", "postalCode": "P2A1E3", "twitter": "None", "instagram": "None", "facebook": "None", "youtube": "None", "website": "None", "summary": "None", "logo": "None", "latitude": 45.34565351543635, "longitude": -80.03559235928213}, "132004201RR0001": {"name": "PARRY SOUND RURAL PASTORAL CHARGE", "designationCode": "C", "categoryCode": "44", "address": "56 RANKIN LAKE ROAD", "city": "SEGUIN", "province": "ON", "country": "CA", "postalCode": "P2A0B2", "twitter": "None", "instagram": "None", "facebook": "None", "youtube": "None", "website": "None", "summary": "None", "logo": "None", "latitude": 45.30372236943836, "longitude": -79.94656713613023}, "107797383RR0050": {"name": "PARRY SOUND SEVENTH-DAY ADVENTIST CHURCH", "designationCode": "C", "categoryCode": "41", "address": "7 MILLER ST", "city": "PARRY SOUND", "province": "ON", "country": "CA", "postalCode": "P2A1S7", "twitter": "None", "instagram": "None", "facebook": "None", "youtube": "None", "website": "None", "summary": "None", "logo": "None", "latitude": 45.344302072162264, "longitude": -80.03253200914659}, "859590879RR0001": {"name": "PARTAGE ALIMENTAIRE DAVELUYVILLE", "designationCode": "C", "categoryCode": "09", "address": "425  5E RUE", "city": "DAVELUYVILLE", "province": "QC", "country": "CA", "postalCode": "G0Z1C0", "twitter": "None", "instagram": "None", "facebook": "None", "youtube": "None", "website": "None", "summary": "None", "logo": "None", "latitude": 46.202588423538565, "longitude": -72.14199510225646}, "894162858RR0001": {"name": "PARTAGE AU MASCULIN BEAUCE", "designationCode": "C", "categoryCode": "09", "address": "925 BOUL DIONNE", "city": "SAINT-GEORGES", "province": "QC", "country": "CA", "postalCode": "G5Y3V1", "twitter": "None", "instagram": "None", "facebook": "None", "youtube": "None", "website": "None", "summary": "None", "logo": "None", "latitude": 46.11931675604473, "longitude": -70.68282429488148}, "119086254RR0001": {"name": "PARTAGE CHRETIEN STE-MONIQUE LES SAULES INC.", "designationCode": "C", "categoryCode": "09", "address": "3750 BOUL. MASSON", "city": "QUEBEC", "province": "QC", "country": "CA", "postalCode": "G1P1K1", "twitter": "None", "instagram": "None", "facebook": "None", "youtube": "None", "website": "None", "summary": "None", "logo": "None", "latitude": 46.814154850972265, "longitude": -71.32526523991591}, "119086262RR0001": {"name": "PARTAGE HUMANITAIRE", "designationCode": "C", "categoryCode": "59", "address": "219-435 BOUL CURE-LABELLE", "city": "CHOMEDEY LAVAL", "province": "QC", "country": "CA", "postalCode": "H7V2S8", "twitter": "None", "instagram": "None", "facebook": "None", "youtube": "None", "website": "None", "summary": "None", "logo": "None", "latitude": 45.538152060851274, "longitude": -73.73770064019826}, "897821310RR0001": {"name": "PARTAGE QU\u00c9BEC-GUIN\u00c9E", "designationCode": "C", "categoryCode": "09", "address": "C.P. 83", "city": "ST-J\u00c9R\u00d4ME", "province": "QC", "country": "CA", "postalCode": "J7Z5T7", "twitter": "None", "instagram": "None", "facebook": "None", "youtube": "None", "website": "None", "summary": "None", "logo": "None", "latitude": 45.77506800000006, "longitude": -74.00320999999994}, "866475726RR0001": {"name": "PARTAGE SAINT-FRANCOIS-DE-SALES", "designationCode": "C", "categoryCode": "09", "address": "1800 RUE VIANNEY", "city": "LONGUEUIL", "province": "QC", "country": "CA", "postalCode": "J4J4T2", "twitter": "None", "instagram": "None", "facebook": "None", "youtube": "None", "website": "None", "summary": "None", "logo": "None", "latitude": 45.54087536802471, "longitude": -73.47457251341712}, "893003368RR0001": {"name": "PARTAGE ST-EUSEBE INC", "designationCode": "C", "categoryCode": "09", "address": "106-B, ST-JEAN-BAPTISTE SUD", "city": "PRINCEVILLE", "province": "QC", "country": "CA", "postalCode": "G6L5A5", "twitter": "None", "instagram": "None", "facebook": "None", "youtube": "None", "website": "None", "summary": "None", "logo": "None", "latitude": 46.17118504132225, "longitude": -71.87367724827253}, "892668641RR0001": {"name": "PARTAGE ST-ROBERT DE LONGUEUIL", "designationCode": "C", "categoryCode": "09", "address": "701 RUE DUHAMEL", "city": "LONGUEUIL", "province": "QC", "country": "CA", "postalCode": "J4L4M2", "twitter": "None", "instagram": "None", "facebook": "None", "youtube": "None", "website": "None", "summary": "None", "logo": "None", "latitude": 45.51157941245872, "longitude": -73.46154778094477}, "892956269RR0001": {"name": "PARTAGE TIERS-MONDE", "designationCode": "B", "categoryCode": "09", "address": "5 RUE SAINT-ARTHUR", "city": "GATINEAU", "province": "QC", "country": "CA", "postalCode": "J8T3C5", "twitter": "None", "instagram": "None", "facebook": "None", "youtube": "None", "website": "None", "summary": "None", "logo": "None", "latitude": 45.469817820445385, "longitude": -75.68995542293297}, "870517992RR0001": {"name": "PARTAGE-ACTION DE L'OUEST-DE-L'ILE/WEST-ISLAND COMMUNITY SHARES", "designationCode": "A", "categoryCode": "03", "address": "200 - 610 BOUL SAINT-JEAN", "city": "POINTE-CLAIRE", "province": "QC", "country": "CA", "postalCode": "H9R3K2", "twitter": "None", "instagram": "None", "facebook": "None", "youtube": "None", "website": "None", "summary": "None", "logo": "None", "latitude": 45.45998517564222, "longitude": -73.82262181048809}, "131951493RR0001": {"name": "PARTAGENCE", "designationCode": "C", "categoryCode": "09", "address": "E-325,230 RTE DU PARC", "city": "SAINTE-ANNE-DES-MONTS", "province": "QC", "country": "CA", "postalCode": "G4V2C4", "twitter": "None", "instagram": "None", "facebook": "None", "youtube": "None", "website": "None", "summary": "None", "logo": "None", "latitude": 49.11972667502432, "longitude": -66.47925420584059}, "891744047RR0001": {"name": "PARTENAIRES A PART EGALE", "designationCode": "C", "categoryCode": "09", "address": "66, PLACE QUEVILLON           C.P. 216", "city": "LEBEL-SUR-QUEVILLON", "province": "QC", "country": "CA", "postalCode": "J0Y1X0", "twitter": "None", "instagram": "None", "facebook": "None", "youtube": "None", "website": "None", "summary": "None", "logo": "None", "latitude": 49.0533091112111, "longitude": -76.97935904535404}, "873878771RR0001": {"name": "PARTENAIRES DU MONDE / PARTNERS OF THE WORLD", "designationCode": "C", "categoryCode": "09", "address": "130 AVENUE DE L'EPEE", "city": "D'OUTREMONT", "province": "QC", "country": "CA", "postalCode": "H2V3T2", "twitter": "None", "instagram": "None", "facebook": "None", "youtube": "None", "website": "None", "summary": "None", "logo": "None", "latitude": 45.5174456658204, "longitude": -73.59933130503771}}