{"137508370RR0001": {"name": "CANADIAN FOUNDATION FOR THE EDUCATION AND WELFARE OF JEWS OFTHE C I S", "designationCode": "C", "categoryCode": "09", "address": "2939 BATHURST ST", "city": "TORONTO", "province": "ON", "country": "CA", "postalCode": "M6B3B2", "twitter": "None", "instagram": "None", "facebook": "None", "youtube": "None", "website": "None", "summary": "None", "logo": "None", "latitude": 43.71620865168213, "longitude": -79.42900636952527}, "118831536RR0001": {"name": "CANADIAN FOUNDATION FOR THE INTERNATIONAL SPACE UNIVERSITY", "designationCode": "C", "categoryCode": "20", "address": "1 VALECREST CRT", "city": "CALEDON", "province": "ON", "country": "CA", "postalCode": "L7C1C2", "twitter": "None", "instagram": "None", "facebook": "None", "youtube": "None", "website": "None", "summary": "None", "logo": "None", "latitude": 43.748750943389645, "longitude": -79.83117270953323}, "895965374RR0001": {"name": "CANADIAN FOUNDATION FOR THE PREVENTION OF FAMILY VIOLENCE", "designationCode": "C", "categoryCode": "59", "address": "312 BROOKE AVENUE", "city": "TORONTO", "province": "ON", "country": "CA", "postalCode": "M5M2L3", "twitter": "None", "instagram": "None", "facebook": "None", "youtube": "None", "website": "None", "summary": "None", "logo": "None", "latitude": 43.73209218347842, "longitude": -79.42465756440065}, "861357564RR0001": {"name": "CANADIAN FOUNDATION FOR THE UNITED WORLD COLLEGE OF THE ATLANTIC", "designationCode": "C", "categoryCode": "23", "address": "PO BOX 737                    31 ADELAIDE STREET EAST", "city": "TORONTO", "province": "ON", "country": "CA", "postalCode": "M5C2J8", "twitter": "None", "instagram": "None", "facebook": "None", "youtube": "None", "website": "None", "summary": "None", "logo": "None", "latitude": 43.650717853165304, "longitude": -79.37698425644875}, "897972915RR0001": {"name": "CANADIAN FOUNDATION FOR TRAUMA RESEARCH AND EDUCATION INCORPORATED./FONDATION CANADIENNE POUR LA RECHERCHE ET L'EDUCATION SUR LE TRAUMATISME INCORPOREE", "designationCode": "C", "categoryCode": "11", "address": "208 - 3030 PANDOSY ST", "city": "KELOWNA", "province": "BC", "country": "CA", "postalCode": "V1Y0C4", "twitter": "None", "instagram": "None", "facebook": "None", "youtube": "None", "website": "None", "summary": "None", "logo": "None", "latitude": 49.86255697446478, "longitude": -119.49127509233045}, "136474459RR0001": {"name": "CANADIAN FOUNDATION FOR UKRAINIAN STUDIES", "designationCode": "C", "categoryCode": "21", "address": "620 SPADINA AVE", "city": "TORONTO", "province": "ON", "country": "CA", "postalCode": "M5S2H4", "twitter": "None", "instagram": "None", "facebook": "None", "youtube": "None", "website": "None", "summary": "None", "logo": "None", "latitude": 43.662010778233075, "longitude": -79.40183629173616}, "888981172RR0001": {"name": "CANADIAN FRIENDS HISTORICAL ASSOCIATION", "designationCode": "C", "categoryCode": "22", "address": "POST OFFICE BOX 21527", "city": "NEWMARKET", "province": "ON", "country": "CA", "postalCode": "L3X1G9", "twitter": "None", "instagram": "None", "facebook": "None", "youtube": "None", "website": "None", "summary": "None", "logo": "None", "latitude": 44.046555000000055, "longitude": -79.49498749999994}, "118831601RR0001": {"name": "CANADIAN FRIENDS MESIFTA TIFERETH ISRAEL OF RIZHIN AMIS CANADIENS MESIFTA TIF ISRAEL RIZHI", "designationCode": "C", "categoryCode": "21", "address": "216 COLDSTREAM AVENUE", "city": "TORONTO", "province": "ON", "country": "CA", "postalCode": "M5N1Y3", "twitter": "None", "instagram": "None", "facebook": "None", "youtube": "None", "website": "None", "summary": "None", "logo": "None", "latitude": 43.71618219458693, "longitude": -79.4229361125569}, "899259600RR0001": {"name": "CANADIAN FRIENDS OF A.V. ISRAEL", "designationCode": "C", "categoryCode": "15", "address": "610 BRIARHILL AVENUE", "city": "TORONTO", "province": "ON", "country": "CA", "postalCode": "M5N1N3", "twitter": "None", "instagram": "None", "facebook": "None", "youtube": "None", "website": "None", "summary": "None", "logo": "None", "latitude": 43.708953183478435, "longitude": -79.42220561977025}, "844846964RR0001": {"name": "CANADIAN FRIENDS OF AKIM - ISRAEL ASSOCIATION FOR THE MENTALLY HANDICAPPED", "designationCode": "C", "categoryCode": "11", "address": "122 CHARLTON BLVD", "city": "WILLOWDALE", "province": "ON", "country": "CA", "postalCode": "M2R3J1", "twitter": "None", "instagram": "None", "facebook": "None", "youtube": "None", "website": "None", "summary": "None", "logo": "None", "latitude": 43.78097020901365, "longitude": -79.43414683847877}, "118784834RR0001": {"name": "CANADIAN FRIENDS OF ALYN", "designationCode": "C", "categoryCode": "11", "address": "TORKIN MANES COHEN ARBUS LLP  151 YONGE STREET, SUITE 1500", "city": "TORONTO", "province": "ON", "country": "CA", "postalCode": "M5C2W7", "twitter": "None", "instagram": "None", "facebook": "None", "youtube": "None", "website": "None", "summary": "None", "logo": "None", "latitude": 43.65173779819972, "longitude": -79.37861566152122}, "834638165RR0001": {"name": "CANADIAN FRIENDS OF ANIQUEM HEALTH DEVELOPMENT CORPORATION", "designationCode": "C", "categoryCode": "11", "address": "12 MOUNT MCKINLEY LANE", "city": "BRAMPTON", "province": "ON", "country": "CA", "postalCode": "L6R1W2", "twitter": "None", "instagram": "None", "facebook": "None", "youtube": "None", "website": "None", "summary": "None", "logo": "None", "latitude": 43.76248389537761, "longitude": -79.73093038288411}, "828604926RR0001": {"name": "CANADIAN FRIENDS OF ARACHIM", "designationCode": "C", "categoryCode": "21", "address": "45 COMMERCIAL ROAD", "city": "TORONTO", "province": "ON", "country": "CA", "postalCode": "M4G1Z3", "twitter": "None", "instagram": "None", "facebook": "None", "youtube": "None", "website": "None", "summary": "None", "logo": "None", "latitude": 43.71003977655963, "longitude": -79.35564728919734}, "106846520RR0001": {"name": "CANADIAN FRIENDS OF BAR-ILAN UNIVERSITY", "designationCode": "C", "categoryCode": "21", "address": "214-1750 STEELES AVE W", "city": "CONCORD", "province": "ON", "country": "CA", "postalCode": "L4K2L7", "twitter": "None", "instagram": "None", "facebook": "None", "youtube": "None", "website": "None", "summary": "None", "logo": "None", "latitude": 43.77641293434587, "longitude": -79.51718439392475}, "118831635RR0001": {"name": "CANADIAN FRIENDS OF BE'ER AVROHOM", "designationCode": "C", "categoryCode": "21", "address": "20 DELL PARK AVE", "city": "TORONTO", "province": "ON", "country": "CA", "postalCode": "M6B2T4", "twitter": "None", "instagram": "None", "facebook": "None", "youtube": "None", "website": "None", "summary": "None", "logo": "None", "latitude": 43.71736324897559, "longitude": -79.43090564960467}, "890561848RR0001": {"name": "CANADIAN FRIENDS OF BEIT ISSIE SHAPIRO", "designationCode": "C", "categoryCode": "11", "address": "157 - 8171 YONGE ST", "city": "THORNHILL", "province": "ON", "country": "CA", "postalCode": "L3T2C6", "twitter": "None", "instagram": "None", "facebook": "None", "youtube": "None", "website": "None", "summary": "None", "logo": "None", "latitude": 43.82696167721735, "longitude": -79.42696585841676}, "857209274RR0001": {"name": "CANADIAN FRIENDS OF BEIT MIDRASH ELON MOREH", "designationCode": "C", "categoryCode": "49", "address": "104 BEVSHIRE CIRCLE", "city": "THORNHILL", "province": "ON", "country": "CA", "postalCode": "L4J5B5", "twitter": "None", "instagram": "None", "facebook": "None", "youtube": "None", "website": "None", "summary": "None", "logo": "None", "latitude": 43.80554453733622, "longitude": -79.44493916691691}, "118831643RR0001": {"name": "CANADIAN FRIENDS OF BENE BERAQ HOSPITAL", "designationCode": "C", "categoryCode": "11", "address": "19 FRONTENAC AVE", "city": "TORONTO", "province": "ON", "country": "CA", "postalCode": "M5M1Z4", "twitter": "None", "instagram": "None", "facebook": "None", "youtube": "None", "website": "None", "summary": "None", "logo": "None", "latitude": 43.71827176934627, "longitude": -79.4220573985516}, "854572641RR0001": {"name": "CANADIAN FRIENDS OF BETH CHANA", "designationCode": "C", "categoryCode": "21", "address": "6067 AV DUROCHER", "city": "OUTREMONT", "province": "QC", "country": "CA", "postalCode": "H2V3Y7", "twitter": "None", "instagram": "None", "facebook": "None", "youtube": "None", "website": "None", "summary": "None", "logo": "None", "latitude": 45.523503250360584, "longitude": -73.60935099457565}, "118831650RR0002": {"name": "CANADIAN FRIENDS OF BETH HATALMUD", "designationCode": "C", "categoryCode": "21", "address": "493 GLENGARRY AVENUE", "city": "TORONTO", "province": "ON", "country": "CA", "postalCode": "M5M1E9", "twitter": "None", "instagram": "None", "facebook": "None", "youtube": "None", "website": "None", "summary": "None", "logo": "None", "latitude": 43.72076080930823, "longitude": -79.42626676366211}, "118831692RR0001": {"name": "CANADIAN FRIENDS OF BETH JOSEPH ZVI", "designationCode": "C", "categoryCode": "49", "address": "482 WISEMAN", "city": "MONTREAL", "province": "QC", "country": "CA", "postalCode": "H2V3J8", "twitter": "None", "instagram": "None", "facebook": "None", "youtube": "None", "website": "None", "summary": "None", "logo": "None", "latitude": 45.51735989895563, "longitude": -73.60846252236124}, "889750683RR0001": {"name": "CANADIAN FRIENDS OF BETH RIVKA SCHOOLS", "designationCode": "C", "categoryCode": "21", "address": "2788 BATHURST ST. #306", "city": "TORONTO", "province": "ON", "country": "CA", "postalCode": "M6B2A6", "twitter": "None", "instagram": "None", "facebook": "None", "youtube": "None", "website": "None", "summary": "None", "logo": "None", "latitude": 43.71180723313524, "longitude": -79.42801656927674}, "855021762RR0001": {"name": "CANADIAN FRIENDS OF BMTC", "designationCode": "C", "categoryCode": "21", "address": "35 DELL PARK AVE", "city": "TORONTO", "province": "ON", "country": "CA", "postalCode": "M6B2T5", "twitter": "None", "instagram": "None", "facebook": "None", "youtube": "None", "website": "None", "summary": "None", "logo": "None", "latitude": 43.7170509441977, "longitude": -79.43216534165276}, "890558877RR0001": {"name": "CANADIAN FRIENDS OF BNEI SHIMON YISROEL OF SHOPRON", "designationCode": "C", "categoryCode": "21", "address": "5462 HUTCHISON", "city": "MONTREAL", "province": "QC", "country": "CA", "postalCode": "H2V4B3", "twitter": "None", "instagram": "None", "facebook": "None", "youtube": "None", "website": "None", "summary": "None", "logo": "None", "latitude": 45.52096580792324, "longitude": -73.60160341730614}, "100764638RR0001": {"name": "CANADIAN FRIENDS OF BOYS TOWN JERUSALEM / LES AMIS CANADIENSDE LA CITE DES GARCONS A JERUSALEM", "designationCode": "A", "categoryCode": "09", "address": "2788 BATHURST ST STE 200", "city": "TORONTO", "province": "ON", "country": "CA", "postalCode": "M6B3A3", "twitter": "None", "instagram": "None", "facebook": "None", "youtube": "None", "website": "None", "summary": "None", "logo": "None", "latitude": 43.71182629141906, "longitude": -79.42802706206338}, "886071190RR0001": {"name": "CANADIAN FRIENDS OF BROWARD CHAI CENTRE", "designationCode": "C", "categoryCode": "21", "address": "6750 WESTBURY", "city": "MONTREAL", "province": "QC", "country": "CA", "postalCode": "H3W2X6", "twitter": "None", "instagram": "None", "facebook": "None", "youtube": "None", "website": "None", "summary": "None", "logo": "None", "latitude": 45.49369298998803, "longitude": -73.64569620832116}, "862813102RR0001": {"name": "CANADIAN FRIENDS OF C.I.O. OF ARGENTINA", "designationCode": "C", "categoryCode": "49", "address": "5247 HUTCHISON", "city": "MONTREAL", "province": "QC", "country": "CA", "postalCode": "H2V4S4", "twitter": "None", "instagram": "None", "facebook": "None", "youtube": "None", "website": "None", "summary": "None", "logo": "None", "latitude": 45.51994518096826, "longitude": -73.59921161933757}, "889690467RR0001": {"name": "CANADIAN FRIENDS OF CHABAD OF TIBERIAS INC / LES AMIS CANADIENS DE CHABAD DE TIBERE INC", "designationCode": "C", "categoryCode": "21", "address": "4704 AVENUE KENT", "city": "MONTREAL", "province": "QC", "country": "CA", "postalCode": "H3W1H1", "twitter": "None", "instagram": "None", "facebook": "None", "youtube": "None", "website": "None", "summary": "None", "logo": "None", "latitude": 45.4956371776214, "longitude": -73.6378165599286}, "888956844RR0001": {"name": "CANADIAN FRIENDS OF CHASIDEI BRESLOV", "designationCode": "C", "categoryCode": "09", "address": "75 SHELBORNE AVENUE", "city": "TORONTO", "province": "ON", "country": "CA", "postalCode": "M5N1Z2", "twitter": "None", "instagram": "None", "facebook": "None", "youtube": "None", "website": "None", "summary": "None", "logo": "None", "latitude": 43.71654686037866, "longitude": -79.42620695392121}, "891822249RR0001": {"name": "CANADIAN FRIENDS OF CUBAN JEWRY", "designationCode": "C", "categoryCode": "47", "address": "6303 TRANS ISLAND", "city": "MONTREAL", "province": "QC", "country": "CA", "postalCode": "H3W3B7", "twitter": "None", "instagram": "None", "facebook": "None", "youtube": "None", "website": "None", "summary": "None", "logo": "None", "latitude": 45.49072031585775, "longitude": -73.6426985456461}, "893034645RR0001": {"name": "CANADIAN FRIENDS OF DENTAL VOLUNTEERS FOR ISRAEL", "designationCode": "C", "categoryCode": "11", "address": "69 YONGE STREET               P.O. BOX 17001", "city": "TORONTO", "province": "ON", "country": "CA", "postalCode": "M5E1K3", "twitter": "None", "instagram": "None", "facebook": "None", "youtube": "None", "website": "None", "summary": "None", "logo": "None", "latitude": 43.64884364086209, "longitude": -79.37772048193794}, "890325749RR0001": {"name": "CANADIAN FRIENDS OF DVAR YERUSHALAYIM", "designationCode": "C", "categoryCode": "21", "address": "25 COLLINSON BLVD", "city": "TORONTO", "province": "ON", "country": "CA", "postalCode": "M3H3C1", "twitter": "None", "instagram": "None", "facebook": "None", "youtube": "None", "website": "None", "summary": "None", "logo": "None", "latitude": 43.738585731346234, "longitude": -79.43873670494561}, "889034799RR0001": {"name": "CANADIAN FRIENDS OF FINLAND EDUCATION FOUNDATION", "designationCode": "A", "categoryCode": "23", "address": "844 SHAW STREET", "city": "TORONTO", "province": "ON", "country": "CA", "postalCode": "M6G3M2", "twitter": "None", "instagram": "None", "facebook": "None", "youtube": "None", "website": "None", "summary": "None", "logo": "None", "latitude": 43.66516487454559, "longitude": -79.42440413892885}, "875857997RR0001": {"name": "CANADIAN FRIENDS OF FOUR WINDS WESTWARD HO", "designationCode": "C", "categoryCode": "03", "address": "300-3665 KINGSWAY", "city": "VANCOUVER", "province": "BC", "country": "CA", "postalCode": "V5R5W2", "twitter": "None", "instagram": "None", "facebook": "None", "youtube": "None", "website": "None", "summary": "None", "logo": "None", "latitude": 49.232301482687745, "longitude": -123.02414490758262}, "118831825RR0001": {"name": "CANADIAN FRIENDS OF FRENCH HILL COMMUNITY CENTER", "designationCode": "C", "categoryCode": "21", "address": "4987 PLAMONDON", "city": "MONTREAL", "province": "QC", "country": "CA", "postalCode": "H3W1E9", "twitter": "None", "instagram": "None", "facebook": "None", "youtube": "None", "website": "None", "summary": "None", "logo": "None", "latitude": 45.49308174161799, "longitude": -73.64289901584037}, "118831833RR0001": {"name": "CANADIAN FRIENDS OF GENERAL ISRAEL ORPHANS HOME FOR GIRLS", "designationCode": "C", "categoryCode": "21", "address": "4660 BOUL DECARIE", "city": "MONTREAL", "province": "QC", "country": "CA", "postalCode": "H3X2H5", "twitter": "None", "instagram": "None", "facebook": "None", "youtube": "None", "website": "None", "summary": "None", "logo": "None", "latitude": 45.48175579349651, "longitude": -73.62551351555189}, "897200143RR0001": {"name": "CANADIAN FRIENDS OF GIVAT HAVIVA", "designationCode": "C", "categoryCode": "20", "address": "201 - 320 TWEEDSMUIR AVE", "city": "YORK", "province": "ON", "country": "CA", "postalCode": "M5P2Y3", "twitter": "None", "instagram": "None", "facebook": "None", "youtube": "None", "website": "None", "summary": "None", "logo": "None", "latitude": 43.68595905522538, "longitude": -79.41416548490945}, "106846538RR0001": {"name": "CANADIAN FRIENDS OF HAIFA UNIVERSITY", "designationCode": "A", "categoryCode": "23", "address": "400 WALMER ROAD               SUITE 1921, EAST TOWER", "city": "TORONTO", "province": "ON", "country": "CA", "postalCode": "M5P2X7", "twitter": "None", "instagram": "None", "facebook": "None", "youtube": "None", "website": "None", "summary": "None", "logo": "None", "latitude": 43.68537550124076, "longitude": -79.41273616074183}, "868119611RR0001": {"name": "CANADIAN FRIENDS OF HOLOCAUST SURVIVORS RELIEF FUND OF SHEARIS HAPLETAH", "designationCode": "C", "categoryCode": "02", "address": "6100 DUROCHER AVENUE", "city": "MONTREAL", "province": "QC", "country": "CA", "postalCode": "H2V3Y6", "twitter": "None", "instagram": "None", "facebook": "None", "youtube": "None", "website": "None", "summary": "None", "logo": "None", "latitude": 45.52364674963943, "longitude": -73.60984347267576}, "874009905RR0001": {"name": "CANADIAN FRIENDS OF HOPITAL ALBERT SCHWEITZER-HAITI", "designationCode": "C", "categoryCode": "11", "address": "9 APPALACHIAN TRAIL", "city": "HAMILTON", "province": "ON", "country": "CA", "postalCode": "L9B2X8", "twitter": "None", "instagram": "None", "facebook": "None", "youtube": "None", "website": "None", "summary": "None", "logo": "None", "latitude": 43.19944999526815, "longitude": -79.91434682598529}, "140813403RR0001": {"name": "CANADIAN FRIENDS OF INTERNATIONAL HOUSE OF NEW YORK AMI(E)S CANADIEN(NE)S DE LA MAISON INTERNATIONALE DE NEW YORK", "designationCode": "C", "categoryCode": "21", "address": "1611 BLOHM DRIVE", "city": "OTTAWA", "province": "ON", "country": "CA", "postalCode": "K1G5N6", "twitter": "None", "instagram": "None", "facebook": "None", "youtube": "None", "website": "None", "summary": "None", "logo": "None", "latitude": 45.375219260084094, "longitude": -75.60756797766741}, "133133009RR0001": {"name": "CANADIAN FRIENDS OF ISRAEL ELWYN", "designationCode": "C", "categoryCode": "11", "address": "74 TYCOS DRIVE", "city": "TORONTO", "province": "ON", "country": "CA", "postalCode": "M9V1V9", "twitter": "None", "instagram": "None", "facebook": "None", "youtube": "None", "website": "None", "summary": "None", "logo": "None", "latitude": 43.70510414741162, "longitude": -79.45591657550915}, "898335773RR0001": {"name": "CANADIAN FRIENDS OF ISRAEL FREE LOAN ASSOCIATION, INC./AMIS CANADIENS DE L'ASSOCIATION DU PRET SAND INTERET ISRALIEN, I NC.", "designationCode": "C", "categoryCode": "09", "address": "605 - 24 YORK ST", "city": "OTTAWA", "province": "ON", "country": "CA", "postalCode": "K1N1K2", "twitter": "None", "instagram": "None", "facebook": "None", "youtube": "None", "website": "None", "summary": "None", "logo": "None", "latitude": 45.42742126852654, "longitude": -75.69422291695065}, "857173231RR0001": {"name": "CANADIAN FRIENDS OF ISRAEL YOUTH CENTRE", "designationCode": "C", "categoryCode": "09", "address": "1344 BATHURST ST", "city": "TORONTO", "province": "ON", "country": "CA", "postalCode": "M5R3H7", "twitter": "None", "instagram": "None", "facebook": "None", "youtube": "None", "website": "None", "summary": "None", "logo": "None", "latitude": 43.679376157366285, "longitude": -79.4168436519706}, "891452195RR0001": {"name": "CANADIAN FRIENDS OF ISRALIGHT", "designationCode": "C", "categoryCode": "49", "address": "47 STONEDENE BLVD", "city": "TORONTO", "province": "ON", "country": "CA", "postalCode": "M2R3C8", "twitter": "None", "instagram": "None", "facebook": "None", "youtube": "None", "website": "None", "summary": "None", "logo": "None", "latitude": 43.7859534657222, "longitude": -79.44866344890089}, "869176412RR0001": {"name": "CANADIAN FRIENDS OF JEWISH COMMUNITY OF GREATER STOWE / LES AMIS CANADIENS DE LA COMMUNAUT\u00c9 JUIVE DE LA R\u00c9GION DE STOWE", "designationCode": "C", "categoryCode": "42", "address": "3 WESTMOUNT SQUARE, #1713", "city": "WESTMOUNT", "province": "QC", "country": "CA", "postalCode": "H3Z2S5", "twitter": "None", "instagram": "None", "facebook": "None", "youtube": "None", "website": "None", "summary": "None", "logo": "None", "latitude": 45.48721710794821, "longitude": -73.5869757183324}, "118831924RR0001": {"name": "CANADIAN FRIENDS OF JEWISH YOUTH LIBRARY", "designationCode": "C", "categoryCode": "50", "address": "497 OUTREMONT AVE", "city": "MONTREAL", "province": "QC", "country": "CA", "postalCode": "H2V3M4", "twitter": "None", "instagram": "None", "facebook": "None", "youtube": "None", "website": "None", "summary": "None", "logo": "None", "latitude": 45.518463250360576, "longitude": -73.6076823852214}, "892067570RR0001": {"name": "CANADIAN FRIENDS OF KADMONAINU", "designationCode": "C", "categoryCode": "49", "address": "50 BRISBANE ROAD", "city": "DOWNSVIEW", "province": "ON", "country": "CA", "postalCode": "M3J2K2", "twitter": "None", "instagram": "None", "facebook": "None", "youtube": "None", "website": "None", "summary": "None", "logo": "None", "latitude": 43.77196112245333, "longitude": -79.47367805386907}, "889944872RR0001": {"name": "CANADIAN FRIENDS OF KEREN HATZOLOH", "designationCode": "C", "categoryCode": "21", "address": "384 BERNARD O", "city": "MONTREAL", "province": "QC", "country": "CA", "postalCode": "H2V1T7", "twitter": "None", "instagram": "None", "facebook": "None", "youtube": "None", "website": "None", "summary": "None", "logo": "None", "latitude": 45.52310217040802, "longitude": -73.6059900710371}, "893238162RR0001": {"name": "CANADIAN FRIENDS OF KIRYAS JOEL MONROE", "designationCode": "C", "categoryCode": "49", "address": "5342 ESPLANADE STREET", "city": "MONTREAL", "province": "QC", "country": "CA", "postalCode": "H2T2Z7", "twitter": "None", "instagram": "None", "facebook": "None", "youtube": "None", "website": "None", "summary": "None", "logo": "None", "latitude": 45.52251185899368, "longitude": -73.59905403387377}, "886960590RR0001": {"name": "CANADIAN FRIENDS OF KNESET BNEI HAGOLA", "designationCode": "C", "categoryCode": "25", "address": "6351 DE VIMY", "city": "MONTREAL", "province": "QC", "country": "CA", "postalCode": "H3S2R5", "twitter": "None", "instagram": "None", "facebook": "None", "youtube": "None", "website": "None", "summary": "None", "logo": "None", "latitude": 45.51483616654155, "longitude": -73.62373002441004}, "890417595RR0001": {"name": "CANADIAN FRIENDS OF KOLEL DIVRAI CHAIM", "designationCode": "C", "categoryCode": "09", "address": "5849 HUTCHISON STREET", "city": "MONTREAL", "province": "QC", "country": "CA", "postalCode": "H2V4B7", "twitter": "None", "instagram": "None", "facebook": "None", "youtube": "None", "website": "None", "summary": "None", "logo": "None", "latitude": 45.5233883669282, "longitude": -73.60699227156796}, "888967197RR0001": {"name": "CANADIAN FRIENDS OF KOLEL EMES V'EMUNAH WIZNITZ", "designationCode": "C", "categoryCode": "21", "address": "6041 DUROCHER", "city": "OUTREMONT", "province": "QC", "country": "CA", "postalCode": "H2V3Y7", "twitter": "None", "instagram": "None", "facebook": "None", "youtube": "None", "website": "None", "summary": "None", "logo": "None", "latitude": 45.523360308644385, "longitude": -73.60902249457564}, "118831965RR0001": {"name": "CANADIAN FRIENDS OF KOLLEL AMERICA AND CANADA REG'D", "designationCode": "C", "categoryCode": "09", "address": "21 NOAM COURT", "city": "THORNHILL", "province": "ON", "country": "CA", "postalCode": "L4J9K6", "twitter": "None", "instagram": "None", "facebook": "None", "youtube": "None", "website": "None", "summary": "None", "logo": "None", "latitude": 43.840348765451125, "longitude": -79.46532815722205}, "860779594RR0001": {"name": "CANADIAN FRIENDS OF KOLLEL OF ELIZABETH", "designationCode": "C", "categoryCode": "21", "address": "2255 BEDFORD", "city": "MONTREAL", "province": "QC", "country": "CA", "postalCode": "H3S1E8", "twitter": "None", "instagram": "None", "facebook": "None", "youtube": "None", "website": "None", "summary": "None", "logo": "None", "latitude": 45.51469974161801, "longitude": -73.62726970901365}, "118831973RR0001": {"name": "CANADIAN FRIENDS OF KOLLEL TIFERES YITZCHOK OF ALEKSANDER", "designationCode": "C", "categoryCode": "49", "address": "104-160 TYCOS DRIVE", "city": "TORONTO", "province": "ON", "country": "CA", "postalCode": "M6B1W8", "twitter": "None", "instagram": "None", "facebook": "None", "youtube": "None", "website": "None", "summary": "None", "logo": "None", "latitude": 43.70364417684198, "longitude": -79.46258584237391}, "857570303RR0001": {"name": "CANADIAN FRIENDS OF KUPAT HAIR", "designationCode": "C", "categoryCode": "09", "address": "1973 CLINTON AVENUE", "city": "MONTREAL", "province": "QC", "country": "CA", "postalCode": "H3S1L2", "twitter": "None", "instagram": "None", "facebook": "None", "youtube": "None", "website": "None", "summary": "None", "logo": "None", "latitude": 45.51348495143972, "longitude": -73.62442745270913}, "118831999RR0001": {"name": "CANADIAN FRIENDS OF LANIADO HOSPITAL", "designationCode": "C", "categoryCode": "21", "address": "7077 PARK AVENUE, #600", "city": "MONTREAL", "province": "QC", "country": "CA", "postalCode": "H3N1X7", "twitter": "None", "instagram": "None", "facebook": "None", "youtube": "None", "website": "None", "summary": "None", "logo": "None", "latitude": 45.529784285619314, "longitude": -73.62013924395526}, "890949415RR0001": {"name": "CANADIAN FRIENDS OF LANIADO HOSPITAL, ONTARIO REGION", "designationCode": "B", "categoryCode": "13", "address": "217-534 LAWRENCE AVE WEST", "city": "TORONTO", "province": "ON", "country": "CA", "postalCode": "M6A1A2", "twitter": "None", "instagram": "None", "facebook": "None", "youtube": "None", "website": "None", "summary": "None", "logo": "None", "latitude": 43.71484673567959, "longitude": -79.45006503232214}, "821043940RR0001": {"name": "CANADIAN FRIENDS OF LATYMER PREP SCHOOL AND UPPER SCHOOL TRUST", "designationCode": "B", "categoryCode": "21", "address": "176 OLD YONGE ST", "city": "TORONTO", "province": "ON", "country": "CA", "postalCode": "M2P1P9", "twitter": "None", "instagram": "None", "facebook": "None", "youtube": "None", "website": "None", "summary": "None", "logo": "None", "latitude": 43.74689710240069, "longitude": -79.4018725175138}, "888426475RR0001": {"name": "CANADIAN FRIENDS OF LELOV YESHIVAH", "designationCode": "C", "categoryCode": "21", "address": "6249 DE VIMY", "city": "MONTREAL", "province": "QC", "country": "CA", "postalCode": "H3S2R4", "twitter": "None", "instagram": "None", "facebook": "None", "youtube": "None", "website": "None", "summary": "None", "logo": "None", "latitude": 45.514003042760564, "longitude": -73.62197022618166}, "829673474RR0001": {"name": "CANADIAN FRIENDS OF LUBAVITCH CHEDER", "designationCode": "C", "categoryCode": "21", "address": "4690 CARLTON AVE", "city": "MONTREAL", "province": "QC", "country": "CA", "postalCode": "H3W1G4", "twitter": "None", "instagram": "None", "facebook": "None", "youtube": "None", "website": "None", "summary": "None", "logo": "None", "latitude": 45.49632337800804, "longitude": -73.63859984843344}, "888517299RR0001": {"name": "CANADIAN FRIENDS OF MAOR GERSHON SCHOLARSHIP KOLLEL", "designationCode": "C", "categoryCode": "21", "address": "4900 LACOMBE AVENUE", "city": "MONTREAL", "province": "QC", "country": "CA", "postalCode": "H3W1R2", "twitter": "None", "instagram": "None", "facebook": "None", "youtube": "None", "website": "None", "summary": "None", "logo": "None", "latitude": 45.48869648014893, "longitude": -73.63056804980103}, "100764646RR0001": {"name": "CANADIAN FRIENDS OF MASSUAH", "designationCode": "C", "categoryCode": "21", "address": "970 LAWRENCE AVENUE #303", "city": "TORONTO", "province": "ON", "country": "CA", "postalCode": "M6A3B6", "twitter": "None", "instagram": "None", "facebook": "None", "youtube": "None", "website": "None", "summary": "None", "logo": "None", "latitude": 43.713688525679444, "longitude": -79.4586771542792}, "893023168RR0001": {"name": "CANADIAN FRIENDS OF MECHONHAH OYROA", "designationCode": "C", "categoryCode": "49", "address": "5521 DUROCHER AVENUE", "city": "MONTREAL", "province": "QC", "country": "CA", "postalCode": "H2V3X9", "twitter": "None", "instagram": "None", "facebook": "None", "youtube": "None", "website": "None", "summary": "None", "logo": "None", "latitude": 45.52076125757392, "longitude": -73.60307915208617}, "844930743RR0001": {"name": "CANADIAN FRIENDS OF MEIR PANIM", "designationCode": "C", "categoryCode": "09", "address": "5764 ILAN RAMON", "city": "COTE ST LUC", "province": "QC", "country": "CA", "postalCode": "H4W3L4", "twitter": "None", "instagram": "None", "facebook": "None", "youtube": "None", "website": "None", "summary": "None", "logo": "None", "latitude": 45.4771956233483, "longitude": -73.66116591104507}, "118832062RR0001": {"name": "CANADIAN FRIENDS OF MEKOR CHAIM ACADEMY", "designationCode": "B", "categoryCode": "21", "address": "250 BATHURST GLEN DR.", "city": "THORNHILL", "province": "ON", "country": "CA", "postalCode": "L4J8A7", "twitter": "None", "instagram": "None", "facebook": "None", "youtube": "None", "website": "None", "summary": "None", "logo": "None", "latitude": 43.83954548014894, "longitude": -79.46382706013014}, "891458242RR0001": {"name": "CANADIAN FRIENDS OF MESIVTA EITZ CHAIM OF BOBOV", "designationCode": "C", "categoryCode": "21", "address": "5363 HUTCHISON", "city": "MONTREAL", "province": "QC", "country": "CA", "postalCode": "H2V4B4", "twitter": "None", "instagram": "None", "facebook": "None", "youtube": "None", "website": "None", "summary": "None", "logo": "None", "latitude": 45.5206801737549, "longitude": -73.60084804273191}, "887403830RR0001": {"name": "CANADIAN FRIENDS OF MESIVTA TORAH V'VIRAH OF U T A", "designationCode": "C", "categoryCode": "21", "address": "633 QUERBES AVENUE", "city": "MONTREAL", "province": "QC", "country": "CA", "postalCode": "H2V3W6", "twitter": "None", "instagram": "None", "facebook": "None", "youtube": "None", "website": "None", "summary": "None", "logo": "None", "latitude": 45.522009250360576, "longitude": -73.60789846904042}, "118832112RR0001": {"name": "CANADIAN FRIENDS OF MICHLALAH", "designationCode": "A", "categoryCode": "21", "address": "144 SHELBORNE AVE", "city": "TORONTO", "province": "ON", "country": "CA", "postalCode": "M6B2M6", "twitter": "None", "instagram": "None", "facebook": "None", "youtube": "None", "website": "None", "summary": "None", "logo": "None", "latitude": 43.715505183478435, "longitude": -79.43116898058162}, "118832120RR0001": {"name": "CANADIAN FRIENDS OF MIFAL HASHAS", "designationCode": "C", "categoryCode": "49", "address": "7077 PARK AVENUE              SUITE 600", "city": "MONTREAL", "province": "QC", "country": "CA", "postalCode": "H3N1X7", "twitter": "None", "instagram": "None", "facebook": "None", "youtube": "None", "website": "None", "summary": "None", "logo": "None", "latitude": 45.529784285619314, "longitude": -73.62013924395526}, "892646969RR0001": {"name": "CANADIAN FRIENDS OF MISHON LA'CHOLEH", "designationCode": "C", "categoryCode": "09", "address": "3 - 5810 AV DU PARC", "city": "MONTREAL", "province": "QC", "country": "CA", "postalCode": "H2V4H3", "twitter": "None", "instagram": "None", "facebook": "None", "youtube": "None", "website": "None", "summary": "None", "logo": "None", "latitude": 45.52379871299569, "longitude": -73.6058821258871}, "888681467RR0001": {"name": "CANADIAN FRIENDS OF MOBILE MITZVAH", "designationCode": "C", "categoryCode": "39", "address": "4916 KENT AVENUE,", "city": "MONTREAL", "province": "QC", "country": "CA", "postalCode": "H3W1H5", "twitter": "None", "instagram": "None", "facebook": "None", "youtube": "None", "website": "None", "summary": "None", "logo": "None", "latitude": 45.49264390784242, "longitude": -73.64052961001808}, "853687002RR0001": {"name": "CANADIAN FRIENDS OF MOPO", "designationCode": "C", "categoryCode": "22", "address": "3892, RUE BERRI", "city": "MONTR\u00c9AL", "province": "QC", "country": "CA", "postalCode": "H2L4H1", "twitter": "None", "instagram": "None", "facebook": "None", "youtube": "None", "website": "None", "summary": "None", "logo": "None", "latitude": 45.52081685178032, "longitude": -73.57302275979563}, "858978083RR0001": {"name": "CANADIAN FRIENDS OF MOSDOS BE'ER YITZCHAK / LES AMIS CANADIENS DE MOSDOS BE'ER YITZCHAK", "designationCode": "C", "categoryCode": "21", "address": "170 PL ANDRE OUELLETTE", "city": "BOISBRIAND", "province": "QC", "country": "CA", "postalCode": "J7E4H4", "twitter": "None", "instagram": "None", "facebook": "None", "youtube": "None", "website": "None", "summary": "None", "logo": "None", "latitude": 45.613003536499484, "longitude": -73.86913745599868}, "894402148RR0001": {"name": "CANADIAN FRIENDS OF MOSOOS CHASIDEI BELZ", "designationCode": "C", "categoryCode": "47", "address": "5671 AV DUROCHER", "city": "OUTREMONT", "province": "QC", "country": "CA", "postalCode": "H2V3Y3", "twitter": "None", "instagram": "None", "facebook": "None", "youtube": "None", "website": "None", "summary": "None", "logo": "None", "latitude": 45.52155423203872, "longitude": -73.60484887800803}, "890630593RR0001": {"name": "CANADIAN FRIENDS OF NER ISRAEL RABBINICAL COLLEGE,", "designationCode": "C", "categoryCode": "21", "address": "201 BRIDELAND AVENUE", "city": "TORONTO", "province": "ON", "country": "CA", "postalCode": "M6A1Y7", "twitter": "None", "instagram": "None", "facebook": "None", "youtube": "None", "website": "None", "summary": "None", "logo": "None", "latitude": 43.724679896445465, "longitude": -79.46720435899367}, "879607117RR0001": {"name": "CANADIAN FRIENDS OF NEVE YERUSHALAYIM", "designationCode": "C", "categoryCode": "21", "address": "2 RONDALE BLVD", "city": "TORONTO", "province": "ON", "country": "CA", "postalCode": "M6A1H3", "twitter": "None", "instagram": "None", "facebook": "None", "youtube": "None", "website": "None", "summary": "None", "logo": "None", "latitude": 43.72224222344038, "longitude": -79.43672906869982}, "891424541RR0001": {"name": "CANADIAN FRIENDS OF NEW ENGLAND RABBINICAL COLLEGE", "designationCode": "C", "categoryCode": "21", "address": "6232 DEACON ROAD", "city": "MONTREAL", "province": "QC", "country": "CA", "postalCode": "H3S2P5", "twitter": "None", "instagram": "None", "facebook": "None", "youtube": "None", "website": "None", "summary": "None", "logo": "None", "latitude": 45.51319404105847, "longitude": -73.62227696699162}, "889548574RR0001": {"name": "CANADIAN FRIENDS OF NISHMAT/AMIS CANADIENS DE NISHMAT", "designationCode": "C", "categoryCode": "21", "address": "89 BEVSHIRE CIR", "city": "THORNHILL", "province": "ON", "country": "CA", "postalCode": "L4J5C6", "twitter": "None", "instagram": "None", "facebook": "None", "youtube": "None", "website": "None", "summary": "None", "logo": "None", "latitude": 43.80513351373424, "longitude": -79.44483237304503}, "864851811RR0001": {"name": "CANADIAN FRIENDS OF ORA VESIMCHA", "designationCode": "C", "categoryCode": "21", "address": "P.O.BOX 60111", "city": "BOISBRIAND", "province": "QC", "country": "CA", "postalCode": "J7G3G4", "twitter": "None", "instagram": "None", "facebook": "None", "youtube": "None", "website": "None", "summary": "None", "logo": "None", "latitude": 45.61253700000006, "longitude": -73.83882049999994}, "893360768RR0001": {"name": "CANADIAN FRIENDS OF PASSAIC YESHIVA", "designationCode": "C", "categoryCode": "21", "address": "2 RONDALE BLVD", "city": "TORONTO", "province": "ON", "country": "CA", "postalCode": "M6A1H3", "twitter": "None", "instagram": "None", "facebook": "None", "youtube": "None", "website": "None", "summary": "None", "logo": "None", "latitude": 43.72224222344038, "longitude": -79.43672906869982}, "892312448RR0001": {"name": "CANADIAN FRIENDS OF RAMBAM MEDICAL CENTRE", "designationCode": "C", "categoryCode": "11", "address": "64 MERTON STREET", "city": "TORONTO", "province": "ON", "country": "CA", "postalCode": "M4S1A1", "twitter": "None", "instagram": "None", "facebook": "None", "youtube": "None", "website": "None", "summary": "None", "logo": "None", "latitude": 43.696549191268716, "longitude": -79.39413654705973}, "884515750RR0001": {"name": "CANADIAN FRIENDS OF SANZ INSTITUTIONS", "designationCode": "C", "categoryCode": "21", "address": "7077 PARK AVENUE SUITE 600", "city": "MONTREAL", "province": "QC", "country": "CA", "postalCode": "H3N1X7", "twitter": "None", "instagram": "None", "facebook": "None", "youtube": "None", "website": "None", "summary": "None", "logo": "None", "latitude": 45.529784285619314, "longitude": -73.62013924395526}, "860627272RR0001": {"name": "CANADIAN FRIENDS OF SANZ MEDICAL CENTRE", "designationCode": "B", "categoryCode": "15", "address": "7077 AVE DU PARC #600", "city": "MONTREAL", "province": "QC", "country": "CA", "postalCode": "H3N1X7", "twitter": "None", "instagram": "None", "facebook": "None", "youtube": "None", "website": "None", "summary": "None", "logo": "None", "latitude": 45.529784285619314, "longitude": -73.62013924395526}, "814969945RR0001": {"name": "CANADIAN FRIENDS OF SATMAR ERETZ YISRAEL", "designationCode": "C", "categoryCode": "21", "address": "1150 ST. VIATEUR W", "city": "MONTREAL", "province": "QC", "country": "CA", "postalCode": "H2V1Y9", "twitter": "None", "instagram": "None", "facebook": "None", "youtube": "None", "website": "None", "summary": "None", "logo": "None", "latitude": 45.51956728697564, "longitude": -73.6045269688962}, "890308646RR0001": {"name": "CANADIAN FRIENDS OF SHA'ALVIM EDUCATIONAL CENTRE", "designationCode": "C", "categoryCode": "21", "address": "201 BRIDGELAND AVENUE", "city": "TORONTO", "province": "ON", "country": "CA", "postalCode": "M6A1Y7", "twitter": "None", "instagram": "None", "facebook": "None", "youtube": "None", "website": "None", "summary": "None", "logo": "None", "latitude": 43.724679896445465, "longitude": -79.46720435899367}, "118832278RR0001": {"name": "CANADIAN FRIENDS OF SHALOM TORAH CENTER", "designationCode": "C", "categoryCode": "25", "address": "50 SHELBORNE AVENUE", "city": "TORONTO", "province": "ON", "country": "CA", "postalCode": "M5N1Z1", "twitter": "None", "instagram": "None", "facebook": "None", "youtube": "None", "website": "None", "summary": "None", "logo": "None", "latitude": 43.716973241762226, "longitude": -79.42447803595122}, "135773943RR0001": {"name": "CANADIAN FRIENDS OF SHALVA ISRAEL ASSOCIATION", "designationCode": "C", "categoryCode": "09", "address": "201 BRIDGELAND AVENUE", "city": "TORONTO", "province": "ON", "country": "CA", "postalCode": "M6A1Y7", "twitter": "None", "instagram": "None", "facebook": "None", "youtube": "None", "website": "None", "summary": "None", "logo": "None", "latitude": 43.724679896445465, "longitude": -79.46720435899367}, "892544941RR0001": {"name": "CANADIAN FRIENDS OF SHE'ARIM", "designationCode": "C", "categoryCode": "29", "address": "809 WESTON DRIVE", "city": "OTTAWA", "province": "ON", "country": "CA", "postalCode": "K1G1W1", "twitter": "None", "instagram": "None", "facebook": "None", "youtube": "None", "website": "None", "summary": "None", "logo": "None", "latitude": 45.39616649321932, "longitude": -75.63259242062438}, "892546763RR0001": {"name": "CANADIAN FRIENDS OF SHEKEL HAKODESH OF NEW SQUARE", "designationCode": "C", "categoryCode": "21", "address": "940 AVE.OUTREMONT", "city": "OUTREMONT", "province": "QC", "country": "CA", "postalCode": "H2V4P8", "twitter": "None", "instagram": "None", "facebook": "None", "youtube": "None", "website": "None", "summary": "None", "logo": "None", "latitude": 45.52242884788517, "longitude": -73.61670496116324}, "867369506RR0001": {"name": "CANADIAN FRIENDS OF SHERBORNE", "designationCode": "C", "categoryCode": "21", "address": "PO BOX 960                    POSTAL STATION Q", "city": "TORONTO", "province": "ON", "country": "CA", "postalCode": "M4T2P1", "twitter": "None", "instagram": "None", "facebook": "None", "youtube": "None", "website": "None", "summary": "None", "logo": "None", "latitude": 43.690731000000056, "longitude": -79.38300499999994}, "891258790RR0001": {"name": "CANADIAN FRIENDS OF SHOR YOSHUV RABBINICAL COLLEGE", "designationCode": "C", "categoryCode": "21", "address": "15 GORMAN PARK ROAD", "city": "TORONTO", "province": "ON", "country": "CA", "postalCode": "M3H3K3", "twitter": "None", "instagram": "None", "facebook": "None", "youtube": "None", "website": "None", "summary": "None", "logo": "None", "latitude": 43.74742119623171, "longitude": -79.44611761723145}, "828609727RR0001": {"name": "CANADIAN FRIENDS OF SORO BOHEL", "designationCode": "C", "categoryCode": "21", "address": "448 OUTREMONT", "city": "MONTREAL", "province": "QC", "country": "CA", "postalCode": "H2V3M3", "twitter": "None", "instagram": "None", "facebook": "None", "youtube": "None", "website": "None", "summary": "None", "logo": "None", "latitude": 45.51805571689084, "longitude": -73.60690356370816}, "870672995RR0001": {"name": "CANADIAN FRIENDS OF SOUTH AFRICAN CHILDREN", "designationCode": "C", "categoryCode": "99", "address": "95 COLLEGE VIEW AVE", "city": "TORONTO", "province": "ON", "country": "CA", "postalCode": "M5P1K2", "twitter": "None", "instagram": "None", "facebook": "None", "youtube": "None", "website": "None", "summary": "None", "logo": "None", "latitude": 43.70201080209487, "longitude": -79.41166656327547}, "124035643RR0001": {"name": "CANADIAN FRIENDS OF TEL AVIV UNIVERSITY INC.- LES AMIS CANADIENS DE L'UNIVERSITE DE TEL AVIV, INC.", "designationCode": "A", "categoryCode": "23", "address": "3480-6900 DECARIE BOULEVARD", "city": "COTE-SAINT-LUC", "province": "QC", "country": "CA", "postalCode": "H3X2T8", "twitter": "None", "instagram": "None", "facebook": "None", "youtube": "None", "website": "None", "summary": "None", "logo": "None", "latitude": 45.492050265206885, "longitude": -73.6487911613161}, "889641627RR0001": {"name": "CANADIAN FRIENDS OF THE CENTER FOR JEWISH HISTORY OF NEW YORK/LES AMIS CANADIENS DU CENTRE D'HISTOIRE JUIVE DE NEW YORK", "designationCode": "C", "categoryCode": "50", "address": "1155 UNIVERSITY               SUITE 1310", "city": "MONTREAL", "province": "QC", "country": "CA", "postalCode": "H3B3A7", "twitter": "None", "instagram": "None", "facebook": "None", "youtube": "None", "website": "None", "summary": "None", "logo": "None", "latitude": 45.50263241090033, "longitude": -73.56851068738524}, "856685854RR0001": {"name": "CANADIAN FRIENDS OF THE COLLEGE OF THE BAHAMAS", "designationCode": "C", "categoryCode": "21", "address": "1250 RENE LEVESQUE BLVD. WEST SUITE 2200", "city": "MONTREAL", "province": "QC", "country": "CA", "postalCode": "H3B4W8", "twitter": "None", "instagram": "None", "facebook": "None", "youtube": "None", "website": "None", "summary": "None", "logo": "None", "latitude": 45.49755481681003, "longitude": -73.57132073048085}, "124355363RR0001": {"name": "CANADIAN FRIENDS OF THE HEBREW UNIVERSITY", "designationCode": "A", "categoryCode": "23", "address": "3080 YONGE STREET             SUITE 3020  BOX 65", "city": "TORONTO", "province": "ON", "country": "CA", "postalCode": "M4N3N1", "twitter": "None", "instagram": "None", "facebook": "None", "youtube": "None", "website": "None", "summary": "None", "logo": "None", "latitude": 43.72561462669516, "longitude": -79.40237629577553}, "890609399RR0001": {"name": "CANADIAN FRIENDS OF THE INSTITUTE OHOLEI TORAH", "designationCode": "C", "categoryCode": "21", "address": "4730 VEZINA ST", "city": "MONTREAL", "province": "QC", "country": "CA", "postalCode": "H3W1B8", "twitter": "None", "instagram": "None", "facebook": "None", "youtube": "None", "website": "None", "summary": "None", "logo": "None", "latitude": 45.49757365500036, "longitude": -73.64268781277066}}