{"107503575RR0001": {"name": "IMMANUEL CHRISTIAN SCHOOL SOCIETY INC.", "designationCode": "C", "categoryCode": "20", "address": "1-68 ALLEN ST", "city": "CHARLOTTETOWN", "province": "PE", "country": "CA", "postalCode": "C1A2V8", "twitter": "None", "instagram": "None", "facebook": "None", "youtube": "None", "website": "None", "summary": "None", "logo": "None", "latitude": 46.246709148479475, "longitude": -63.12931502316928}, "118967249RR0001": {"name": "IMMANUEL CHRISTIAN SCHOOL SOCIETY OF AYLMER", "designationCode": "C", "categoryCode": "20", "address": "75 CAVERLY ROAD", "city": "AYLMER", "province": "ON", "country": "CA", "postalCode": "N5H2P6", "twitter": "None", "instagram": "None", "facebook": "None", "youtube": "None", "website": "None", "summary": "None", "logo": "None", "latitude": 42.77036202011737, "longitude": -80.9954983037939}, "107503807RR0001": {"name": "IMMANUEL CHRISTIAN SCHOOL SOCIETY OF THE OSHAWA DISTRICT", "designationCode": "C", "categoryCode": "20", "address": "849 ROSSLAND RD W", "city": "OSHAWA", "province": "ON", "country": "CA", "postalCode": "L1J8R5", "twitter": "None", "instagram": "None", "facebook": "None", "youtube": "None", "website": "None", "summary": "None", "logo": "None", "latitude": 43.908150202636136, "longitude": -78.90267526712927}, "863853438RR0001": {"name": "IMMANUEL CHURCH WESTSIDE", "designationCode": "C", "categoryCode": "30", "address": "998 19TH AVE", "city": "VANCOUVER", "province": "BC", "country": "CA", "postalCode": "V5V1K7", "twitter": "None", "instagram": "None", "facebook": "None", "youtube": "None", "website": "None", "summary": "None", "logo": "None", "latitude": 49.25364647013695, "longitude": -123.08438186081135}, "890740442RR0001": {"name": "IMMANUEL COVENANT REFORMED CHURCH", "designationCode": "C", "categoryCode": "39", "address": "PO BOX 344 STN MAIN", "city": "ABBOTSFORD", "province": "BC", "country": "CA", "postalCode": "V2T6Z6", "twitter": "None", "instagram": "None", "facebook": "None", "youtube": "None", "website": "None", "summary": "None", "logo": "None", "latitude": 49.05161700000005, "longitude": -122.32930399999994}, "869738963RR0001": {"name": "IMMANUEL FELLOWSHIP", "designationCode": "C", "categoryCode": "39", "address": "828 SILVERSTONE AVENUE", "city": "WINNIPEG", "province": "MB", "country": "CA", "postalCode": "R3T2W6", "twitter": "None", "instagram": "None", "facebook": "None", "youtube": "None", "website": "None", "summary": "None", "logo": "None", "latitude": 49.79649031222242, "longitude": -97.14615376628784}, "107503617RR0001": {"name": "IMMANUEL FELLOWSHIP BAPTIST CHURCH OF CLEARBROOK, B.C.", "designationCode": "C", "categoryCode": "31", "address": "2950 BLUE JAY ST", "city": "ABBOTSFORD", "province": "BC", "country": "CA", "postalCode": "V2T5P5", "twitter": "None", "instagram": "None", "facebook": "None", "youtube": "None", "website": "None", "summary": "None", "logo": "None", "latitude": 49.05584969608748, "longitude": -122.37038959207159}, "865826754RR0001": {"name": "IMMANUEL KOREAN CHURCH", "designationCode": "C", "categoryCode": "39", "address": "18790 58 AVE", "city": "SURREY", "province": "BC", "country": "CA", "postalCode": "V3S1M6", "twitter": "None", "instagram": "None", "facebook": "None", "youtube": "None", "website": "None", "summary": "None", "logo": "None", "latitude": 49.1076955434244, "longitude": -122.70203019317329}, "107503625RR0001": {"name": "IMMANUEL LUTHERAN CHURCH", "designationCode": "C", "categoryCode": "32", "address": "100 MOUNTAINVIEW RD S", "city": "GEORGETOWN", "province": "ON", "country": "CA", "postalCode": "L7G4K6", "twitter": "None", "instagram": "None", "facebook": "None", "youtube": "None", "website": "None", "summary": "None", "logo": "None", "latitude": 43.644413757401054, "longitude": -79.89559801113715}, "118967306RR0001": {"name": "IMMANUEL LUTHERAN CHURCH", "designationCode": "C", "categoryCode": "32", "address": "BOX 197", "city": "BALDUR", "province": "MB", "country": "CA", "postalCode": "R0K0B0", "twitter": "None", "instagram": "None", "facebook": "None", "youtube": "None", "website": "None", "summary": "None", "logo": "None", "latitude": 49.38489000000004, "longitude": -99.24488999999994}, "118967322RR0001": {"name": "IMMANUEL LUTHERAN CHURCH", "designationCode": "C", "categoryCode": "32", "address": "BOX 4, SITE 2,", "city": "ZEHNER", "province": "SK", "country": "CA", "postalCode": "S0G5K0", "twitter": "None", "instagram": "None", "facebook": "None", "youtube": "None", "website": "None", "summary": "None", "logo": "None", "latitude": 50.571702000000016, "longitude": -104.56171032544076}, "118967363RR0001": {"name": "IMMANUEL LUTHERAN CHURCH", "designationCode": "C", "categoryCode": "32", "address": "BOX 111", "city": "ADMIRAL", "province": "SK", "country": "CA", "postalCode": "S0N0B0", "twitter": "None", "instagram": "None", "facebook": "None", "youtube": "None", "website": "None", "summary": "None", "logo": "None", "latitude": 49.71343965208836, "longitude": -108.00453514115462}, "118967371RR0001": {"name": "IMMANUEL LUTHERAN CHURCH", "designationCode": "C", "categoryCode": "32", "address": "GENERAL DELIVERY              PO BOX 6", "city": "BRUCE", "province": "AB", "country": "CA", "postalCode": "T0B0R0", "twitter": "None", "instagram": "None", "facebook": "None", "youtube": "None", "website": "None", "summary": "None", "logo": "None", "latitude": 53.172816000000054, "longitude": -112.03916299999993}, "118967413RR0001": {"name": "IMMANUEL LUTHERAN CHURCH", "designationCode": "C", "categoryCode": "32", "address": "5236 54TH ST", "city": "ROCKY MOUNTAIN HOUSE", "province": "AB", "country": "CA", "postalCode": "T4T1H2", "twitter": "None", "instagram": "None", "facebook": "None", "youtube": "None", "website": "None", "summary": "None", "logo": "None", "latitude": 52.37889358673323, "longitude": -114.92530597085809}, "118967421RR0001": {"name": "IMMANUEL LUTHERAN CHURCH", "designationCode": "C", "categoryCode": "32", "address": "20 ROCKY MOUNTAIN BLVD. WEST", "city": "LETHBRIDGE", "province": "AB", "country": "CA", "postalCode": "T1K8E1", "twitter": "None", "instagram": "None", "facebook": "None", "youtube": "None", "website": "None", "summary": "None", "logo": "None", "latitude": 49.65920150620376, "longitude": -112.87142019885744}, "132201104RR0001": {"name": "IMMANUEL LUTHERAN CHURCH", "designationCode": "C", "categoryCode": "32", "address": "BOX 156", "city": "TOMAHAWK", "province": "AB", "country": "CA", "postalCode": "T0E2H0", "twitter": "None", "instagram": "None", "facebook": "None", "youtube": "None", "website": "None", "summary": "None", "logo": "None", "latitude": 53.396600000000035, "longitude": -114.76325999999995}, "890819246RR0001": {"name": "IMMANUEL LUTHERAN CHURCH", "designationCode": "C", "categoryCode": "32", "address": "SITE 6 BOX 28", "city": "GOODFARE", "province": "AB", "country": "CA", "postalCode": "T0H1T0", "twitter": "None", "instagram": "None", "facebook": "None", "youtube": "None", "website": "None", "summary": "None", "logo": "None", "latitude": 55.25787300000006, "longitude": -119.70511999999994}, "894356575RR0001": {"name": "IMMANUEL LUTHERAN CHURCH", "designationCode": "C", "categoryCode": "32", "address": "3232 272 ST", "city": "ALDERGROVE", "province": "BC", "country": "CA", "postalCode": "V4W3H8", "twitter": "None", "instagram": "None", "facebook": "None", "youtube": "None", "website": "None", "summary": "None", "logo": "None", "latitude": 49.061482504799194, "longitude": -122.47068142107538}, "118967447RR0001": {"name": "IMMANUEL LUTHERAN CHURCH INCORPORATED", "designationCode": "C", "categoryCode": "32", "address": "2528 KING EDWARD ST", "city": "WINNIPEG", "province": "MB", "country": "CA", "postalCode": "R2R2Y8", "twitter": "None", "instagram": "None", "facebook": "None", "youtube": "None", "website": "None", "summary": "None", "logo": "None", "latitude": 49.94761500000001, "longitude": -97.20684466619484}, "107503633RR0001": {"name": "IMMANUEL LUTHERAN CHURCH OF NIPIGON, ONTARIO", "designationCode": "C", "categoryCode": "32", "address": "PO BOX 520", "city": "NIPIGON", "province": "ON", "country": "CA", "postalCode": "P0T2J0", "twitter": "None", "instagram": "None", "facebook": "None", "youtube": "None", "website": "None", "summary": "None", "logo": "None", "latitude": 49.43220506449858, "longitude": -88.12945411505873}, "107503716RR0001": {"name": "IMMANUEL LUTHERAN CHURCH OF ROSENTHAL", "designationCode": "C", "categoryCode": "32", "address": "BOX 2965", "city": "STONY PLAIN", "province": "AB", "country": "CA", "postalCode": "T7Z1Y4", "twitter": "None", "instagram": "None", "facebook": "None", "youtube": "None", "website": "None", "summary": "None", "logo": "None", "latitude": 53.52878400000006, "longitude": -114.00552349999992}, "127108454RR0001": {"name": "IMMANUEL LUTHERAN CHURCH,", "designationCode": "C", "categoryCode": "32", "address": "BOX 909", "city": "LANGENBURG", "province": "SK", "country": "CA", "postalCode": "S0A2A0", "twitter": "None", "instagram": "None", "facebook": "None", "youtube": "None", "website": "None", "summary": "None", "logo": "None", "latitude": 50.84159000000005, "longitude": -101.69833999999997}, "132022765RR0001": {"name": "IMMANUEL LUTHERAN CHURCH,", "designationCode": "C", "categoryCode": "32", "address": "STEVEN SCHMIDT, TREASURER     RR 5 LCD MAIN", "city": "WETASKIWIN", "province": "AB", "country": "CA", "postalCode": "T9A1X2", "twitter": "None", "instagram": "None", "facebook": "None", "youtube": "None", "website": "None", "summary": "None", "logo": "None", "latitude": 52.96987500000006, "longitude": -113.37725149999994}, "890679798RR0001": {"name": "IMMANUEL LUTHERAN CHURCH,", "designationCode": "C", "categoryCode": "32", "address": "BOX 547", "city": "SHELLBROOK", "province": "SK", "country": "CA", "postalCode": "S0J2E0", "twitter": "None", "instagram": "None", "facebook": "None", "youtube": "None", "website": "None", "summary": "None", "logo": "None", "latitude": 53.21857000000006, "longitude": -106.38843999999995}, "838399723RR0001": {"name": "IMMANUEL PENTECOSTAL CHURCH OF KITCHENER", "designationCode": "C", "categoryCode": "36", "address": "100 HOFFMAN ST", "city": "KITCHENER", "province": "ON", "country": "CA", "postalCode": "N2M3N1", "twitter": "None", "instagram": "None", "facebook": "None", "youtube": "None", "website": "None", "summary": "None", "logo": "None", "latitude": 43.43163680102698, "longitude": -80.48398222205539}, "804219970RR0001": {"name": "IMMANUEL PENTECOSTAL CHURCH, INC.", "designationCode": "C", "categoryCode": "36", "address": "955 WILKES AVENUE", "city": "WINNIPEG", "province": "MB", "country": "CA", "postalCode": "R3P1B8", "twitter": "None", "instagram": "None", "facebook": "None", "youtube": "None", "website": "None", "summary": "None", "logo": "None", "latitude": 49.84666118933546, "longitude": -97.18755087864321}, "107503773RR0001": {"name": "IMMANUEL PROTESTANT REFORMED CHURCH LACOMBE, AB", "designationCode": "C", "categoryCode": "39", "address": "5940-60 AVE CLOSE", "city": "LACOMBE", "province": "AB", "country": "CA", "postalCode": "T4L1X8", "twitter": "None", "instagram": "None", "facebook": "None", "youtube": "None", "website": "None", "summary": "None", "logo": "None", "latitude": 52.4774745, "longitude": -113.74879624617428}, "898617030RR0001": {"name": "IMMANUEL REFORMED CHURCH OF NOBLETON", "designationCode": "C", "categoryCode": "39", "address": "58 HAWMAN AVENUE", "city": "NOBLETON", "province": "ON", "country": "CA", "postalCode": "L0G1N0", "twitter": "None", "instagram": "None", "facebook": "None", "youtube": "None", "website": "None", "summary": "None", "logo": "None", "latitude": 43.902424088550895, "longitude": -79.65664040689013}, "118967496RR0001": {"name": "IMMANUEL RESTORATION MINISTRIES", "designationCode": "C", "categoryCode": "47", "address": "1049 BUOY DRIVE", "city": "COQUITLAM", "province": "BC", "country": "CA", "postalCode": "V3H3M3", "twitter": "None", "instagram": "None", "facebook": "None", "youtube": "None", "website": "None", "summary": "None", "logo": "None", "latitude": 49.27374747879261, "longitude": -122.818794914796}, "107797383RR0113": {"name": "IMMANUEL SEVENTH-DAY ADVENTIST CHURCH", "designationCode": "C", "categoryCode": "41", "address": "P.O. BOX 37011 RPO CENTREPOINT", "city": "WILLOWDALE", "province": "ON", "country": "CA", "postalCode": "M2M4J8", "twitter": "None", "instagram": "None", "facebook": "None", "youtube": "None", "website": "None", "summary": "None", "logo": "None", "latitude": 33.7300605, "longitude": -117.779337}, "118967512RR0001": {"name": "IMMANUEL UNITED BAPTIST CHURCH", "designationCode": "C", "categoryCode": "31", "address": "295 YOUNG ST", "city": "TRURO", "province": "NS", "country": "CA", "postalCode": "B2N3Y4", "twitter": "None", "instagram": "None", "facebook": "None", "youtube": "None", "website": "None", "summary": "None", "logo": "None", "latitude": 45.35329415044137, "longitude": -63.27565589252166}, "129138004RR0001": {"name": "IMMANUEL UNITED BAPTIST CHURCH WESTPHAL NS", "designationCode": "C", "categoryCode": "31", "address": "86 MONTAGUE RD", "city": "LAKE LOOP", "province": "NS", "country": "CA", "postalCode": "B2W3P3", "twitter": "None", "instagram": "None", "facebook": "None", "youtube": "None", "website": "None", "summary": "None", "logo": "None", "latitude": 44.700788777396355, "longitude": -63.49679921097554}, "129950580RR0001": {"name": "IMMANUEL UNITED CHURCH", "designationCode": "C", "categoryCode": "44", "address": "755 GOLSPIE ST", "city": "WINNIPEG", "province": "MB", "country": "CA", "postalCode": "R2K2V4", "twitter": "None", "instagram": "None", "facebook": "None", "youtube": "None", "website": "None", "summary": "None", "logo": "None", "latitude": 49.9220735456461, "longitude": -97.0864152461483}, "107504045RR0001": {"name": "IMMIGRANT AND MULTICULTURAL SERVICES SOCIETY OF PRINCE GEORGE", "designationCode": "C", "categoryCode": "09", "address": "1270 2ND AVE", "city": "PRINCE GEORGE", "province": "BC", "country": "CA", "postalCode": "V2L3B3", "twitter": "None", "instagram": "None", "facebook": "None", "youtube": "None", "website": "None", "summary": "None", "logo": "None", "latitude": 53.91773218531664, "longitude": -122.74486868120137}, "128429537RR0001": {"name": "IMMIGRANT AND REFUGEE COMMUNITY ORGANIZATION OF MANITOBA INC", "designationCode": "C", "categoryCode": "09", "address": "95, ELLEN STREET", "city": "WINNIPEG", "province": "MB", "country": "CA", "postalCode": "R3A1S8", "twitter": "None", "instagram": "None", "facebook": "None", "youtube": "None", "website": "None", "summary": "None", "logo": "None", "latitude": 49.89946880431655, "longitude": -97.14635379040942}, "118864420RR0001": {"name": "IMMIGRANT CENTRE MANITOBA INC.", "designationCode": "C", "categoryCode": "59", "address": "100 ADELAIDE STREET", "city": "WINNIPEG", "province": "MB", "country": "CA", "postalCode": "R3A0W2", "twitter": "None", "instagram": "None", "facebook": "None", "youtube": "None", "website": "None", "summary": "None", "logo": "None", "latitude": 49.898756042472094, "longitude": -97.14316055539827}, "118823640RR0001": {"name": "IMMIGRANT SERVICES CALGARY SOCIETY", "designationCode": "C", "categoryCode": "09", "address": "1200, 910-7 AVENUE SW", "city": "CALGARY", "province": "AB", "country": "CA", "postalCode": "T2P3N8", "twitter": "None", "instagram": "None", "facebook": "None", "youtube": "None", "website": "None", "summary": "None", "logo": "None", "latitude": 51.04707150043269, "longitude": -114.08207019164406}, "131976581RR0001": {"name": "IMMIGRANT WOMEN SERVICES OTTAWA", "designationCode": "C", "categoryCode": "09", "address": "219 ARGYLE AVENUE SUITE 400", "city": "OTTAWA", "province": "ON", "country": "CA", "postalCode": "K2P2H4", "twitter": "None", "instagram": "None", "facebook": "None", "youtube": "None", "website": "None", "summary": "None", "logo": "None", "latitude": 45.41124338914519, "longitude": -75.6907610064053}, "136523230RR0001": {"name": "IMMORTAL PERFORMANCES RECORDED MUSIC SOCIETY", "designationCode": "C", "categoryCode": "22", "address": "PO BOX 185", "city": "NEW DENVER", "province": "BC", "country": "CA", "postalCode": "V0G1S0", "twitter": "None", "instagram": "None", "facebook": "None", "youtube": "None", "website": "None", "summary": "None", "logo": "None", "latitude": 49.99242000000004, "longitude": -117.37212999999997}, "864115191RR0001": {"name": "IMPACT CHR\u00c9TIEN MISSIONAIRE", "designationCode": "C", "categoryCode": "39", "address": "213 - 2953 RUE BELANGER", "city": "MONTREAL", "province": "QC", "country": "CA", "postalCode": "H1Y3G4", "twitter": "None", "instagram": "None", "facebook": "None", "youtube": "None", "website": "None", "summary": "None", "logo": "None", "latitude": 45.55500616293488, "longitude": -73.59603659579291}, "118967561RR0001": {"name": "IMPACT COMMUNICATIONS", "designationCode": "C", "categoryCode": "47", "address": "(RR7) 2220 CEDAR HILL RD", "city": "CRESTON", "province": "BC", "country": "CA", "postalCode": "V0B1G7", "twitter": "None", "instagram": "None", "facebook": "None", "youtube": "None", "website": "None", "summary": "None", "logo": "None", "latitude": 49.09714851350308, "longitude": -116.62518443037655}, "891070625RR0002": {"name": "IMPACT MINISTRIES CANADA", "designationCode": "C", "categoryCode": "47", "address": "BOX 975 STN MAIN", "city": "KAMLOOPS", "province": "BC", "country": "CA", "postalCode": "V2C6H1", "twitter": "None", "instagram": "None", "facebook": "None", "youtube": "None", "website": "None", "summary": "None", "logo": "None", "latitude": 50.675883000000056, "longitude": -120.33898099999993}, "887189728RR0001": {"name": "IMPACT MINISTRIES CHURCH - HALIFAX", "designationCode": "C", "categoryCode": "39", "address": "RPO MILL COVE                 P.O. BOX 48095", "city": "BEDFORD", "province": "NS", "country": "CA", "postalCode": "B4A3Z2", "twitter": "None", "instagram": "None", "facebook": "None", "youtube": "None", "website": "None", "summary": "None", "logo": "None", "latitude": 44.71544029811935, "longitude": -63.682447637483826}, "850175274RR0001": {"name": "IMPACT MINISTRIES WORLDWIDE ASSOCIATION", "designationCode": "C", "categoryCode": "39", "address": "PO BOX 48095, RPO MILL COVE", "city": "BEDFORD", "province": "NS", "country": "CA", "postalCode": "B4A3Z2", "twitter": "None", "instagram": "None", "facebook": "None", "youtube": "None", "website": "None", "summary": "None", "logo": "None", "latitude": 44.71544029811935, "longitude": -63.682447637483826}, "107437352RR0001": {"name": "IMPACT MINISTRY GROUP CHURCH PLANTING INC.", "designationCode": "C", "categoryCode": "39", "address": "57 QUEEN ST S", "city": "MISSISSAUGA", "province": "ON", "country": "CA", "postalCode": "L5M1K5", "twitter": "None", "instagram": "None", "facebook": "None", "youtube": "None", "website": "None", "summary": "None", "logo": "None", "latitude": 43.58556124591718, "longitude": -79.71894549665312}, "871944963RR0001": {"name": "IMPACT NATIONS INTERNATIONAL MINISTRIES", "designationCode": "C", "categoryCode": "47", "address": "35509 ALLISON CRT", "city": "ABBOTSFORD", "province": "BC", "country": "CA", "postalCode": "V3G3B7", "twitter": "None", "instagram": "None", "facebook": "None", "youtube": "None", "website": "None", "summary": "None", "logo": "None", "latitude": 49.0627180303912, "longitude": -122.23991268033761}, "140824343RR0001": {"name": "IMPACT RESIDENTIAL SERVICES OF GRENVILLE COUNTY", "designationCode": "C", "categoryCode": "01", "address": "396 COUNTY ROAD 25            RR#1", "city": "OXFORD MILLS", "province": "ON", "country": "CA", "postalCode": "K0G1S0", "twitter": "None", "instagram": "None", "facebook": "None", "youtube": "None", "website": "None", "summary": "None", "logo": "None", "latitude": 44.97808483160592, "longitude": -75.70177587930458}, "873440846RR0001": {"name": "IMPACT THE WORLD FOUNDATION", "designationCode": "B", "categoryCode": "53", "address": "209 - 122 CORNETT DR", "city": "RED DEER", "province": "AB", "country": "CA", "postalCode": "T4P2X3", "twitter": "None", "instagram": "None", "facebook": "None", "youtube": "None", "website": "None", "summary": "None", "logo": "None", "latitude": 52.271974141006325, "longitude": -113.77456666599328}, "136369022RR0001": {"name": "IMPACT-GROUPE D'AIDE EN SANTE MENTALE", "designationCode": "C", "categoryCode": "09", "address": "107-2460 RUE ST-ANTOINE OUEST", "city": "MONTREAL", "province": "QC", "country": "CA", "postalCode": "H3J1B1", "twitter": "None", "instagram": "None", "facebook": "None", "youtube": "None", "website": "None", "summary": "None", "logo": "None", "latitude": 45.48908445016768, "longitude": -73.57659802479637}, "852029149RR0001": {"name": "IMPACTING ASIA MINISTRIES", "designationCode": "C", "categoryCode": "39", "address": "P.O. BOX 56 STN MAIN", "city": "CUMBERLAND", "province": "ON", "country": "CA", "postalCode": "K4C1E5", "twitter": "None", "instagram": "None", "facebook": "None", "youtube": "None", "website": "None", "summary": "None", "logo": "None", "latitude": 45.51628200000006, "longitude": -75.40533349999993}, "118967579RR0001": {"name": "IMPERIAL & DISTRICT COMBINED APPEAL", "designationCode": "C", "categoryCode": "05", "address": "BOX 132", "city": "IMPERIAL", "province": "SK", "country": "CA", "postalCode": "S0G2J0", "twitter": "None", "instagram": "None", "facebook": "None", "youtube": "None", "website": "None", "summary": "None", "logo": "None", "latitude": 51.34433000000007, "longitude": -105.43451999999996}, "891280570RR0001": {"name": "IMPERIAL OIL EMPLOYEES CHARITY TRUST,", "designationCode": "B", "categoryCode": "75", "address": "505 QUARRY PARK BLVD SE", "city": "CALGARY", "province": "AB", "country": "CA", "postalCode": "T2C5N1", "twitter": "None", "instagram": "None", "facebook": "None", "youtube": "None", "website": "None", "summary": "None", "logo": "None", "latitude": 50.959516514859416, "longitude": -114.01378243450283}, "130629702RR0001": {"name": "IMPERIAL ORDER DAUGHTERS OF THE EMPIRE", "designationCode": "C", "categoryCode": "63", "address": "219-40 ORCHARD VIEW BLVD", "city": "TORONTO", "province": "ON", "country": "CA", "postalCode": "M4R1B9", "twitter": "None", "instagram": "None", "facebook": "None", "youtube": "None", "website": "None", "summary": "None", "logo": "None", "latitude": 43.707983110767906, "longitude": -79.39988647336826}, "100504679RR0001": {"name": "IMPERIAL THEATRE FOUNDATION INC.", "designationCode": "A", "categoryCode": "23", "address": "12 KING SQ S", "city": "SAINT JOHN", "province": "NB", "country": "CA", "postalCode": "E2L5B8", "twitter": "None", "instagram": "None", "facebook": "None", "youtube": "None", "website": "None", "summary": "None", "logo": "None", "latitude": 45.27293178949125, "longitude": -66.05825794455201}, "100504687RR0001": {"name": "IMPERIAL THEATRE INC. THEATRE IMPERIAL INC.", "designationCode": "C", "categoryCode": "22", "address": "24 KING SQ S", "city": "SAINT JOHN", "province": "NB", "country": "CA", "postalCode": "E2L5B8", "twitter": "None", "instagram": "None", "facebook": "None", "youtube": "None", "website": "None", "summary": "None", "logo": "None", "latitude": 45.27305768552725, "longitude": -66.05787767124474}, "118967637RR0001": {"name": "IMPERIAL TOBACCO EMPLOYEES CHARITY FUND (MONTREAL) LES FONDS DE CHARITE DES EMPLOYES D'IMPERIAL TOBACCO (MONTREAL)", "designationCode": "B", "categoryCode": "75", "address": "3711 ST-ANTOINE ST", "city": "MONTREAL", "province": "QC", "country": "CA", "postalCode": "H4C3P6", "twitter": "None", "instagram": "None", "facebook": "None", "youtube": "None", "website": "None", "summary": "None", "logo": "None", "latitude": 45.481031231519125, "longitude": -73.58635458197178}, "118967660RR0001": {"name": "IMPERIAL UNITED CHURCH", "designationCode": "C", "categoryCode": "44", "address": "B. GRIGG                      BOX 269", "city": "IMPERIAL", "province": "SK", "country": "CA", "postalCode": "S0G2J0", "twitter": "None", "instagram": "None", "facebook": "None", "youtube": "None", "website": "None", "summary": "None", "logo": "None", "latitude": 51.34433000000007, "longitude": -105.43451999999996}, "103219739RR0001": {"name": "IMPRESSIONS ALLIANCE 9000 INC.", "designationCode": "C", "categoryCode": "20", "address": "142 RUE DUPONT", "city": "AMQUI", "province": "QC", "country": "CA", "postalCode": "G5J2R3", "twitter": "None", "instagram": "None", "facebook": "None", "youtube": "None", "website": "None", "summary": "None", "logo": "None", "latitude": 46.75611613737099, "longitude": -71.69250120231989}, "141455451RR0001": {"name": "IMPRIME-EMPLOI", "designationCode": "C", "categoryCode": "20", "address": "5500 RUE FULLUM, PORTE 318", "city": "MONTREAL", "province": "QC", "country": "CA", "postalCode": "H2G2H3", "twitter": "None", "instagram": "None", "facebook": "None", "youtube": "None", "website": "None", "summary": "None", "logo": "None", "latitude": 45.54220894223579, "longitude": -73.58032592801061}, "102473667RR0001": {"name": "IMPULSION-TRAVAIL", "designationCode": "C", "categoryCode": "09", "address": "5181 D'AMIENS                 BUREAU 300", "city": "MONTREAL-NORD", "province": "QC", "country": "CA", "postalCode": "H1G6N9", "twitter": "None", "instagram": "None", "facebook": "None", "youtube": "None", "website": "None", "summary": "None", "logo": "None", "latitude": 45.59705983126542, "longitude": -73.62062642604872}, "118967694RR0001": {"name": "IMRAY CHAIM D'CHASIDAI WIZNITZ CONGREGATION DU CANADA-MOSDOTH WIZNITZ OF CANADA", "designationCode": "C", "categoryCode": "39", "address": "5814, AV. DU PARC", "city": "MONTREAL", "province": "QC", "country": "CA", "postalCode": "H2V4H3", "twitter": "None", "instagram": "None", "facebook": "None", "youtube": "None", "website": "None", "summary": "None", "logo": "None", "latitude": 45.52379871299569, "longitude": -73.6058821258871}, "864308622RR0001": {"name": "IN HIS PRESENCE APOSTOLIC MINISTRIES", "designationCode": "C", "categoryCode": "36", "address": "16 COLES AVENUE", "city": "AJAX", "province": "ON", "country": "CA", "postalCode": "L1T3G6", "twitter": "None", "instagram": "None", "facebook": "None", "youtube": "None", "website": "None", "summary": "None", "logo": "None", "latitude": 43.8643187396561, "longitude": -79.03321266835921}, "886765304RR0001": {"name": "IN HOC SEGNO WORLD MISSIONS", "designationCode": "C", "categoryCode": "47", "address": "45603 MARSHALL AVENUE", "city": "CHILLIWACK", "province": "BC", "country": "CA", "postalCode": "V2P3J5", "twitter": "None", "instagram": "None", "facebook": "None", "youtube": "None", "website": "None", "summary": "None", "logo": "None", "latitude": 49.179251460470745, "longitude": -121.96260963918866}, "856822531RR0001": {"name": "IN HONOUR OF THE ONES WE LOVE INC.", "designationCode": "C", "categoryCode": "13", "address": "5035 JOY ROAD                 R. R. 3", "city": "MAIDSTONE", "province": "ON", "country": "CA", "postalCode": "N0R1K0", "twitter": "None", "instagram": "None", "facebook": "None", "youtube": "None", "website": "None", "summary": "None", "logo": "None", "latitude": 42.257969550637775, "longitude": -82.93965180544174}, "890444979RR0001": {"name": "IN MEMORIAL ORGANIZATION", "designationCode": "C", "categoryCode": "21", "address": "523 STOKES STREET", "city": "BURY", "province": "QC", "country": "CA", "postalCode": "J0B1J0", "twitter": "None", "instagram": "None", "facebook": "None", "youtube": "None", "website": "None", "summary": "None", "logo": "None", "latitude": 45.47489278434991, "longitude": -71.50901900037444}, "869866517RR0001": {"name": "IN THE FLAME OF THE HOLY SPIRIT CHURCH", "designationCode": "C", "categoryCode": "39", "address": "418 RUSTIC ROAD", "city": "TORONTO", "province": "ON", "country": "CA", "postalCode": "M5L1W9", "twitter": "None", "instagram": "None", "facebook": "None", "youtube": "None", "website": "None", "summary": "None", "logo": "None", "latitude": 43.716476209013656, "longitude": -79.48499781294355}, "139810030RR0001": {"name": "IN TOUCH MINISTRIES OF CANADA", "designationCode": "C", "categoryCode": "49", "address": "150 RIVIERA DR", "city": "MARKHAM", "province": "ON", "country": "CA", "postalCode": "L3R5M1", "twitter": "None", "instagram": "None", "facebook": "None", "youtube": "None", "website": "None", "summary": "None", "logo": "None", "latitude": 43.833536107709484, "longitude": -79.3380809046971}, "139925671RR0001": {"name": "IN-SHUCK-CH SERVICES SOCIETY", "designationCode": "C", "categoryCode": "56", "address": "41290-B LOUGHEED HWY          RR #1", "city": "DEROCHE", "province": "BC", "country": "CA", "postalCode": "V0M1G0", "twitter": "None", "instagram": "None", "facebook": "None", "youtube": "None", "website": "None", "summary": "None", "logo": "None", "latitude": 49.18622872696966, "longitude": -122.06904088397428}, "899606057RR0001": {"name": "IN'AFU, CENTRE D'ANIMATION JEUNESSE", "designationCode": "C", "categoryCode": "49", "address": "321 RANG MONTCALM", "city": "ST-ESPRIT", "province": "QC", "country": "CA", "postalCode": "J0K2L0", "twitter": "None", "instagram": "None", "facebook": "None", "youtube": "None", "website": "None", "summary": "None", "logo": "None", "latitude": 45.9131262823011, "longitude": -73.70100631375162}, "107504789RR0001": {"name": "INA GRAFTON GAGE HOME", "designationCode": "C", "categoryCode": "01", "address": "40 BELL ESTATE ROAD", "city": "SCARBOROUGH", "province": "ON", "country": "CA", "postalCode": "M1L0E2", "twitter": "None", "instagram": "None", "facebook": "None", "youtube": "None", "website": "None", "summary": "None", "logo": "None", "latitude": 43.7052831107679, "longitude": -79.27690614100632}, "118967702RR0001": {"name": "INANNA PUBLICATIONS & EDUCATION INC.", "designationCode": "C", "categoryCode": "29", "address": "210 FOUNDERS                  YORK UNIVERSITY 4700 KEELE ST", "city": "TORONTO", "province": "ON", "country": "CA", "postalCode": "M3J1P3", "twitter": "None", "instagram": "None", "facebook": "None", "youtube": "None", "website": "None", "summary": "None", "logo": "None", "latitude": 43.77170000000007, "longitude": -79.49862999999993}, "102474368RR0001": {"name": "INAS (CANADA)", "designationCode": "C", "categoryCode": "09", "address": "1263 WILSON AVE, SUITE 201", "city": "NORTH YORK", "province": "ON", "country": "CA", "postalCode": "M3M3G2", "twitter": "None", "instagram": "None", "facebook": "None", "youtube": "None", "website": "None", "summary": "None", "logo": "None", "latitude": 43.724480009694865, "longitude": -79.49163356466045}, "889611596RR0001": {"name": "INASMUCH", "designationCode": "C", "categoryCode": "09", "address": "51 CARIBOU ROAD", "city": "TORONTO", "province": "ON", "country": "CA", "postalCode": "M5N2A6", "twitter": "None", "instagram": "None", "facebook": "None", "youtube": "None", "website": "None", "summary": "None", "logo": "None", "latitude": 43.72012691144912, "longitude": -79.41854761864508}, "843184706RR0001": {"name": "INASMUCH Community Society", "designationCode": "C", "categoryCode": "09", "address": "2265 WARE ST", "city": "ABBOTSFORD", "province": "BC", "country": "CA", "postalCode": "V2S3C6", "twitter": "None", "instagram": "None", "facebook": "None", "youtube": "None", "website": "None", "summary": "None", "logo": "None", "latitude": 49.042916696087474, "longitude": -122.30459489566607}, "887283208RR0001": {"name": "INCARNATION MINISTRIES", "designationCode": "C", "categoryCode": "39", "address": "2620-1055 GEORGIA ST W        PO BOX 11168", "city": "VANCOUVER", "province": "BC", "country": "CA", "postalCode": "V6E3R5", "twitter": "None", "instagram": "None", "facebook": "None", "youtube": "None", "website": "None", "summary": "None", "logo": "None", "latitude": 49.28517985444869, "longitude": -123.1222083427792}, "119110450RR0020": {"name": "INCARNATION OF OUR BLESSED LORD", "designationCode": "C", "categoryCode": "38", "address": "400 POTTRUFF ROAD, NORTH", "city": "HAMILTON", "province": "ON", "country": "CA", "postalCode": "L8H2M4", "twitter": "None", "instagram": "None", "facebook": "None", "youtube": "None", "website": "None", "summary": "None", "logo": "None", "latitude": 43.238726044982265, "longitude": -79.7716458529924}, "106692593RR0001": {"name": "INCLUSION ALBERTA SOCIETY", "designationCode": "C", "categoryCode": "11", "address": "11724 KINGSWAY AVENUE", "city": "EDMONTON", "province": "AB", "country": "CA", "postalCode": "T5G0X5", "twitter": "None", "instagram": "None", "facebook": "None", "youtube": "None", "website": "None", "summary": "None", "logo": "None", "latitude": 53.567151841476274, "longitude": -113.5221051801458}, "888125374RR0001": {"name": "INCLUSION: REGROUPEMENT D'AIDE AUX PERSONNES BENEFICIAIRES DE LA SECURITE DU REVENU ET A FAIBLES REVENUS DU HAUT-RICHELIEU", "designationCode": "C", "categoryCode": "09", "address": "80 RUE LAJEUNESSE", "city": "ST-JEAN-SUR-RICHELIEU", "province": "QC", "country": "CA", "postalCode": "J3B5G1", "twitter": "None", "instagram": "None", "facebook": "None", "youtube": "None", "website": "None", "summary": "None", "logo": "None", "latitude": 45.30083416763807, "longitude": -73.27012002590966}, "118967728RR0001": {"name": "INCORPORATED SYNOD OF THE DIOCESE OF HURON", "designationCode": "C", "categoryCode": "30", "address": "190 QUEENS AVENUE", "city": "LONDON", "province": "ON", "country": "CA", "postalCode": "N6A6H7", "twitter": "None", "instagram": "None", "facebook": "None", "youtube": "None", "website": "None", "summary": "None", "logo": "None", "latitude": 42.98528093202135, "longitude": -81.24920754760798}, "107020307RR0001": {"name": "INCORPORATED SYNOD OF THE DIOCESE OF KEEWATIN", "designationCode": "C", "categoryCode": "39", "address": "PO BOX 193", "city": "CRAIK", "province": "SK", "country": "CA", "postalCode": "S0G0V0", "twitter": "None", "instagram": "None", "facebook": "None", "youtube": "None", "website": "None", "summary": "None", "logo": "None", "latitude": 51.047450000000026, "longitude": -105.82258999999999}, "107505042RR0001": {"name": "INCORPORATED SYNOD OF THE DIOCESE OF ONTARIO", "designationCode": "C", "categoryCode": "30", "address": "90 JOHNSON ST", "city": "KINGSTON", "province": "ON", "country": "CA", "postalCode": "K7L1X7", "twitter": "None", "instagram": "None", "facebook": "None", "youtube": "None", "website": "None", "summary": "None", "logo": "None", "latitude": 44.22931392838599, "longitude": -76.48367271593855}, "107505059RR0001": {"name": "INCORPORATED SYNOD OF THE DIOCESE OF TORONTO", "designationCode": "C", "categoryCode": "30", "address": "135 ADELAIDE ST E", "city": "TORONTO", "province": "ON", "country": "CA", "postalCode": "M5C1L8", "twitter": "None", "instagram": "None", "facebook": "None", "youtube": "None", "website": "None", "summary": "None", "logo": "None", "latitude": 43.651317845951944, "longitude": -79.37416675353457}, "891530255RR0001": {"name": "INDEPENDANCE 65+ INC", "designationCode": "C", "categoryCode": "09", "address": "46 LA TOURELLE                C.P. 1203", "city": "TEMISCAMING", "province": "QC", "country": "CA", "postalCode": "J0Z3R0", "twitter": "None", "instagram": "None", "facebook": "None", "youtube": "None", "website": "None", "summary": "None", "logo": "None", "latitude": 46.80912407475172, "longitude": -79.12205045046771}, "137122727RR0001": {"name": "INDEPENDENCE PLUS HOUSING CORPORATION", "designationCode": "C", "categoryCode": "01", "address": "400 - 1184 ROLAND ST", "city": "THUNDER BAY", "province": "ON", "country": "CA", "postalCode": "P7B5M4", "twitter": "None", "instagram": "None", "facebook": "None", "youtube": "None", "website": "None", "summary": "None", "logo": "None", "latitude": 48.400767, "longitude": -89.2569113605802}, "118867001RR0001": {"name": "INDEPENDENCE PLUS INCORPORATED", "designationCode": "C", "categoryCode": "01", "address": "211 MAIN STREET NORTH", "city": "SAINT JOHN", "province": "NB", "country": "CA", "postalCode": "E2K1H7", "twitter": "None", "instagram": "None", "facebook": "None", "youtube": "None", "website": "None", "summary": "None", "logo": "None", "latitude": 45.27542446378897, "longitude": -66.08201868872987}, "118967744RR0001": {"name": "INDEPENDENT ASSEMBLIES OF GOD INTERNATIONAL (CANADA)", "designationCode": "C", "categoryCode": "39", "address": "1795 PARKHURST AVENUE", "city": "LONDON", "province": "ON", "country": "CA", "postalCode": "N5V2C4", "twitter": "None", "instagram": "None", "facebook": "None", "youtube": "None", "website": "None", "summary": "None", "logo": "None", "latitude": 43.007119042443456, "longitude": -81.18372245960536}, "873673230RR0001": {"name": "INDEPENDENT BAPTIST CHRISTIAN EDUCATION SOCIETY", "designationCode": "C", "categoryCode": "20", "address": "26404 HWY 16  WEST", "city": "SPRUCE GROVE", "province": "AB", "country": "CA", "postalCode": "T7X3G2", "twitter": "None", "instagram": "None", "facebook": "None", "youtube": "None", "website": "None", "summary": "None", "logo": "None", "latitude": 53.570385882144436, "longitude": -113.78878368459158}, "107505265RR0001": {"name": "INDEPENDENT BAPTIST CHURCH", "designationCode": "C", "categoryCode": "31", "address": "PO BOX 35", "city": "CLARK'S HARBOUR", "province": "NS", "country": "CA", "postalCode": "B0W1P0", "twitter": "None", "instagram": "None", "facebook": "None", "youtube": "None", "website": "None", "summary": "None", "logo": "None", "latitude": 43.44708000000003, "longitude": -65.63532999999995}, "118967769RR0001": {"name": "INDEPENDENT BIBLE CHURCH", "designationCode": "C", "categoryCode": "39", "address": "202 - 510 ADMIRAL ST", "city": "WOODSTOCK", "province": "ON", "country": "CA", "postalCode": "N4S8H8", "twitter": "None", "instagram": "None", "facebook": "None", "youtube": "None", "website": "None", "summary": "None", "logo": "None", "latitude": 43.13768863387987, "longitude": -80.75788019871321}, "889185229RR0001": {"name": "INDEPENDENT CHURCH OF GOD WINNIPEG INC", "designationCode": "C", "categoryCode": "39", "address": "1124 INKSTER BLVD.", "city": "WINNIPEG", "province": "MB", "country": "CA", "postalCode": "R2X1P2", "twitter": "None", "instagram": "None", "facebook": "None", "youtube": "None", "website": "None", "summary": "None", "logo": "None", "latitude": 49.93926500248152, "longitude": -97.16118878755256}, "118967785RR0001": {"name": "INDEPENDENT HOLINESS CHURCH", "designationCode": "C", "categoryCode": "39", "address": "BOX 1682", "city": "NIPAWIN", "province": "SK", "country": "CA", "postalCode": "S0E1E0", "twitter": "None", "instagram": "None", "facebook": "None", "youtube": "None", "website": "None", "summary": "None", "logo": "None", "latitude": 53.396118, "longitude": -104.00834700000001}, "118967785RR0008": {"name": "INDEPENDENT HOLINESS CHURCHES", "designationCode": "C", "categoryCode": "39", "address": "899 15TH ST. W", "city": "PRINCE ALBERT", "province": "SK", "country": "CA", "postalCode": "S6V3S1", "twitter": "None", "instagram": "None", "facebook": "None", "youtube": "None", "website": "None", "summary": "None", "logo": "None", "latitude": 53.19926747735032, "longitude": -105.77816141909516}, "132703448RR0001": {"name": "INDEPENDENT IMMIGRATION AID ASSOCIATION", "designationCode": "C", "categoryCode": "09", "address": "5639 DUNBAR ST", "city": "VANCOUVER", "province": "BC", "country": "CA", "postalCode": "V6N1W5", "twitter": "None", "instagram": "None", "facebook": "None", "youtube": "None", "website": "None", "summary": "None", "logo": "None", "latitude": 49.23529590109219, "longitude": -123.18542878580168}, "129334082RR0001": {"name": "INDEPENDENT LIVING CANADA/VIE AUTONOME CANADA", "designationCode": "C", "categoryCode": "09", "address": "343 PRESTON ST                11TH FLOOR, SUITE #1170", "city": "OTTAWA", "province": "ON", "country": "CA", "postalCode": "K1S1N4", "twitter": "None", "instagram": "None", "facebook": "None", "youtube": "None", "website": "None", "summary": "None", "logo": "None"}, "131656019RR0001": {"name": "INDEPENDENT LIVING CENTRE KINGSTON", "designationCode": "C", "categoryCode": "09", "address": "540 MONTREAL STREET", "city": "KINGSTON", "province": "ON", "country": "CA", "postalCode": "K7K3J2", "twitter": "None", "instagram": "None", "facebook": "None", "youtube": "None", "website": "None", "summary": "None", "logo": "None", "latitude": 44.2458577507646, "longitude": -76.48742751154118}, "893156778RR0001": {"name": "INDEPENDENT LIVING CENTRE LONDON AND AREA", "designationCode": "C", "categoryCode": "09", "address": "101 - 433 KING ST", "city": "LONDON", "province": "ON", "country": "CA", "postalCode": "N6B3P3", "twitter": "None", "instagram": "None", "facebook": "None", "youtube": "None", "website": "None", "summary": "None", "logo": "None", "latitude": 42.98577805297504, "longitude": -81.23719411613492}, "107505356RR0001": {"name": "INDEPENDENT LIVING CENTRE OF WATERLOO REGION", "designationCode": "C", "categoryCode": "11", "address": "127 VICTORIA STREET SOUTH     SUITE 201", "city": "KITCHENER", "province": "ON", "country": "CA", "postalCode": "N2G2B4", "twitter": "None", "instagram": "None", "facebook": "None", "youtube": "None", "website": "None", "summary": "None", "logo": "None", "latitude": 43.44970494918936, "longitude": -80.50107083218904}, "107505364RR0001": {"name": "INDEPENDENT LIVING HOUSING SOCIETY OF GREATER VICTORIA", "designationCode": "C", "categoryCode": "01", "address": "101-367 BURNSIDE RD E", "city": "VICTORIA", "province": "BC", "country": "CA", "postalCode": "V9A1A7", "twitter": "None", "instagram": "None", "facebook": "None", "youtube": "None", "website": "None", "summary": "None", "logo": "None", "latitude": 48.44752994281271, "longitude": -123.38086364184304}, "139512669RR0001": {"name": "INDEPENDENT LIVING NOVA SCOTIA ASSOCIATION", "designationCode": "C", "categoryCode": "09", "address": "L151-7071 BAYERS RD", "city": "HALIFAX", "province": "NS", "country": "CA", "postalCode": "B3L2C2", "twitter": "None", "instagram": "None", "facebook": "None", "youtube": "None", "website": "None", "summary": "None", "logo": "None", "latitude": 44.65370574279748, "longitude": -63.627277609595474}, "864812664RR0001": {"name": "INDEPENDENT LIVING RESOURCE CENTRE CORP.", "designationCode": "C", "categoryCode": "59", "address": "125 DURHAM ST", "city": "SUDBURY", "province": "ON", "country": "CA", "postalCode": "P3E3M9", "twitter": "None", "instagram": "None", "facebook": "None", "youtube": "None", "website": "None", "summary": "None", "logo": "None", "latitude": 46.4909140455451, "longitude": -80.99510053905898}}