{"107585515RR0029": {"name": "ST. PATRICK PARISH", "designationCode": "C", "categoryCode": "38", "address": "8 RUE CEDAR", "city": "KAPASKASING", "province": "ON", "country": "CA", "postalCode": "P5N2A8", "twitter": "None", "instagram": "None", "facebook": "None", "youtube": "None", "website": "None", "summary": "None", "logo": "None", "latitude": 49.42194598951395, "longitude": -82.42220553666367}, "107910275RR0006": {"name": "ST. PATRICK PARISH", "designationCode": "C", "categoryCode": "38", "address": "5206-52 STREET", "city": "YELLOWKNIFE", "province": "NT", "country": "CA", "postalCode": "X1A1T9", "twitter": "None", "instagram": "None", "facebook": "None", "youtube": "None", "website": "None", "summary": "None", "logo": "None", "latitude": 62.45022880247444, "longitude": -114.36839429573783}, "119109817RR0027": {"name": "ST. PATRICK PARISH", "designationCode": "C", "categoryCode": "38", "address": "377 OAKLAND AVE", "city": "LONDON", "province": "ON", "country": "CA", "postalCode": "N5W5R4", "twitter": "None", "instagram": "None", "facebook": "None", "youtube": "None", "website": "None", "summary": "None", "logo": "None", "latitude": 42.99526959310985, "longitude": -81.20623068653686}, "119109817RR0077": {"name": "ST. PATRICK PARISH", "designationCode": "C", "categoryCode": "38", "address": "32922 RICHMOND ST             RR 3", "city": "LUCAN", "province": "ON", "country": "CA", "postalCode": "N0M2J0", "twitter": "None", "instagram": "None", "facebook": "None", "youtube": "None", "website": "None", "summary": "None", "logo": "None", "latitude": 43.173902795347885, "longitude": -81.37143084323999}, "107307191RR0040": {"name": "ST. PATRICK PARISH CENTRE", "designationCode": "C", "categoryCode": "38", "address": "3339 CENTENNIAL DRIVE", "city": "SASKATOON", "province": "SK", "country": "CA", "postalCode": "S7L6V4", "twitter": "None", "instagram": "None", "facebook": "None", "youtube": "None", "website": "None", "summary": "None", "logo": "None", "latitude": 52.13341644263983, "longitude": -106.73184851895702}, "892413964RR0001": {"name": "ST. PATRICK'S ANGLICAN CHURCH", "designationCode": "C", "categoryCode": "30", "address": "P.O. BOX 2171", "city": "WHITECOURT", "province": "AB", "country": "CA", "postalCode": "T7S1P8", "twitter": "None", "instagram": "None", "facebook": "None", "youtube": "None", "website": "None", "summary": "None", "logo": "None", "latitude": 54.12540300000006, "longitude": -115.66208149999994}, "107876476RR0052": {"name": "ST. PATRICK'S CHURCH", "designationCode": "C", "categoryCode": "38", "address": "39 WALFORD ROAD", "city": "SUDBURY", "province": "ON", "country": "CA", "postalCode": "P3E2H2", "twitter": "None", "instagram": "None", "facebook": "None", "youtube": "None", "website": "None", "summary": "None", "logo": "None", "latitude": 46.46398048788188, "longitude": -81.00450144033121}, "107909939RR0052": {"name": "ST. PATRICK'S CHURCH", "designationCode": "C", "categoryCode": "38", "address": "238 2 AVE NE", "city": "MEDICINE HAT", "province": "AB", "country": "CA", "postalCode": "T1A6A1", "twitter": "None", "instagram": "None", "facebook": "None", "youtube": "None", "website": "None", "summary": "None", "logo": "None", "latitude": 50.045650962808025, "longitude": -110.68070615251885}, "107909939RR0062": {"name": "ST. PATRICK'S CHURCH", "designationCode": "C", "categoryCode": "38", "address": "1414 SHAWNESSY BLVD S.W", "city": "CALGARY", "province": "AB", "country": "CA", "postalCode": "T2Y2L7", "twitter": "None", "instagram": "None", "facebook": "None", "youtube": "None", "website": "None", "summary": "None", "logo": "None", "latitude": 50.9141034893242, "longitude": -114.09117308381903}, "119109791RR0019": {"name": "ST. PATRICK'S CHURCH", "designationCode": "C", "categoryCode": "38", "address": "107 ORKNEY ST. E.", "city": "CALEDONIA", "province": "ON", "country": "CA", "postalCode": "N3W1C4", "twitter": "None", "instagram": "None", "facebook": "None", "youtube": "None", "website": "None", "summary": "None", "logo": "None", "latitude": 43.07586307090652, "longitude": -79.94683893883847}, "119109791RR0038": {"name": "ST. PATRICK'S CHURCH", "designationCode": "C", "categoryCode": "38", "address": "4673 VICTORIA AVE", "city": "NIAGARA FALLS", "province": "ON", "country": "CA", "postalCode": "L2E4B8", "twitter": "None", "instagram": "None", "facebook": "None", "youtube": "None", "website": "None", "summary": "None", "logo": "None"}, "119109791RR0048": {"name": "ST. PATRICK'S CHURCH", "designationCode": "C", "categoryCode": "38", "address": "123 KING ST", "city": "PORT COLBORNE", "province": "ON", "country": "CA", "postalCode": "L3K4G3", "twitter": "None", "instagram": "None", "facebook": "None", "youtube": "None", "website": "None", "summary": "None", "logo": "None", "latitude": 42.88340784846209, "longitude": -79.25106681983979}, "119109833RR0015": {"name": "ST. PATRICK'S CHURCH", "designationCode": "C", "categoryCode": "38", "address": "2263 BRUNSWICK ST", "city": "HALIFAX", "province": "NS", "country": "CA", "postalCode": "B3K2Y9", "twitter": "None", "instagram": "None", "facebook": "None", "youtube": "None", "website": "None", "summary": "None", "logo": "None", "latitude": 44.65402080379695, "longitude": -63.58316681554062}, "119110443RR0026": {"name": "ST. PATRICK'S CHURCH", "designationCode": "C", "categoryCode": "38", "address": "985 KIDD ROAD NORTH           RR #4", "city": "LANSDOWNE", "province": "ON", "country": "CA", "postalCode": "K0E1L0", "twitter": "None", "instagram": "None", "facebook": "None", "youtube": "None", "website": "None", "summary": "None", "logo": "None", "latitude": 44.426816410837, "longitude": -76.05211235667747}, "119110443RR0031": {"name": "ST. PATRICK'S CHURCH", "designationCode": "C", "categoryCode": "39", "address": "3977 SYDENHAM ROAD", "city": "SYDENHAM", "province": "ON", "country": "CA", "postalCode": "K0H2T0", "twitter": "None", "instagram": "None", "facebook": "None", "youtube": "None", "website": "None", "summary": "None", "logo": "None", "latitude": 44.38211733456444, "longitude": -76.57265133456444}, "108084658RR0022": {"name": "ST. PATRICK'S CHURCH (LOWER STAFFORD)", "designationCode": "C", "categoryCode": "30", "address": "1777 GREENWOOD RD             R.R#2", "city": "PEMBROKE", "province": "ON", "country": "CA", "postalCode": "K8A6W3", "twitter": "None", "instagram": "None", "facebook": "None", "youtube": "None", "website": "None", "summary": "None", "logo": "None", "latitude": 45.77259694474597, "longitude": -77.02921766711846}, "119109791RR0014": {"name": "ST. PATRICK'S CHURCH (ST. CATHARINES)", "designationCode": "C", "categoryCode": "38", "address": "31 CHESTNUT ST EAST", "city": "ST CATHARINES", "province": "ON", "country": "CA", "postalCode": "L2T1G8", "twitter": "None", "instagram": "None", "facebook": "None", "youtube": "None", "website": "None", "summary": "None", "logo": "None", "latitude": 43.139032522072775, "longitude": -79.21187044463038}, "119109817RR0093": {"name": "ST. PATRICK'S CHURCH, KINKORA", "designationCode": "C", "categoryCode": "38", "address": "RR 1", "city": "SEBRINGVILLE", "province": "ON", "country": "CA", "postalCode": "N0K1X0", "twitter": "None", "instagram": "None", "facebook": "None", "youtube": "None", "website": "None", "summary": "None", "logo": "None", "latitude": 43.40518000000003, "longitude": -81.05678999999998}, "108035163RR0001": {"name": "ST. PATRICK'S HOME OF OTTAWA INC.", "designationCode": "C", "categoryCode": "01", "address": "2865 RIVERSIDE DRIVE", "city": "OTTAWA", "province": "ON", "country": "CA", "postalCode": "K1V8N5", "twitter": "None", "instagram": "None", "facebook": "None", "youtube": "None", "website": "None", "summary": "None", "logo": "None", "latitude": 45.370453745224694, "longitude": -75.69029592316411}, "108035171RR0001": {"name": "ST. PATRICK'S HOUSE SOCIETY", "designationCode": "C", "categoryCode": "57", "address": "1735 YEW ST", "city": "PRINCE GEORGE", "province": "BC", "country": "CA", "postalCode": "V2L2X3", "twitter": "None", "instagram": "None", "facebook": "None", "youtube": "None", "website": "None", "summary": "None", "logo": "None", "latitude": 53.907608431300176, "longitude": -122.76466122344037}, "107020331RR0020": {"name": "ST. PATRICK'S PARISH", "designationCode": "C", "categoryCode": "38", "address": "12 ST. PATRICK'S DR", "city": "MIRAMICHI", "province": "NB", "country": "CA", "postalCode": "E1N5T9", "twitter": "None", "instagram": "None", "facebook": "None", "youtube": "None", "website": "None", "summary": "None", "logo": "None", "latitude": 46.9768053537682, "longitude": -65.55546395992548}, "107020331RR0058": {"name": "ST. PATRICK'S PARISH", "designationCode": "C", "categoryCode": "38", "address": "31 MAIN ST", "city": "STANLEY", "province": "NB", "country": "CA", "postalCode": "E6B1A3", "twitter": "None", "instagram": "None", "facebook": "None", "youtube": "None", "website": "None", "summary": "None", "logo": "None", "latitude": 46.282310800998346, "longitude": -66.74172415860703}, "107307191RR0062": {"name": "ST. PATRICK'S PARISH", "designationCode": "C", "categoryCode": "38", "address": "P O BOX 757", "city": "WATROUS", "province": "SK", "country": "CA", "postalCode": "S0K4T0", "twitter": "None", "instagram": "None", "facebook": "None", "youtube": "None", "website": "None", "summary": "None", "logo": "None", "latitude": 51.719579978192066, "longitude": -105.4459035}, "107876468RR0002": {"name": "ST. PATRICK'S PARISH", "designationCode": "C", "categoryCode": "38", "address": "PLATE COVE EAST", "city": "BONAVISTA BAY", "province": "NL", "country": "CA", "postalCode": "A0C2C0", "twitter": "None", "instagram": "None", "facebook": "None", "youtube": "None", "website": "None", "summary": "None", "logo": "None", "latitude": 48.43052996554546, "longitude": -54.00463935933511}, "107910176RR0039": {"name": "ST. PATRICK'S PARISH", "designationCode": "C", "categoryCode": "38", "address": "PO BOX 1363", "city": "ST JOHN'S", "province": "NL", "country": "CA", "postalCode": "A1C5N5", "twitter": "None", "instagram": "None", "facebook": "None", "youtube": "None", "website": "None", "summary": "None", "logo": "None", "latitude": 47.56082100000006, "longitude": -52.71219349999993}, "118849470RR0057": {"name": "ST. PATRICK'S PARISH", "designationCode": "C", "categoryCode": "38", "address": "2881 MAIN ST", "city": "VANCOUVER", "province": "BC", "country": "CA", "postalCode": "V5T3G1", "twitter": "None", "instagram": "None", "facebook": "None", "youtube": "None", "website": "None", "summary": "None", "logo": "None", "latitude": 49.25961911518263, "longitude": -123.10115403834581}, "118849470RR0076": {"name": "ST. PATRICK'S PARISH", "designationCode": "C", "categoryCode": "38", "address": "22561 121ST AVE", "city": "MAPLE RIDGE", "province": "BC", "country": "CA", "postalCode": "V2X3T5", "twitter": "None", "instagram": "None", "facebook": "None", "youtube": "None", "website": "None", "summary": "None", "logo": "None", "latitude": 49.222407325714435, "longitude": -122.59667184097765}, "119109817RR0091": {"name": "ST. PATRICK'S PARISH", "designationCode": "C", "categoryCode": "38", "address": "PO BOX 15                     81 MILL STREET", "city": "DUBLIN", "province": "ON", "country": "CA", "postalCode": "N0K1E0", "twitter": "None", "instagram": "None", "facebook": "None", "youtube": "None", "website": "None", "summary": "None", "logo": "None", "latitude": 43.56181273131757, "longitude": -80.91246105358061}, "119110450RR0019": {"name": "ST. PATRICK'S PARISH", "designationCode": "C", "categoryCode": "38", "address": "440 KING ST E", "city": "HAMILTON", "province": "ON", "country": "CA", "postalCode": "L8N1C6", "twitter": "None", "instagram": "None", "facebook": "None", "youtube": "None", "website": "None", "summary": "None", "logo": "None", "latitude": 43.25303968495032, "longitude": -79.85634802290949}, "119110450RR0023": {"name": "ST. PATRICK'S PARISH", "designationCode": "C", "categoryCode": "38", "address": "196 KENWOOD AVENUE", "city": "BURLINGTON", "province": "ON", "country": "CA", "postalCode": "L7L4L8", "twitter": "None", "instagram": "None", "facebook": "None", "youtube": "None", "website": "None", "summary": "None", "logo": "None", "latitude": 43.369254190922945, "longitude": -79.73623043704164}, "119110450RR0044": {"name": "ST. PATRICK'S PARISH", "designationCode": "C", "categoryCode": "38", "address": "53 WELLINGTON", "city": "CAMBRIDGE", "province": "ON", "country": "CA", "postalCode": "N1R3Y6", "twitter": "None", "instagram": "None", "facebook": "None", "youtube": "None", "website": "None", "summary": "None", "logo": "None", "latitude": 43.3614409103526, "longitude": -80.31127421536162}, "119122786RR0002": {"name": "ST. PATRICK'S PARISH", "designationCode": "C", "categoryCode": "38", "address": "6500 SOUTHRIDGE AVE", "city": "PRINCE GEORGE", "province": "BC", "country": "CA", "postalCode": "V2N5P9", "twitter": "None", "instagram": "None", "facebook": "None", "youtube": "None", "website": "None", "summary": "None", "logo": "None", "latitude": 53.86420563941114, "longitude": -122.78374828519728}, "817163512RR0001": {"name": "ST. PATRICK'S ROMAN CATHOLIC PARISH (FORT AUGUSTUS) INC.", "designationCode": "C", "categoryCode": "38", "address": "PO BOX 24073 RPO STRATFORD", "city": "STRATFORD", "province": "PE", "country": "CA", "postalCode": "C1B2V5", "twitter": "None", "instagram": "None", "facebook": "None", "youtube": "None", "website": "None", "summary": "None", "logo": "None", "latitude": 46.217686152128245, "longitude": -63.0982765677881}, "817143712RR0001": {"name": "ST. PATRICK'S ROMAN CATHOLIC PARISH (GRAND RIVER) INC.", "designationCode": "C", "categoryCode": "38", "address": "4284 12 RTE", "city": "RICHMOND", "province": "PE", "country": "CA", "postalCode": "C0B1Y0", "twitter": "None", "instagram": "None", "facebook": "None", "youtube": "None", "website": "None", "summary": "None", "logo": "None", "latitude": 46.53043800000006, "longitude": -63.94186249999993}, "107910176RR0016": {"name": "ST. PATRICKS PARISH", "designationCode": "C", "categoryCode": "38", "address": "PO BOX 1363", "city": "ST JOHN'S", "province": "NL", "country": "CA", "postalCode": "A1C5N5", "twitter": "None", "instagram": "None", "facebook": "None", "youtube": "None", "website": "None", "summary": "None", "logo": "None", "latitude": 47.56082100000006, "longitude": -52.71219349999993}, "119110443RR0029": {"name": "ST. PATRICKS ROMAN CATHOLIC CHURCH", "designationCode": "C", "categoryCode": "38", "address": "179 WEST ST.", "city": "NAPANEE", "province": "ON", "country": "CA", "postalCode": "K7R2P6", "twitter": "None", "instagram": "None", "facebook": "None", "youtube": "None", "website": "None", "summary": "None", "logo": "None", "latitude": 44.24839066668112, "longitude": -76.95530792807328}, "895880862RR0001": {"name": "ST. PAUL & AREA VICTIM SERVICES SOCIETY", "designationCode": "C", "categoryCode": "59", "address": "4806 55 STREET", "city": "ST. PAUL", "province": "AB", "country": "CA", "postalCode": "T0A3A1", "twitter": "None", "instagram": "None", "facebook": "None", "youtube": "None", "website": "None", "summary": "None", "logo": "None", "latitude": 53.990768210658445, "longitude": -111.30991639419418}, "119194082RR0002": {"name": "ST. PAUL AND ST. JOHN, HAILEYBURY", "designationCode": "C", "categoryCode": "30", "address": "PO BOX 550", "city": "HAILEYBURY", "province": "ON", "country": "CA", "postalCode": "P0J1K0", "twitter": "None", "instagram": "None", "facebook": "None", "youtube": "None", "website": "None", "summary": "None", "logo": "None", "latitude": 47.449380000000076, "longitude": -79.63766999999996}, "852047497RR0001": {"name": "ST. PAUL BETHEL FAMILY WORSHIP CENTRE ASSEMBLY", "designationCode": "C", "categoryCode": "36", "address": "BOX 441                       1 KM EAST OF ST PAUL", "city": "ST. PAUL", "province": "AB", "country": "CA", "postalCode": "T0A3A0", "twitter": "None", "instagram": "None", "facebook": "None", "youtube": "None", "website": "None", "summary": "None", "logo": "None"}, "108035650RR0001": {"name": "ST. PAUL EVANGELICAL LUTHERAN CHURCH", "designationCode": "C", "categoryCode": "32", "address": "428 SKAGIT AVENUE             P.O. BOX 285", "city": "OLIVER", "province": "BC", "country": "CA", "postalCode": "V0H1T0", "twitter": "None", "instagram": "None", "facebook": "None", "youtube": "None", "website": "None", "summary": "None", "logo": "None", "latitude": 49.17425637014569, "longitude": -119.55284104257952}, "108035601RR0001": {"name": "ST. PAUL EVANGELICAL LUTHERAN CHURCH OF CALGARY", "designationCode": "C", "categoryCode": "32", "address": "27 CASTLEBROOK MEWS NE", "city": "CALGARY", "province": "AB", "country": "CA", "postalCode": "T3J2M1", "twitter": "None", "instagram": "None", "facebook": "None", "youtube": "None", "website": "None", "summary": "None", "logo": "None", "latitude": 51.103585592561615, "longitude": -113.96722780417232}, "140265646RR0001": {"name": "ST. PAUL EVANGELICAL LUTHERAN CHURCH OF GRAVELBOURG", "designationCode": "C", "categoryCode": "32", "address": "P.O. BOX 1046", "city": "GRAVELBOURG", "province": "SK", "country": "CA", "postalCode": "S0H1X0", "twitter": "None", "instagram": "None", "facebook": "None", "youtube": "None", "website": "None", "summary": "None", "logo": "None", "latitude": 49.87361000000004, "longitude": -106.55449999999996}, "108035627RR0001": {"name": "ST. PAUL LUTHERAN CHURCH", "designationCode": "C", "categoryCode": "32", "address": "PO BOX 73", "city": "RIVER HILLS", "province": "MB", "country": "CA", "postalCode": "R0E1T0", "twitter": "None", "instagram": "None", "facebook": "None", "youtube": "None", "website": "None", "summary": "None", "logo": "None"}, "108036856RR0001": {"name": "ST. PAUL LUTHERAN CHURCH", "designationCode": "C", "categoryCode": "32", "address": "5022-52 STREET", "city": "OLDS", "province": "AB", "country": "CA", "postalCode": "T4H1G9", "twitter": "None", "instagram": "None", "facebook": "None", "youtube": "None", "website": "None", "summary": "None", "logo": "None", "latitude": 51.79052773327947, "longitude": -114.10706685858965}, "108036906RR0001": {"name": "ST. PAUL LUTHERAN CHURCH OF DUVAL", "designationCode": "C", "categoryCode": "32", "address": "BOX 17", "city": "DUVAL", "province": "SK", "country": "CA", "postalCode": "S0G1G0", "twitter": "None", "instagram": "None", "facebook": "None", "youtube": "None", "website": "None", "summary": "None", "logo": "None", "latitude": 51.18300902692534, "longitude": -104.58907553640175}, "119195667RR0001": {"name": "ST. PAUL LUTHERAN CHURCH OF MEDICINE HAT, ALBERTA", "designationCode": "C", "categoryCode": "32", "address": "515 SPRAGUE WAY S.E.", "city": "MEDICINE HAT", "province": "AB", "country": "CA", "postalCode": "T1B4A7", "twitter": "None", "instagram": "None", "facebook": "None", "youtube": "None", "website": "None", "summary": "None", "logo": "None", "latitude": 50.000690797391655, "longitude": -110.67234307813487}, "119195956RR0001": {"name": "ST. PAUL LUTHERAN CHURCH OF VILLAGE OF SPRINGSIDE INC.", "designationCode": "C", "categoryCode": "32", "address": "BOX 38", "city": "SPRINGSIDE", "province": "SK", "country": "CA", "postalCode": "S0A3V0", "twitter": "None", "instagram": "None", "facebook": "None", "youtube": "None", "website": "None", "summary": "None", "logo": "None", "latitude": 51.71668000000005, "longitude": -101.91761999999994}, "108035668RR0001": {"name": "ST. PAUL LUTHERAN HOME", "designationCode": "C", "categoryCode": "01", "address": "BOX 1390", "city": "MELVILLE", "province": "SK", "country": "CA", "postalCode": "S0A2P0", "twitter": "None", "instagram": "None", "facebook": "None", "youtube": "None", "website": "None", "summary": "None", "logo": "None", "latitude": 50.87164886256234, "longitude": -103.09293300498788}, "108035684RR0001": {"name": "ST. PAUL MUNICIPAL LIBRARY BOARD", "designationCode": "C", "categoryCode": "50", "address": "BOX 1328", "city": "ST PAUL", "province": "AB", "country": "CA", "postalCode": "T0A3A0", "twitter": "None", "instagram": "None", "facebook": "None", "youtube": "None", "website": "None", "summary": "None", "logo": "None", "latitude": 53.99207006217902, "longitude": -111.26834992613558}, "108036377RR0001": {"name": "ST. PAUL SENIOR CITIZENS CLUB", "designationCode": "C", "categoryCode": "56", "address": "4809-47 STREET", "city": "ST PAUL", "province": "AB", "country": "CA", "postalCode": "T0A3A3", "twitter": "None", "instagram": "None", "facebook": "None", "youtube": "None", "website": "None", "summary": "None", "logo": "None", "latitude": 53.989504940180495, "longitude": -111.28908393525789}, "107910259RR0110": {"name": "ST. PAUL THE APOSTLE PARISH", "designationCode": "C", "categoryCode": "38", "address": "PO BOX 789 STN MAIN", "city": "ALLISTON", "province": "ON", "country": "CA", "postalCode": "L9R1V9", "twitter": "None", "instagram": "None", "facebook": "None", "youtube": "None", "website": "None", "summary": "None", "logo": "None"}, "119110443RR0040": {"name": "ST. PAUL THE APOSTLE PARISH", "designationCode": "C", "categoryCode": "38", "address": "1111 TAYLOR-KIDD BLVD.,", "city": "KINGSTON", "province": "ON", "country": "CA", "postalCode": "K7M8G8", "twitter": "None", "instagram": "None", "facebook": "None", "youtube": "None", "website": "None", "summary": "None", "logo": "None", "latitude": 44.25221269880013, "longitude": -76.59734555955322}, "108084658RR0004": {"name": "ST. PAUL'S ANGLICAN CHURCH", "designationCode": "C", "categoryCode": "30", "address": "20 YOUNG RD.", "city": "KANATA", "province": "ON", "country": "CA", "postalCode": "K2L1W1", "twitter": "None", "instagram": "None", "facebook": "None", "youtube": "None", "website": "None", "summary": "None", "logo": "None", "latitude": 45.29730404942566, "longitude": -75.89438509960206}, "108099771RR0027": {"name": "ST. PAUL'S ANGLICAN CHURCH", "designationCode": "C", "categoryCode": "30", "address": "233 LOCK ST W", "city": "DUNNVILLE", "province": "ON", "country": "CA", "postalCode": "N1A1V3", "twitter": "None", "instagram": "None", "facebook": "None", "youtube": "None", "website": "None", "summary": "None", "logo": "None", "latitude": 42.9037522599298, "longitude": -79.62196567337877}, "108099771RR0073": {"name": "ST. PAUL'S ANGLICAN CHURCH", "designationCode": "C", "categoryCode": "30", "address": "114 FERGUS STREET SOUTH", "city": "MOUNT FOREST", "province": "ON", "country": "CA", "postalCode": "N0G2L2", "twitter": "None", "instagram": "None", "facebook": "None", "youtube": "None", "website": "None", "summary": "None", "logo": "None", "latitude": 43.982591385157335, "longitude": -80.73368312748308}, "108084658RR0093": {"name": "ST. PAUL'S ANGLICAN CHURCH COBDEN", "designationCode": "C", "categoryCode": "30", "address": "BOX 201", "city": "COBDEN", "province": "ON", "country": "CA", "postalCode": "K0J1K0", "twitter": "None", "instagram": "None", "facebook": "None", "youtube": "None", "website": "None", "summary": "None", "logo": "None", "latitude": 45.58931694899529, "longitude": -76.94864445565497}, "880436811RR0001": {"name": "ST. PAUL'S ANGLICAN CHURCH PERCE, QUEBEC", "designationCode": "C", "categoryCode": "30", "address": "642 MONTEE WAKEHAM", "city": "GASPE", "province": "QC", "country": "CA", "postalCode": "G4X2A1", "twitter": "None", "instagram": "None", "facebook": "None", "youtube": "None", "website": "None", "summary": "None", "logo": "None", "latitude": 48.8277899448049, "longitude": -64.56207951749785}, "108099771RR0067": {"name": "ST. PAUL'S ANGLICAN CHURCH WESTDALE", "designationCode": "C", "categoryCode": "30", "address": "1140 KING ST W", "city": "HAMILTON", "province": "ON", "country": "CA", "postalCode": "L8S1M1", "twitter": "None", "instagram": "None", "facebook": "None", "youtube": "None", "website": "None", "summary": "None", "logo": "None", "latitude": 43.2603115226497, "longitude": -79.91024399999999}, "108099771RR0081": {"name": "ST. PAUL'S ANGLICAN CHURCH, NORVAL", "designationCode": "C", "categoryCode": "30", "address": "PO BOX 309", "city": "NORVAL", "province": "ON", "country": "CA", "postalCode": "L0P1K0", "twitter": "None", "instagram": "None", "facebook": "None", "youtube": "None", "website": "None", "summary": "None", "logo": "None", "latitude": 43.64690000000007, "longitude": -79.85805999999997}, "107910259RR0086": {"name": "ST. PAUL'S BASILICA", "designationCode": "C", "categoryCode": "38", "address": "83 POWER ST", "city": "TORONTO", "province": "ON", "country": "CA", "postalCode": "M5A3A8", "twitter": "None", "instagram": "None", "facebook": "None", "youtube": "None", "website": "None", "summary": "None", "logo": "None", "latitude": 43.65552211241267, "longitude": -79.36324914276666}, "119109817RR0012": {"name": "ST. PAUL'S CATHOLIC CHURCH", "designationCode": "C", "categoryCode": "38", "address": "5885 MALDEN ROAD", "city": "LASALLE", "province": "ON", "country": "CA", "postalCode": "N9H1S5", "twitter": "None", "instagram": "None", "facebook": "None", "youtube": "None", "website": "None", "summary": "None", "logo": "None", "latitude": 42.24722278914991, "longitude": -83.06087045783856}, "107876476RR0012": {"name": "ST. PAUL'S CHURCH", "designationCode": "C", "categoryCode": "38", "address": "38 CEDAR STREET               P.O. BOX 82", "city": "CONISTON", "province": "ON", "country": "CA", "postalCode": "P0M1M0", "twitter": "None", "instagram": "None", "facebook": "None", "youtube": "None", "website": "None", "summary": "None", "logo": "None", "latitude": 46.48858902107755, "longitude": -80.84845254442345}, "107909939RR0028": {"name": "ST. PAUL'S CHURCH", "designationCode": "C", "categoryCode": "38", "address": "BOX 68", "city": "BROCKET", "province": "AB", "country": "CA", "postalCode": "T0K0H0", "twitter": "None", "instagram": "None", "facebook": "None", "youtube": "None", "website": "None", "summary": "None", "logo": "None", "latitude": 49.55461800000006, "longitude": -113.74562149999994}, "108035759RR0001": {"name": "ST. PAUL'S CHURCH", "designationCode": "C", "categoryCode": "30", "address": "PO BOX 57", "city": "BRIGHTON", "province": "ON", "country": "CA", "postalCode": "K0K1H0", "twitter": "None", "instagram": "None", "facebook": "None", "youtube": "None", "website": "None", "summary": "None", "logo": "None", "latitude": 44.04197993003085, "longitude": -77.73788995224774}, "108035858RR0002": {"name": "ST. PAUL'S CHURCH", "designationCode": "C", "categoryCode": "30", "address": "299 BALDERSTONE ROAD", "city": "WEST ST PAUL", "province": "MB", "country": "CA", "postalCode": "R4A4A5", "twitter": "None", "instagram": "None", "facebook": "None", "youtube": "None", "website": "None", "summary": "None", "logo": "None", "latitude": 49.97972001361645, "longitude": -97.06402652012336}, "108036104RR0002": {"name": "ST. PAUL'S CHURCH", "designationCode": "C", "categoryCode": "30", "address": "321 EMPIRE AVE", "city": "GREENFIELD PARK", "province": "QC", "country": "CA", "postalCode": "J4V1V4", "twitter": "None", "instagram": "None", "facebook": "None", "youtube": "None", "website": "None", "summary": "None", "logo": "None", "latitude": 45.49028138216296, "longitude": -73.48560852986304}, "108036138RR0001": {"name": "ST. PAUL'S CHURCH", "designationCode": "C", "categoryCode": "30", "address": "137 QUEEN ST AT MONTREAL", "city": "KINGSTON", "province": "ON", "country": "CA", "postalCode": "K7K1A8", "twitter": "None", "instagram": "None", "facebook": "None", "youtube": "None", "website": "None", "summary": "None", "logo": "None", "latitude": 44.232866347798286, "longitude": -76.48459649890349}, "108036146RR0001": {"name": "ST. PAUL'S CHURCH", "designationCode": "C", "categoryCode": "30", "address": "45 RUSSELL ST W", "city": "LINDSAY", "province": "ON", "country": "CA", "postalCode": "K9V2W8", "twitter": "None", "instagram": "None", "facebook": "None", "youtube": "None", "website": "None", "summary": "None", "logo": "None", "latitude": 44.3534371474782, "longitude": -78.73727745017685}, "108036252RR0002": {"name": "ST. PAUL'S CHURCH", "designationCode": "C", "categoryCode": "30", "address": "239 REDFORD CRESCENT", "city": "STRATFORD", "province": "ON", "country": "CA", "postalCode": "N5A1P3", "twitter": "None", "instagram": "None", "facebook": "None", "youtube": "None", "website": "None", "summary": "None", "logo": "None", "latitude": 43.36380071328418, "longitude": -81.00033609267717}, "108036278RR0001": {"name": "ST. PAUL'S CHURCH", "designationCode": "C", "categoryCode": "30", "address": "486 KENNEBECASIS RIVER RD", "city": "HAMPTON", "province": "NB", "country": "CA", "postalCode": "E5N6L3", "twitter": "None", "instagram": "None", "facebook": "None", "youtube": "None", "website": "None", "summary": "None", "logo": "None", "latitude": 45.51894881181839, "longitude": -65.84616024542623}, "108099771RR0015": {"name": "ST. PAUL'S CHURCH", "designationCode": "C", "categoryCode": "30", "address": "32 IDYLEWYLDE PLACE", "city": "FORT ERIE", "province": "ON", "country": "CA", "postalCode": "L2A2L1", "twitter": "None", "instagram": "None", "facebook": "None", "youtube": "None", "website": "None", "summary": "None", "logo": "None", "latitude": 42.91983970246413, "longitude": -78.91326051408095}, "108099771RR0071": {"name": "ST. PAUL'S CHURCH", "designationCode": "C", "categoryCode": "30", "address": "BOX 249                       65 TALBOT ST. E.", "city": "JARVIS", "province": "ON", "country": "CA", "postalCode": "N0A1J0", "twitter": "None", "instagram": "None", "facebook": "None", "youtube": "None", "website": "None", "summary": "None", "logo": "None", "latitude": 42.88521782685824, "longitude": -80.10782544939276}, "108099771RR0100": {"name": "ST. PAUL'S CHURCH", "designationCode": "C", "categoryCode": "30", "address": "312 OWEN SOUND RD", "city": "SHELBURNE", "province": "ON", "country": "CA", "postalCode": "L9V2X2", "twitter": "None", "instagram": "None", "facebook": "None", "youtube": "None", "website": "None", "summary": "None", "logo": "None", "latitude": 44.0807364904207, "longitude": -80.20530688582697}, "119109833RR0023": {"name": "ST. PAUL'S CHURCH", "designationCode": "C", "categoryCode": "38", "address": "199 WINDMILL ROAD", "city": "DARTMOUTH", "province": "NS", "country": "CA", "postalCode": "B3A1G1", "twitter": "None", "instagram": "None", "facebook": "None", "youtube": "None", "website": "None", "summary": "None", "logo": "None", "latitude": 44.67128795141106, "longitude": -63.58575117958328}, "119109833RR0056": {"name": "ST. PAUL'S CHURCH", "designationCode": "C", "categoryCode": "38", "address": "PO BOX 35", "city": "RIVER HEBERT", "province": "NS", "country": "CA", "postalCode": "B0L1G0", "twitter": "None", "instagram": "None", "facebook": "None", "youtube": "None", "website": "None", "summary": "None", "logo": "None", "latitude": 45.690330000000074, "longitude": -64.37867999999997}, "119194728RR0002": {"name": "ST. PAUL'S CHURCH", "designationCode": "C", "categoryCode": "30", "address": "24 ST PAULS RD", "city": "KNOWLTON", "province": "QC", "country": "CA", "postalCode": "J0E1V0", "twitter": "None", "instagram": "None", "facebook": "None", "youtube": "None", "website": "None", "summary": "None", "logo": "None", "latitude": 45.21905020399334, "longitude": -72.50805559019567}, "119194942RR0001": {"name": "ST. PAUL'S CHURCH", "designationCode": "C", "categoryCode": "30", "address": "227 BLOOR STREET EAST", "city": "TORONTO", "province": "ON", "country": "CA", "postalCode": "M4W1C8", "twitter": "None", "instagram": "None", "facebook": "None", "youtube": "None", "website": "None", "summary": "None", "logo": "None", "latitude": 43.6714108670151, "longitude": -79.38137559212892}, "119195147RR0002": {"name": "ST. PAUL'S CHURCH", "designationCode": "C", "categoryCode": "30", "address": "38 ROSEWELL ST", "city": "HAMILTON", "province": "ON", "country": "CA", "postalCode": "L8W2L1", "twitter": "None", "instagram": "None", "facebook": "None", "youtube": "None", "website": "None", "summary": "None", "logo": "None", "latitude": 43.20834861532687, "longitude": -79.8525552705001}, "119195253RR0001": {"name": "ST. PAUL'S CHURCH", "designationCode": "A", "categoryCode": "30", "address": "PO BOX 79", "city": "WAWA", "province": "ON", "country": "CA", "postalCode": "P0S1K0", "twitter": "None", "instagram": "None", "facebook": "None", "youtube": "None", "website": "None", "summary": "None", "logo": "None", "latitude": 47.99670182883135, "longitude": -84.76954309189294}, "867612160RR0001": {"name": "ST. PAUL'S CHURCH", "designationCode": "C", "categoryCode": "30", "address": "75 RANG DE LA MONTAGNE", "city": "ST-PAUL-D'ABBOTSFORD", "province": "QC", "country": "CA", "postalCode": "J0E1A0", "twitter": "None", "instagram": "None", "facebook": "None", "youtube": "None", "website": "None", "summary": "None", "logo": "None", "latitude": 45.44077571054285, "longitude": -72.88897381715675}, "870004645RR0001": {"name": "ST. PAUL'S CHURCH", "designationCode": "C", "categoryCode": "30", "address": "3970 COTE STE CATHERINE", "city": "MONTREAL", "province": "QC", "country": "CA", "postalCode": "H3T1E3", "twitter": "None", "instagram": "None", "facebook": "None", "youtube": "None", "website": "None", "summary": "None", "logo": "None", "latitude": 45.49601219204812, "longitude": -73.6298285632468}, "108084658RR0029": {"name": "ST. PAUL'S CHURCH (OSGOODE)", "designationCode": "C", "categoryCode": "30", "address": "BOX 564", "city": "OSGOODE", "province": "ON", "country": "CA", "postalCode": "K0A2W0", "twitter": "None", "instagram": "None", "facebook": "None", "youtube": "None", "website": "None", "summary": "None", "logo": "None", "latitude": 45.14356518086365, "longitude": -75.59063555322211}, "108036294RR0001": {"name": "ST. PAUL'S CHURCH RUNNYMEDE", "designationCode": "C", "categoryCode": "30", "address": "404 WILLARD AVE", "city": "TORONTO", "province": "ON", "country": "CA", "postalCode": "M6S3R5", "twitter": "None", "instagram": "None", "facebook": "None", "youtube": "None", "website": "None", "summary": "None", "logo": "None", "latitude": 43.65551163613024, "longitude": -79.48357624066571}, "108036344RR0001": {"name": "ST. PAUL'S EASTERN UNITED CHURCH", "designationCode": "C", "categoryCode": "44", "address": "473 CUMBERLAND ST", "city": "OTTAWA", "province": "ON", "country": "CA", "postalCode": "K1N7K1", "twitter": "None", "instagram": "None", "facebook": "None", "youtube": "None", "website": "None", "summary": "None", "logo": "None", "latitude": 45.42656520428179, "longitude": -75.68634543600338}, "893214643RR0001": {"name": "ST. PAUL'S ESTONIAN EVANGELICAL LUTHERAN CONGREGATION IN OTTAWA", "designationCode": "C", "categoryCode": "39", "address": "126 DUNBARTON COURT", "city": "OTTAWA", "province": "ON", "country": "CA", "postalCode": "K1K4L6", "twitter": "None", "instagram": "None", "facebook": "None", "youtube": "None", "website": "None", "summary": "None", "logo": "None", "latitude": 45.44425159674521, "longitude": -75.65275159435062}, "108036443RR0001": {"name": "ST. PAUL'S EVANGELICAL LUTHERAN CHURCH", "designationCode": "C", "categoryCode": "32", "address": "BOX 17, GRP 430 RR4", "city": "BEAUSEJOUR", "province": "MB", "country": "CA", "postalCode": "R0E0C0", "twitter": "None", "instagram": "None", "facebook": "None", "youtube": "None", "website": "None", "summary": "None", "logo": "None", "latitude": 50.061750000000075, "longitude": -96.50519999999995}, "108036732RR0001": {"name": "ST. PAUL'S EVANGELICAL LUTHERAN CHURCH", "designationCode": "C", "categoryCode": "32", "address": "BOX 16", "city": "EDENWOLD", "province": "SK", "country": "CA", "postalCode": "S0G1K0", "twitter": "None", "instagram": "None", "facebook": "None", "youtube": "None", "website": "None", "summary": "None", "logo": "None", "latitude": 50.62997000000007, "longitude": -104.25361999999996}, "108036435RR0001": {"name": "ST. PAUL'S EVANGELICAL LUTHERAN CHURCH NORMANBY", "designationCode": "C", "categoryCode": "32", "address": "181083 CONC 12                WEST GREY RR1", "city": "AYTON", "province": "ON", "country": "CA", "postalCode": "N0G1C0", "twitter": "None", "instagram": "None", "facebook": "None", "youtube": "None", "website": "None", "summary": "None", "logo": "None", "latitude": 44.060420027575525, "longitude": -80.9988963978253}, "119195618RR0001": {"name": "ST. PAUL'S EVANGELICAL LUTHERAN CHURCH OF BRUNKILD INC.", "designationCode": "C", "categoryCode": "32", "address": "BOX 136", "city": "BRUNKILD", "province": "MB", "country": "CA", "postalCode": "R0G0E0", "twitter": "None", "instagram": "None", "facebook": "None", "youtube": "None", "website": "None", "summary": "None", "logo": "None", "latitude": 49.592790000000036, "longitude": -97.57430999999997}, "898122577RR0001": {"name": "ST. PAUL'S EVANGELICAL LUTHERAN CHURCH OF MELFORT, SASKATCHEWAN INC.", "designationCode": "C", "categoryCode": "32", "address": "BOX 1838", "city": "MELFORT", "province": "SK", "country": "CA", "postalCode": "S0E1A0", "twitter": "None", "instagram": "None", "facebook": "None", "youtube": "None", "website": "None", "summary": "None", "logo": "None"}, "108036450RR0001": {"name": "ST. PAUL'S EVANGELICAL LUTHERAN CHURCH OF SASKATOON, INC.", "designationCode": "C", "categoryCode": "32", "address": "627 TAYLOR ST E", "city": "SASKATOON", "province": "SK", "country": "CA", "postalCode": "S7H1V9", "twitter": "None", "instagram": "None", "facebook": "None", "youtube": "None", "website": "None", "summary": "None", "logo": "None", "latitude": 52.10735247879261, "longitude": -106.654563}, "896356102RR0001": {"name": "ST. PAUL'S EVANGELICAL LUTHERAN CHURCH OF STEINBACH, INC.", "designationCode": "C", "categoryCode": "32", "address": "465 HENRY ST", "city": "STEINBACH", "province": "MB", "country": "CA", "postalCode": "R5G0H1", "twitter": "None", "instagram": "None", "facebook": "None", "youtube": "None", "website": "None", "summary": "None", "logo": "None", "latitude": 49.52522242727373, "longitude": -96.67426780195107}, "108036476RR0001": {"name": "ST. PAUL'S EVANGELICAL LUTHERAN CHURCH U.A.C.", "designationCode": "C", "categoryCode": "32", "address": "8871 SCHOOL ST", "city": "CHILLIWACK", "province": "BC", "country": "CA", "postalCode": "V2P4L5", "twitter": "None", "instagram": "None", "facebook": "None", "youtube": "None", "website": "None", "summary": "None", "logo": "None", "latitude": 49.16401336164806, "longitude": -121.96067099353644}, "108036492RR0001": {"name": "ST. PAUL'S FAMILY RESOURCES INSTITUTE", "designationCode": "C", "categoryCode": "09", "address": "173 OLD SAMBRO RD", "city": "HALIFAX", "province": "NS", "country": "CA", "postalCode": "B3R2H6", "twitter": "None", "instagram": "None", "facebook": "None", "youtube": "None", "website": "None", "summary": "None", "logo": "None", "latitude": 44.60979884546101, "longitude": -63.62462162770477}, "108036518RR0001": {"name": "ST. PAUL'S GREEK ORTHODOX CHURCH", "designationCode": "C", "categoryCode": "39", "address": "3000 ARGYLE ROAD", "city": "REGINA", "province": "SK", "country": "CA", "postalCode": "S4S2B2", "twitter": "None", "instagram": "None", "facebook": "None", "youtube": "None", "website": "None", "summary": "None", "logo": "None", "latitude": 50.43149775248728, "longitude": -104.6326722928768}, "119132660RR0001": {"name": "ST. PAUL'S HOME", "designationCode": "A", "categoryCode": "03", "address": "1749 ARGYLE ST                VIA ST PAUL'S ANGLICAN CHURCH", "city": "HALIFAX", "province": "NS", "country": "CA", "postalCode": "B3J3K4", "twitter": "None", "instagram": "None", "facebook": "None", "youtube": "None", "website": "None", "summary": "None", "logo": "None", "latitude": 44.64766000000003, "longitude": -63.57507999999996}, "119195709RR0001": {"name": "ST. PAUL'S HOSPITAL (GREY NUNS) OF SASKATOON", "designationCode": "C", "categoryCode": "10", "address": "900-606 SPADIN CRESCENT", "city": "SASKATOON", "province": "SK", "country": "CA", "postalCode": "S7K3H1", "twitter": "None", "instagram": "None", "facebook": "None", "youtube": "None", "website": "None", "summary": "None", "logo": "None", "latitude": 52.12650591508446, "longitude": -106.65921752250546}, "119257939RR0001": {"name": "ST. PAUL'S HOSPITAL FOUNDATION OF VANCOUVER", "designationCode": "A", "categoryCode": "13", "address": "ROOM 178 - 1081 BURRARD STREET", "city": "VANCOUVER", "province": "BC", "country": "CA", "postalCode": "V6Z1Y6", "twitter": "None", "instagram": "None", "facebook": "None", "youtube": "None", "website": "None", "summary": "None", "logo": "None", "latitude": 49.280098400228916, "longitude": -123.1276761243046}, "108036666RR0001": {"name": "ST. PAUL'S LUTHERAN CHURCH", "designationCode": "C", "categoryCode": "32", "address": "311 SHERK ST", "city": "LEAMINGTON", "province": "ON", "country": "CA", "postalCode": "N8H3L2", "twitter": "None", "instagram": "None", "facebook": "None", "youtube": "None", "website": "None", "summary": "None", "logo": "None", "latitude": 42.03470770191586, "longitude": -82.60587091817153}, "108036682RR0001": {"name": "ST. PAUL'S LUTHERAN CHURCH", "designationCode": "C", "categoryCode": "32", "address": "27 MILL ST", "city": "ELMIRA", "province": "ON", "country": "CA", "postalCode": "N3B2K3", "twitter": "None", "instagram": "None", "facebook": "None", "youtube": "None", "website": "None", "summary": "None", "logo": "None", "latitude": 43.59865253952926, "longitude": -80.55492514224706}}