{"812789758RR0001": {"name": "Pacific Spirit Choir Society", "designationCode": "C", "categoryCode": "22", "address": "2062 ESQUIMALT AVE", "city": "WEST VANCOUVER", "province": "BC", "country": "CA", "postalCode": "V7V1S4", "twitter": "None", "instagram": "None", "facebook": "None", "youtube": "None", "website": "None", "summary": "None", "logo": "None", "latitude": 49.330638525102536, "longitude": -123.16723136081134}, "847388154RR0001": {"name": "Pacific Spirit Foundation", "designationCode": "B", "categoryCode": "03", "address": "4220 EVERGREEN AVENUE", "city": "WEST VANCOUVER", "province": "BC", "country": "CA", "postalCode": "V7V1H1", "twitter": "None", "instagram": "None", "facebook": "None", "youtube": "None", "website": "None", "summary": "None", "logo": "None", "latitude": 49.340087132090865, "longitude": -123.23494849483545}, "835924390RR0001": {"name": "Pacific Sustainability Centre Association", "designationCode": "C", "categoryCode": "20", "address": "PO BOX 213", "city": "LANTZVILLE", "province": "BC", "country": "CA", "postalCode": "V0R2H0", "twitter": "None", "instagram": "None", "facebook": "None", "youtube": "None", "website": "None", "summary": "None", "logo": "None", "latitude": 49.252985410367124, "longitude": -124.09511789416992}, "846673085RR0001": {"name": "Pacific Training Centre for the Blind Society", "designationCode": "C", "categoryCode": "11", "address": "1355 TOPAZ AVENUE", "city": "VICTORIA", "province": "BC", "country": "CA", "postalCode": "V8T4Z2", "twitter": "None", "instagram": "None", "facebook": "None", "youtube": "None", "website": "None", "summary": "None", "logo": "None", "latitude": 48.44385160502643, "longitude": -123.34958666538769}, "845658228RR0001": {"name": "Pacific Volunteer Education and Assistance Team for Animals Society", "designationCode": "C", "categoryCode": "54", "address": "667 COLUMBIA ST               BOX 31", "city": "NEW WESTMINSTER", "province": "BC", "country": "CA", "postalCode": "V3M1A8", "twitter": "None", "instagram": "None", "facebook": "None", "youtube": "None", "website": "None", "summary": "None", "logo": "None", "latitude": 49.202509655850854, "longitude": -122.90933272617175}, "851020008RR0001": {"name": "Pacific Western Brewing Community Foundation", "designationCode": "B", "categoryCode": "53", "address": "3876 NORLAND AVENUE", "city": "BURNABY", "province": "BC", "country": "CA", "postalCode": "V5G4T9", "twitter": "None", "instagram": "None", "facebook": "None", "youtube": "None", "website": "None", "summary": "None", "logo": "None", "latitude": 49.24834482162789, "longitude": -122.97468892558736}, "104320908RR0001": {"name": "Pacte Bois-Francs Inc.", "designationCode": "C", "categoryCode": "59", "address": "59 RUE MONFETTE               BUREAU 252", "city": "VICTORIAVILLE", "province": "QC", "country": "CA", "postalCode": "G6P1J8", "twitter": "None", "instagram": "None", "facebook": "None", "youtube": "None", "website": "None", "summary": "None", "logo": "None", "latitude": 46.06164779188039, "longitude": -71.9668892342031}, "826468274RR0001": {"name": "Padang Relief Society", "designationCode": "C", "categoryCode": "09", "address": "10-1025 QUEENS AVE", "city": "NEW WESTMINSTER", "province": "BC", "country": "CA", "postalCode": "V3M1M4", "twitter": "None", "instagram": "None", "facebook": "None", "youtube": "None", "website": "None", "summary": "None", "logo": "None", "latitude": 49.203080400253704, "longitude": -122.9201748412774}, "850431727RR0001": {"name": "Paddling for Life Society", "designationCode": "C", "categoryCode": "11", "address": "15 - 4020 SATURNA AVE", "city": "POWELL RIVER", "province": "BC", "country": "CA", "postalCode": "V8A5T4", "twitter": "None", "instagram": "None", "facebook": "None", "youtube": "None", "website": "None", "summary": "None", "logo": "None", "latitude": 49.82415652329452, "longitude": -124.51215126010462}, "832200422RR0001": {"name": "Pain BC Society", "designationCode": "C", "categoryCode": "11", "address": "3300-910 WEST 10TH AVENUE     JPPN 3", "city": "VANCOUVER", "province": "BC", "country": "CA", "postalCode": "V5Z1M9", "twitter": "None", "instagram": "None", "facebook": "None", "youtube": "None", "website": "None", "summary": "None", "logo": "None", "latitude": 49.2624225, "longitude": -123.126048}, "810265165RR0001": {"name": "Paisley Blues Festival", "designationCode": "C", "categoryCode": "22", "address": "PO BOX 294", "city": "PAISLEY", "province": "ON", "country": "CA", "postalCode": "N0G2N0", "twitter": "None", "instagram": "None", "facebook": "None", "youtube": "None", "website": "None", "summary": "None", "logo": "None", "latitude": 44.306530000000066, "longitude": -81.27205999999995}, "830217113RR0001": {"name": "Pak Pioneers Community Organization of Canada", "designationCode": "C", "categoryCode": "09", "address": "174-1395 WILLIAMSPORT DRIVE", "city": "MISSISSAUGA", "province": "ON", "country": "CA", "postalCode": "L4X2T4", "twitter": "None", "instagram": "None", "facebook": "None", "youtube": "None", "website": "None", "summary": "None", "logo": "None", "latitude": 43.61885961062368, "longitude": -79.59609608961875}, "872972807RR0001": {"name": "Pakistan Fund of Canada", "designationCode": "C", "categoryCode": "09", "address": "P.O. BOX 21002", "city": "VERNON", "province": "BC", "country": "CA", "postalCode": "V1T9T7", "twitter": "None", "instagram": "None", "facebook": "None", "youtube": "None", "website": "None", "summary": "None", "logo": "None", "latitude": 50.26567200000005, "longitude": -119.27378149999993}, "787264126RR0001": {"name": "Pakistani Youth Education Fund", "designationCode": "C", "categoryCode": "21", "address": "1 - 33 FORSYTHE AVE", "city": "KINGSTON", "province": "ON", "country": "CA", "postalCode": "K7M2M1", "twitter": "None", "instagram": "None", "facebook": "None", "youtube": "None", "website": "None", "summary": "None", "logo": "None", "latitude": 44.22691544214889, "longitude": -76.51985394754458}, "873966295RR0001": {"name": "Palix Foundation", "designationCode": "B", "categoryCode": "53", "address": "540 - 1100 1 ST SE", "city": "CALGARY", "province": "AB", "country": "CA", "postalCode": "T2G1B1", "twitter": "None", "instagram": "None", "facebook": "None", "youtube": "None", "website": "None", "summary": "None", "logo": "None", "latitude": 51.04198444823706, "longitude": -114.06078092365414}, "808989669RR0001": {"name": "Palliacco", "designationCode": "C", "categoryCode": "11", "address": "2280 RUE LABELLE", "city": "MONT-TREMBLANT", "province": "QC", "country": "CA", "postalCode": "J8E1T8", "twitter": "None", "instagram": "None", "facebook": "None", "youtube": "None", "website": "None", "summary": "None", "logo": "None", "latitude": 46.16018144991052, "longitude": -74.58475338340372}, "786815126RR0001": {"name": "Palliative Care Society of the Bow Valley", "designationCode": "C", "categoryCode": "10", "address": "1100 HOSPITAL PL", "city": "CANMORE", "province": "AB", "country": "CA", "postalCode": "T1W1N2", "twitter": "None", "instagram": "None", "facebook": "None", "youtube": "None", "website": "None", "summary": "None", "logo": "None", "latitude": 51.09236991608785, "longitude": -115.3517424573539}, "883110801RR0001": {"name": "Palmyra Community Club", "designationCode": "C", "categoryCode": "56", "address": "13779 TALBOT TRAIL            RR 1", "city": "RIDGETOWN", "province": "ON", "country": "CA", "postalCode": "N0P2C0", "twitter": "None", "instagram": "None", "facebook": "None", "youtube": "None", "website": "None", "summary": "None", "logo": "None", "latitude": 42.4306044763111, "longitude": -81.7887369037448}, "840346043RR0001": {"name": "Palookas Charitable Foundation", "designationCode": "B", "categoryCode": "05", "address": "741 BEDFORD HIGHWAY", "city": "HALIFAX", "province": "NS", "country": "CA", "postalCode": "B3M2M1", "twitter": "None", "instagram": "None", "facebook": "None", "youtube": "None", "website": "None", "summary": "None", "logo": "None", "latitude": 44.70640958479999, "longitude": -63.66424633816166}, "842294829RR0001": {"name": "Pals Society of Canada", "designationCode": "C", "categoryCode": "20", "address": "12325-66 AVENUE.", "city": "SURREY", "province": "BC", "country": "CA", "postalCode": "V3W2A3", "twitter": "None", "instagram": "None", "facebook": "None", "youtube": "None", "website": "None", "summary": "None", "logo": "None", "latitude": 49.122989496537556, "longitude": -122.88108035789716}, "815124102RR0001": {"name": "Palyul Pema Mani Center", "designationCode": "C", "categoryCode": "35", "address": "59 INGLESIDE DR", "city": "NORTH YORK", "province": "ON", "country": "CA", "postalCode": "M3K1V2", "twitter": "None", "instagram": "None", "facebook": "None", "youtube": "None", "website": "None", "summary": "None", "logo": "None", "latitude": 43.727458347769605, "longitude": -79.47837823754998}, "857461099RR0001": {"name": "Pamoja Initiative", "designationCode": "C", "categoryCode": "22", "address": "85 SHERWOOD GLEN", "city": "HOLLAND LANDING", "province": "ON", "country": "CA", "postalCode": "L9N1R3", "twitter": "None", "instagram": "None", "facebook": "None", "youtube": "None", "website": "None", "summary": "None", "logo": "None", "latitude": 44.089622965346834, "longitude": -79.51068059536021}, "856375563RR0001": {"name": "Pamoja Tujenge Lets Build Together Development Corporation", "designationCode": "C", "categoryCode": "09", "address": "P.O.BOX 197, 260 ADELAIDE ST.", "city": "TORONTO", "province": "ON", "country": "CA", "postalCode": "M5A1N1", "twitter": "None", "instagram": "None", "facebook": "None", "youtube": "None", "website": "None", "summary": "None", "logo": "None", "latitude": 43.651775146834694, "longitude": -79.37042615251885}, "829565803RR0001": {"name": "Pan Am Place Inc.", "designationCode": "B", "categoryCode": "01", "address": "88 ARTHUR STREET", "city": "WINNIPEG", "province": "MB", "country": "CA", "postalCode": "R3B1G7", "twitter": "None", "instagram": "None", "facebook": "None", "youtube": "None", "website": "None", "summary": "None", "logo": "None", "latitude": 49.897566764094826, "longitude": -97.14069003944235}, "810273789RR0001": {"name": "Panatch Family Foundation", "designationCode": "B", "categoryCode": "03", "address": "200 - 6791 ELMBRIDGE WAY", "city": "RICHMOND", "province": "BC", "country": "CA", "postalCode": "V7C4N1", "twitter": "None", "instagram": "None", "facebook": "None", "youtube": "None", "website": "None", "summary": "None", "logo": "None", "latitude": 49.172266299575945, "longitude": -123.15156402926522}, "831891601RR0001": {"name": "Panda bas St-Laurent", "designationCode": "C", "categoryCode": "11", "address": "CASTE POSTAL 612", "city": "RIMOUSKI", "province": "QC", "country": "CA", "postalCode": "G5L7C5", "twitter": "None", "instagram": "None", "facebook": "None", "youtube": "None", "website": "None", "summary": "None", "logo": "None", "latitude": 48.44933700000006, "longitude": -68.52474349999993}, "823194741RR0001": {"name": "Panda de la MRC l'Assomption", "designationCode": "C", "categoryCode": "11", "address": "50 RUE THOUIN # 242", "city": "REPENTIGNY", "province": "QC", "country": "CA", "postalCode": "J6A4J4", "twitter": "None", "instagram": "None", "facebook": "None", "youtube": "None", "website": "None", "summary": "None", "logo": "None", "latitude": 45.73416390891028, "longitude": -73.45014598687135}, "866199599RR0001": {"name": "Panda Manicouagan", "designationCode": "C", "categoryCode": "09", "address": "19 PLACE LA SALLE", "city": "BAIE-COMEAU", "province": "QC", "country": "CA", "postalCode": "G4Z1J8", "twitter": "None", "instagram": "None", "facebook": "None", "youtube": "None", "website": "None", "summary": "None", "logo": "None", "latitude": 49.220619000000056, "longitude": -68.15380849999994}, "819111279RR0001": {"name": "Pandora Arts Collective Society", "designationCode": "C", "categoryCode": "11", "address": "10-1921 FERNWOOD RD", "city": "VICTORIA", "province": "BC", "country": "CA", "postalCode": "V8T2Y6", "twitter": "None", "instagram": "None", "facebook": "None", "youtube": "None", "website": "None", "summary": "None", "logo": "None", "latitude": 48.430159962808006, "longitude": -123.3451106838538}, "856658117RR0001": {"name": "Panjab Digital Library Canada", "designationCode": "C", "categoryCode": "50", "address": "7638 WHEATER CRT", "city": "BURNABY", "province": "BC", "country": "CA", "postalCode": "V5E4P3", "twitter": "None", "instagram": "None", "facebook": "None", "youtube": "None", "website": "None", "summary": "None", "logo": "None", "latitude": 49.23528288592054, "longitude": -122.95776645081422}, "119288918RR1391": {"name": "Panorama Congregation of Jehovah's Witnesses, Calgary, Alberta", "designationCode": "C", "categoryCode": "61", "address": "156 PANTEGO CLOSE NW", "city": "CALGARY", "province": "AB", "country": "CA", "postalCode": "T3K0K2", "twitter": "None", "instagram": "None", "facebook": "None", "youtube": "None", "website": "None", "summary": "None", "logo": "None", "latitude": 51.16525950207748, "longitude": -114.09466338066242}, "830678413RR0001": {"name": "Panorama Special Project Fundraising Society", "designationCode": "C", "categoryCode": "59", "address": "11616 PANAROMA HILLS BLVD. NW", "city": "CALGARY", "province": "AB", "country": "CA", "postalCode": "T3K5S3", "twitter": "None", "instagram": "None", "facebook": "None", "youtube": "None", "website": "None", "summary": "None", "logo": "None", "latitude": 51.15870600000005, "longitude": -114.07788349999993}, "802322131RR0001": {"name": "Pantry Four Paws", "designationCode": "C", "categoryCode": "54", "address": "73 TOLTON AVENUE", "city": "HAMILTON", "province": "ON", "country": "CA", "postalCode": "L8H5N7", "twitter": "None", "instagram": "None", "facebook": "None", "youtube": "None", "website": "None", "summary": "None", "logo": "None", "latitude": 43.239697983351576, "longitude": -79.79706448239928}, "837770254RR0001": {"name": "Panwar Music and Dance Productions Inc.", "designationCode": "C", "categoryCode": "22", "address": "34 LISA CRES", "city": "RICHMOND HILL", "province": "ON", "country": "CA", "postalCode": "L4B3A4", "twitter": "None", "instagram": "None", "facebook": "None", "youtube": "None", "website": "None", "summary": "None", "logo": "None", "latitude": 43.84782530004604, "longitude": -79.40299631432853}, "804736049RR0001": {"name": "Paper Crown Institute", "designationCode": "B", "categoryCode": "21", "address": "4454 209B ST", "city": "LANGLEY", "province": "BC", "country": "CA", "postalCode": "V3A8Y8", "twitter": "None", "instagram": "None", "facebook": "None", "youtube": "None", "website": "None", "summary": "None", "logo": "None", "latitude": 49.0835505961683, "longitude": -122.64208088522139}, "800893091RR0001": {"name": "Paper Kite Children's Foundation", "designationCode": "C", "categoryCode": "09", "address": "N1105 - 120 BAYVIEW AVE", "city": "TORONTO", "province": "ON", "country": "CA", "postalCode": "M5A0G4", "twitter": "None", "instagram": "None", "facebook": "None", "youtube": "None", "website": "None", "summary": "None", "logo": "None", "latitude": 43.655117873870225, "longitude": -79.35344899763219}, "887189397RR0001": {"name": "Papineauville Protestant Cemetery Board", "designationCode": "C", "categoryCode": "59", "address": "10070 RUE WILFRID PREVOST", "city": "MIRABEL", "province": "QC", "country": "CA", "postalCode": "J7N0B5", "twitter": "None", "instagram": "None", "facebook": "None", "youtube": "None", "website": "None", "summary": "None", "logo": "None", "latitude": 45.65090993421437, "longitude": -74.09779975757394}, "855377875RR0001": {"name": "Paprika Theatre Festival", "designationCode": "C", "categoryCode": "22", "address": "16 RYERSON AVE", "city": "TORONTO", "province": "ON", "country": "CA", "postalCode": "M5T2P3", "twitter": "None", "instagram": "None", "facebook": "None", "youtube": "None", "website": "None", "summary": "None", "logo": "None", "latitude": 43.6486136858157, "longitude": -79.4024460199953}, "892011982RR0001": {"name": "Par B.L.Eux", "designationCode": "C", "categoryCode": "22", "address": "200 - 5425 AV CASGRAIN", "city": "MONTREAL", "province": "QC", "country": "CA", "postalCode": "H2T1X6", "twitter": "None", "instagram": "None", "facebook": "None", "youtube": "None", "website": "None", "summary": "None", "logo": "None", "latitude": 45.526292170436676, "longitude": -73.59601815540438}, "824888804RR0001": {"name": "Parade of Nations for the Developmentally Challenged", "designationCode": "C", "categoryCode": "59", "address": "1621 JOYCE STREET,", "city": "CORNWALL", "province": "ON", "country": "CA", "postalCode": "K6J1Y8", "twitter": "None", "instagram": "None", "facebook": "None", "youtube": "None", "website": "None", "summary": "None", "logo": "None", "latitude": 45.01517935250148, "longitude": -74.77364099529679}, "847394707RR0001": {"name": "Paradigm Education Academy of Creative Enlightenment (a.k.a. PEACE School)", "designationCode": "C", "categoryCode": "20", "address": "43 DYMENT ROAD                PO BOX 146", "city": "CALLANDER", "province": "ON", "country": "CA", "postalCode": "P0H1H0", "twitter": "None", "instagram": "None", "facebook": "None", "youtube": "None", "website": "None", "summary": "None", "logo": "None", "latitude": 46.2351907166597, "longitude": -79.35196949047803}, "825937097RR0001": {"name": "Paradise Hill Community Centre Inc.", "designationCode": "C", "categoryCode": "56", "address": "PO BOX 282", "city": "PARADISE HILL", "province": "SK", "country": "CA", "postalCode": "S0M2G0", "twitter": "None", "instagram": "None", "facebook": "None", "youtube": "None", "website": "None", "summary": "None", "logo": "None", "latitude": 53.53915000000006, "longitude": -109.45828999999998}, "891218588RR0001": {"name": "Paradise Hill United Church", "designationCode": "C", "categoryCode": "44", "address": "BOX  43", "city": "PARADISE HILL", "province": "SK", "country": "CA", "postalCode": "S0M2G0", "twitter": "None", "instagram": "None", "facebook": "None", "youtube": "None", "website": "None", "summary": "None", "logo": "None", "latitude": 53.53915000000006, "longitude": -109.45828999999998}, "804963858RR0001": {"name": "Paragon Foundation", "designationCode": "B", "categoryCode": "03", "address": "1500 GEORGIA STREET WEST      BOX 62  SUITE 1250", "city": "VANCOUVER", "province": "BC", "country": "CA", "postalCode": "V6G2Z6", "twitter": "None", "instagram": "None", "facebook": "None", "youtube": "None", "website": "None", "summary": "None", "logo": "None", "latitude": 49.29013479542975, "longitude": -123.1300069287031}, "826790289RR0001": {"name": "Paraklesis Foundation", "designationCode": "A", "categoryCode": "03", "address": "1250 - 1500 WEST GEORGIA ST   BOX 62", "city": "VANCOUVER", "province": "BC", "country": "CA", "postalCode": "V6G2Z6", "twitter": "None", "instagram": "None", "facebook": "None", "youtube": "None", "website": "None", "summary": "None", "logo": "None", "latitude": 49.290187500000016, "longitude": -123.130035}, "813904190RR0001": {"name": "Paralympic Foundation of Canada", "designationCode": "A", "categoryCode": "03", "address": "100-85 PLYMOUTH ST", "city": "OTTAWA", "province": "ON", "country": "CA", "postalCode": "K1S3E2", "twitter": "None", "instagram": "None", "facebook": "None", "youtube": "None", "website": "None", "summary": "None", "logo": "None", "latitude": 45.40375661506707, "longitude": -75.70195255886073}, "827502741RR0001": {"name": "Paramedics Without Borders/Paramedics Sans Fronti\u00e8res", "designationCode": "C", "categoryCode": "11", "address": "33 BELVIA RD", "city": "ETOBICOKE", "province": "ON", "country": "CA", "postalCode": "M8W3R2", "twitter": "None", "instagram": "None", "facebook": "None", "youtube": "None", "website": "None", "summary": "None", "logo": "None", "latitude": 43.6032897160828, "longitude": -79.52751889947523}, "729181727RR0001": {"name": "Paramjit & Gurdip Sandhu Foundation", "designationCode": "B", "categoryCode": "03", "address": "1250-1500 GEORGIA W ST", "city": "VANCOUVER  BOX 62", "province": "BC", "country": "CA", "postalCode": "V6G2Z6", "twitter": "None", "instagram": "None", "facebook": "None", "youtube": "None", "website": "None", "summary": "None", "logo": "None", "latitude": 49.290187500000016, "longitude": -123.130035}, "800238727RR0001": {"name": "Parapl\u00e9gie spastique Financement - Recherche - Traitement Spastic Paraplegia Funding- Research - Treatment", "designationCode": "B", "categoryCode": "13", "address": "245 73E AV", "city": "SAINT-ZOTIQUE", "province": "QC", "country": "CA", "postalCode": "J0P1Z0", "twitter": "None", "instagram": "None", "facebook": "None", "youtube": "None", "website": "None", "summary": "None", "logo": "None", "latitude": 45.22557524617697, "longitude": -74.28667201736957}, "131499816RR0001": {"name": "Parasports Qu\u00e9bec", "designationCode": "C", "categoryCode": "09", "address": "4545 AV PIERRE-DE COUBERTIN", "city": "MONTREAL", "province": "QC", "country": "CA", "postalCode": "H1V0B2", "twitter": "None", "instagram": "None", "facebook": "None", "youtube": "None", "website": "None", "summary": "None", "logo": "None", "latitude": 45.555920590080106, "longitude": -73.55036240097485}, "893025767RR0001": {"name": "Parc d'environnement naturel de Sutton inc.", "designationCode": "C", "categoryCode": "52", "address": "C.P. 2246", "city": "SUTTON", "province": "QC", "country": "CA", "postalCode": "J0E2K0", "twitter": "None", "instagram": "None", "facebook": "None", "youtube": "None", "website": "None", "summary": "None", "logo": "None", "latitude": 45.10737600000006, "longitude": -72.60849799999993}, "889231338RR0001": {"name": "Parent d'abord MRC de Matane", "designationCode": "C", "categoryCode": "09", "address": "235, AV. SAINT-JEROME         PORTE 101", "city": "MATANE", "province": "QC", "country": "CA", "postalCode": "G4W3A7", "twitter": "None", "instagram": "None", "facebook": "None", "youtube": "None", "website": "None", "summary": "None", "logo": "None", "latitude": 48.84353149154589, "longitude": -67.53095180463366}, "847718798RR0001": {"name": "Parent Society for \u00e9cole francophone d'Airdrie", "designationCode": "C", "categoryCode": "21", "address": "1165 RAVENSWOOD DR.", "city": "AIRDRIE", "province": "AB", "country": "CA", "postalCode": "T4A0H3", "twitter": "None", "instagram": "None", "facebook": "None", "youtube": "None", "website": "None", "summary": "None", "logo": "None", "latitude": 51.267136506780666, "longitude": -113.98034249999999}, "872360557RR0001": {"name": "Parent-Teacher Association of Grace Christian School", "designationCode": "C", "categoryCode": "21", "address": "497 MILLGROVE SIDE ROAD", "city": "MILLGROVE", "province": "ON", "country": "CA", "postalCode": "L0R1V0", "twitter": "None", "instagram": "None", "facebook": "None", "youtube": "None", "website": "None", "summary": "None", "logo": "None", "latitude": 43.340847391152266, "longitude": -79.95963354867318}, "895689347RR0001": {"name": "Parents & Children Together Association (P.A.C.T.)", "designationCode": "C", "categoryCode": "09", "address": "SUITE 102                     1114 COLE HARBOUR R\u00d6AD", "city": "COLE HARBOUR", "province": "NS", "country": "CA", "postalCode": "B2V1E7", "twitter": "None", "instagram": "None", "facebook": "None", "youtube": "None", "website": "None", "summary": "None", "logo": "None", "latitude": 44.67211449567217, "longitude": -63.48496097155058}, "832624662RR0001": {"name": "Parents engag\u00e9s pour la petite-enfance (PEP)", "designationCode": "C", "categoryCode": "21", "address": "5964 AV NOTRE-DAME-DE-GRACE   BUREAU 208", "city": "MONTREAL", "province": "QC", "country": "CA", "postalCode": "H4A1N1", "twitter": "None", "instagram": "None", "facebook": "None", "youtube": "None", "website": "None", "summary": "None", "logo": "None", "latitude": 45.469622410756614, "longitude": -73.62215713693828}, "843984311RR0001": {"name": "Parents for a Strong Generation", "designationCode": "B", "categoryCode": "21", "address": "12 MCDOUGALL DRIVE", "city": "BELLEVILLE", "province": "ON", "country": "CA", "postalCode": "K8N4Z5", "twitter": "None", "instagram": "None", "facebook": "None", "youtube": "None", "website": "None", "summary": "None", "logo": "None", "latitude": 44.1948202065035, "longitude": -77.4125605296615}, "849231113RR0001": {"name": "Parents orphelins", "designationCode": "C", "categoryCode": "09", "address": "11 - 815 BOUL HENRI-BOURASSA E", "city": "MONTREAL", "province": "QC", "country": "CA", "postalCode": "H2C1E7", "twitter": "None", "instagram": "None", "facebook": "None", "youtube": "None", "website": "None", "summary": "None", "logo": "None", "latitude": 45.55873467780178, "longitude": -73.66703519763341}, "886561638RR0001": {"name": "Parents Against Drugs", "designationCode": "C", "categoryCode": "57", "address": "245 LAKESHORE DRIVE           SUITE 603", "city": "ETOBICOKE", "province": "ON", "country": "CA", "postalCode": "M8V2A8", "twitter": "None", "instagram": "None", "facebook": "None", "youtube": "None", "website": "None", "summary": "None", "logo": "None", "latitude": 43.594364893127235, "longitude": -79.50969642838598}, "798564696RR0001": {"name": "Parents Engaged in Education", "designationCode": "C", "categoryCode": "21", "address": "33 CREEKWOOD DRIVE,", "city": "TORONTO", "province": "ON", "country": "CA", "postalCode": "M1E4L6", "twitter": "None", "instagram": "None", "facebook": "None", "youtube": "None", "website": "None", "summary": "None", "logo": "None", "latitude": 43.78527521622702, "longitude": -79.21804679211152}, "844199935RR0001": {"name": "Paris Plains Cemetery Association", "designationCode": "C", "categoryCode": "56", "address": "2015 REIDSVILLE ROAD,         R R 1", "city": "AYR", "province": "ON", "country": "CA", "postalCode": "N0B1E0", "twitter": "None", "instagram": "None", "facebook": "None", "youtube": "None", "website": "None", "summary": "None", "logo": "None", "latitude": 43.319235843521206, "longitude": -80.43737216926453}, "119288918RR0608": {"name": "Paris, Ontario, Congregation of Jehovah's Witnesses", "designationCode": "C", "categoryCode": "61", "address": "73 COURT DRIVE", "city": "PARIS", "province": "ON", "country": "CA", "postalCode": "N3L4G7", "twitter": "None", "instagram": "None", "facebook": "None", "youtube": "None", "website": "None", "summary": "None", "logo": "None", "latitude": 43.183087228980284, "longitude": -80.3845109564027}, "118855279RR0001": {"name": "Parish of the Church of the Evangelist, New Tecumseth", "designationCode": "C", "categoryCode": "30", "address": "PO BOX 807", "city": "TOTTENHAM", "province": "ON", "country": "CA", "postalCode": "L0G1W0", "twitter": "None", "instagram": "None", "facebook": "None", "youtube": "None", "website": "None", "summary": "None", "logo": "None", "latitude": 44.101466326769575, "longitude": -79.82930921542986}, "107020331RR0040": {"name": "Parish of the Nativity of the Blessed Virgin Mary/Paroisse Nativit\u00e9-de-la-Bienheureuse-Vierge-Marie", "designationCode": "C", "categoryCode": "38", "address": "306 WATER STREET", "city": "MIRAMICHI", "province": "NB", "country": "CA", "postalCode": "E1V3G3", "twitter": "None", "instagram": "None", "facebook": "None", "youtube": "None", "website": "None", "summary": "None", "logo": "None", "latitude": 47.000124964193, "longitude": -65.54715547458034}, "107813784RR0002": {"name": "Parish of the Resurrection, Sydney", "designationCode": "C", "categoryCode": "30", "address": "PO BOX 801", "city": "SYDNEY", "province": "NS", "country": "CA", "postalCode": "B1P6J1", "twitter": "None", "instagram": "None", "facebook": "None", "youtube": "None", "website": "None", "summary": "None", "logo": "None", "latitude": 46.137372000000056, "longitude": -60.19552249999994}, "815965223RR0001": {"name": "Parish of French Village", "designationCode": "C", "categoryCode": "30", "address": "5427 ST.MARGARET'S BAY ROAD", "city": "UPPER TANTALLON", "province": "NS", "country": "CA", "postalCode": "B3Z2H9", "twitter": "None", "instagram": "None", "facebook": "None", "youtube": "None", "website": "None", "summary": "None", "logo": "None", "latitude": 44.6944220558023, "longitude": -63.88818595530619}, "888540192RR0001": {"name": "Parish of Georgina", "designationCode": "C", "categoryCode": "30", "address": "PO BOX 88                     23 RIVER STREET", "city": "SUTTON WEST", "province": "ON", "country": "CA", "postalCode": "L0E1R0", "twitter": "None", "instagram": "None", "facebook": "None", "youtube": "None", "website": "None", "summary": "None", "logo": "None", "latitude": 44.30530129667129, "longitude": -79.35865827865535}, "106712797RR0002": {"name": "Parish of Holy Trinity and St. Stephen's Memorial", "designationCode": "C", "categoryCode": "30", "address": "727 SOUTHDALE RD", "city": "LONDON", "province": "ON", "country": "CA", "postalCode": "N6E1A9", "twitter": "None", "instagram": "None", "facebook": "None", "youtube": "None", "website": "None", "summary": "None", "logo": "None", "latitude": 42.943625510098904, "longitude": -81.22445958658899}, "122341340RR0181": {"name": "Parish of Holy Trinity Church, Tangier", "designationCode": "C", "categoryCode": "30", "address": "250 HIGHWAY 224", "city": "SHEET HARBOUR", "province": "NS", "country": "CA", "postalCode": "B0J3B0", "twitter": "None", "instagram": "None", "facebook": "None", "youtube": "None", "website": "None", "summary": "None", "logo": "None", "latitude": 44.9306740480867, "longitude": -62.5590704695038}, "131548471RR0001": {"name": "Parish of Kente", "designationCode": "C", "categoryCode": "30", "address": "P.O. BOX 10 - 244 MAIN ST.", "city": "WELLINGTON", "province": "ON", "country": "CA", "postalCode": "K0K3L0", "twitter": "None", "instagram": "None", "facebook": "None", "youtube": "None", "website": "None", "summary": "None", "logo": "None", "latitude": 43.951885609309485, "longitude": -77.34707787188162}, "119078673RR0002": {"name": "Parish of Parrsboro Shore, in the County of Cumberland", "designationCode": "C", "categoryCode": "30", "address": "P.O. BOX 212                  25 VICTORIA ST.", "city": "PARRSBORO", "province": "NS", "country": "CA", "postalCode": "B0M1S0", "twitter": "None", "instagram": "None", "facebook": "None", "youtube": "None", "website": "None", "summary": "None", "logo": "None", "latitude": 45.403974817646755, "longitude": -64.32721417984308}, "118849470RR0034": {"name": "Parish of Saint Mark", "designationCode": "C", "categoryCode": "38", "address": "5935 IONA DR", "city": "VANCOUVER", "province": "BC", "country": "CA", "postalCode": "V5T4S5", "twitter": "None", "instagram": "None", "facebook": "None", "youtube": "None", "website": "None", "summary": "None", "logo": "None", "latitude": 49.27199608677912, "longitude": -123.2490334954938}, "108084658RR0016": {"name": "Parish of South Dundas", "designationCode": "C", "categoryCode": "30", "address": "BOX 615", "city": "MORRISBURG", "province": "ON", "country": "CA", "postalCode": "K0C1X0", "twitter": "None", "instagram": "None", "facebook": "None", "youtube": "None", "website": "None", "summary": "None", "logo": "None", "latitude": 44.89832000000007, "longitude": -75.19097999999997}, "119171619RR0002": {"name": "Parish of St. David and St. Mark, in Windsor, Ontario", "designationCode": "C", "categoryCode": "30", "address": "3418 BYNG RD", "city": "WINDSOR", "province": "ON", "country": "CA", "postalCode": "N8W3H5", "twitter": "None", "instagram": "None", "facebook": "None", "youtube": "None", "website": "None", "summary": "None", "logo": "None", "latitude": 42.27502288288412, "longitude": -82.97939274851424}, "119177087RR0002": {"name": "Parish of St. James", "designationCode": "C", "categoryCode": "30", "address": "PO BOX 13", "city": "NEWPORT", "province": "NS", "country": "CA", "postalCode": "B0N2A0", "twitter": "None", "instagram": "None", "facebook": "None", "youtube": "None", "website": "None", "summary": "None", "logo": "None", "latitude": 45.00597000000005, "longitude": -64.01166999999998}, "119076859RR0001": {"name": "Parish of St. John, East Orangeville", "designationCode": "C", "categoryCode": "30", "address": "3907 HIGHWAY 9", "city": "CALEDON", "province": "ON", "country": "CA", "postalCode": "L7K0G7", "twitter": "None", "instagram": "None", "facebook": "None", "youtube": "None", "website": "None", "summary": "None", "logo": "None", "latitude": 43.93015210394605, "longitude": -80.0475482088469}, "106880107RR0057": {"name": "Parish of St. Leonard", "designationCode": "C", "categoryCode": "38", "address": "5310 UNION HIGHWAY", "city": "RIVER RYAN", "province": "NS", "country": "CA", "postalCode": "B1H1B2", "twitter": "None", "instagram": "None", "facebook": "None", "youtube": "None", "website": "None", "summary": "None", "logo": "None", "latitude": 46.23501887258368, "longitude": -60.09558147714782}, "108084658RR0080": {"name": "Parish of St. Mark's, Cumberland", "designationCode": "C", "categoryCode": "30", "address": "71 BRONSON  AVE.,", "city": "OTTAWA", "province": "ON", "country": "CA", "postalCode": "K1R6G6", "twitter": "None", "instagram": "None", "facebook": "None", "youtube": "None", "website": "None", "summary": "None", "logo": "None", "latitude": 45.41739558756995, "longitude": -75.7091518756421}, "118787142RR0005": {"name": "Parish of St. Peter & St. Paul", "designationCode": "C", "categoryCode": "30", "address": "1379 ESQUIMAT RD", "city": "VICTORIA", "province": "BC", "country": "CA", "postalCode": "V9A3R4", "twitter": "None", "instagram": "None", "facebook": "None", "youtube": "None", "website": "None", "summary": "None", "logo": "None", "latitude": 48.42958162998474, "longitude": -123.4227000710371}, "814547204RR0001": {"name": "Parish of St. Stephen The Martyr Corp.", "designationCode": "C", "categoryCode": "30", "address": "P.O. BOX 4025", "city": "MOUNT PEARL", "province": "NL", "country": "CA", "postalCode": "A1N0A1", "twitter": "None", "instagram": "None", "facebook": "None", "youtube": "None", "website": "None", "summary": "None", "logo": "None", "latitude": 47.51892600000005, "longitude": -52.81489249999993}, "869021097RR0001": {"name": "Parish of Stewiacke and Shubenacadie", "designationCode": "C", "categoryCode": "30", "address": "2856 MAIN ST                  HIGHWAY 2", "city": "SHUBENACADIE", "province": "NS", "country": "CA", "postalCode": "B0N2H0", "twitter": "None", "instagram": "None", "facebook": "None", "youtube": "None", "website": "None", "summary": "None", "logo": "None"}, "119229896RR0048": {"name": "Parish of The Holy Cross", "designationCode": "C", "categoryCode": "30", "address": "PO BOX 160", "city": "NORMAN'S COVE", "province": "NL", "country": "CA", "postalCode": "A0B2T0", "twitter": "None", "instagram": "None", "facebook": "None", "youtube": "None", "website": "None", "summary": "None", "logo": "None", "latitude": 47.56178400000006, "longitude": -53.69567299999993}, "119229896RR0047": {"name": "Parish of The Living Water", "designationCode": "C", "categoryCode": "30", "address": "P.O. BOX 9", "city": "ARNOLD'S COVE", "province": "NL", "country": "CA", "postalCode": "A0B1A0", "twitter": "None", "instagram": "None", "facebook": "None", "youtube": "None", "website": "None", "summary": "None", "logo": "None", "latitude": 47.77260000000007, "longitude": -53.978489999999965}, "869015693RR0001": {"name": "Parish of Three Harbours", "designationCode": "C", "categoryCode": "30", "address": "46 ARCHIE ST", "city": "ANTIGONISH", "province": "NS", "country": "CA", "postalCode": "B2G1L9", "twitter": "None", "instagram": "None", "facebook": "None", "youtube": "None", "website": "None", "summary": "None", "logo": "None", "latitude": 45.62175886984238, "longitude": -62.003630078971604}, "107488314RR0002": {"name": "Parish of Yarmouth and Tusket", "designationCode": "C", "categoryCode": "30", "address": "61 WILLIAM STREET", "city": "YARMOUTH", "province": "NS", "country": "CA", "postalCode": "B5A1Y5", "twitter": "None", "instagram": "None", "facebook": "None", "youtube": "None", "website": "None", "summary": "None", "logo": "None", "latitude": 43.83232970107915, "longitude": -66.11747512998473}, "825937832RR0001": {"name": "Parivaar, One Family", "designationCode": "C", "categoryCode": "09", "address": "1600 MELMAN STREET", "city": "PICKERING", "province": "ON", "country": "CA", "postalCode": "L1X2E7", "twitter": "None", "instagram": "None", "facebook": "None", "youtube": "None", "website": "None", "summary": "None", "logo": "None", "latitude": 43.86015159091682, "longitude": -79.08330379796857}, "119080067RR0001": {"name": "Park Avenue Bible Church Inc.", "designationCode": "C", "categoryCode": "39", "address": "P.O. BOX 846", "city": "MELFORT", "province": "SK", "country": "CA", "postalCode": "S0E1A0", "twitter": "None", "instagram": "None", "facebook": "None", "youtube": "None", "website": "None", "summary": "None", "logo": "None", "latitude": 52.85637, "longitude": -104.63436225000001}, "841773302RR0001": {"name": "Park City Baptist Church", "designationCode": "C", "categoryCode": "31", "address": "1950 252 STREET", "city": "ALDERGROVE", "province": "BC", "country": "CA", "postalCode": "V4W2E4", "twitter": "None", "instagram": "None", "facebook": "None", "youtube": "None", "website": "None", "summary": "None", "logo": "None", "latitude": 49.036913999999996, "longitude": -122.52573161933758}, "819884172RR0001": {"name": "Park Health and Research Foundation", "designationCode": "B", "categoryCode": "03", "address": "78 EVERITT CRES", "city": "RED DEER", "province": "AB", "country": "CA", "postalCode": "T4R1Y1", "twitter": "None", "instagram": "None", "facebook": "None", "youtube": "None", "website": "None", "summary": "None", "logo": "None", "latitude": 52.265694121847744, "longitude": -113.77024428201264}, "846449437RR0001": {"name": "Park People", "designationCode": "C", "categoryCode": "56", "address": "119-401 RICHMOND ST", "city": "TORONTO", "province": "ON", "country": "CA", "postalCode": "M5V3A8", "twitter": "None", "instagram": "None", "facebook": "None", "youtube": "None", "website": "None", "summary": "None", "logo": "None", "latitude": 43.64803297305114, "longitude": -79.39483379779568}, "838081552RR0001": {"name": "Park Road South Community Home", "designationCode": "C", "categoryCode": "57", "address": "42 TURNBERRY COURT", "city": "COURTICE", "province": "ON", "country": "CA", "postalCode": "L1E1A3", "twitter": "None", "instagram": "None", "facebook": "None", "youtube": "None", "website": "None", "summary": "None", "logo": "None", "latitude": 43.89229474801551, "longitude": -78.80493188935013}, "119288918RR1171": {"name": "Park Royal Congregation of Jehovah's Witnesses, Mississauga, Ontario", "designationCode": "C", "categoryCode": "61", "address": "1381 LAKESHORE RD W", "city": "MISSISSAUGA", "province": "ON", "country": "CA", "postalCode": "L5H4G4", "twitter": "None", "instagram": "None", "facebook": "None", "youtube": "None", "website": "None", "summary": "None", "logo": "None", "latitude": 43.52592783210214, "longitude": -79.61372472179559}, "119288918RR1602": {"name": "Park Royal COngregation of Jehovah's Witnesses, Vancouver, British Columbia", "designationCode": "C", "categoryCode": "61", "address": "1386 GORDON AVENUE", "city": "WEST VANCOUVER", "province": "BC", "country": "CA", "postalCode": "V7T1R4", "twitter": "None", "instagram": "None", "facebook": "None", "youtube": "None", "website": "None", "summary": "None", "logo": "None", "latitude": 49.332455488458805, "longitude": -123.15371336081135}, "107814881RR0001": {"name": "Parkdale After School Care Society (Edmonton)", "designationCode": "C", "categoryCode": "01", "address": "2943 89 ST NW", "city": "EDMONTON", "province": "AB", "country": "CA", "postalCode": "T6K3A1", "twitter": "None", "instagram": "None", "facebook": "None", "youtube": "None", "website": "None", "summary": "None", "logo": "None", "latitude": 53.460747260084105, "longitude": -113.46254736620705}, "753323492RR0001": {"name": "Parkdale Alumni Foundation", "designationCode": "C", "categoryCode": "21", "address": "209 JAMESON AVENUE,", "city": "TORONTO", "province": "ON", "country": "CA", "postalCode": "M6K2Y3", "twitter": "None", "instagram": "None", "facebook": "None", "youtube": "None", "website": "None", "summary": "None", "logo": "None", "latitude": 43.639492116307814, "longitude": -79.43688057222052}, "848089033RR0001": {"name": "Parkdale Community Breakfast Inc.", "designationCode": "C", "categoryCode": "09", "address": "152 COWAN AVENUE", "city": "TORONTO", "province": "ON", "country": "CA", "postalCode": "M6K2N6", "twitter": "None", "instagram": "None", "facebook": "None", "youtube": "None", "website": "None", "summary": "None", "logo": "None", "latitude": 43.63875066028047, "longitude": -79.43213444728477}, "812016210RR0001": {"name": "Parkdale Community Food Bank", "designationCode": "C", "categoryCode": "09", "address": "1499 QUEEN STREET WEST", "city": "TORONTO", "province": "ON", "country": "CA", "postalCode": "M6R1A3", "twitter": "None", "instagram": "None", "facebook": "None", "youtube": "None", "website": "None", "summary": "None", "logo": "None", "latitude": 43.639808732702555, "longitude": -79.44043785039533}, "119288918RR1120": {"name": "Parkdale Congregation of Jehovah's Witnesses, Regina, Saskatchewan", "designationCode": "C", "categoryCode": "61", "address": "303 TRIFUNOV CRES", "city": "REGINA", "province": "SK", "country": "CA", "postalCode": "S4R7C8", "twitter": "None", "instagram": "None", "facebook": "None", "youtube": "None", "website": "None", "summary": "None", "logo": "None", "latitude": 50.49221948124545, "longitude": -104.63680235789717}, "875318321RR0001": {"name": "Parkdale Islamic Education Centre", "designationCode": "C", "categoryCode": "60", "address": "1287 QUEEN ST WEST", "city": "TORONTO", "province": "ON", "country": "CA", "postalCode": "M6K1S6", "twitter": "None", "instagram": "None", "facebook": "None", "youtube": "None", "website": "None", "summary": "None", "logo": "None", "latitude": 43.641509816521584, "longitude": -79.43208454065443}, "107815128RR0001": {"name": "Parkdale Nifty Fifties Seniors Association", "designationCode": "C", "categoryCode": "56", "address": "3512-5 AVENUE NORTHWEST", "city": "CALGARY", "province": "AB", "country": "CA", "postalCode": "T2N0V7", "twitter": "None", "instagram": "None", "facebook": "None", "youtube": "None", "website": "None", "summary": "None", "logo": "None", "latitude": 51.05997908272251, "longitude": -114.13693719481806}}