{"119109262RR0001": {"name": "RAPID CITY UNITED CHURCH", "designationCode": "C", "categoryCode": "44", "address": "BOX 176", "city": "RAPID CITY", "province": "MB", "country": "CA", "postalCode": "R0K1W0", "twitter": "None", "instagram": "None", "facebook": "None", "youtube": "None", "website": "None", "summary": "None", "logo": "None", "latitude": 50.119980000000055, "longitude": -100.03727999999995}, "125282483RR0001": {"name": "RAPID FIRE THEATRE SOCIETY", "designationCode": "C", "categoryCode": "22", "address": "9828 101A AVE NW", "city": "EDMONTON", "province": "AB", "country": "CA", "postalCode": "T5J3C6", "twitter": "None", "instagram": "None", "facebook": "None", "youtube": "None", "website": "None", "summary": "None", "logo": "None", "latitude": 53.542585402186944, "longitude": -113.48745405314791}, "838890523RR0001": {"name": "RAPIDS FAMILY HEALTH TEAM", "designationCode": "C", "categoryCode": "19", "address": "1150 PONTIAC DR               UNIT 1", "city": "SARNIA", "province": "ON", "country": "CA", "postalCode": "N7S3A7", "twitter": "None", "instagram": "None", "facebook": "None", "youtube": "None", "website": "None", "summary": "None", "logo": "None", "latitude": 42.97960945233398, "longitude": -82.36164078818575}, "890107824RR0001": {"name": "RAPPEL REGROUPEMENT DES ASSOCIATIONS POUR LA PROTECTION DE L'ENVIRONNEMENT DES LACS ET COURS D'EAU DE L'ESTRIE ET DU HAUT-BASSIN DE LA ST-FRANCOIS", "designationCode": "C", "categoryCode": "52", "address": "A-350, RUE LAVAL", "city": "SHERBROOKE", "province": "QC", "country": "CA", "postalCode": "J1C0R1", "twitter": "None", "instagram": "None", "facebook": "None", "youtube": "None", "website": "None", "summary": "None", "logo": "None", "latitude": 45.46882818065114, "longitude": -71.95004178224379}, "870920758RR0001": {"name": "RAPPORT CHOIRS OF NORTH BAY", "designationCode": "C", "categoryCode": "22", "address": "119 JOHNSTON ROAD", "city": "NORTH BAY", "province": "ON", "country": "CA", "postalCode": "P1B8G1", "twitter": "None", "instagram": "None", "facebook": "None", "youtube": "None", "website": "None", "summary": "None", "logo": "None", "latitude": 46.32817469608747, "longitude": -79.42417230740362}, "119109296RR0001": {"name": "RAPPORT YOUTH & FAMILY SERVICES", "designationCode": "C", "categoryCode": "59", "address": "37 - 71 WEST DR", "city": "BRAMPTON", "province": "ON", "country": "CA", "postalCode": "L6T5E2", "twitter": "None", "instagram": "None", "facebook": "None", "youtube": "None", "website": "None", "summary": "None", "logo": "None", "latitude": 43.70371916241526, "longitude": -79.72606535079936}, "118975812RR0001": {"name": "RARE BREEDS CANADA", "designationCode": "C", "categoryCode": "50", "address": "R.R.1", "city": "NESBITT", "province": "MB", "country": "CA", "postalCode": "R0K1P0", "twitter": "None", "instagram": "None", "facebook": "None", "youtube": "None", "website": "None", "summary": "None", "logo": "None", "latitude": 49.60695115600327, "longitude": -100.03132338034175}, "877615914RR0001": {"name": "RARE CHARITABLE RESEARCH RESERVE", "designationCode": "C", "categoryCode": "52", "address": "1679 BLAIR ROAD", "city": "CAMBRIDGE", "province": "ON", "country": "CA", "postalCode": "N3H4R8", "twitter": "None", "instagram": "None", "facebook": "None", "youtube": "None", "website": "None", "summary": "None", "logo": "None", "latitude": 43.38378751399404, "longitude": -80.3849029730798}, "819326224RR0001": {"name": "RARE DISEASE FOUNDATION", "designationCode": "C", "categoryCode": "13", "address": "4500 OAK STREET               ROOM C234", "city": "VANCOUVER", "province": "BC", "country": "CA", "postalCode": "V6H3N1", "twitter": "None", "instagram": "None", "facebook": "None", "youtube": "None", "website": "None", "summary": "None", "logo": "None", "latitude": 49.245341714296835, "longitude": -123.12762421429682}, "868977729RR0001": {"name": "RASSEMBLEMENT DE PRIERE, EGLISE BAPTISTE/AIAMIEU-MAMUITUN, KA SHUKAITATSHET", "designationCode": "C", "categoryCode": "47", "address": "128 BOUL. DES MONTAGNAIS", "city": "UASHAT", "province": "QC", "country": "CA", "postalCode": "G4R5R2", "twitter": "None", "instagram": "None", "facebook": "None", "youtube": "None", "website": "None", "summary": "None", "logo": "None", "latitude": 50.22523047847549, "longitude": -66.39954602994996}, "888870656RR0001": {"name": "RATCHATHAM BUDDHIST SOCIETY", "designationCode": "C", "categoryCode": "35", "address": "12520 - 135 AVENUE", "city": "EDMONTON", "province": "AB", "country": "CA", "postalCode": "T5L3X3", "twitter": "None", "instagram": "None", "facebook": "None", "youtube": "None", "website": "None", "summary": "None", "logo": "None", "latitude": 53.59644148600597, "longitude": -113.53878080682671}, "894374792RR0001": {"name": "RATHCHATHAM BUDDHIST ASSOCIATION OF OTTAWA", "designationCode": "C", "categoryCode": "35", "address": "1815 DUNROBIN ROAD", "city": "KANATA", "province": "ON", "country": "CA", "postalCode": "K2K1X7", "twitter": "None", "instagram": "None", "facebook": "None", "youtube": "None", "website": "None", "summary": "None", "logo": "None", "latitude": 45.38366258062048, "longitude": -75.97086485055846}, "119109338RR0001": {"name": "RATHO PRESBYTERIAN CHURCH", "designationCode": "C", "categoryCode": "37", "address": "209 HUNTER ST.", "city": "WOODSTOCK", "province": "ON", "country": "CA", "postalCode": "N4S4E3", "twitter": "None", "instagram": "None", "facebook": "None", "youtube": "None", "website": "None", "summary": "None", "logo": "None", "latitude": 43.130145310577625, "longitude": -80.76928707438397}, "854520178RR0001": {"name": "RATHWELL SKATING RINK INCORPORATED", "designationCode": "C", "categoryCode": "56", "address": "102 STANMORE ST               PO BOX 55", "city": "RATHWELL", "province": "MB", "country": "CA", "postalCode": "R0G1S0", "twitter": "None", "instagram": "None", "facebook": "None", "youtube": "None", "website": "None", "summary": "None", "logo": "None", "latitude": 49.64856695987501, "longitude": -98.54328615559515}, "801926478RR0001": {"name": "RAV CHESED", "designationCode": "C", "categoryCode": "09", "address": "C - 1075 AV VAN HORNE", "city": "OUTREMONT", "province": "QC", "country": "CA", "postalCode": "H2V1J6", "twitter": "None", "instagram": "None", "facebook": "None", "youtube": "None", "website": "None", "summary": "None", "logo": "None", "latitude": 45.52411066195391, "longitude": -73.61171612213619}, "854840147RR0001": {"name": "RAVEN (RESPECTING ABORIGINAL VALUES AND ENVIRONMENTAL NEEDS)", "designationCode": "C", "categoryCode": "59", "address": "509 - 620 VIEW ST", "city": "VICTORIA", "province": "BC", "country": "CA", "postalCode": "V8W1J6", "twitter": "None", "instagram": "None", "facebook": "None", "youtube": "None", "website": "None", "summary": "None", "logo": "None", "latitude": 48.42565545657561, "longitude": -123.36678018872988}, "865119127RR0001": {"name": "RAVEN FOUNDATION", "designationCode": "B", "categoryCode": "03", "address": "1500 - 1090 GEORGIA ST W", "city": "VANCOUVER", "province": "BC", "country": "CA", "postalCode": "V6E3V7", "twitter": "None", "instagram": "None", "facebook": "None", "youtube": "None", "website": "None", "summary": "None", "logo": "None", "latitude": 49.28541748568885, "longitude": -123.12279712756055}, "128565884RR0001": {"name": "RAVEN RECYCLING SOCIETY", "designationCode": "C", "categoryCode": "59", "address": "100 GALENA ROAD", "city": "WHITEHORSE", "province": "YT", "country": "CA", "postalCode": "Y1A2W6", "twitter": "None", "instagram": "None", "facebook": "None", "youtube": "None", "website": "None", "summary": "None", "logo": "None", "latitude": 60.74007029615499, "longitude": -135.0723815383288}, "891010647RR0001": {"name": "RAVENSHOE UNITED CHURCH", "designationCode": "C", "categoryCode": "44", "address": "RR 1 2391 BOAG RD E.", "city": "QUEENSVILLE", "province": "ON", "country": "CA", "postalCode": "L0G1R0", "twitter": "None", "instagram": "None", "facebook": "None", "youtube": "None", "website": "None", "summary": "None", "logo": "None", "latitude": 44.144913921368676, "longitude": -79.42168630091716}, "892968645RR0001": {"name": "RAVENSWOOD CEMETERY", "designationCode": "C", "categoryCode": "59", "address": "8954 KINNAIRD ROAD", "city": "LAMBTON SHORES", "province": "ON", "country": "CA", "postalCode": "N0N1J3", "twitter": "None", "instagram": "None", "facebook": "None", "youtube": "None", "website": "None", "summary": "None", "logo": "None", "latitude": 43.16955305245543, "longitude": -81.95849437016044}, "865768352RR0001": {"name": "RAVENSWOOD UNITED CHURCH", "designationCode": "C", "categoryCode": "44", "address": "8954 KINNAIRD RD.", "city": "LAMBTON SHORES", "province": "ON", "country": "CA", "postalCode": "N0N1J3", "twitter": "None", "instagram": "None", "facebook": "None", "youtube": "None", "website": "None", "summary": "None", "logo": "None", "latitude": 43.16955305245543, "longitude": -81.95849437016044}, "119109395RR0001": {"name": "RAWDON DISTRICT VOLUNTEER FIRE DEPARTMENT", "designationCode": "C", "categoryCode": "55", "address": "3869 HIGHWAY 14", "city": "UPPER RAWDON", "province": "NS", "country": "CA", "postalCode": "B0N2N0", "twitter": "None", "instagram": "None", "facebook": "None", "youtube": "None", "website": "None", "summary": "None", "logo": "None", "latitude": 45.06633580663548, "longitude": -63.7138498143147}, "883847212RR0001": {"name": "RAWDON HILLS HEALTH CENTRE ASSOCIATION", "designationCode": "C", "categoryCode": "11", "address": "3889 HIGHWAY 14", "city": "UPPER RAWDON", "province": "NS", "country": "CA", "postalCode": "B0N2N0", "twitter": "None", "instagram": "None", "facebook": "None", "youtube": "None", "website": "None", "summary": "None", "logo": "None", "latitude": 45.06696209410472, "longitude": -63.712976793418555}, "107874224RR0001": {"name": "RAWDON PASTORAL CHARGE", "designationCode": "C", "categoryCode": "44", "address": "2129 HWY 14", "city": "RAWDON", "province": "NS", "country": "CA", "postalCode": "B0N2N0", "twitter": "None", "instagram": "None", "facebook": "None", "youtube": "None", "website": "None", "summary": "None", "logo": "None", "latitude": 45.04328222275229, "longitude": -63.81586311591804}, "119109411RR0001": {"name": "RAWDON STREET BAPTIST CHURCH", "designationCode": "C", "categoryCode": "31", "address": "258 RAWDON STREET", "city": "BRANTFORD", "province": "ON", "country": "CA", "postalCode": "N3S6G6", "twitter": "None", "instagram": "None", "facebook": "None", "youtube": "None", "website": "None", "summary": "None", "logo": "None", "latitude": 43.1452593388828, "longitude": -80.24850009244602}, "826701369RR0001": {"name": "RAY DUPUIS CHARITY CLASSIC FOUNDATION", "designationCode": "B", "categoryCode": "03", "address": "226 GOLFVIEW DRIVE", "city": "BELLE RIVER", "province": "ON", "country": "CA", "postalCode": "N0R1A0", "twitter": "None", "instagram": "None", "facebook": "None", "youtube": "None", "website": "None", "summary": "None", "logo": "None", "latitude": 42.29750532915062, "longitude": -82.64392447558728}, "129795332RR0001": {"name": "RAY OF HOPE INC.", "designationCode": "C", "categoryCode": "49", "address": "659 KING STREET EAST SUITE 230", "city": "KITCHENER", "province": "ON", "country": "CA", "postalCode": "N2G2M4", "twitter": "None", "instagram": "None", "facebook": "None", "youtube": "None", "website": "None", "summary": "None", "logo": "None", "latitude": 43.44484406991192, "longitude": -80.47827614282399}, "897494605RR0001": {"name": "RAY OF HOPE MINISTRIES LTD.", "designationCode": "C", "categoryCode": "47", "address": "25 SEVENTH ST.", "city": "MONCTON", "province": "NB", "country": "CA", "postalCode": "E1E3G2", "twitter": "None", "instagram": "None", "facebook": "None", "youtube": "None", "website": "None", "summary": "None", "logo": "None", "latitude": 46.08808279600668, "longitude": -64.80221811391321}, "107875478RR0001": {"name": "RAY OF HOPE NEEDY KITCHEN, INC.", "designationCode": "C", "categoryCode": "09", "address": "ST AUGUSTINE'S CHURCH         340 DOMINION STREET", "city": "MONCTON", "province": "NB", "country": "CA", "postalCode": "E1C6H8", "twitter": "None", "instagram": "None", "facebook": "None", "youtube": "None", "website": "None", "summary": "None", "logo": "None", "latitude": 46.096802402995, "longitude": -64.79512648294754}, "107874299RR0001": {"name": "RAY-CAM COMMUNITY ASSOCIATION", "designationCode": "C", "categoryCode": "56", "address": "920 EAST HASTINGS STREET", "city": "VANCOUVER", "province": "BC", "country": "CA", "postalCode": "V6A3T1", "twitter": "None", "instagram": "None", "facebook": "None", "youtube": "None", "website": "None", "summary": "None", "logo": "None", "latitude": 49.281025528420756, "longitude": -123.08458249570083}, "119109460RR0001": {"name": "RAYJON SHARE CARE OF SARNIA INC.", "designationCode": "C", "categoryCode": "09", "address": "P.O. BOX 2482", "city": "SARNIA", "province": "ON", "country": "CA", "postalCode": "N7T7T1", "twitter": "None", "instagram": "None", "facebook": "None", "youtube": "None", "website": "None", "summary": "None", "logo": "None", "latitude": 42.97877700000005, "longitude": -82.40368399999993}, "891018988RR0001": {"name": "RAYMER MINISTRIES INC", "designationCode": "C", "categoryCode": "47", "address": "P.O. BOX 35009, RPO WESTGATE", "city": "OTTAWA", "province": "ON", "country": "CA", "postalCode": "K1Z1A2", "twitter": "None", "instagram": "None", "facebook": "None", "youtube": "None", "website": "None", "summary": "None", "logo": "None", "latitude": 45.42177300000006, "longitude": -75.69115999999994}, "890566441RR0001": {"name": "RAYMOND & DISTRICT FUTURES SOCIETY", "designationCode": "C", "categoryCode": "20", "address": "BOX 291", "city": "RAYMOND", "province": "AB", "country": "CA", "postalCode": "T0K2S0", "twitter": "None", "instagram": "None", "facebook": "None", "youtube": "None", "website": "None", "summary": "None", "logo": "None", "latitude": 49.465490000000045, "longitude": -112.66264999999999}, "886405810RR0001": {"name": "RAYMOND BAPTIST CHURCH", "designationCode": "C", "categoryCode": "31", "address": "BOX 4", "city": "RAYMOND", "province": "AB", "country": "CA", "postalCode": "T0K2S0", "twitter": "None", "instagram": "None", "facebook": "None", "youtube": "None", "website": "None", "summary": "None", "logo": "None", "latitude": 49.465490000000045, "longitude": -112.66264999999999}, "874204647RR0001": {"name": "RAYMOND BURR PERFORMING ARTS SOCIETY", "designationCode": "C", "categoryCode": "22", "address": "1190 PIPELINE RD #1803", "city": "COQUITLAM", "province": "BC", "country": "CA", "postalCode": "V3B7T9", "twitter": "None", "instagram": "None", "facebook": "None", "youtube": "None", "website": "None", "summary": "None", "logo": "None", "latitude": 49.28309338856828, "longitude": -122.78600481239529}, "862745684RR0001": {"name": "RAYMOND CHANG FOUNDATION", "designationCode": "B", "categoryCode": "21", "address": "51 YOUNGE STREET              SUITE 300", "city": "TORONTO", "province": "ON", "country": "CA", "postalCode": "M5E1J1", "twitter": "None", "instagram": "None", "facebook": "None", "youtube": "None", "website": "None", "summary": "None", "logo": "None", "latitude": 45.90178006899149, "longitude": -82.25872390429049}, "119109510RR0001": {"name": "RAYMOND UNITED CHURCH", "designationCode": "C", "categoryCode": "44", "address": "BOX 1204", "city": "RAYMOND", "province": "AB", "country": "CA", "postalCode": "T0K2S0", "twitter": "None", "instagram": "None", "facebook": "None", "youtube": "None", "website": "None", "summary": "None", "logo": "None", "latitude": 49.465490000000045, "longitude": -112.66264999999999}, "119109569RR0001": {"name": "RAYMORE ARENA POOL BOARD", "designationCode": "C", "categoryCode": "56", "address": "PO BOX 385", "city": "RAYMORE", "province": "SK", "country": "CA", "postalCode": "S0A3J0", "twitter": "None", "instagram": "None", "facebook": "None", "youtube": "None", "website": "None", "summary": "None", "logo": "None", "latitude": 51.409260000000074, "longitude": -104.52537999999998}, "119109528RR0001": {"name": "RAYMORE BAPTIST CHURCH", "designationCode": "C", "categoryCode": "31", "address": "BOX 31", "city": "RAYMORE", "province": "SK", "country": "CA", "postalCode": "S0A3J0", "twitter": "None", "instagram": "None", "facebook": "None", "youtube": "None", "website": "None", "summary": "None", "logo": "None", "latitude": 51.409260000000074, "longitude": -104.52537999999998}, "871424644RR0001": {"name": "RAYMORE PIONEER MUSEUM INC.", "designationCode": "C", "categoryCode": "50", "address": "BOX 453", "city": "RAYMORE", "province": "SK", "country": "CA", "postalCode": "S0A3J0", "twitter": "None", "instagram": "None", "facebook": "None", "youtube": "None", "website": "None", "summary": "None", "logo": "None", "latitude": 51.409260000000074, "longitude": -104.52537999999998}, "119109551RR0001": {"name": "RAYMORE PROTESTANT CEMETERY COMMITTEE", "designationCode": "C", "categoryCode": "59", "address": "PO BOX 124", "city": "RAYMORE", "province": "SK", "country": "CA", "postalCode": "S0A3J0", "twitter": "None", "instagram": "None", "facebook": "None", "youtube": "None", "website": "None", "summary": "None", "logo": "None", "latitude": 51.409260000000074, "longitude": -104.52537999999998}, "141435685RR0001": {"name": "RAYON DE PARTAGE EN SANT\u00c9 MENTALE", "designationCode": "C", "categoryCode": "09", "address": "67 RUE DESBIENS", "city": "AMQUI", "province": "QC", "country": "CA", "postalCode": "G5J3P5", "twitter": "None", "instagram": "None", "facebook": "None", "youtube": "None", "website": "None", "summary": "None", "logo": "None", "latitude": 48.46557497417632, "longitude": -67.42857026729746}, "137139952RR0001": {"name": "RAYON DE SOLEIL DE L'ESTRIE", "designationCode": "C", "categoryCode": "01", "address": "235, RUE MORRIS", "city": "SHERBROOKE", "province": "QC", "country": "CA", "postalCode": "J1J2M4", "twitter": "None", "instagram": "None", "facebook": "None", "youtube": "None", "website": "None", "summary": "None", "logo": "None", "latitude": 45.40236995697964, "longitude": -71.93395093646473}, "890140999RR0001": {"name": "RAYS OF LIGHT MINISTRIES AND WORSHIP CENTRE", "designationCode": "C", "categoryCode": "39", "address": "3195 CLEMENCEAU", "city": "WINDSOR", "province": "ON", "country": "CA", "postalCode": "N8T2R6", "twitter": "None", "instagram": "None", "facebook": "None", "youtube": "None", "website": "None", "summary": "None", "logo": "None", "latitude": 42.2935121426511, "longitude": -82.94418080976956}, "874362171RR0001": {"name": "RAYSIDE-BALFOUR YOUTH ACTION NETWORK", "designationCode": "C", "categoryCode": "09", "address": "214 COTE ST", "city": "CHELMSFORD", "province": "ON", "country": "CA", "postalCode": "P0M1L0", "twitter": "None", "instagram": "None", "facebook": "None", "youtube": "None", "website": "None", "summary": "None", "logo": "None", "latitude": 46.57561163704948, "longitude": -81.1953460461524}, "119109619RR0001": {"name": "RAYSTONE MEMORIAL CENTRE INC.", "designationCode": "C", "categoryCode": "56", "address": "P O BOX 421", "city": "GLENBORO", "province": "MB", "country": "CA", "postalCode": "R0K0X0", "twitter": "None", "instagram": "None", "facebook": "None", "youtube": "None", "website": "None", "summary": "None", "logo": "None", "latitude": 49.55755000000005, "longitude": -99.29090999999994}, "131610982RR0001": {"name": "RAZOR BACK BLASTS INC", "designationCode": "C", "categoryCode": "01", "address": "200 MCIVOR AVE", "city": "WINNIPEG", "province": "MB", "country": "CA", "postalCode": "R2G0Z8", "twitter": "None", "instagram": "None", "facebook": "None", "youtube": "None", "website": "None", "summary": "None", "logo": "None", "latitude": 49.953182723527284, "longitude": -97.07390243190576}, "892704859RR0001": {"name": "RBC FOUNDATION / RBC FONDATION", "designationCode": "B", "categoryCode": "03", "address": "155 WELLINGTON STREET WEST    18TH FLOOR", "city": "TORONTO", "province": "ON", "country": "CA", "postalCode": "M5V3K7", "twitter": "None", "instagram": "None", "facebook": "None", "youtube": "None", "website": "None", "summary": "None", "logo": "None", "latitude": 43.64596585316531, "longitude": -79.38574575644876}, "127289726RR0001": {"name": "RCABC - EDUCATIONAL FOUNDATION", "designationCode": "C", "categoryCode": "20", "address": "9734-201 ST", "city": "LANGLEY", "province": "BC", "country": "CA", "postalCode": "V1M3E8", "twitter": "None", "instagram": "None", "facebook": "None", "youtube": "None", "website": "None", "summary": "None", "logo": "None", "latitude": 49.179752947544586, "longitude": -122.66437152267929}, "125593657RR0285": {"name": "RCAC 154 Amherst Anson Squadron", "designationCode": "C", "categoryCode": "29", "address": "21 REGENT ST", "city": "AMHERST", "province": "NS", "country": "CA", "postalCode": "B4H3S8", "twitter": "None", "instagram": "None", "facebook": "None", "youtube": "None", "website": "None", "summary": "None", "logo": "None", "latitude": 45.836083090743934, "longitude": -64.20390814781564}, "843918285RR0001": {"name": "RCCG - Jesus au centre de toutes les nations inc.", "designationCode": "C", "categoryCode": "39", "address": "29 FRASER CRES", "city": "SASKATOON", "province": "SK", "country": "CA", "postalCode": "S7H3G9", "twitter": "None", "instagram": "None", "facebook": "None", "youtube": "None", "website": "None", "summary": "None", "logo": "None", "latitude": 52.11611328420569, "longitude": -106.60706965150924}, "842179996RR0001": {"name": "RCCG - Peculiar People's Parish Incorporated", "designationCode": "C", "categoryCode": "39", "address": "1771 BOND ST", "city": "REGINA", "province": "SK", "country": "CA", "postalCode": "S4N1X7", "twitter": "None", "instagram": "None", "facebook": "None", "youtube": "None", "website": "None", "summary": "None", "logo": "None", "latitude": 50.45055266472389, "longitude": -104.56784982483146}, "824036305RR0001": {"name": "RCCG - Seed of Life Parish Saskatoon Incorporated", "designationCode": "C", "categoryCode": "39", "address": "3702 TAYLOR STREET", "city": "SASKATOON", "province": "SK", "country": "CA", "postalCode": "S7H5J3", "twitter": "None", "instagram": "None", "facebook": "None", "youtube": "None", "website": "None", "summary": "None", "logo": "None", "latitude": 52.10322517011956, "longitude": -106.59468023079796}, "829911833RR0001": {"name": "RCCG Salvation Chapel", "designationCode": "C", "categoryCode": "39", "address": "208 - 3244 SEATON ST", "city": "VICTORIA", "province": "BC", "country": "CA", "postalCode": "V8Z3V7", "twitter": "None", "instagram": "None", "facebook": "None", "youtube": "None", "website": "None", "summary": "None", "logo": "None", "latitude": 48.452850469905805, "longitude": -123.38892509371544}, "841881352RR0001": {"name": "RCI FOUNDATION CANADA", "designationCode": "C", "categoryCode": "21", "address": "PO BOX 8", "city": "FORT LANGLEY", "province": "BC", "country": "CA", "postalCode": "V1M2R4", "twitter": "None", "instagram": "None", "facebook": "None", "youtube": "None", "website": "None", "summary": "None", "logo": "None", "latitude": 49.16854007718262, "longitude": -122.57416995556595}, "835624099RR0001": {"name": "RCL South Burnaby Branch 83 Housing Society", "designationCode": "C", "categoryCode": "09", "address": "5291 GRIMMER ST", "city": "BURNABY", "province": "BC", "country": "CA", "postalCode": "V5H0B3", "twitter": "None", "instagram": "None", "facebook": "None", "youtube": "None", "website": "None", "summary": "None", "logo": "None", "latitude": 49.22362251875456, "longitude": -122.98771316472387}, "873399265RR0001": {"name": "RCL SOOKE #54 POPPY FUND SOCIETY", "designationCode": "C", "categoryCode": "05", "address": "P O BOX 337", "city": "SOOKE", "province": "BC", "country": "CA", "postalCode": "V9Z1G1", "twitter": "None", "instagram": "None", "facebook": "None", "youtube": "None", "website": "None", "summary": "None", "logo": "None", "latitude": 48.381873000000056, "longitude": -123.73120249999994}, "119272037RR0001": {"name": "RCMI HERITAGE TRUST", "designationCode": "C", "categoryCode": "50", "address": "COMMERCE COURT WEST, BOX 25   SUITE 4000", "city": "TORONTO", "province": "ON", "country": "CA", "postalCode": "M5L1A9", "twitter": "None", "instagram": "None", "facebook": "None", "youtube": "None", "website": "None", "summary": "None", "logo": "None", "latitude": 43.64868300000006, "longitude": -79.38544399999994}, "891999773RR0001": {"name": "RCMP Veteran's Association Manitoba Division Trust Fund", "designationCode": "C", "categoryCode": "21", "address": "57 MANITOU BAY", "city": "WINNIPEG", "province": "MB", "country": "CA", "postalCode": "R3K0V5", "twitter": "None", "instagram": "None", "facebook": "None", "youtube": "None", "website": "None", "summary": "None", "logo": "None", "latitude": 49.879157428790016, "longitude": -97.30041303355665}, "850550807RR0001": {"name": "RDL Building Hope Society", "designationCode": "C", "categoryCode": "21", "address": "23 CHAPALA CRES SE", "city": "CALGARY", "province": "AB", "country": "CA", "postalCode": "T2X3M4", "twitter": "None", "instagram": "None", "facebook": "None", "youtube": "None", "website": "None", "summary": "None", "logo": "None", "latitude": 50.884848503462464, "longitude": -114.03132289508915}, "104476411RR0001": {"name": "RE-NOU-VIE", "designationCode": "C", "categoryCode": "09", "address": "71, RUE PRINCIPALE", "city": "CHATEAUGUAY", "province": "QC", "country": "CA", "postalCode": "J6K1G1", "twitter": "None", "instagram": "None", "facebook": "None", "youtube": "None", "website": "None", "summary": "None", "logo": "None", "latitude": 45.359638973628066, "longitude": -73.75084360851754}, "868362096RR0001": {"name": "RE-SOURCE FAMILLES", "designationCode": "C", "categoryCode": "09", "address": "95, RUE PRINCIPALE", "city": "SAINT-HONORE-DE-TEMISCOUATA", "province": "QC", "country": "CA", "postalCode": "G0L3K0", "twitter": "None", "instagram": "None", "facebook": "None", "youtube": "None", "website": "None", "summary": "None", "logo": "None", "latitude": 47.708400697141265, "longitude": -69.13641883336919}, "873269013RR0001": {"name": "REA CEMETERY", "designationCode": "C", "categoryCode": "59", "address": "5721 COUNTY RD 26             RR 4", "city": "ROCKWOOD", "province": "ON", "country": "CA", "postalCode": "N0B2K0", "twitter": "None", "instagram": "None", "facebook": "None", "youtube": "None", "website": "None", "summary": "None", "logo": "None", "latitude": 43.65344598781524, "longitude": -80.12063785522751}, "107877375RR0001": {"name": "REACH CENTRE ASSOCIATION", "designationCode": "C", "categoryCode": "59", "address": "1145 COMMERCIAL DRIVE", "city": "VANCOUVER", "province": "BC", "country": "CA", "postalCode": "V5L3X3", "twitter": "None", "instagram": "None", "facebook": "None", "youtube": "None", "website": "None", "summary": "None", "logo": "None", "latitude": 49.274447219027756, "longitude": -123.06959797903907}, "118884089RR0001": {"name": "REACH CHILD AND YOUTH DEVELOPMENT SOCIETY", "designationCode": "C", "categoryCode": "11", "address": "3-3800 72ND ST", "city": "DELTA", "province": "BC", "country": "CA", "postalCode": "V4K3N2", "twitter": "None", "instagram": "None", "facebook": "None", "youtube": "None", "website": "None", "summary": "None", "logo": "None", "latitude": 49.07081741901003, "longitude": -123.02414671254695}, "844373324RR0001": {"name": "REACH FOR HOPE FOUNDATION INC.", "designationCode": "A", "categoryCode": "03", "address": "90 PARKLAWN RD. UNIT 2717", "city": "TORONTO", "province": "ON", "country": "CA", "postalCode": "M8Y0B6", "twitter": "None", "instagram": "None", "facebook": "None", "youtube": "None", "website": "None", "summary": "None", "logo": "None", "latitude": 43.624729019389726, "longitude": -79.4847210984473}, "119111748RR0001": {"name": "REACH FOR THE RAINBOW ONTARIO", "designationCode": "C", "categoryCode": "11", "address": "201 - 563 DUNDAS ST E", "city": "TORONTO", "province": "ON", "country": "CA", "postalCode": "M5A2B7", "twitter": "None", "instagram": "None", "facebook": "None", "youtube": "None", "website": "None", "summary": "None", "logo": "None"}, "898628797RR0001": {"name": "REACH FOR UNBLEACHED FOUNDATION", "designationCode": "C", "categoryCode": "59", "address": "BOX 1270", "city": "COMOX", "province": "BC", "country": "CA", "postalCode": "V9M7Z8", "twitter": "None", "instagram": "None", "facebook": "None", "youtube": "None", "website": "None", "summary": "None", "logo": "None", "latitude": 49.673733000000055, "longitude": -124.92743299999994}, "131741829RR0001": {"name": "REACH FORTH", "designationCode": "C", "categoryCode": "49", "address": "1 - 168 BARTON ST", "city": "STONEY CREEK", "province": "ON", "country": "CA", "postalCode": "L8E4V6", "twitter": "None", "instagram": "None", "facebook": "None", "youtube": "None", "website": "None", "summary": "None", "logo": "None", "latitude": 43.23234580483615, "longitude": -79.73925539774353}, "859856122RR0001": {"name": "REACH ONE TOUCH ONE MINISTRIES CANADA", "designationCode": "C", "categoryCode": "09", "address": "140 KING ST", "city": "CHIPMAN", "province": "NB", "country": "CA", "postalCode": "E4A2K3", "twitter": "None", "instagram": "None", "facebook": "None", "youtube": "None", "website": "None", "summary": "None", "logo": "None", "latitude": 46.170931686883556, "longitude": -65.87240204264499}, "106914369RR0001": {"name": "REACH OUT CENTRE FOR KIDS", "designationCode": "C", "categoryCode": "11", "address": "471 PEARL STREET", "city": "BURLINGTON", "province": "ON", "country": "CA", "postalCode": "L7R4M4", "twitter": "None", "instagram": "None", "facebook": "None", "youtube": "None", "website": "None", "summary": "None", "logo": "None", "latitude": 43.328101523486424, "longitude": -79.79679604907989}, "864089305RR0001": {"name": "REACH OUT CENTRE FOR KIDS FOUNDATION", "designationCode": "A", "categoryCode": "03", "address": "471 PEARL STREET", "city": "BURLINGTON", "province": "ON", "country": "CA", "postalCode": "L7R4M4", "twitter": "None", "instagram": "None", "facebook": "None", "youtube": "None", "website": "None", "summary": "None", "logo": "None", "latitude": 43.328101523486424, "longitude": -79.79679604907989}, "139969711RR0001": {"name": "REACH OUT YOUTH COUNSELLING & FAMILY SERVICES SOCIETY", "designationCode": "C", "categoryCode": "09", "address": "1868 AMBROSI RD", "city": "KELOWNA", "province": "BC", "country": "CA", "postalCode": "V1Y4R9", "twitter": "None", "instagram": "None", "facebook": "None", "youtube": "None", "website": "None", "summary": "None", "logo": "None", "latitude": 49.88049252844942, "longitude": -119.44984309564867}, "107889297RR0001": {"name": "REACH-EQUALITY AND JUSTICE FOR PEOPLE WITH DISABILITIES REACH-EGALITE ET JUSTICE POUR LES PERSONNES AYANT UN HANDICAP", "designationCode": "C", "categoryCode": "59", "address": "554 KING EDWARD AVE", "city": "OTTAWA", "province": "ON", "country": "CA", "postalCode": "K1N6N5", "twitter": "None", "instagram": "None", "facebook": "None", "youtube": "None", "website": "None", "summary": "None", "logo": "None", "latitude": 45.4247841727109, "longitude": -75.6825203816871}, "875625121RR0001": {"name": "REACHABILITY ASSOCIATION", "designationCode": "C", "categoryCode": "09", "address": "201-3845 JOESPH HOWE DR", "city": "HALIFAX", "province": "NS", "country": "CA", "postalCode": "B3L4H9", "twitter": "None", "instagram": "None", "facebook": "None", "youtube": "None", "website": "None", "summary": "None", "logo": "None", "latitude": 44.66055300000005, "longitude": -63.62799649999994}, "119111763RR0001": {"name": "REACHING E-QUALITY EMPLOYMENT SERVICES INC.", "designationCode": "C", "categoryCode": "59", "address": "305 1200 PORTAGE AVE", "city": "WINNIPEG", "province": "MB", "country": "CA", "postalCode": "R3G0T5", "twitter": "None", "instagram": "None", "facebook": "None", "youtube": "None", "website": "None", "summary": "None", "logo": "None", "latitude": 49.88336259781306, "longitude": -97.18416877531887}, "890388242RR0001": {"name": "REACHING OUR OUTDOOR FRIENDS (KITCHENER)", "designationCode": "C", "categoryCode": "09", "address": "242 QUEEN STREET SOUTH", "city": "KITCHENER", "province": "ON", "country": "CA", "postalCode": "N2G1W3", "twitter": "None", "instagram": "None", "facebook": "None", "youtube": "None", "website": "None", "summary": "None", "logo": "None", "latitude": 43.44720359645675, "longitude": -80.49196687166005}, "892960766RR0001": {"name": "REACHING OUT MINISTRIES INC.", "designationCode": "C", "categoryCode": "47", "address": "PO BOX 278", "city": "STEINBACH", "province": "MB", "country": "CA", "postalCode": "R5G1M2", "twitter": "None", "instagram": "None", "facebook": "None", "youtube": "None", "website": "None", "summary": "None", "logo": "None", "latitude": 49.52572800000006, "longitude": -96.68393449999994}, "890450745RR0001": {"name": "REACHING OUT MULTIPLE SCLEROSIS SOCIETY", "designationCode": "B", "categoryCode": "11", "address": "POST OFFICE BOX 458", "city": "SALMON ARM", "province": "BC", "country": "CA", "postalCode": "V1E4N6", "twitter": "None", "instagram": "None", "facebook": "None", "youtube": "None", "website": "None", "summary": "None", "logo": "None", "latitude": 50.70318000000006, "longitude": -119.26884049999992}, "846573079RR0001": {"name": "REACHING WITH COMPASSION", "designationCode": "C", "categoryCode": "49", "address": "262 MORNINGVIEW TRAIL", "city": "TORONTO", "province": "ON", "country": "CA", "postalCode": "M1B5M1", "twitter": "None", "instagram": "None", "facebook": "None", "youtube": "None", "website": "None", "summary": "None", "logo": "None", "latitude": 43.821279000000004, "longitude": -79.20159057273918}, "118807569RR0001": {"name": "REACHOUT SOCIETY FOR HUMANITARIAN AID", "designationCode": "C", "categoryCode": "31", "address": "11 ALDERGROVE DRIVE", "city": "HALIFAX", "province": "NS", "country": "CA", "postalCode": "B3R1M6", "twitter": "None", "instagram": "None", "facebook": "None", "youtube": "None", "website": "None", "summary": "None", "logo": "None", "latitude": 44.611031170119574, "longitude": -63.61590481167414}, "136536323RR0001": {"name": "REACHOUT YOUTH MINISTRIES, INC", "designationCode": "C", "categoryCode": "49", "address": "11085 JARDINES ROAD", "city": "LAKE COUNTRY", "province": "BC", "country": "CA", "postalCode": "V4V1H5", "twitter": "None", "instagram": "None", "facebook": "None", "youtube": "None", "website": "None", "summary": "None", "logo": "None", "latitude": 50.04332262392521, "longitude": -119.41362607201803}, "890763394RR0001": {"name": "REACT LAKE SIMCOE, INC", "designationCode": "C", "categoryCode": "59", "address": "32 THE QUEENSWAY NORTH", "city": "KESWICK", "province": "ON", "country": "CA", "postalCode": "L4P1E3", "twitter": "None", "instagram": "None", "facebook": "None", "youtube": "None", "website": "None", "summary": "None", "logo": "None", "latitude": 44.246098121011016, "longitude": -79.47115821931409}, "136303286RR0001": {"name": "READ SAINT JOHN", "designationCode": "C", "categoryCode": "20", "address": "P.O. BOX 6162", "city": "SAINT JOHN", "province": "NB", "country": "CA", "postalCode": "E2L4R6", "twitter": "None", "instagram": "None", "facebook": "None", "youtube": "None", "website": "None", "summary": "None", "logo": "None", "latitude": 45.27342600000006, "longitude": -66.06407149999993}, "119111862RR0001": {"name": "READ SASKATOON, INC.", "designationCode": "C", "categoryCode": "21", "address": "2 - 706 DUCHESS ST", "city": "SASKATOON", "province": "SK", "country": "CA", "postalCode": "S7K0R3", "twitter": "None", "instagram": "None", "facebook": "None", "youtube": "None", "website": "None", "summary": "None", "logo": "None", "latitude": 52.1425164532574, "longitude": -106.65158352844941}, "882820210RR0001": {"name": "READ TO ME! FOUNDATION INC.", "designationCode": "A", "categoryCode": "21", "address": "1959 UPPER WATER STREET       SUITE 1500", "city": "HALIFAX", "province": "NS", "country": "CA", "postalCode": "B3J3N2", "twitter": "None", "instagram": "None", "facebook": "None", "youtube": "None", "website": "None", "summary": "None", "logo": "None", "latitude": 44.65116830396986, "longitude": -63.57483644359211}, "867612376RR0001": {"name": "READ'S CEMETERY BOARD", "designationCode": "C", "categoryCode": "59", "address": "1139 IRACE DRIVE", "city": "BROCKVILLE", "province": "ON", "country": "CA", "postalCode": "K6V5T1", "twitter": "None", "instagram": "None", "facebook": "None", "youtube": "None", "website": "None", "summary": "None", "logo": "None", "latitude": 44.62836900000005, "longitude": -75.66254449999994}, "887281392RR0001": {"name": "READER'S DIGEST FOUNDATION OF CANADA - FONDATION READER'S DIGEST DU CANADA", "designationCode": "B", "categoryCode": "23", "address": "1100 RENE-LEVESQUE BLVD W", "city": "MONTREAL", "province": "QC", "country": "CA", "postalCode": "H3B5H5", "twitter": "None", "instagram": "None", "facebook": "None", "youtube": "None", "website": "None", "summary": "None", "logo": "None", "latitude": 45.49826098776631, "longitude": -73.57064846733833}, "131308223RR0001": {"name": "REAL ASSISTANCE FOR YOUTH MINISTRIES INCORPORATED OWEN SOUND", "designationCode": "C", "categoryCode": "49", "address": "824, 3RD AVENUE EAST UNIT 102", "city": "OWEN SOUND", "province": "ON", "country": "CA", "postalCode": "N4K2K5", "twitter": "None", "instagram": "None", "facebook": "None", "youtube": "None", "website": "None", "summary": "None", "logo": "None", "latitude": 44.59418023774171, "longitude": -80.920576566202}, "865304430RR0001": {"name": "REAL CHOICES FOR WOMEN AND FAMILIES: FAMILY LIFE SUPPORT SERVICES, INC.", "designationCode": "C", "categoryCode": "43", "address": "#23 1006 8TH STREET E", "city": "SASKATOON", "province": "SK", "country": "CA", "postalCode": "S7H0S1", "twitter": "None", "instagram": "None", "facebook": "None", "youtube": "None", "website": "None", "summary": "None", "logo": "None", "latitude": 52.114554, "longitude": -106.66398184013754}, "871495545RR0001": {"name": "REAL HOPE CHRISTIAN ASSEMBLY", "designationCode": "C", "categoryCode": "36", "address": "33019 HIGHWAY 17, R.R.#1", "city": "DEEP RIVER", "province": "ON", "country": "CA", "postalCode": "K0J1P0", "twitter": "None", "instagram": "None", "facebook": "None", "youtube": "None", "website": "None", "summary": "None", "logo": "None", "latitude": 46.09170890060376, "longitude": -77.49083463817924}, "829019074RR0001": {"name": "REAL IDENTITY DISCOVERY MINISTRY", "designationCode": "C", "categoryCode": "49", "address": "29622 - 377 BURNHAMTHORPE     ROAD EAST", "city": "MISSISSAUGA", "province": "ON", "country": "CA", "postalCode": "L5A4H2", "twitter": "None", "instagram": "None", "facebook": "None", "youtube": "None", "website": "None", "summary": "None", "logo": "None", "latitude": 43.60135418504066, "longitude": -79.62605815272647}, "119111896RR0001": {"name": "REAL LIFE MINISTRIES ASSOCIATION", "designationCode": "C", "categoryCode": "47", "address": "2556 PHILIP ST", "city": "HALIFAX", "province": "NS", "country": "CA", "postalCode": "B3L3H2", "twitter": "None", "instagram": "None", "facebook": "None", "youtube": "None", "website": "None", "summary": "None", "logo": "None", "latitude": 44.64379191312254, "longitude": -63.616572528045374}, "887442036RR0001": {"name": "REAL LIFE OUTREACH INTERNATIONAL INC.", "designationCode": "C", "categoryCode": "47", "address": "19 CHAPMAN DR", "city": "SUSSEX", "province": "NB", "country": "CA", "postalCode": "E4E1M4", "twitter": "None", "instagram": "None", "facebook": "None", "youtube": "None", "website": "None", "summary": "None", "logo": "None", "latitude": 45.719650372468124, "longitude": -65.52526687593055}, "844804658RR0001": {"name": "REAL OPPORTUNITIES IN COMMUNITY FOUNDATION SOCIETY", "designationCode": "A", "categoryCode": "03", "address": "3 MACQUARRIE DRIVE EXTENSION", "city": "PORT HAWKESBURY", "province": "NS", "country": "CA", "postalCode": "B9A3A3", "twitter": "None", "instagram": "None", "facebook": "None", "youtube": "None", "website": "None", "summary": "None", "logo": "None", "latitude": 45.6190816102779, "longitude": -61.35476210955673}, "133764027RR0001": {"name": "REALITY OUTREACH MINISTRIES INC", "designationCode": "C", "categoryCode": "47", "address": "PO BOX 844 STN MAIN", "city": "ST CATHARINES", "province": "ON", "country": "CA", "postalCode": "L2R6Z4", "twitter": "None", "instagram": "None", "facebook": "None", "youtube": "None", "website": "None", "summary": "None", "logo": "None", "latitude": 43.15634700000005, "longitude": -79.24869349999993}, "859573354RR0001": {"name": "REALM Ripplinger, Ehmann and Laborde, Mang Foundation Inc.", "designationCode": "C", "categoryCode": "09", "address": "315 VICTORIA AVE", "city": "REGINA", "province": "SK", "country": "CA", "postalCode": "S4N0P5", "twitter": "None", "instagram": "None", "facebook": "None", "youtube": "None", "website": "None", "summary": "None", "logo": "None", "latitude": 50.44709551399404, "longitude": -104.58560152553522}, "853941599RR0001": {"name": "REALNews Foundation", "designationCode": "A", "categoryCode": "03", "address": "P.O. BOX 68512                360A BLOOR STREET W", "city": "TORONTO", "province": "ON", "country": "CA", "postalCode": "M5S3C9", "twitter": "None", "instagram": "None", "facebook": "None", "youtube": "None", "website": "None", "summary": "None", "logo": "None", "latitude": 43.6665077600754, "longitude": -79.40499142685711}, "868489303RR0001": {"name": "REALWHEELS SOCIETY", "designationCode": "C", "categoryCode": "22", "address": "780 SW MARINE DR", "city": "VANCOUVER", "province": "BC", "country": "CA", "postalCode": "V6P5Y7", "twitter": "None", "instagram": "None", "facebook": "None", "youtube": "None", "website": "None", "summary": "None", "logo": "None", "latitude": 49.207299508713916, "longitude": -123.12382893141574}, "889627147RR0001": {"name": "REASONS TO BELIEVE (CANADA) ASSOCIATION", "designationCode": "C", "categoryCode": "47", "address": "10540 MILFORD DR", "city": "RICHMOND", "province": "BC", "country": "CA", "postalCode": "V7A4J7", "twitter": "None", "instagram": "None", "facebook": "None", "youtube": "None", "website": "None", "summary": "None", "logo": "None", "latitude": 49.138194286762165, "longitude": -123.11542471323783}}