{"107391500RR0001": {"name": "FONDATION CHARISMATIQUE L'EAU VIVE INC.", "designationCode": "C", "categoryCode": "39", "address": "11 RUE SAINT-ANDRE E", "city": "GRANBY", "province": "QC", "country": "CA", "postalCode": "J2G8R8", "twitter": "None", "instagram": "None", "facebook": "None", "youtube": "None", "website": "None", "summary": "None", "logo": "None", "latitude": 45.407877504327836, "longitude": -72.719622}, "118920966RR0001": {"name": "FONDATION CHARITABLE O.E. DORAIS", "designationCode": "B", "categoryCode": "15", "address": "600 RUE DE LA GAUCHETIERE O   BUREAU 1762", "city": "MONTREAL", "province": "QC", "country": "CA", "postalCode": "H3B4L2", "twitter": "None", "instagram": "None", "facebook": "None", "youtube": "None", "website": "None", "summary": "None", "logo": "None", "latitude": 45.50188920231989, "longitude": -73.56436485827253}, "101835221RR0001": {"name": "FONDATION CHARLES CUSSON", "designationCode": "B", "categoryCode": "03", "address": "540 - 1002 RUE SHERBROOKE O", "city": "MONTREAL", "province": "QC", "country": "CA", "postalCode": "H3A3L6", "twitter": "None", "instagram": "None", "facebook": "None", "youtube": "None", "website": "None", "summary": "None", "logo": "None", "latitude": 45.50420051526984, "longitude": -73.57425178965626}, "807412473RR0001": {"name": "FONDATION CHARLES GUINDON", "designationCode": "A", "categoryCode": "03", "address": "4007 RUE MACKAY", "city": "ST-HUBERT", "province": "QC", "country": "CA", "postalCode": "J4T2P9", "twitter": "None", "instagram": "None", "facebook": "None", "youtube": "None", "website": "None", "summary": "None", "logo": "None", "latitude": 45.48810490925606, "longitude": -73.46466640325478}, "129947073RR0001": {"name": "FONDATION CHARLES O MONAT", "designationCode": "B", "categoryCode": "15", "address": "1 PLACE VILLE MARIE           6E ETAGE SUD", "city": "MONTREAL", "province": "QC", "country": "CA", "postalCode": "H3B2B2", "twitter": "None", "instagram": "None", "facebook": "None", "youtube": "None", "website": "None", "summary": "None", "logo": "None", "latitude": 45.50188724476333, "longitude": -73.56787382018557}, "131903874RR0001": {"name": "FONDATION CHARLES-BRUNEAU", "designationCode": "A", "categoryCode": "13", "address": "4515 RUE DE ROUEN", "city": "MONTREAL", "province": "QC", "country": "CA", "postalCode": "H1V1H1", "twitter": "None", "instagram": "None", "facebook": "None", "youtube": "None", "website": "None", "summary": "None", "logo": "None", "latitude": 45.55576178657161, "longitude": -73.54198211561533}, "887433464RR0001": {"name": "FONDATION CHARLES-CODERRE", "designationCode": "C", "categoryCode": "23", "address": "525 TERRASSE SILLERY", "city": "BROSSARD", "province": "QC", "country": "CA", "postalCode": "J4X1V6", "twitter": "None", "instagram": "None", "facebook": "None", "youtube": "None", "website": "None", "summary": "None", "logo": "None", "latitude": 45.45609258090485, "longitude": -73.48823385204012}, "859205437RR0001": {"name": "FONDATION CHARLES-GRAVEL", "designationCode": "C", "categoryCode": "21", "address": "350, RUE SAINT-GERARD", "city": "CHICOUTIMI", "province": "QC", "country": "CA", "postalCode": "G7G1J2", "twitter": "None", "instagram": "None", "facebook": "None", "youtube": "None", "website": "None", "summary": "None", "logo": "None", "latitude": 48.44924849235395, "longitude": -71.08159038481736}, "891362196RR0001": {"name": "FONDATION CHARLES-HENRI LAPOINTE", "designationCode": "B", "categoryCode": "09", "address": "680, DE LA RIVI\u00c8RE", "city": "SAINTE-ANNE DE-LA P\u00c9RADE", "province": "QC", "country": "CA", "postalCode": "G0X2J0", "twitter": "None", "instagram": "None", "facebook": "None", "youtube": "None", "website": "None", "summary": "None", "logo": "None", "latitude": 46.55833693505108, "longitude": -72.21126919320194}, "118921014RR0001": {"name": "FONDATION CHATELAINE DE JONQUIERE INC.", "designationCode": "C", "categoryCode": "21", "address": "C.P. 302", "city": "JONQUIERE", "province": "QC", "country": "CA", "postalCode": "G7X7W1", "twitter": "None", "instagram": "None", "facebook": "None", "youtube": "None", "website": "None", "summary": "None", "logo": "None", "latitude": 48.41346300000005, "longitude": -71.25355249999993}, "814823670RR0001": {"name": "FONDATION CHEVALERIE PASSION", "designationCode": "C", "categoryCode": "09", "address": "1963 ROUTE MARIE VICTORIN", "city": "ST-NICOLAS", "province": "QC", "country": "CA", "postalCode": "G7A4H4", "twitter": "None", "instagram": "None", "facebook": "None", "youtube": "None", "website": "None", "summary": "None", "logo": "None", "latitude": 46.69676532613804, "longitude": -71.44603736194624}, "885784330RR0001": {"name": "FONDATION CHIROPRATIQUE DU QU\u00c9BEC (FCQ)", "designationCode": "C", "categoryCode": "21", "address": "7960 BOUL.M\u00c9TROPOLITAIN EST", "city": "ANJOU", "province": "QC", "country": "CA", "postalCode": "H1K1A1", "twitter": "None", "instagram": "None", "facebook": "None", "youtube": "None", "website": "None", "summary": "None", "logo": "None", "latitude": 45.607796487362286, "longitude": -73.56337653869252}, "892335688RR0001": {"name": "FONDATION CHORALE QU\u00c9BEC", "designationCode": "C", "categoryCode": "21", "address": "4545 AV PIERRE-DE COUBERTIN", "city": "MONTREAL", "province": "QC", "country": "CA", "postalCode": "H1V0B2", "twitter": "None", "instagram": "None", "facebook": "None", "youtube": "None", "website": "None", "summary": "None", "logo": "None", "latitude": 45.555920590080106, "longitude": -73.55036240097485}, "118921667RR0001": {"name": "FONDATION CHU SAINTE-JUSTINE / SAINTE-JUSTINE UHC FOUNDATION", "designationCode": "A", "categoryCode": "13", "address": "5757 AVE DECELLES BUREAU 335", "city": "MONTREAL", "province": "QC", "country": "CA", "postalCode": "H3S2C3", "twitter": "None", "instagram": "None", "facebook": "None", "youtube": "None", "website": "None", "summary": "None", "logo": "None", "latitude": 45.50101305718729, "longitude": -73.62626098874726}, "118922608RR0001": {"name": "FONDATION CIRQUE DU SOLEIL", "designationCode": "C", "categoryCode": "22", "address": "8400, 2E AVENUE", "city": "MONTREAL", "province": "QC", "country": "CA", "postalCode": "H1Z4M6", "twitter": "None", "instagram": "None", "facebook": "None", "youtube": "None", "website": "None", "summary": "None", "logo": "None", "latitude": 45.56262351419652, "longitude": -73.61665028362876}, "102933827RR0001": {"name": "FONDATION CIT\u00c9 DE LA SANT\u00c9", "designationCode": "A", "categoryCode": "11", "address": "1755 BOUL. RENE LAENNEC", "city": "LAVAL", "province": "QC", "country": "CA", "postalCode": "H7M3L9", "twitter": "None", "instagram": "None", "facebook": "None", "youtube": "None", "website": "None", "summary": "None", "logo": "None", "latitude": 45.60322751260356, "longitude": -73.71310596403872}, "891605248RR0001": {"name": "FONDATION CIT\u00c9-JOIE", "designationCode": "A", "categoryCode": "03", "address": "28, CHEMIN DES CASCADES", "city": "LAC-BEAUPORT", "province": "QC", "country": "CA", "postalCode": "G3B0C4", "twitter": "None", "instagram": "None", "facebook": "None", "youtube": "None", "website": "None", "summary": "None", "logo": "None", "latitude": 46.99060797279133, "longitude": -71.28931230916398}, "118921048RR0001": {"name": "FONDATION CLAUDE BRUNET FOUNDATION", "designationCode": "A", "categoryCode": "03", "address": "230 - 3565 RUE BERRI", "city": "MONTREAL", "province": "QC", "country": "CA", "postalCode": "H2L4G3", "twitter": "None", "instagram": "None", "facebook": "None", "youtube": "None", "website": "None", "summary": "None", "logo": "None", "latitude": 45.51871516654153, "longitude": -73.56810110822907}, "118921055RR0001": {"name": "FONDATION CLAUDE DE SERRES", "designationCode": "C", "categoryCode": "09", "address": "C.P. 208", "city": "BEDFORD", "province": "QC", "country": "CA", "postalCode": "J0J1A0", "twitter": "None", "instagram": "None", "facebook": "None", "youtube": "None", "website": "None", "summary": "None", "logo": "None", "latitude": 45.06676162231261, "longitude": -72.96488738076664}, "842304479RR0001": {"name": "FONDATION CLAUDE ET MARIE CLAUDE OUIMET INC.", "designationCode": "B", "categoryCode": "21", "address": "C.P. 32271, SUCC. ST-ANDR\u00c9", "city": "MONTR\u00c9AL", "province": "QC", "country": "CA", "postalCode": "H2L4Y5", "twitter": "None", "instagram": "None", "facebook": "None", "youtube": "None", "website": "None", "summary": "None", "logo": "None", "latitude": 45.518293863210474, "longitude": -73.56232569710893}, "141530386RR0001": {"name": "FONDATION CLAUDE LAVOIE", "designationCode": "C", "categoryCode": "22", "address": "1345 RUE GARNIER", "city": "QUEBEC", "province": "QC", "country": "CA", "postalCode": "G1S2T1", "twitter": "None", "instagram": "None", "facebook": "None", "youtube": "None", "website": "None", "summary": "None", "logo": "None", "latitude": 46.795500252553616, "longitude": -71.25611982679335}, "118921071RR0001": {"name": "FONDATION CLAUDE LETOURNEAU INC.", "designationCode": "C", "categoryCode": "21", "address": "84 D'AUTEUIL", "city": "RIMOUSKI", "province": "QC", "country": "CA", "postalCode": "G5L2W6", "twitter": "None", "instagram": "None", "facebook": "None", "youtube": "None", "website": "None", "summary": "None", "logo": "None", "latitude": 48.463112419383634, "longitude": -68.51494675976697}, "853367340RR0001": {"name": "FONDATION CLAUDE MASSE", "designationCode": "A", "categoryCode": "03", "address": "C.P. 20035                    SUCCURSALE DE VINCI", "city": "REPENTIGNY", "province": "QC", "country": "CA", "postalCode": "J5Y0K6", "twitter": "None", "instagram": "None", "facebook": "None", "youtube": "None", "website": "None", "summary": "None", "logo": "None", "latitude": 45.741372000000055, "longitude": -73.45104199999993}, "878340165RR0001": {"name": "FONDATION CLAUDE P. DUSSAULT", "designationCode": "C", "categoryCode": "01", "address": "120 11E RUE", "city": "LAVAL", "province": "QC", "country": "CA", "postalCode": "H7N1T1", "twitter": "None", "instagram": "None", "facebook": "None", "youtube": "None", "website": "None", "summary": "None", "logo": "None", "latitude": 45.562035352761285, "longitude": -73.69564193115595}, "888176864RR0001": {"name": "FONDATION CLAUDE TURCOTTE", "designationCode": "C", "categoryCode": "09", "address": "6055 BEAUBIEN EST #227", "city": "MONTREAL", "province": "QC", "country": "CA", "postalCode": "H1M3M5", "twitter": "None", "instagram": "None", "facebook": "None", "youtube": "None", "website": "None", "summary": "None", "logo": "None", "latitude": 45.58242970803269, "longitude": -73.5640535083672}, "886714294RR0001": {"name": "FONDATION CLAUDE-EDOUARD HETU", "designationCode": "A", "categoryCode": "03", "address": "260 RUE LAVALTRIE SUD", "city": "JOLIETTE", "province": "QC", "country": "CA", "postalCode": "J6E5X7", "twitter": "None", "instagram": "None", "facebook": "None", "youtube": "None", "website": "None", "summary": "None", "logo": "None", "latitude": 46.01784405914919, "longitude": -73.44154474516736}, "866818073RR0001": {"name": "FONDATION CLSC SUZOR-COTE", "designationCode": "A", "categoryCode": "13", "address": "100 RUE DE L'ERMITAGE", "city": "VICTORIAVILLE", "province": "QC", "country": "CA", "postalCode": "G6P9N2", "twitter": "None", "instagram": "None", "facebook": "None", "youtube": "None", "website": "None", "summary": "None", "logo": "None", "latitude": 46.06121333579574, "longitude": -71.96371527592446}, "892700964RR0001": {"name": "FONDATION CLSC-CHSLD LA SOURCE", "designationCode": "A", "categoryCode": "13", "address": "124-7260 BOUL. CLOUTIER", "city": "QU\u00c9BEC", "province": "QC", "country": "CA", "postalCode": "G1H3E8", "twitter": "None", "instagram": "None", "facebook": "None", "youtube": "None", "website": "None", "summary": "None", "logo": "None", "latitude": 46.85359350207748, "longitude": -71.27384134566348}, "887789899RR0001": {"name": "FONDATION CLUB KIWANIS ST-EUSTACHE", "designationCode": "A", "categoryCode": "63", "address": "CP 112 SUCC BUREAU-CHEF", "city": "SAINT-EUSTACHE", "province": "QC", "country": "CA", "postalCode": "J7R4K5", "twitter": "None", "instagram": "None", "facebook": "None", "youtube": "None", "website": "None", "summary": "None", "logo": "None", "latitude": 45.55822200000006, "longitude": -73.88871199999993}, "894222280RR0001": {"name": "FONDATION CMP", "designationCode": "B", "categoryCode": "03", "address": "1241 CASCADES", "city": "CHATEAUGUAY", "province": "QC", "country": "CA", "postalCode": "J6J4Z2", "twitter": "None", "instagram": "None", "facebook": "None", "youtube": "None", "website": "None", "summary": "None", "logo": "None", "latitude": 45.34827303465316, "longitude": -73.68917034681732}, "863321949RR0001": {"name": "FONDATION COCAGNE INC.", "designationCode": "C", "categoryCode": "21", "address": "17 CHEMIN MARINA              UNITE 4", "city": "COCAGNE", "province": "NB", "country": "CA", "postalCode": "E4R2S9", "twitter": "None", "instagram": "None", "facebook": "None", "youtube": "None", "website": "None", "summary": "None", "logo": "None", "latitude": 46.33600132336358, "longitude": -64.62761779166642}, "107588386RR0001": {"name": "FONDATION COLL\u00c8GE DE L\u00c9VIS", "designationCode": "A", "categoryCode": "23", "address": "9 MGR GOSSELIN", "city": "LEVIS", "province": "QC", "country": "CA", "postalCode": "G6V5K1", "twitter": "None", "instagram": "None", "facebook": "None", "youtube": "None", "website": "None", "summary": "None", "logo": "None", "latitude": 46.81240508021236, "longitude": -71.1818075276127}, "118921113RR0001": {"name": "FONDATION COLL\u00c8GE DE MONTR\u00c9AL", "designationCode": "A", "categoryCode": "21", "address": "1931 RUE SHERBROOKE OUEST", "city": "MONTREAL", "province": "QC", "country": "CA", "postalCode": "H3H1E3", "twitter": "None", "instagram": "None", "facebook": "None", "youtube": "None", "website": "None", "summary": "None", "logo": "None", "latitude": 45.493820526256386, "longitude": -73.58422348687135}, "875846636RR0001": {"name": "FONDATION COLL\u00c8GE ESTHER-BLONDIN", "designationCode": "C", "categoryCode": "23", "address": "101 RUE SAINTE-ANNE", "city": "SAINT-JACQUES DE MONTCALM", "province": "QC", "country": "CA", "postalCode": "J0K2R0", "twitter": "None", "instagram": "None", "facebook": "None", "youtube": "None", "website": "None", "summary": "None", "logo": "None", "latitude": 45.954887569931934, "longitude": -73.56450225718811}, "868447160RR0001": {"name": "FONDATION COLL\u00c8GE MONT-SACR\u00c9-COEUR", "designationCode": "A", "categoryCode": "23", "address": "210, RUE DENISON E", "city": "GRANBY", "province": "QC", "country": "CA", "postalCode": "J2H2R6", "twitter": "None", "instagram": "None", "facebook": "None", "youtube": "None", "website": "None", "summary": "None", "logo": "None", "latitude": 45.393643497570736, "longitude": -72.70980180759786}, "134797984RR0001": {"name": "FONDATION COLL\u00c8GE SAINT-HILAIRE", "designationCode": "C", "categoryCode": "21", "address": "800 RUE ROUILLARD", "city": "MONT ST-HILAIRE", "province": "QC", "country": "CA", "postalCode": "J3G4S6", "twitter": "None", "instagram": "None", "facebook": "None", "youtube": "None", "website": "None", "summary": "None", "logo": "None", "latitude": 45.5722362309516, "longitude": -73.15584395617982}, "132465824RR0001": {"name": "FONDATION COLL\u00c8GE-ANDR\u00c9-GRASSET", "designationCode": "A", "categoryCode": "21", "address": "1001, BOULEVARD CREMAZIE EST", "city": "MONTREAL", "province": "QC", "country": "CA", "postalCode": "H2M1M3", "twitter": "None", "instagram": "None", "facebook": "None", "youtube": "None", "website": "None", "summary": "None", "logo": "None", "latitude": 45.55025028287801, "longitude": -73.63257647143502}, "889121158RR0001": {"name": "FONDATION COLLEGE DE CHAMPIGNY", "designationCode": "C", "categoryCode": "20", "address": "1400 ROUTE DE L'A\u00c9ROPORT", "city": "QU\u00c9BEC", "province": "QC", "country": "CA", "postalCode": "G2G1G6", "twitter": "None", "instagram": "None", "facebook": "None", "youtube": "None", "website": "None", "summary": "None", "logo": "None", "latitude": 46.79254194537995, "longitude": -71.36051012648346}, "861183630RR0001": {"name": "FONDATION COLLEGE DE HEARST", "designationCode": "A", "categoryCode": "23", "address": "60, 9E RUE                    SAC POSTAL 580", "city": "HEARST", "province": "ON", "country": "CA", "postalCode": "P0L1N0", "twitter": "None", "instagram": "None", "facebook": "None", "youtube": "None", "website": "None", "summary": "None", "logo": "None", "latitude": 49.68464254772545, "longitude": -83.66601130839781}, "884512708RR0001": {"name": "FONDATION COLLEGE MARIE-DE-FRANCE", "designationCode": "A", "categoryCode": "23", "address": "4635 CHEMIN QUEEN MARY", "city": "MONTREAL", "province": "QC", "country": "CA", "postalCode": "H3W1W3", "twitter": "None", "instagram": "None", "facebook": "None", "youtube": "None", "website": "None", "summary": "None", "logo": "None", "latitude": 45.48990050793452, "longitude": -73.6236959940847}, "118921121RR0001": {"name": "FONDATION COLLEGE MARIE-DE-L'INCARNATION DE TROIS-RIVIERES", "designationCode": "A", "categoryCode": "23", "address": "725 RUE HART", "city": "TROIS-RIVIERES", "province": "QC", "country": "CA", "postalCode": "G9A4R9", "twitter": "None", "instagram": "None", "facebook": "None", "youtube": "None", "website": "None", "summary": "None", "logo": "None", "latitude": 46.34629669386578, "longitude": -72.53793805176294}, "118921139RR0001": {"name": "FONDATION COLLEGE MARIE-VICTORIN", "designationCode": "A", "categoryCode": "23", "address": "7000 RUE MARIE-VICTORIN", "city": "MONTREAL", "province": "QC", "country": "CA", "postalCode": "H1G2J6", "twitter": "None", "instagram": "None", "facebook": "None", "youtube": "None", "website": "None", "summary": "None", "logo": "None", "latitude": 45.61741502195719, "longitude": -73.60633139185784}, "893041160RR0001": {"name": "FONDATION COLOMBIENNE ST. JEAN BAPTISTE INC.", "designationCode": "A", "categoryCode": "03", "address": "925B COUNTY RD 17             CP 312", "city": "L'ORIGNAL", "province": "ON", "country": "CA", "postalCode": "K0B1K0", "twitter": "None", "instagram": "None", "facebook": "None", "youtube": "None", "website": "None", "summary": "None", "logo": "None", "latitude": 45.61105091322563, "longitude": -74.69210723865162}, "892546961RR0001": {"name": "FONDATION COLOMBIENNE ST. VICTOR INC.", "designationCode": "A", "categoryCode": "03", "address": "520, RUE ST-PHILIPPE", "city": "ALFRED", "province": "ON", "country": "CA", "postalCode": "K0B1A0", "twitter": "None", "instagram": "None", "facebook": "None", "youtube": "None", "website": "None", "summary": "None", "logo": "None", "latitude": 45.55675100083672, "longitude": -74.88696056203472}, "888098993RR0001": {"name": "FONDATION COMMEMORATIVE-EGLISE KNOX DE CRYSTAL FALLS / KNOX CHURCH MEMORIAL FUND.", "designationCode": "C", "categoryCode": "52", "address": "339 CRYSTAL FALLS RD", "city": "ARUNDEL", "province": "QC", "country": "CA", "postalCode": "J0T1A0", "twitter": "None", "instagram": "None", "facebook": "None", "youtube": "None", "website": "None", "summary": "None", "logo": "None", "latitude": 46.04543668942237, "longitude": -74.60836967156186}, "885446518RR0001": {"name": "FONDATION COMMUNAUTAIRE DE LA PENINSULE ACADIENNE INC.", "designationCode": "A", "categoryCode": "03", "address": "1095-2 RUE DU PARC", "city": "PAQUETVILLE", "province": "NB", "country": "CA", "postalCode": "E8R1J1", "twitter": "None", "instagram": "None", "facebook": "None", "youtube": "None", "website": "None", "summary": "None", "logo": "None", "latitude": 47.66712982234997, "longitude": -65.1078330164746}, "863742185RR0001": {"name": "FONDATION COMMUNAUTAIRE DE LANAUDI\u00c8RE", "designationCode": "A", "categoryCode": "03", "address": "165 RUE LAJOIE S", "city": "JOLIETTE", "province": "QC", "country": "CA", "postalCode": "J6E5K9", "twitter": "None", "instagram": "None", "facebook": "None", "youtube": "None", "website": "None", "summary": "None", "logo": "None", "latitude": 46.02238516403139, "longitude": -73.43903823105776}, "870718780RR0001": {"name": "FONDATION COMMUNAUTAIRE DU SAINT-MAURICE", "designationCode": "A", "categoryCode": "03", "address": "90 RUE DES CASERNES", "city": "TROIS-RIVIERES", "province": "QC", "country": "CA", "postalCode": "G9A1X2", "twitter": "None", "instagram": "None", "facebook": "None", "youtube": "None", "website": "None", "summary": "None", "logo": "None", "latitude": 46.34255746073054, "longitude": -72.538772391194}, "891450785RR0001": {"name": "FONDATION COMMUNAUTAIRE DU TEMISKAMING", "designationCode": "C", "categoryCode": "09", "address": "C P 118", "city": "EARLTON", "province": "ON", "country": "CA", "postalCode": "P0J1E0", "twitter": "None", "instagram": "None", "facebook": "None", "youtube": "None", "website": "None", "summary": "None", "logo": "None", "latitude": 43.77899472551783, "longitude": -79.2873859264241}, "881372726RR0001": {"name": "FONDATION COMMUNAUTAIRE GASP\u00c9SIE-LES ILES", "designationCode": "A", "categoryCode": "59", "address": "101 - 65 RUE DES VOLTIGEURS", "city": "MARIA", "province": "QC", "country": "CA", "postalCode": "G0C1Y0", "twitter": "None", "instagram": "None", "facebook": "None", "youtube": "None", "website": "None", "summary": "None", "logo": "None", "latitude": 48.17553806269854, "longitude": -65.9905865554556}, "890416449RR0001": {"name": "FONDATION CONRAD BELANGER INC", "designationCode": "B", "categoryCode": "23", "address": "200 BOULEVARD ST SACREMENT", "city": "SAINT GABRIEL DE VALCARTIER", "province": "QC", "country": "CA", "postalCode": "G0A4S0", "twitter": "None", "instagram": "None", "facebook": "None", "youtube": "None", "website": "None", "summary": "None", "logo": "None", "latitude": 46.97296730961897, "longitude": -71.50179618861407}, "119018281RR0001": {"name": "FONDATION CONSTANCE LETHBRIDGE/CONSTANCE LETHBRIDGE FOUNDATION", "designationCode": "A", "categoryCode": "13", "address": "7005 BOULV MAISONNEUVE", "city": "MONTREAL", "province": "QC", "country": "CA", "postalCode": "H4B1T3", "twitter": "None", "instagram": "None", "facebook": "None", "youtube": "None", "website": "None", "summary": "None", "logo": "None", "latitude": 45.458039795198616, "longitude": -73.63381719250945}, "887074805RR0001": {"name": "FONDATION CORDILLERA", "designationCode": "C", "categoryCode": "09", "address": "9681 RUE CLEMENT", "city": "LASALLE", "province": "QC", "country": "CA", "postalCode": "H8R4B4", "twitter": "None", "instagram": "None", "facebook": "None", "youtube": "None", "website": "None", "summary": "None", "logo": "None", "latitude": 45.43460357236383, "longitude": -73.65286134563482}, "888158433RR0001": {"name": "FONDATION CORNELIUS BROTHERTON", "designationCode": "C", "categoryCode": "21", "address": "96 RUE JACQUES-CARTIER", "city": "GASPE", "province": "QC", "country": "CA", "postalCode": "G4X2S8", "twitter": "None", "instagram": "None", "facebook": "None", "youtube": "None", "website": "None", "summary": "None", "logo": "None", "latitude": 48.83218229755466, "longitude": -64.48303871129247}, "118921196RR0001": {"name": "FONDATION CRUDEM", "designationCode": "C", "categoryCode": "09", "address": "2240 RUE FULLUM", "city": "MONTREAL", "province": "QC", "country": "CA", "postalCode": "H2K3N9", "twitter": "None", "instagram": "None", "facebook": "None", "youtube": "None", "website": "None", "summary": "None", "logo": "None", "latitude": 45.53186684067181, "longitude": -73.55829346837659}, "859944456RR0001": {"name": "FONDATION CULTURELLE & ARTISTIQUE AVMOR / AVMOR ART & CULTURAL FOUNDATION", "designationCode": "C", "categoryCode": "50", "address": "445, RUE STE-HELENE", "city": "MONTREAL", "province": "QC", "country": "CA", "postalCode": "H2Y2K9", "twitter": "None", "instagram": "None", "facebook": "None", "youtube": "None", "website": "None", "summary": "None", "logo": "None", "latitude": 45.50132928310916, "longitude": -73.55818043629183}, "888264488RR0001": {"name": "FONDATION CULTURELLE DU TROISI\u00c8ME \u00c2GE JEAN-DE-BR\u00c9BEUF", "designationCode": "C", "categoryCode": "29", "address": "5625 DECELLES", "city": "MONTREAL", "province": "QC", "country": "CA", "postalCode": "H3T1W4", "twitter": "None", "instagram": "None", "facebook": "None", "youtube": "None", "website": "None", "summary": "None", "logo": "None", "latitude": 45.500423374141555, "longitude": -73.62505251581169}, "118921204RR0001": {"name": "FONDATION CYPIHOT-OUELLETTE", "designationCode": "A", "categoryCode": "03", "address": "847 DES HERONS", "city": "LONGUEUIL", "province": "QC", "country": "CA", "postalCode": "J4G2N8", "twitter": "None", "instagram": "None", "facebook": "None", "youtube": "None", "website": "None", "summary": "None", "logo": "None", "latitude": 45.553672340008, "longitude": -73.48235845836462}, "878674415RR0001": {"name": "FONDATION D'AIDE \u00c0 LA JEUNESSE", "designationCode": "C", "categoryCode": "09", "address": "300-1226 BOUL STE-FOY", "city": "LONGUEUIL", "province": "QC", "country": "CA", "postalCode": "J4K1X3", "twitter": "None", "instagram": "None", "facebook": "None", "youtube": "None", "website": "None", "summary": "None", "logo": "None", "latitude": 45.51553065583708, "longitude": -73.49858055173428}, "891523540RR0001": {"name": "FONDATION D'AIDE A LA FORMATION AGRICOLE DE LOTBINI\u00c8RE", "designationCode": "B", "categoryCode": "99", "address": "7850, MARIE-VICTORIN", "city": "LOTBINI\u00c8RE", "province": "QC", "country": "CA", "postalCode": "G0S1S0", "twitter": "None", "instagram": "None", "facebook": "None", "youtube": "None", "website": "None", "summary": "None", "logo": "None", "latitude": 46.59135012060228, "longitude": -71.97623949146292}, "898818414RR0001": {"name": "FONDATION D'AIDE AUX \u00c9TUDIANTS LUCIEN CLICHE", "designationCode": "C", "categoryCode": "23", "address": "675, 1E AVENUE", "city": "VAL D'OR", "province": "QC", "country": "CA", "postalCode": "J9P1Y3", "twitter": "None", "instagram": "None", "facebook": "None", "youtube": "None", "website": "None", "summary": "None", "logo": "None", "latitude": 48.1000299334829, "longitude": -77.78560758318797}, "120824909RR0001": {"name": "FONDATION D'AIDE AUX AIN\u00c9S JULIETTE M. DUBOIS", "designationCode": "C", "categoryCode": "01", "address": "44 RIVIERE A VEILLET", "city": "STE GENEVIEVE", "province": "QC", "country": "CA", "postalCode": "G0X2R0", "twitter": "None", "instagram": "None", "facebook": "None", "youtube": "None", "website": "None", "summary": "None", "logo": "None", "latitude": 46.539452032200316, "longitude": -72.34180426236405}, "895766715RR0001": {"name": "FONDATION D'AIDE AUX JEUNES MUSICIENS", "designationCode": "C", "categoryCode": "22", "address": "4115, RUE LOUIS-FRANQUET", "city": "TROIS-RIVIERES", "province": "QC", "country": "CA", "postalCode": "G8Y1R3", "twitter": "None", "instagram": "None", "facebook": "None", "youtube": "None", "website": "None", "summary": "None", "logo": "None", "latitude": 46.359528517889174, "longitude": -72.58112085345375}, "868600776RR0001": {"name": "FONDATION D'AIDE AUX PERSONNES HANDICAP\u00c9ES DU QU\u00c9BEC", "designationCode": "C", "categoryCode": "09", "address": "106-4058, MONSELET", "city": "MONTR\u00c9AL", "province": "QC", "country": "CA", "postalCode": "H1H2C5", "twitter": "None", "instagram": "None", "facebook": "None", "youtube": "None", "website": "None", "summary": "None", "logo": "None", "latitude": 45.58970215041272, "longitude": -73.63741894627516}, "131260127RR0001": {"name": "FONDATION D'AIDE DIRECTE-SIDA MONTREAL", "designationCode": "A", "categoryCode": "03", "address": "1442 RUE PANET", "city": "MONTREAL", "province": "QC", "country": "CA", "postalCode": "H2L2Z1", "twitter": "None", "instagram": "None", "facebook": "None", "youtube": "None", "website": "None", "summary": "None", "logo": "None", "latitude": 45.520227168734586, "longitude": -73.55547542604872}, "825506363RR0001": {"name": "FONDATION D'AIDE POUR LES AINES D'ADSTOCK", "designationCode": "C", "categoryCode": "09", "address": "89, RUE NOTRE-DAME SUD", "city": "ADSTOCK", "province": "QC", "country": "CA", "postalCode": "G0N1S0", "twitter": "None", "instagram": "None", "facebook": "None", "youtube": "None", "website": "None", "summary": "None", "logo": "None", "latitude": 46.04365530697093, "longitude": -71.07891659798595}, "101835338RR0001": {"name": "FONDATION D'ANESTHESIOLOGIE ET REANIMATION DU QUEBEC", "designationCode": "B", "categoryCode": "13", "address": "2 COMPLEXE DESJARDINS         STE 3000", "city": "MONTREAL", "province": "QC", "country": "CA", "postalCode": "H5B1G8", "twitter": "None", "instagram": "None", "facebook": "None", "youtube": "None", "website": "None", "summary": "None", "logo": "None", "latitude": 45.507177097337745, "longitude": -73.56605609845867}, "859795700RR0001": {"name": "FONDATION D'ENTRAIDE EN SANTE DES BENEVOLES DE STE-ANNE", "designationCode": "A", "categoryCode": "03", "address": "3 - 43 RUE SAINTE-ANNE", "city": "SAINTE-ANNE-DE-BELLEVUE", "province": "QC", "country": "CA", "postalCode": "H9X1L4", "twitter": "None", "instagram": "None", "facebook": "None", "youtube": "None", "website": "None", "summary": "None", "logo": "None", "latitude": 45.40282315072983, "longitude": -73.94825751941839}, "880193875RR0001": {"name": "FONDATION D'HISTOIRE PIERRE-DE-SAUREL INC", "designationCode": "A", "categoryCode": "23", "address": "8400, ROUTE MARIE-VICTORIN    APP. 301", "city": "SOREL-TRACY", "province": "QC", "country": "CA", "postalCode": "J3R1T5", "twitter": "None", "instagram": "None", "facebook": "None", "youtube": "None", "website": "None", "summary": "None", "logo": "None", "latitude": 46.0140042053783, "longitude": -73.16190153202743}, "890570062RR0001": {"name": "FONDATION D'INSTITUT CANADIEN-POLONAIS DU BIEN-ETRE INC.", "designationCode": "A", "categoryCode": "03", "address": "5655 EST RUE BELANGER", "city": "MONTREAL", "province": "QC", "country": "CA", "postalCode": "H1T1G2", "twitter": "None", "instagram": "None", "facebook": "None", "youtube": "None", "website": "None", "summary": "None", "logo": "None", "latitude": 45.58090826784572, "longitude": -73.57390102224566}, "886403963RR0001": {"name": "FONDATION DANIEL LANGLOIS - DANIEL LANGLOIS FOUNDATION", "designationCode": "B", "categoryCode": "03", "address": "3530, BOUL ST-LAURENT, BUR 500", "city": "MONTREAL", "province": "QC", "country": "CA", "postalCode": "H2X2V1", "twitter": "None", "instagram": "None", "facebook": "None", "youtube": "None", "website": "None", "summary": "None", "logo": "None", "latitude": 45.51321172742244, "longitude": -73.57107327909846}, "121011787RR0001": {"name": "FONDATION DANIEL LAUZON", "designationCode": "C", "categoryCode": "09", "address": "C.P 4764", "city": "MONT-TREMBLANT", "province": "QC", "country": "CA", "postalCode": "J8E1A1", "twitter": "None", "instagram": "None", "facebook": "None", "youtube": "None", "website": "None", "summary": "None", "logo": "None", "latitude": 46.11832800000006, "longitude": -74.60168299999994}, "890951577RR0001": {"name": "FONDATION DANIEL ROY INC.", "designationCode": "B", "categoryCode": "09", "address": "1996 RUE PROSPECT BUR. 100", "city": "SHERBROOKE", "province": "QC", "country": "CA", "postalCode": "J1J1K7", "twitter": "None", "instagram": "None", "facebook": "None", "youtube": "None", "website": "None", "summary": "None", "logo": "None", "latitude": 45.408969506203746, "longitude": -71.92406130544174}, "863953543RR0001": {"name": "FONDATION DANIELLE ET MICHEL MATHIEU", "designationCode": "C", "categoryCode": "09", "address": "326 RUE BERNIER", "city": "BELOEIL", "province": "QC", "country": "CA", "postalCode": "J3G4T9", "twitter": "None", "instagram": "None", "facebook": "None", "youtube": "None", "website": "None", "summary": "None", "logo": "None", "latitude": 45.566246283657435, "longitude": -73.22516186277325}, "885460352RR0001": {"name": "FONDATION DAVID CHIASSON", "designationCode": "C", "categoryCode": "57", "address": "1110 AV BEAUMONT", "city": "MONT-ROYAL", "province": "QC", "country": "CA", "postalCode": "H3P3E5", "twitter": "None", "instagram": "None", "facebook": "None", "youtube": "None", "website": "None", "summary": "None", "logo": "None", "latitude": 45.52315934632217, "longitude": -73.62339259696743}, "107391518RR0001": {"name": "FONDATION DE B\u00c9CANCOUR-NICOLET-YAMASKA SANT\u00c9-SERVICES SOCIAUX", "designationCode": "A", "categoryCode": "13", "address": "675 RUE ST-JEAN-BAPTISTE", "city": "NICOLET", "province": "QC", "country": "CA", "postalCode": "J3T1S4", "twitter": "None", "instagram": "None", "facebook": "None", "youtube": "None", "website": "None", "summary": "None", "logo": "None", "latitude": 46.23079128654312, "longitude": -72.62700587254841}, "872653225RR0001": {"name": "FONDATION DE BIBLIOTH\u00c8QUE ET ARCHIVES NATIONALES DU QU\u00c9BEC", "designationCode": "A", "categoryCode": "55", "address": "2275 RUE HOLT", "city": "MONTREAL", "province": "QC", "country": "CA", "postalCode": "H2G3H1", "twitter": "None", "instagram": "None", "facebook": "None", "youtube": "None", "website": "None", "summary": "None", "logo": "None", "latitude": 45.543219306970954, "longitude": -73.58511493034788}, "878612969RR0001": {"name": "FONDATION DE CARDIOLOGIE SAINT-LUC", "designationCode": "B", "categoryCode": "13", "address": "235 BOUL RENE-LEVESQUE EST    BUREAU 401", "city": "MONTREAL", "province": "QC", "country": "CA", "postalCode": "H2X1N8", "twitter": "None", "instagram": "None", "facebook": "None", "youtube": "None", "website": "None", "summary": "None", "logo": "None", "latitude": 45.51105470970615, "longitude": -73.55988706832444}, "118921253RR0001": {"name": "FONDATION DE DANSE MARGIE GILLIS/MARGIE GILLIS DANCE FOUNDATION", "designationCode": "B", "categoryCode": "22", "address": "1908 PANET, BUREAU 304", "city": "MONTR\u00c9AL", "province": "QC", "country": "CA", "postalCode": "H2L3A2", "twitter": "None", "instagram": "None", "facebook": "None", "youtube": "None", "website": "None", "summary": "None", "logo": "None", "latitude": 45.52251698277466, "longitude": -73.56046463171549}, "890240385RR0001": {"name": "FONDATION DE GARDERIE DE JOUR DE MONTR\u00c9AL-THE MONTREAL DAY NURSERY FOUNDATION", "designationCode": "B", "categoryCode": "03", "address": "4826 AVENUE VICTORIA", "city": "MONTREAL", "province": "QC", "country": "CA", "postalCode": "H3W2N1", "twitter": "None", "instagram": "None", "facebook": "None", "youtube": "None", "website": "None", "summary": "None", "logo": "None", "latitude": 45.48644384067181, "longitude": -73.62000196837658}, "869706333RR0001": {"name": "FONDATION DE JEUNESSE BROME-MISSISQUOI/BROME-MISSISQUOI YOUTH FOUNDATION", "designationCode": "C", "categoryCode": "09", "address": "C.P. 322", "city": "COWANSVILLE", "province": "QC", "country": "CA", "postalCode": "J2K3S7", "twitter": "None", "instagram": "None", "facebook": "None", "youtube": "None", "website": "None", "summary": "None", "logo": "None", "latitude": 45.208068000000054, "longitude": -72.74446099999993}, "828886762RR0001": {"name": "FONDATION DE L ECOLE SECONDAIRE SOULANGES", "designationCode": "C", "categoryCode": "21", "address": "137-SAINTE-CATHERINE", "city": "SAINT-POLYCARPE", "province": "QC", "country": "CA", "postalCode": "J0P1X0", "twitter": "None", "instagram": "None", "facebook": "None", "youtube": "None", "website": "None", "summary": "None", "logo": "None", "latitude": 45.297822293871896, "longitude": -74.31077386254303}, "831567946RR0001": {"name": "FONDATION DE L'\u00c9COLE \u00c9TOILE FILANTE", "designationCode": "C", "categoryCode": "21", "address": "5619 CH DE LA COTE STE-ANTOINE", "city": "MONTREAL", "province": "QC", "country": "CA", "postalCode": "H4A1R5", "twitter": "None", "instagram": "None", "facebook": "None", "youtube": "None", "website": "None", "summary": "None", "logo": "None", "latitude": 45.47250773134621, "longitude": -73.61669556774751}, "816186548RR0001": {"name": "FONDATION DE L'\u00c9COLE APOSTOLIQUE DE CHICOUTIMI", "designationCode": "C", "categoryCode": "21", "address": "913 RUE JACQUES-CARTIER EST", "city": "CHICOUTIMI", "province": "QC", "country": "CA", "postalCode": "G7H2A3", "twitter": "None", "instagram": "None", "facebook": "None", "youtube": "None", "website": "None", "summary": "None", "logo": "None", "latitude": 48.4239043733335, "longitude": -71.04142708935895}, "856080940RR0001": {"name": "FONDATION DE L'\u00c9COLE CHRIST-ROI", "designationCode": "C", "categoryCode": "21", "address": "525 LOUVAIN EST", "city": "MONTREAL", "province": "QC", "country": "CA", "postalCode": "H2M1A1", "twitter": "None", "instagram": "None", "facebook": "None", "youtube": "None", "website": "None", "summary": "None", "logo": "None", "latitude": 45.55049536164806, "longitude": -73.65106095242066}, "895398287RR0001": {"name": "FONDATION DE L'\u00c9COLE D'\u00c9DUCATION INTERNATIONALE (FEEI)", "designationCode": "C", "categoryCode": "21", "address": "720 RUE MORIN", "city": "MC MASTERVILLE", "province": "QC", "country": "CA", "postalCode": "J3G1H1", "twitter": "None", "instagram": "None", "facebook": "None", "youtube": "None", "website": "None", "summary": "None", "logo": "None", "latitude": 45.5494798306469, "longitude": -73.22574935719946}, "894132620RR0001": {"name": "FONDATION DE L'\u00c9COLE DE L'ODYSS\u00c9E", "designationCode": "C", "categoryCode": "21", "address": "885 DES MELEZES", "city": "ST NICOLAS", "province": "QC", "country": "CA", "postalCode": "G7A4B1", "twitter": "None", "instagram": "None", "facebook": "None", "youtube": "None", "website": "None", "summary": "None", "logo": "None", "latitude": 46.71190017995309, "longitude": -71.34410263933529}, "816968473RR0001": {"name": "FONDATION DE L'\u00c9COLE DE LA CHANTIGNOLE", "designationCode": "C", "categoryCode": "29", "address": "35, RUE DE GASPE", "city": "BROMONT", "province": "QC", "country": "CA", "postalCode": "J2L2N7", "twitter": "None", "instagram": "None", "facebook": "None", "youtube": "None", "website": "None", "summary": "None", "logo": "None", "latitude": 45.315997271212396, "longitude": -72.65702308215623}, "888970084RR0001": {"name": "FONDATION DE L'\u00c9COLE DE LA SABLI\u00c8RE", "designationCode": "C", "categoryCode": "21", "address": "1659, BOUL. DES SEIGNEURS", "city": "TERREBONNE", "province": "QC", "country": "CA", "postalCode": "J6X3E3", "twitter": "None", "instagram": "None", "facebook": "None", "youtube": "None", "website": "None", "summary": "None", "logo": "None", "latitude": 45.71343841326677, "longitude": -73.66989112049235}, "850261165RR0001": {"name": "FONDATION DE L'\u00c9COLE DE MARICOURT", "designationCode": "C", "categoryCode": "21", "address": "3675 RUE CODERRE", "city": "SAINT-HUBERT", "province": "QC", "country": "CA", "postalCode": "J3Y4P4", "twitter": "None", "instagram": "None", "facebook": "None", "youtube": "None", "website": "None", "summary": "None", "logo": "None", "latitude": 45.49248880154661, "longitude": -73.42660443447417}, "867643892RR0001": {"name": "FONDATION DE L'\u00c9COLE DE MUSIQUE DU BAS-SAINT-LAURENT INC.", "designationCode": "A", "categoryCode": "23", "address": "C105-22 RUE SAINTE-MARIE", "city": "RIMOUSKI", "province": "QC", "country": "CA", "postalCode": "G5L4E2", "twitter": "None", "instagram": "None", "facebook": "None", "youtube": "None", "website": "None", "summary": "None", "logo": "None", "latitude": 48.449124721911176, "longitude": -68.52907603401799}, "858323488RR0001": {"name": "FONDATION DE L'\u00c9COLE DES HAUTS-CLOCHERS", "designationCode": "C", "categoryCode": "23", "address": "1591, RUE NOTRE-DAME", "city": "L'ANCIENNE-LORETTE", "province": "QC", "country": "CA", "postalCode": "G2E3B4", "twitter": "None", "instagram": "None", "facebook": "None", "youtube": "None", "website": "None", "summary": "None", "logo": "None", "latitude": 46.799422731894495, "longitude": -71.35948815955932}, "869290528RR0001": {"name": "FONDATION DE L'\u00c9COLE DU GRAND-BOIS\u00c9", "designationCode": "C", "categoryCode": "21", "address": "225 RUE SAINT-REDEMPTEUR", "city": "GATINEAU", "province": "QC", "country": "CA", "postalCode": "J8X2T3", "twitter": "None", "instagram": "None", "facebook": "None", "youtube": "None", "website": "None", "summary": "None", "logo": "None", "latitude": 45.43390760199666, "longitude": -75.72200247036716}, "866805096RR0001": {"name": "FONDATION DE L'\u00c9COLE DU M\u00c9ANDRE", "designationCode": "C", "categoryCode": "21", "address": "50 RUE DU PONT", "city": "RIVIERE-ROUGE", "province": "QC", "country": "CA", "postalCode": "J0T1T0", "twitter": "None", "instagram": "None", "facebook": "None", "youtube": "None", "website": "None", "summary": "None", "logo": "None", "latitude": 46.410375994691236, "longitude": -74.86754234635598}, "888719317RR0001": {"name": "FONDATION DE L'\u00c9COLE DU SAINT-ESPRIT DE SHERBROOKE", "designationCode": "A", "categoryCode": "23", "address": "2425 RUE GALT OUEST", "city": "SHERBROOKE", "province": "QC", "country": "CA", "postalCode": "J1K1L1", "twitter": "None", "instagram": "None", "facebook": "None", "youtube": "None", "website": "None", "summary": "None", "logo": "None", "latitude": 45.387117351783054, "longitude": -71.93262114821694}, "868843897RR0001": {"name": "FONDATION DE L'\u00c9COLE EMMANUEL-CH\u00c9NARD", "designationCode": "C", "categoryCode": "21", "address": "600 28E AVENUE", "city": "DEUX MONTAGNES", "province": "QC", "country": "CA", "postalCode": "J7R6L2", "twitter": "None", "instagram": "None", "facebook": "None", "youtube": "None", "website": "None", "summary": "None", "logo": "None", "latitude": 45.54055225059172, "longitude": -73.9203085858096}, "870175189RR0001": {"name": "FONDATION DE L'\u00c9COLE ENTRAMIS", "designationCode": "C", "categoryCode": "21", "address": "595 BOUL L'ASSOMPTION", "city": "REPENTIGNY", "province": "QC", "country": "CA", "postalCode": "J6A6Z5", "twitter": "None", "instagram": "None", "facebook": "None", "youtube": "None", "website": "None", "summary": "None", "logo": "None", "latitude": 45.7530693711118, "longitude": -73.46158841098682}, "887937696RR0001": {"name": "FONDATION DE L'\u00c9COLE F\u00c9LIX-LECLERC", "designationCode": "C", "categoryCode": "21", "address": "1450 RUE WAGRAM", "city": "LONGEUIL", "province": "QC", "country": "CA", "postalCode": "J4K1G1", "twitter": "None", "instagram": "None", "facebook": "None", "youtube": "None", "website": "None", "summary": "None", "logo": "None", "latitude": 45.516088341652775, "longitude": -73.5142527893129}, "132533084RR0001": {"name": "FONDATION DE L'\u00c9COLE H\u00c9L\u00c8NE-BOULL\u00c9", "designationCode": "B", "categoryCode": "21", "address": "1500, RUE PINARD", "city": "SHERBROOKE", "province": "QC", "country": "CA", "postalCode": "J1J3E1", "twitter": "None", "instagram": "None", "facebook": "None", "youtube": "None", "website": "None", "summary": "None", "logo": "None", "latitude": 45.420913857031785, "longitude": -71.916354276935}, "873341028RR0001": {"name": "FONDATION DE L'\u00c9COLE INTERNATIONALE DE MONTR\u00c9AL", "designationCode": "C", "categoryCode": "21", "address": "11 COTE ST-ANTOINE", "city": "WESTMOUNT", "province": "QC", "country": "CA", "postalCode": "H3Y2H7", "twitter": "None", "instagram": "None", "facebook": "None", "youtube": "None", "website": "None", "summary": "None", "logo": "None", "latitude": 45.486422232615645, "longitude": -73.59544571360128}}