{"118916030RR0001": {"name": "FIRS FELLOWSHIP OF BRITISH COLUMBIA", "designationCode": "C", "categoryCode": "47", "address": "22 - 15989 MOUNTAIN VIEW DR", "city": "SURREY", "province": "BC", "country": "CA", "postalCode": "V3Z0M9", "twitter": "None", "instagram": "None", "facebook": "None", "youtube": "None", "website": "None", "summary": "None", "logo": "None", "latitude": 49.05636145715252, "longitude": -122.78044341618096}, "118916048RR0001": {"name": "FIRST AID SKI PATROL", "designationCode": "C", "categoryCode": "59", "address": "3 - 2216 COMMERCIAL DR", "city": "VANCOUVER", "province": "BC", "country": "CA", "postalCode": "V5N4B5", "twitter": "None", "instagram": "None", "facebook": "None", "youtube": "None", "website": "None", "summary": "None", "logo": "None", "latitude": 49.26485658090485, "longitude": -123.06969143280074}, "118916055RR0001": {"name": "FIRST AILSA CRAIG SCOUT GROUP", "designationCode": "C", "categoryCode": "29", "address": "156 WILLIAM STREET", "city": "AILSA CRAIG", "province": "ON", "country": "CA", "postalCode": "N0M1A0", "twitter": "None", "instagram": "None", "facebook": "None", "youtube": "None", "website": "None", "summary": "None", "logo": "None", "latitude": 43.145569318367905, "longitude": -81.53675902094758}, "107383721RR0001": {"name": "FIRST ALLIANCE CHURCH OF THE CHRISTIAN & MISSIONARY ALLIANCE", "designationCode": "C", "categoryCode": "39", "address": "12345-40 ST. SE", "city": "CALGARY", "province": "AB", "country": "CA", "postalCode": "T2Z4E6", "twitter": "None", "instagram": "None", "facebook": "None", "youtube": "None", "website": "None", "summary": "None", "logo": "None", "latitude": 50.93830987593056, "longitude": -113.97264034292218}, "107383770RR0001": {"name": "FIRST ASSEMBLY OF GOD", "designationCode": "C", "categoryCode": "36", "address": "395 9 ST SE", "city": "MEDICINE HAT", "province": "AB", "country": "CA", "postalCode": "T1A1N4", "twitter": "None", "instagram": "None", "facebook": "None", "youtube": "None", "website": "None", "summary": "None", "logo": "None", "latitude": 50.03046852899767, "longitude": -110.677851}, "106915325RR0001": {"name": "FIRST AVENUE CHRISTIAN ASSEMBLY", "designationCode": "C", "categoryCode": "36", "address": "46510 FIRST AVE", "city": "CHILLIWACK", "province": "BC", "country": "CA", "postalCode": "V2P1W9", "twitter": "None", "instagram": "None", "facebook": "None", "youtube": "None", "website": "None", "summary": "None", "logo": "None", "latitude": 49.16894663490341, "longitude": -121.9375503650966}, "107383887RR0001": {"name": "FIRST BAPTIST CHURCH", "designationCode": "C", "categoryCode": "31", "address": "1300 OXFORD STREET", "city": "HALIFAX", "province": "NS", "country": "CA", "postalCode": "B3H3Y8", "twitter": "None", "instagram": "None", "facebook": "None", "youtube": "None", "website": "None", "summary": "None", "logo": "None", "latitude": 44.63521861197997, "longitude": -63.59567591317986}, "107383937RR0001": {"name": "FIRST BAPTIST CHURCH", "designationCode": "C", "categoryCode": "31", "address": "PO BOX 45", "city": "BROCKVILLE", "province": "ON", "country": "CA", "postalCode": "K6V5T7", "twitter": "None", "instagram": "None", "facebook": "None", "youtube": "None", "website": "None", "summary": "None", "logo": "None", "latitude": 44.59037100000006, "longitude": -75.68301049999994}, "107383952RR0001": {"name": "FIRST BAPTIST CHURCH", "designationCode": "C", "categoryCode": "31", "address": "17 D'ARCY STREET", "city": "PERTH", "province": "ON", "country": "CA", "postalCode": "K7H2T9", "twitter": "None", "instagram": "None", "facebook": "None", "youtube": "None", "website": "None", "summary": "None", "logo": "None", "latitude": 44.90314002310636, "longitude": -76.25207174382084}, "107383960RR0001": {"name": "FIRST BAPTIST CHURCH", "designationCode": "C", "categoryCode": "31", "address": "110 SYDENHAM ST AT JOHNSON ST.", "city": "KINGSTON", "province": "ON", "country": "CA", "postalCode": "K7L3H5", "twitter": "None", "instagram": "None", "facebook": "None", "youtube": "None", "website": "None", "summary": "None", "logo": "None", "latitude": 44.23071394077095, "longitude": -76.48773060968779}, "107384042RR0001": {"name": "FIRST BAPTIST CHURCH", "designationCode": "C", "categoryCode": "31", "address": "165 SIDNEY PLACE", "city": "WELLAND", "province": "ON", "country": "CA", "postalCode": "L3C2A7", "twitter": "None", "instagram": "None", "facebook": "None", "youtube": "None", "website": "None", "summary": "None", "logo": "None", "latitude": 42.99394735884944, "longitude": -79.26121504010618}, "107384083RR0001": {"name": "FIRST BAPTIST CHURCH", "designationCode": "C", "categoryCode": "31", "address": "2 WELLINGTON ST E", "city": "BRAMPTON", "province": "ON", "country": "CA", "postalCode": "L6W1Y2", "twitter": "None", "instagram": "None", "facebook": "None", "youtube": "None", "website": "None", "summary": "None", "logo": "None", "latitude": 43.68511993756125, "longitude": -79.75790196254822}, "107384133RR0001": {"name": "FIRST BAPTIST CHURCH", "designationCode": "C", "categoryCode": "31", "address": "PO BOX 814                    TREASURER", "city": "ST MARYS", "province": "ON", "country": "CA", "postalCode": "N4X1B5", "twitter": "None", "instagram": "None", "facebook": "None", "youtube": "None", "website": "None", "summary": "None", "logo": "None", "latitude": 43.25948700000005, "longitude": -81.14143399999993}, "107384158RR0001": {"name": "FIRST BAPTIST CHURCH", "designationCode": "C", "categoryCode": "31", "address": "129 YOUNG ST", "city": "SIMCOE", "province": "ON", "country": "CA", "postalCode": "N3Y1Y8", "twitter": "None", "instagram": "None", "facebook": "None", "youtube": "None", "website": "None", "summary": "None", "logo": "None", "latitude": 42.83767724508046, "longitude": -80.30830515681802}, "107384265RR0001": {"name": "FIRST BAPTIST CHURCH", "designationCode": "C", "categoryCode": "31", "address": "710 MERCER ST", "city": "WINDSOR", "province": "ON", "country": "CA", "postalCode": "N9A1N2", "twitter": "None", "instagram": "None", "facebook": "None", "youtube": "None", "website": "None", "summary": "None", "logo": "None", "latitude": 42.31479006884405, "longitude": -83.03026446332761}, "107384307RR0001": {"name": "FIRST BAPTIST CHURCH", "designationCode": "C", "categoryCode": "31", "address": "PO BOX 1832", "city": "NEW LISKEARD", "province": "ON", "country": "CA", "postalCode": "P0J1P0", "twitter": "None", "instagram": "None", "facebook": "None", "youtube": "None", "website": "None", "summary": "None", "logo": "None", "latitude": 47.50254600000005, "longitude": -79.69562449999994}, "107384323RR0001": {"name": "FIRST BAPTIST CHURCH", "designationCode": "C", "categoryCode": "31", "address": "25 BLOOR ST.", "city": "CAPREOL", "province": "ON", "country": "CA", "postalCode": "P0M1H0", "twitter": "None", "instagram": "None", "facebook": "None", "youtube": "None", "website": "None", "summary": "None", "logo": "None", "latitude": 46.70909237356463, "longitude": -80.924562605632}, "107384364RR0001": {"name": "FIRST BAPTIST CHURCH", "designationCode": "C", "categoryCode": "31", "address": "43 TOWER STREET", "city": "KIRKLAND LAKE", "province": "ON", "country": "CA", "postalCode": "P2N1P3", "twitter": "None", "instagram": "None", "facebook": "None", "youtube": "None", "website": "None", "summary": "None", "logo": "None", "latitude": 48.15137583735359, "longitude": -80.02881897432054}, "107384497RR0001": {"name": "FIRST BAPTIST CHURCH", "designationCode": "C", "categoryCode": "31", "address": "456 WESTWOOD DR", "city": "THOMPSON", "province": "MB", "country": "CA", "postalCode": "R8N0G9", "twitter": "None", "instagram": "None", "facebook": "None", "youtube": "None", "website": "None", "summary": "None", "logo": "None", "latitude": 55.744367408874176, "longitude": -97.87528132534315}, "107384695RR0001": {"name": "FIRST BAPTIST CHURCH", "designationCode": "C", "categoryCode": "31", "address": "328 14 AVE SOUTH", "city": "CRANBROOK", "province": "BC", "country": "CA", "postalCode": "V1C2X4", "twitter": "None", "instagram": "None", "facebook": "None", "youtube": "None", "website": "None", "summary": "None", "logo": "None", "latitude": 49.506108018065355, "longitude": -115.76201791261958}, "107384752RR0001": {"name": "FIRST BAPTIST CHURCH", "designationCode": "C", "categoryCode": "31", "address": "1498 GOVERNMENT ST", "city": "PENTICTON", "province": "BC", "country": "CA", "postalCode": "V2A4W1", "twitter": "None", "instagram": "None", "facebook": "None", "youtube": "None", "website": "None", "summary": "None", "logo": "None", "latitude": 49.48279807660568, "longitude": -119.57716214403608}, "107384760RR0001": {"name": "FIRST BAPTIST CHURCH", "designationCode": "C", "categoryCode": "31", "address": "295 WESTERN AVE", "city": "WILLIAMS LAKE", "province": "BC", "country": "CA", "postalCode": "V2G2H6", "twitter": "None", "instagram": "None", "facebook": "None", "youtube": "None", "website": "None", "summary": "None", "logo": "None", "latitude": 52.136870879248775, "longitude": -122.13637958774282}, "107384992RR0001": {"name": "FIRST BAPTIST CHURCH", "designationCode": "C", "categoryCode": "31", "address": "101 HURON ST", "city": "TORONTO", "province": "ON", "country": "CA", "postalCode": "M5T2A9", "twitter": "None", "instagram": "None", "facebook": "None", "youtube": "None", "website": "None", "summary": "None", "logo": "None", "latitude": 43.65457081571351, "longitude": -79.39660812404078}, "107385007RR0001": {"name": "FIRST BAPTIST CHURCH", "designationCode": "C", "categoryCode": "31", "address": "306 ERB STREET WEST", "city": "WATERLOO", "province": "ON", "country": "CA", "postalCode": "N2L1W3", "twitter": "None", "instagram": "None", "facebook": "None", "youtube": "None", "website": "None", "summary": "None", "logo": "None", "latitude": 43.456360102198225, "longitude": -80.54251440013813}, "107387979RR0001": {"name": "FIRST BAPTIST CHURCH", "designationCode": "C", "categoryCode": "31", "address": "26 FOSTER AVENUE", "city": "FALL RIVER", "province": "NS", "country": "CA", "postalCode": "B2T1E7", "twitter": "None", "instagram": "None", "facebook": "None", "youtube": "None", "website": "None", "summary": "None", "logo": "None", "latitude": 44.80343883516056, "longitude": -63.63638835074204}, "107768426RR0001": {"name": "FIRST BAPTIST CHURCH", "designationCode": "C", "categoryCode": "31", "address": "BOX 3", "city": "NEUSTADT", "province": "ON", "country": "CA", "postalCode": "N0G2M0", "twitter": "None", "instagram": "None", "facebook": "None", "youtube": "None", "website": "None", "summary": "None", "logo": "None", "latitude": 44.07731000000007, "longitude": -81.00296999999995}, "108082082RR0001": {"name": "FIRST BAPTIST CHURCH", "designationCode": "C", "categoryCode": "31", "address": "46 KING ST", "city": "PICTON", "province": "ON", "country": "CA", "postalCode": "K0K2T0", "twitter": "None", "instagram": "None", "facebook": "None", "youtube": "None", "website": "None", "summary": "None", "logo": "None", "latitude": 44.007719019418396, "longitude": -77.14400884664443}, "108082108RR0001": {"name": "FIRST BAPTIST CHURCH", "designationCode": "C", "categoryCode": "31", "address": "279 ALICIA ST", "city": "ARNPRIOR", "province": "ON", "country": "CA", "postalCode": "K7S1H6", "twitter": "None", "instagram": "None", "facebook": "None", "youtube": "None", "website": "None", "summary": "None", "logo": "None", "latitude": 45.43697225313054, "longitude": -76.36603257034459}, "118916113RR0001": {"name": "FIRST BAPTIST CHURCH", "designationCode": "C", "categoryCode": "31", "address": "1 AMBASSADOR PLACE", "city": "MOUNT PEARL", "province": "NL", "country": "CA", "postalCode": "A1N5C3", "twitter": "None", "instagram": "None", "facebook": "None", "youtube": "None", "website": "None", "summary": "None", "logo": "None", "latitude": 47.530933260004616, "longitude": -52.799730271774756}, "118916212RR0001": {"name": "FIRST BAPTIST CHURCH", "designationCode": "C", "categoryCode": "31", "address": "140 LAURIER AVENUE WEST", "city": "OTTAWA", "province": "ON", "country": "CA", "postalCode": "K1P5J4", "twitter": "None", "instagram": "None", "facebook": "None", "youtube": "None", "website": "None", "summary": "None", "logo": "None", "latitude": 45.42084161474995, "longitude": -75.69342150470321}, "118916220RR0001": {"name": "FIRST BAPTIST CHURCH", "designationCode": "C", "categoryCode": "31", "address": "310 YORK ST", "city": "CORNWALL", "province": "ON", "country": "CA", "postalCode": "K6J3Z3", "twitter": "None", "instagram": "None", "facebook": "None", "youtube": "None", "website": "None", "summary": "None", "logo": "None", "latitude": 45.01891761281671, "longitude": -74.7339331937502}, "118916311RR0001": {"name": "FIRST BAPTIST CHURCH", "designationCode": "C", "categoryCode": "31", "address": "4264 MOUNTAIN STREET", "city": "BEAMSVILLE", "province": "ON", "country": "CA", "postalCode": "L0R1B0", "twitter": "None", "instagram": "None", "facebook": "None", "youtube": "None", "website": "None", "summary": "None", "logo": "None", "latitude": 43.16410131447276, "longitude": -79.47606177953114}, "118916329RR0001": {"name": "FIRST BAPTIST CHURCH", "designationCode": "C", "categoryCode": "31", "address": "812 HORTOP STREET", "city": "OSHAWA", "province": "ON", "country": "CA", "postalCode": "L1G4P1", "twitter": "None", "instagram": "None", "facebook": "None", "youtube": "None", "website": "None", "summary": "None", "logo": "None", "latitude": 43.91855972854759, "longitude": -78.87493665450941}, "118916337RR0001": {"name": "FIRST BAPTIST CHURCH", "designationCode": "C", "categoryCode": "31", "address": "165 BERTIE ST", "city": "FORT ERIE", "province": "ON", "country": "CA", "postalCode": "L2A1Y9", "twitter": "None", "instagram": "None", "facebook": "None", "youtube": "None", "website": "None", "summary": "None", "logo": "None", "latitude": 42.91305545498813, "longitude": -78.91537249570084}, "118916345RR0001": {"name": "FIRST BAPTIST CHURCH", "designationCode": "C", "categoryCode": "31", "address": "3900 DORCHESTER ROAD", "city": "NIAGARA FALLS", "province": "ON", "country": "CA", "postalCode": "L2J4J1", "twitter": "None", "instagram": "None", "facebook": "None", "youtube": "None", "website": "None", "summary": "None", "logo": "None", "latitude": 43.11641835137629, "longitude": -79.11189480151792}, "118916402RR0001": {"name": "FIRST BAPTIST CHURCH", "designationCode": "C", "categoryCode": "31", "address": "9 PARK ROAD", "city": "COLLINGWOOD", "province": "ON", "country": "CA", "postalCode": "L9Y2N9", "twitter": "None", "instagram": "None", "facebook": "None", "youtube": "None", "website": "None", "summary": "None", "logo": "None", "latitude": 44.486343124683096, "longitude": -80.22389038199198}, "118916444RR0001": {"name": "FIRST BAPTIST CHURCH", "designationCode": "C", "categoryCode": "31", "address": "35 TROWBRIDGE ST W", "city": "MEAFORD", "province": "ON", "country": "CA", "postalCode": "N4L1V4", "twitter": "None", "instagram": "None", "facebook": "None", "youtube": "None", "website": "None", "summary": "None", "logo": "None", "latitude": 44.60657079488149, "longitude": -80.59312848237063}, "118916543RR0001": {"name": "FIRST BAPTIST CHURCH", "designationCode": "C", "categoryCode": "31", "address": "161 MAIN STREET OF DELHI", "city": "DELHI", "province": "ON", "country": "CA", "postalCode": "N4B2M1", "twitter": "None", "instagram": "None", "facebook": "None", "youtube": "None", "website": "None", "summary": "None", "logo": "None", "latitude": 42.855043851232075, "longitude": -80.49811431458834}, "118916584RR0001": {"name": "FIRST BAPTIST CHURCH", "designationCode": "C", "categoryCode": "31", "address": "P.O. BOX 172", "city": "LISTOWEL", "province": "ON", "country": "CA", "postalCode": "N4W3H2", "twitter": "None", "instagram": "None", "facebook": "None", "youtube": "None", "website": "None", "summary": "None", "logo": "None", "latitude": 43.73203200000006, "longitude": -80.95433299999993}, "118916626RR0001": {"name": "FIRST BAPTIST CHURCH", "designationCode": "C", "categoryCode": "31", "address": "39 MONTREAL ST.", "city": "GODERICH", "province": "ON", "country": "CA", "postalCode": "N7A2G2", "twitter": "None", "instagram": "None", "facebook": "None", "youtube": "None", "website": "None", "summary": "None", "logo": "None", "latitude": 43.742100322494174, "longitude": -81.71242159336965}, "118916667RR0001": {"name": "FIRST BAPTIST CHURCH", "designationCode": "C", "categoryCode": "31", "address": "3 FOX ST", "city": "LEAMINGTON", "province": "ON", "country": "CA", "postalCode": "N8H4W9", "twitter": "None", "instagram": "None", "facebook": "None", "youtube": "None", "website": "None", "summary": "None", "logo": "None", "latitude": 42.052223402881424, "longitude": -82.60241381388347}, "118916683RR0001": {"name": "FIRST BAPTIST CHURCH", "designationCode": "C", "categoryCode": "31", "address": "232 GEORGE ST", "city": "AMHERSTBURG", "province": "ON", "country": "CA", "postalCode": "N9V2E9", "twitter": "None", "instagram": "None", "facebook": "None", "youtube": "None", "website": "None", "summary": "None", "logo": "None", "latitude": 42.102766467107195, "longitude": -83.10551299252683}, "118916691RR0001": {"name": "FIRST BAPTIST CHURCH", "designationCode": "C", "categoryCode": "31", "address": "P.O. BOX 56", "city": "KINGSVILLE", "province": "ON", "country": "CA", "postalCode": "N9Y2E8", "twitter": "None", "instagram": "None", "facebook": "None", "youtube": "None", "website": "None", "summary": "None", "logo": "None", "latitude": 42.03786300000006, "longitude": -82.74031099999993}, "118916758RR0001": {"name": "FIRST BAPTIST CHURCH", "designationCode": "C", "categoryCode": "31", "address": "PO BOX 306", "city": "ATIKOKAN", "province": "ON", "country": "CA", "postalCode": "P0T1C0", "twitter": "None", "instagram": "None", "facebook": "None", "youtube": "None", "website": "None", "summary": "None", "logo": "None", "latitude": 48.78243202695454, "longitude": -91.62784818644623}, "118916840RR0001": {"name": "FIRST BAPTIST CHURCH", "designationCode": "C", "categoryCode": "31", "address": "170 DUKE STREET", "city": "THUNDER BAY", "province": "ON", "country": "CA", "postalCode": "P7A5T3", "twitter": "None", "instagram": "None", "facebook": "None", "youtube": "None", "website": "None", "summary": "None", "logo": "None", "latitude": 48.444205567863115, "longitude": -89.231581083415}, "118916857RR0001": {"name": "FIRST BAPTIST CHURCH", "designationCode": "C", "categoryCode": "31", "address": "510 SECOND ST S", "city": "KENORA", "province": "ON", "country": "CA", "postalCode": "P9N1G8", "twitter": "None", "instagram": "None", "facebook": "None", "youtube": "None", "website": "None", "summary": "None", "logo": "None", "latitude": 49.76528447100232, "longitude": -94.48417286081136}, "118916873RR0001": {"name": "FIRST BAPTIST CHURCH", "designationCode": "C", "categoryCode": "31", "address": "BOX 278", "city": "MINITONAS", "province": "MB", "country": "CA", "postalCode": "R0L1G0", "twitter": "None", "instagram": "None", "facebook": "None", "youtube": "None", "website": "None", "summary": "None", "logo": "None", "latitude": 52.086580000000026, "longitude": -101.03713999999997}, "118916881RR0001": {"name": "FIRST BAPTIST CHURCH", "designationCode": "C", "categoryCode": "31", "address": "BOX 1004", "city": "SWAN RIVER", "province": "MB", "country": "CA", "postalCode": "R0L1Z0", "twitter": "None", "instagram": "None", "facebook": "None", "youtube": "None", "website": "None", "summary": "None", "logo": "None", "latitude": 52.11672730414978, "longitude": -101.25989472758229}, "118916907RR0001": {"name": "FIRST BAPTIST CHURCH", "designationCode": "C", "categoryCode": "31", "address": "3881 PARK AVENUE", "city": "BRANDON", "province": "MB", "country": "CA", "postalCode": "R7B3Y6", "twitter": "None", "instagram": "None", "facebook": "None", "youtube": "None", "website": "None", "summary": "None", "logo": "None", "latitude": 49.83643688542295, "longitude": -99.99159119063447}, "118916949RR0001": {"name": "FIRST BAPTIST CHURCH", "designationCode": "C", "categoryCode": "31", "address": "PO BOX 328", "city": "MIDALE", "province": "SK", "country": "CA", "postalCode": "S0C1S0", "twitter": "None", "instagram": "None", "facebook": "None", "youtube": "None", "website": "None", "summary": "None", "logo": "None", "latitude": 49.40006000000005, "longitude": -103.40099999999995}, "118916972RR0001": {"name": "FIRST BAPTIST CHURCH", "designationCode": "C", "categoryCode": "31", "address": "35 SMITH ST E", "city": "YORKTON", "province": "SK", "country": "CA", "postalCode": "S3N0H3", "twitter": "None", "instagram": "None", "facebook": "None", "youtube": "None", "website": "None", "summary": "None", "logo": "None", "latitude": 51.21215252928614, "longitude": -102.4603112514571}, "118917004RR0001": {"name": "FIRST BAPTIST CHURCH", "designationCode": "C", "categoryCode": "31", "address": "1351 28TH ST E", "city": "PRINCE ALBERT", "province": "SK", "country": "CA", "postalCode": "S6V6T4", "twitter": "None", "instagram": "None", "facebook": "None", "youtube": "None", "website": "None", "summary": "None", "logo": "None", "latitude": 53.18762769090567, "longitude": -105.71607954575494}, "118917012RR0001": {"name": "FIRST BAPTIST CHURCH", "designationCode": "C", "categoryCode": "31", "address": "401-FOURTH AVENUE NORTH", "city": "SASKATOON", "province": "SK", "country": "CA", "postalCode": "S7K2M4", "twitter": "None", "instagram": "None", "facebook": "None", "youtube": "None", "website": "None", "summary": "None", "logo": "None", "latitude": 52.13320243963874, "longitude": -106.65840939733951}, "118917103RR0001": {"name": "FIRST BAPTIST CHURCH", "designationCode": "C", "categoryCode": "31", "address": "10031-109 TH STREET", "city": "EDMONTON", "province": "AB", "country": "CA", "postalCode": "T5J1M1", "twitter": "None", "instagram": "None", "facebook": "None", "youtube": "None", "website": "None", "summary": "None", "logo": "None", "latitude": 53.53967700000001, "longitude": -113.50841680013295}, "130165582RR0001": {"name": "FIRST BAPTIST CHURCH", "designationCode": "C", "categoryCode": "31", "address": "PO BOX 103", "city": "CLINTON", "province": "ON", "country": "CA", "postalCode": "N0M1L0", "twitter": "None", "instagram": "None", "facebook": "None", "youtube": "None", "website": "None", "summary": "None", "logo": "None", "latitude": 43.617650000000026, "longitude": -81.53971999999999}, "130169261RR0001": {"name": "FIRST BAPTIST CHURCH", "designationCode": "C", "categoryCode": "31", "address": "5109 57TH AVENUE", "city": "PONOKA", "province": "AB", "country": "CA", "postalCode": "T4J1G5", "twitter": "None", "instagram": "None", "facebook": "None", "youtube": "None", "website": "None", "summary": "None", "logo": "None", "latitude": 52.6831154878819, "longitude": -113.5760736633389}, "130491749RR0001": {"name": "FIRST BAPTIST CHURCH", "designationCode": "C", "categoryCode": "31", "address": "205 OAK ST  PO BOX 87", "city": "STAYNER", "province": "ON", "country": "CA", "postalCode": "L0M1S0", "twitter": "None", "instagram": "None", "facebook": "None", "youtube": "None", "website": "None", "summary": "None", "logo": "None", "latitude": 44.41853528533698, "longitude": -80.09184717374062}, "130530330RR0001": {"name": "FIRST BAPTIST CHURCH", "designationCode": "C", "categoryCode": "31", "address": "114 BROAD ST. E.              PO BOX 234", "city": "DUNNVILLE", "province": "ON", "country": "CA", "postalCode": "N1A2X5", "twitter": "None", "instagram": "None", "facebook": "None", "youtube": "None", "website": "None", "summary": "None", "logo": "None", "latitude": 42.90383001550864, "longitude": -79.61831091090475}, "892094830RR0001": {"name": "FIRST BAPTIST CHURCH", "designationCode": "C", "categoryCode": "31", "address": "568 RICHMOND ST", "city": "LONDON", "province": "ON", "country": "CA", "postalCode": "N6A3G1", "twitter": "None", "instagram": "None", "facebook": "None", "youtube": "None", "website": "None", "summary": "None", "logo": "None", "latitude": 42.9890756960875, "longitude": -81.25069645902845}, "893852434RR0001": {"name": "FIRST BAPTIST CHURCH", "designationCode": "C", "categoryCode": "31", "address": "2495-76TH AVE", "city": "GRAND FORKS", "province": "BC", "country": "CA", "postalCode": "V0H1H2", "twitter": "None", "instagram": "None", "facebook": "None", "youtube": "None", "website": "None", "summary": "None", "logo": "None", "latitude": 49.02879225958348, "longitude": -118.4686810238734}, "894736750RR0001": {"name": "FIRST BAPTIST CHURCH", "designationCode": "C", "categoryCode": "31", "address": "135 KING ST E", "city": "CHATHAM", "province": "ON", "country": "CA", "postalCode": "N7M3N1", "twitter": "None", "instagram": "None", "facebook": "None", "youtube": "None", "website": "None", "summary": "None", "logo": "None", "latitude": 42.40594908855089, "longitude": -82.17583965834723}, "107384893RR0001": {"name": "FIRST BAPTIST CHURCH (REGULAR)", "designationCode": "C", "categoryCode": "31", "address": "454 COLUMBIA ST", "city": "KAMLOOPS", "province": "BC", "country": "CA", "postalCode": "V2C2T5", "twitter": "None", "instagram": "None", "facebook": "None", "youtube": "None", "website": "None", "summary": "None", "logo": "None", "latitude": 50.67142050043269, "longitude": -120.3305206902591}, "810165845RR0001": {"name": "FIRST BAPTIST CHURCH FELLOWSHIP OF CALGARY, ALBERTA", "designationCode": "C", "categoryCode": "31", "address": "1311 4 STREET SW", "city": "CALGARY", "province": "AB", "country": "CA", "postalCode": "T2R0X9", "twitter": "None", "instagram": "None", "facebook": "None", "youtube": "None", "website": "None", "summary": "None", "logo": "None", "latitude": 51.040053, "longitude": -114.0715877102544}, "860431535RR0001": {"name": "FIRST BAPTIST CHURCH FLIN FLON", "designationCode": "C", "categoryCode": "31", "address": "PO BOX 641 STN MAIN", "city": "FLIN FLON", "province": "MB", "country": "CA", "postalCode": "R8A1N5", "twitter": "None", "instagram": "None", "facebook": "None", "youtube": "None", "website": "None", "summary": "None", "logo": "None", "latitude": 54.76559394711583, "longitude": -101.8760435688571}, "130334907RR0001": {"name": "FIRST BAPTIST CHURCH IN MONTREAL", "designationCode": "C", "categoryCode": "31", "address": "6215 COTE ST-LUC RD.", "city": "HAMPSTEAD", "province": "QC", "country": "CA", "postalCode": "H3X2H3", "twitter": "None", "instagram": "None", "facebook": "None", "youtube": "None", "website": "None", "summary": "None", "logo": "None", "latitude": 45.47410117043668, "longitude": -73.64392237013084}, "878728914RR0001": {"name": "FIRST BAPTIST CHURCH INGERSOLL INC.", "designationCode": "C", "categoryCode": "31", "address": "235 THAMES STREET SOUTH", "city": "INGERSOLL", "province": "ON", "country": "CA", "postalCode": "N5C2T6", "twitter": "None", "instagram": "None", "facebook": "None", "youtube": "None", "website": "None", "summary": "None", "logo": "None", "latitude": 43.036112912026034, "longitude": -80.8801726651279}, "856209838RR0001": {"name": "FIRST BAPTIST CHURCH KELOWNA", "designationCode": "C", "categoryCode": "31", "address": "1309 BERNARD AVE", "city": "KELOWNA", "province": "BC", "country": "CA", "postalCode": "V1Y6R5", "twitter": "None", "instagram": "None", "facebook": "None", "youtube": "None", "website": "None", "summary": "None", "logo": "None", "latitude": 49.88627849509524, "longitude": -119.46997269317329}, "118916956RR0001": {"name": "FIRST BAPTIST CHURCH NIPAWIN INC.", "designationCode": "C", "categoryCode": "31", "address": "BOX 191", "city": "NIPAWIN", "province": "SK", "country": "CA", "postalCode": "S0E1E0", "twitter": "None", "instagram": "None", "facebook": "None", "youtube": "None", "website": "None", "summary": "None", "logo": "None", "latitude": 53.396118, "longitude": -104.00834700000001}, "890041403RR0001": {"name": "FIRST BAPTIST CHURCH NORTH BAY", "designationCode": "C", "categoryCode": "31", "address": "1250 CASSELLS STREET", "city": "NORTH BAY", "province": "ON", "country": "CA", "postalCode": "P1B4B7", "twitter": "None", "instagram": "None", "facebook": "None", "youtube": "None", "website": "None", "summary": "None", "logo": "None", "latitude": 46.31804252654483, "longitude": -79.45369263918865}, "861006906RR0001": {"name": "FIRST BAPTIST CHURCH OF DAWSON CREEK", "designationCode": "C", "categoryCode": "31", "address": "1400-113TH AVENUE", "city": "DAWSON CREEK", "province": "BC", "country": "CA", "postalCode": "V1G2Z2", "twitter": "None", "instagram": "None", "facebook": "None", "youtube": "None", "website": "None", "summary": "None", "logo": "None", "latitude": 55.74761735832986, "longitude": -120.24123783986376}, "107384117RR0001": {"name": "FIRST BAPTIST CHURCH OF MOUNT FOREST", "designationCode": "C", "categoryCode": "31", "address": "116 FERGUS STREET NORTH", "city": "MOUNT FOREST", "province": "ON", "country": "CA", "postalCode": "N0G2L2", "twitter": "None", "instagram": "None", "facebook": "None", "youtube": "None", "website": "None", "summary": "None", "logo": "None", "latitude": 43.983233461884396, "longitude": -80.73463468047825}, "131157091RR0001": {"name": "FIRST BAPTIST CHURCH OF NELSON, BRITISH COLUMBIA", "designationCode": "C", "categoryCode": "31", "address": "611 FIFTH ST", "city": "NELSON", "province": "BC", "country": "CA", "postalCode": "V1L2X1", "twitter": "None", "instagram": "None", "facebook": "None", "youtube": "None", "website": "None", "summary": "None", "logo": "None", "latitude": 49.50356238860995, "longitude": -117.27535828312533}, "129923314RR0001": {"name": "FIRST BAPTIST CHURCH OF OWEN SOUND", "designationCode": "C", "categoryCode": "31", "address": "990 4TH AVE E", "city": "OWEN SOUND", "province": "ON", "country": "CA", "postalCode": "N4K2P1", "twitter": "None", "instagram": "None", "facebook": "None", "youtube": "None", "website": "None", "summary": "None", "logo": "None", "latitude": 44.567913122396, "longitude": -80.9395894946043}, "863963443RR0001": {"name": "FIRST BAPTIST CHURCH OF PINCHER CREEK", "designationCode": "C", "categoryCode": "31", "address": "BOX 757", "city": "PINCHER CREEK", "province": "AB", "country": "CA", "postalCode": "T0K1W0", "twitter": "None", "instagram": "None", "facebook": "None", "youtube": "None", "website": "None", "summary": "None", "logo": "None", "latitude": 49.48739000000006, "longitude": -113.9366800732874}, "118916485RR0001": {"name": "FIRST BAPTIST CHURCH OF PUCE", "designationCode": "C", "categoryCode": "31", "address": "1464 TRADITIONAL TRAIL", "city": "BELLE RIVER", "province": "ON", "country": "CA", "postalCode": "N0R1A0", "twitter": "None", "instagram": "None", "facebook": "None", "youtube": "None", "website": "None", "summary": "None", "logo": "None", "latitude": 42.29011620843673, "longitude": -82.73788300637663}, "852130236RR0001": {"name": "FIRST BAPTIST CHURCH OF RED DEER SOCIETY", "designationCode": "C", "categoryCode": "31", "address": "4310 - 39 STREET", "city": "RED DEER", "province": "AB", "country": "CA", "postalCode": "T4N0Z3", "twitter": "None", "instagram": "None", "facebook": "None", "youtube": "None", "website": "None", "summary": "None", "logo": "None", "latitude": 52.25944152986306, "longitude": -113.7969225}, "107384935RR0001": {"name": "FIRST BAPTIST CHURCH OF SMOKY LAKE", "designationCode": "C", "categoryCode": "39", "address": "BOX 660", "city": "SMOKY LAKE", "province": "AB", "country": "CA", "postalCode": "T0A3C0", "twitter": "None", "instagram": "None", "facebook": "None", "youtube": "None", "website": "None", "summary": "None", "logo": "None", "latitude": 54.113230000000044, "longitude": -112.47107999999997}, "130259013RR0001": {"name": "FIRST BAPTIST CHURCH OF STEINBACH INC.", "designationCode": "C", "categoryCode": "31", "address": "375 LOEWEN BLVD", "city": "STEINBACH", "province": "MB", "country": "CA", "postalCode": "R5G0L1", "twitter": "None", "instagram": "None", "facebook": "None", "youtube": "None", "website": "None", "summary": "None", "logo": "None", "latitude": 49.532265308627665, "longitude": -96.67330856025906}, "107384372RR0001": {"name": "FIRST BAPTIST CHURCH OF SUDBURY", "designationCode": "C", "categoryCode": "31", "address": "2603 FALCONBRIDGE HWY.", "city": "GARSON", "province": "ON", "country": "CA", "postalCode": "P3L1K6", "twitter": "None", "instagram": "None", "facebook": "None", "youtube": "None", "website": "None", "summary": "None", "logo": "None", "latitude": 46.54559499203591, "longitude": -80.88979982575415}, "130518103RR0001": {"name": "FIRST BAPTIST CHURCH PETROLIA", "designationCode": "C", "categoryCode": "31", "address": "418 GREENFIELD STREET", "city": "PETROLIA", "province": "ON", "country": "CA", "postalCode": "N0N1R0", "twitter": "None", "instagram": "None", "facebook": "None", "youtube": "None", "website": "None", "summary": "None", "logo": "None", "latitude": 42.88052638190317, "longitude": -82.14640406116933}, "130095169RR0001": {"name": "FIRST BAPTIST CHURCH REGINA INC.", "designationCode": "C", "categoryCode": "31", "address": "2241 VICTORIA AVE", "city": "REGINA", "province": "SK", "country": "CA", "postalCode": "S4P0S4", "twitter": "None", "instagram": "None", "facebook": "None", "youtube": "None", "website": "None", "summary": "None", "logo": "None", "latitude": 50.447076539529256, "longitude": -104.61337102553523}, "817774292RR0001": {"name": "FIRST BAPTIST CHURCH SMITHS FALLS", "designationCode": "C", "categoryCode": "31", "address": "1 TUDOR CIRCLE", "city": "LOMBARDY", "province": "ON", "country": "CA", "postalCode": "K0G1L0", "twitter": "None", "instagram": "None", "facebook": "None", "youtube": "None", "website": "None", "summary": "None", "logo": "None", "latitude": 44.8335607288074, "longitude": -76.0627953605229}, "809458821RR0001": {"name": "FIRST BAPTIST CHURCH STRATHROY", "designationCode": "C", "categoryCode": "31", "address": "20 CENTRE STREET WEST", "city": "STRATHROY", "province": "ON", "country": "CA", "postalCode": "N7G1T6", "twitter": "None", "instagram": "None", "facebook": "None", "youtube": "None", "website": "None", "summary": "None", "logo": "None", "latitude": 42.95741124534027, "longitude": -81.62370981819501}, "848553780RR0001": {"name": "FIRST BAPTIST CHURCH THOROLD", "designationCode": "C", "categoryCode": "31", "address": "42 ORMOND STREET SOUTH", "city": "THOROLD", "province": "ON", "country": "CA", "postalCode": "L2V1Y4", "twitter": "None", "instagram": "None", "facebook": "None", "youtube": "None", "website": "None", "summary": "None", "logo": "None", "latitude": 43.121852863725536, "longitude": -79.198864907958}, "825941529RR0001": {"name": "FIRST BAPTIST CHURCH TILLSONBURG INC.", "designationCode": "C", "categoryCode": "31", "address": "B - 169 BROADWAY ST", "city": "TILLSONBURG", "province": "ON", "country": "CA", "postalCode": "N4G3P9", "twitter": "None", "instagram": "None", "facebook": "None", "youtube": "None", "website": "None", "summary": "None", "logo": "None", "latitude": 42.86127482260839, "longitude": -80.72861963587371}, "851774570RR0001": {"name": "FIRST BAPTIST CHURCH VERNON BC", "designationCode": "C", "categoryCode": "31", "address": "1406-32ND AVE", "city": "VERNON", "province": "BC", "country": "CA", "postalCode": "V1T2H7", "twitter": "None", "instagram": "None", "facebook": "None", "youtube": "None", "website": "None", "summary": "None", "logo": "None", "latitude": 50.265408470136954, "longitude": -119.25012205536962}, "129261764RR0001": {"name": "FIRST BAPTIST CHURCH,", "designationCode": "C", "categoryCode": "31", "address": "BOX 75", "city": "GOLDEN PRAIRIE", "province": "SK", "country": "CA", "postalCode": "S0N0Y0", "twitter": "None", "instagram": "None", "facebook": "None", "youtube": "None", "website": "None", "summary": "None", "logo": "None", "latitude": 50.22268800000006, "longitude": -109.62685249999993}, "130352859RR0001": {"name": "FIRST BAPTIST CHURCH,", "designationCode": "C", "categoryCode": "31", "address": "1650 WADDINGTON RD", "city": "NANAIMO", "province": "BC", "country": "CA", "postalCode": "V9S4W3", "twitter": "None", "instagram": "None", "facebook": "None", "youtube": "None", "website": "None", "summary": "None", "logo": "None", "latitude": 49.186485000000005, "longitude": -123.96259142616428}, "130636954RR0001": {"name": "FIRST BAPTIST CHURCH,", "designationCode": "C", "categoryCode": "31", "address": "102 - 3RD STREET S.E.", "city": "PORTAGE LA PRAIRIE", "province": "MB", "country": "CA", "postalCode": "R1N1M5", "twitter": "None", "instagram": "None", "facebook": "None", "youtube": "None", "website": "None", "summary": "None", "logo": "None", "latitude": 49.970535176285814, "longitude": -98.28608725521325}, "131743882RR0001": {"name": "FIRST BAPTIST CHURCH,", "designationCode": "C", "categoryCode": "31", "address": "72 SYLVAN DR", "city": "PEMBROKE", "province": "ON", "country": "CA", "postalCode": "K8A6W7", "twitter": "None", "instagram": "None", "facebook": "None", "youtube": "None", "website": "None", "summary": "None", "logo": "None", "latitude": 45.84813938435602, "longitude": -77.26679338069108}, "131798746RR0001": {"name": "FIRST BAPTIST CHURCH,", "designationCode": "C", "categoryCode": "31", "address": "465 ALBERT ST E", "city": "SAULT STE MARIE", "province": "ON", "country": "CA", "postalCode": "P6A2J9", "twitter": "None", "instagram": "None", "facebook": "None", "youtube": "None", "website": "None", "summary": "None", "logo": "None", "latitude": 46.51191045155528, "longitude": -84.33097963102298}, "131799611RR0001": {"name": "FIRST BAPTIST CHURCH,", "designationCode": "C", "categoryCode": "31", "address": "6211 CHERRY CREEK ROAD", "city": "PORT ALBERNI", "province": "BC", "country": "CA", "postalCode": "V9Y8S9", "twitter": "None", "instagram": "None", "facebook": "None", "youtube": "None", "website": "None", "summary": "None", "logo": "None", "latitude": 49.283960437965284, "longitude": -124.78905304700241}, "131802225RR0001": {"name": "FIRST BAPTIST CHURCH,", "designationCode": "C", "categoryCode": "31", "address": "70 WEST ST", "city": "BRANTFORD", "province": "ON", "country": "CA", "postalCode": "N3T3E7", "twitter": "None", "instagram": "None", "facebook": "None", "youtube": "None", "website": "None", "summary": "None", "logo": "None", "latitude": 43.14272367389914, "longitude": -80.26734113979423}, "131898702RR0001": {"name": "FIRST BAPTIST CHURCH,", "designationCode": "C", "categoryCode": "31", "address": "PO BOX 1210", "city": "TIMMINS", "province": "ON", "country": "CA", "postalCode": "P4N7J5", "twitter": "None", "instagram": "None", "facebook": "None", "youtube": "None", "website": "None", "summary": "None", "logo": "None", "latitude": 48.47611200000006, "longitude": -81.32891299999993}, "132768557RR0001": {"name": "FIRST BAPTIST CHURCH,", "designationCode": "C", "categoryCode": "31", "address": "1 MCMURRAY ST.", "city": "PARRY SOUND", "province": "ON", "country": "CA", "postalCode": "P2A1E6", "twitter": "None", "instagram": "None", "facebook": "None", "youtube": "None", "website": "None", "summary": "None", "logo": "None", "latitude": 45.34638500308477, "longitude": -80.03381250821803}, "888128592RR0001": {"name": "FIRST BAPTIST CHURCH,", "designationCode": "C", "categoryCode": "31", "address": "R.R.2", "city": "LEDUC", "province": "AB", "country": "CA", "postalCode": "T9E2X2", "twitter": "None", "instagram": "None", "facebook": "None", "youtube": "None", "website": "None", "summary": "None", "logo": "None", "latitude": 53.33253019305462, "longitude": -113.54263866593718}, "889084265RR0001": {"name": "FIRST BAPTIST CHURCH,", "designationCode": "C", "categoryCode": "31", "address": "P O BOX 218", "city": "THORNBURY", "province": "ON", "country": "CA", "postalCode": "N0H2P0", "twitter": "None", "instagram": "None", "facebook": "None", "youtube": "None", "website": "None", "summary": "None", "logo": "None", "latitude": 44.561600000000055, "longitude": -80.45108999999997}, "118826924RR0002": {"name": "FIRST BAPTIST CHURCH, CAMPBELLTON, N.B.", "designationCode": "C", "categoryCode": "31", "address": "P.O. BOX 1010", "city": "CAMPBELLTON", "province": "NB", "country": "CA", "postalCode": "E3N3H4", "twitter": "None", "instagram": "None", "facebook": "None", "youtube": "None", "website": "None", "summary": "None", "logo": "None", "latitude": 47.99757300000006, "longitude": -66.66103249999993}, "872810510RR0001": {"name": "FIRST BAPTIST CHURCH, GUELPH", "designationCode": "C", "categoryCode": "31", "address": "255 WOOLWICH ST", "city": "GUELPH", "province": "ON", "country": "CA", "postalCode": "N1H3V8", "twitter": "None", "instagram": "None", "facebook": "None", "youtube": "None", "website": "None", "summary": "None", "logo": "None", "latitude": 43.549171238155544, "longitude": -80.25578968855699}, "107384596RR0001": {"name": "FIRST BAPTIST CHURCH, LLOYDMINSTER", "designationCode": "C", "categoryCode": "31", "address": "3915 - 47TH AVE", "city": "LLOYDMINSTER", "province": "SK", "country": "CA", "postalCode": "S9V2C7", "twitter": "None", "instagram": "None", "facebook": "None", "youtube": "None", "website": "None", "summary": "None", "logo": "None", "latitude": 53.2734500235465, "longitude": -109.99746454064713}}