{"118787159RR0001": {"name": "ANGLICAN UNITED FELLOWSHIP OF PORT MCNEILL", "designationCode": "C", "categoryCode": "39", "address": "BOX 375", "city": "PORT MCNEILL", "province": "BC", "country": "CA", "postalCode": "V0N2R0", "twitter": "None", "instagram": "None", "facebook": "None", "youtube": "None", "website": "None", "summary": "None", "logo": "None", "latitude": 50.58438000000007, "longitude": -127.08205999999996}, "119212363RR0001": {"name": "ANGLICAN WORSHIP RESOURCES SOCIETY", "designationCode": "C", "categoryCode": "47", "address": "5 MEADOWVALE DRIVE", "city": "TORONTO", "province": "ON", "country": "CA", "postalCode": "M8Y2N7", "twitter": "None", "instagram": "None", "facebook": "None", "youtube": "None", "website": "None", "summary": "None", "logo": "None", "latitude": 43.6467668531653, "longitude": -79.50549597945644}, "118787167RR0001": {"name": "ANGOLA MEMORIAL SCHOLARSHIP FUND", "designationCode": "C", "categoryCode": "21", "address": "1333 BLOOR ST                 2016", "city": "MISSISSAUGA", "province": "ON", "country": "CA", "postalCode": "L4Y3T6", "twitter": "None", "instagram": "None", "facebook": "None", "youtube": "None", "website": "None", "summary": "None", "logo": "None", "latitude": 43.615840743031654, "longitude": -79.59580372739283}, "891843179RR0001": {"name": "ANGUS FOOD BANK INC", "designationCode": "C", "categoryCode": "01", "address": "BOX 2066", "city": "ANGUS", "province": "ON", "country": "CA", "postalCode": "L0M1B0", "twitter": "None", "instagram": "None", "facebook": "None", "youtube": "None", "website": "None", "summary": "None", "logo": "None", "latitude": 44.31911100000005, "longitude": -79.88208199999994}, "118787175RR0001": {"name": "ANGUS UNITED CHURCH", "designationCode": "C", "categoryCode": "44", "address": "56 JONAS STREET", "city": "ANGUS", "province": "ON", "country": "CA", "postalCode": "L0M1B0", "twitter": "None", "instagram": "None", "facebook": "None", "youtube": "None", "website": "None", "summary": "None", "logo": "None", "latitude": 44.31811150288554, "longitude": -79.88251244324539}, "819055930RR0001": {"name": "ANHBC Neighbourhood Houses Foundation", "designationCode": "C", "categoryCode": "59", "address": "203-3102 MAIN ST", "city": "VANCOUVER", "province": "BC", "country": "CA", "postalCode": "V5T3G7", "twitter": "None", "instagram": "None", "facebook": "None", "youtube": "None", "website": "None", "summary": "None", "logo": "None", "latitude": 49.257205292255776, "longitude": -123.10116061876066}, "891494577RR0001": {"name": "ANIMAL ADOPTIONS OF FLAMBOROUGH", "designationCode": "C", "categoryCode": "54", "address": "P.O. BOX #71                  16 MILL STREET NORTH", "city": "WATERDOWN", "province": "ON", "country": "CA", "postalCode": "L0R2H0", "twitter": "None", "instagram": "None", "facebook": "None", "youtube": "None", "website": "None", "summary": "None", "logo": "None", "latitude": 43.33485258043609, "longitude": -79.89228622363702}, "834396178RR0001": {"name": "ANIMAL ADVOCATES SOCIETY of BC", "designationCode": "C", "categoryCode": "54", "address": "RPO EDGEMONT VILLGE           POST OFFICE BOX 32", "city": "NORTH VANCOUVER", "province": "BC", "country": "CA", "postalCode": "V7R4X1", "twitter": "None", "instagram": "None", "facebook": "None", "youtube": "None", "website": "None", "summary": "None", "logo": "None", "latitude": 49.338167129466235, "longitude": -123.10282531138661}, "118787183RR0001": {"name": "ANIMAL AID & ADOPTION", "designationCode": "C", "categoryCode": "54", "address": "PO BOX 53081 RPO ROYAL ORCHARD10 ROYAL ORCHARD BLVD", "city": "THORNHILL", "province": "ON", "country": "CA", "postalCode": "L3T7R9", "twitter": "None", "instagram": "None", "facebook": "None", "youtube": "None", "website": "None", "summary": "None", "logo": "None", "latitude": 43.82451000000003, "longitude": -79.41533999999996}, "840776769RR0001": {"name": "ANIMAL AID FOUNDATION", "designationCode": "A", "categoryCode": "03", "address": "6-2400 DUNDAS ST. W           SUITE 114", "city": "MISSISSAUGA", "province": "ON", "country": "CA", "postalCode": "L5K2R8", "twitter": "None", "instagram": "None", "facebook": "None", "youtube": "None", "website": "None", "summary": "None", "logo": "None", "latitude": 43.543128663519944, "longitude": -79.65839818301347}, "885639203RR0001": {"name": "ANIMAL AIDE ASSOCIATION OF ST. THOMAS-ELGIN", "designationCode": "C", "categoryCode": "54", "address": "333 TALBOT STREET", "city": "ST. THOMAS", "province": "ON", "country": "CA", "postalCode": "N5P1B5", "twitter": "None", "instagram": "None", "facebook": "None", "youtube": "None", "website": "None", "summary": "None", "logo": "None", "latitude": 42.77915085991903, "longitude": -81.19903835707447}, "118787191RR0001": {"name": "ANIMAL ASSISTANCE GROUP", "designationCode": "C", "categoryCode": "54", "address": "254 LETCHER ST", "city": "SAULT STE. MARIE", "province": "ON", "country": "CA", "postalCode": "P6C4Y7", "twitter": "None", "instagram": "None", "facebook": "None", "youtube": "None", "website": "None", "summary": "None", "logo": "None", "latitude": 46.52943546211554, "longitude": -84.37987284191256}, "118787209RR0001": {"name": "ANIMAL ASSISTANCE SOCIETY OF THE NIAGARA REGION", "designationCode": "C", "categoryCode": "54", "address": "PO BOX 21022", "city": "ST. CATHARINES", "province": "ON", "country": "CA", "postalCode": "L2M7X2", "twitter": "None", "instagram": "None", "facebook": "None", "youtube": "None", "website": "None", "summary": "None", "logo": "None", "latitude": 43.15634700000005, "longitude": -79.24869349999993}, "890160195RR0001": {"name": "ANIMAL LOVE FOUNDATION", "designationCode": "C", "categoryCode": "54", "address": "RR # 1", "city": "SALFORD", "province": "ON", "country": "CA", "postalCode": "N0J1W0", "twitter": "None", "instagram": "None", "facebook": "None", "youtube": "None", "website": "None", "summary": "None", "logo": "None", "latitude": 42.984459977206114, "longitude": -80.81131003895138}, "872096664RR0001": {"name": "ANIMAL OUTREACH", "designationCode": "C", "categoryCode": "54", "address": "803 WATERLOO ST", "city": "LONDON", "province": "ON", "country": "CA", "postalCode": "N6A3W5", "twitter": "None", "instagram": "None", "facebook": "None", "youtube": "None", "website": "None", "summary": "None", "logo": "None", "latitude": 42.99857309602406, "longitude": -81.24911415670245}, "858508401RR0001": {"name": "ANIMAL RESCUE COALITIONS NOVA SCOTIA", "designationCode": "C", "categoryCode": "54", "address": "P. O. BOX 8033                STATION A", "city": "HALIFAX", "province": "NS", "country": "CA", "postalCode": "B3K5L8", "twitter": "None", "instagram": "None", "facebook": "None", "youtube": "None", "website": "None", "summary": "None", "logo": "None", "latitude": 44.645478000000054, "longitude": -63.576552499999934}, "899805956RR0001": {"name": "ANIMAL RESCUE FOUNDATION (ARF) OF ALBERTA", "designationCode": "C", "categoryCode": "54", "address": "PO BOX 34160                  RPO WESTBROOK", "city": "CALGARY", "province": "AB", "country": "CA", "postalCode": "T3C3W2", "twitter": "None", "instagram": "None", "facebook": "None", "youtube": "None", "website": "None", "summary": "None", "logo": "None", "latitude": 51.04149007501829, "longitude": -114.14100994835258}, "890332125RR0001": {"name": "ANIMAL RESCUE KREW (A.R.K.)", "designationCode": "C", "categoryCode": "54", "address": "820 BIRCHVIEW RD", "city": "DOURO-DUMMER", "province": "ON", "country": "CA", "postalCode": "K0L2H0", "twitter": "None", "instagram": "None", "facebook": "None", "youtube": "None", "website": "None", "summary": "None", "logo": "None", "latitude": 44.49564999500836, "longitude": -78.1980000670837}, "890948045RR0001": {"name": "ANIMAL SHELTER (BATHURST) INC", "designationCode": "C", "categoryCode": "54", "address": "880 RIORDON DR", "city": "BATHURST", "province": "NB", "country": "CA", "postalCode": "E2A4W7", "twitter": "None", "instagram": "None", "facebook": "None", "youtube": "None", "website": "None", "summary": "None", "logo": "None", "latitude": 47.602967958681745, "longitude": -65.62784205926476}, "118787266RR0001": {"name": "ANIMAL SHELTER FOR HUNTSVILLE", "designationCode": "C", "categoryCode": "54", "address": "1028 - 3 MAIN ST W", "city": "HUNTSVILLE", "province": "ON", "country": "CA", "postalCode": "P1H0A3", "twitter": "None", "instagram": "None", "facebook": "None", "youtube": "None", "website": "None", "summary": "None", "logo": "None", "latitude": 45.32603765941511, "longitude": -79.22054583790185}, "140984915RR0001": {"name": "ANIMAL TRACKERS INC", "designationCode": "C", "categoryCode": "54", "address": "7 TANGLEWOOD DR", "city": "CALEDON", "province": "ON", "country": "CA", "postalCode": "L7K0K3", "twitter": "None", "instagram": "None", "facebook": "None", "youtube": "None", "website": "None", "summary": "None", "logo": "None", "latitude": 43.923869830168904, "longitude": -80.00505515021024}, "886697598RR0001": {"name": "ANIMAL WELFARE ASSOCIATION OF HAMILTON", "designationCode": "C", "categoryCode": "54", "address": "185 HERKIMER STREET", "city": "HAMILTON", "province": "ON", "country": "CA", "postalCode": "L8P2H7", "twitter": "None", "instagram": "None", "facebook": "None", "youtube": "None", "website": "None", "summary": "None", "logo": "None", "latitude": 43.25140587480538, "longitude": -79.88231762268445}, "118787290RR0001": {"name": "ANIMAL WELFARE FOUNDATION OF CANADA", "designationCode": "A", "categoryCode": "53", "address": "643-280 NELSON STREET", "city": "VANCOUVER", "province": "BC", "country": "CA", "postalCode": "V6B2E2", "twitter": "None", "instagram": "None", "facebook": "None", "youtube": "None", "website": "None", "summary": "None", "logo": "None", "latitude": 49.276435559835775, "longitude": -123.11879061653781}, "869125294RR0001": {"name": "ANIMALERT PET ADOPTIONS INC", "designationCode": "C", "categoryCode": "54", "address": "BOX 24042", "city": "LONDON", "province": "ON", "country": "CA", "postalCode": "N6H5C4", "twitter": "None", "instagram": "None", "facebook": "None", "youtube": "None", "website": "None", "summary": "None", "logo": "None", "latitude": 42.98689500000006, "longitude": -81.24624349999993}, "846707479RR0001": {"name": "ANIMALS FOR LIFE SOCIETY", "designationCode": "C", "categoryCode": "54", "address": "1805 GLAMORGAN RD", "city": "NORTH SAANICH", "province": "BC", "country": "CA", "postalCode": "V8L5S9", "twitter": "None", "instagram": "None", "facebook": "None", "youtube": "None", "website": "None", "summary": "None", "logo": "None", "latitude": 48.65904753837542, "longitude": -123.42673180252754}, "890621923RR0001": {"name": "ANIMATCH INC", "designationCode": "C", "categoryCode": "54", "address": "C.P. DU GRAND BLVD            C.P. #25003", "city": "ILES PERROT", "province": "QC", "country": "CA", "postalCode": "J7V9T7", "twitter": "None", "instagram": "None", "facebook": "None", "youtube": "None", "website": "None", "summary": "None", "logo": "None", "latitude": 45.38781600000006, "longitude": -74.02790149999993}, "894060268RR0001": {"name": "ANIMATION JEUNESSE HAUT SAINT-FRAN\u00c7OIS", "designationCode": "C", "categoryCode": "09", "address": "A - 193 RUE PRINCIPALE E", "city": "MARBLETON", "province": "QC", "country": "CA", "postalCode": "J0B2L0", "twitter": "None", "instagram": "None", "facebook": "None", "youtube": "None", "website": "None", "summary": "None", "logo": "None", "latitude": 45.63309412516596, "longitude": -71.59087560923868}, "893294470RR0001": {"name": "ANIMATIONS PACE-AGE", "designationCode": "C", "categoryCode": "09", "address": "73, PLACE QUEVILLON           C.P. 537", "city": "LEBEL-SUR-QUEVILLON", "province": "QC", "country": "CA", "postalCode": "J0Y1X0", "twitter": "None", "instagram": "None", "facebook": "None", "youtube": "None", "website": "None", "summary": "None", "logo": "None", "latitude": 49.0527638701022, "longitude": -76.97764451335887}, "878002526RR0001": {"name": "ANIMATIONS SCIENTIFIQUES PROF. DINO", "designationCode": "C", "categoryCode": "21", "address": "206-911 ROLAND-THERRIEN", "city": "LONGUEUIL", "province": "QC", "country": "CA", "postalCode": "J4J4L3", "twitter": "None", "instagram": "None", "facebook": "None", "youtube": "None", "website": "None", "summary": "None", "logo": "None", "latitude": 45.54063048990111, "longitude": -73.48951177116393}, "890785256RR0001": {"name": "ANISHINAABEMOWIN TEG INC", "designationCode": "C", "categoryCode": "21", "address": "912 WIKWEMIKONG WAY           PO BOX 84", "city": "WIKWEMIKONG", "province": "ON", "country": "CA", "postalCode": "P0P2J0", "twitter": "None", "instagram": "None", "facebook": "None", "youtube": "None", "website": "None", "summary": "None", "logo": "None", "latitude": 45.75287768578353, "longitude": -81.78078289698315}, "868086521RR0001": {"name": "ANISHINABE SPIRITUAL CENTRE", "designationCode": "C", "categoryCode": "47", "address": "1091 ANDERSON LAKE ROAD", "city": "ESPANOLA", "province": "ON", "country": "CA", "postalCode": "P5E1T1", "twitter": "None", "instagram": "None", "facebook": "None", "youtube": "None", "website": "None", "summary": "None", "logo": "None", "latitude": 46.229047438204496, "longitude": -81.73474754134371}, "895952471RR0001": {"name": "ANISHINABEK NATION 7TH GENERATION CHARITY", "designationCode": "C", "categoryCode": "09", "address": "PO BOX 711", "city": "NORTH BAY", "province": "ON", "country": "CA", "postalCode": "P1B8J8", "twitter": "None", "instagram": "None", "facebook": "None", "youtube": "None", "website": "None", "summary": "None", "logo": "None", "latitude": 46.30661700000006, "longitude": -79.45993249999994}, "866557143RR0001": {"name": "ANISHNAABE KWEWAG GAMIG INC.", "designationCode": "C", "categoryCode": "09", "address": "P O BOX 39", "city": "ROSENEATH", "province": "ON", "country": "CA", "postalCode": "K0K2X0", "twitter": "None", "instagram": "None", "facebook": "None", "youtube": "None", "website": "None", "summary": "None", "logo": "None", "latitude": 44.19355000000007, "longitude": -78.05722999999995}, "894051408RR0001": {"name": "ANISHNABE MIKINACK KINAMAKAMIK INC.", "designationCode": "C", "categoryCode": "23", "address": "PO BOX 1267", "city": "PINE FALLS", "province": "MB", "country": "CA", "postalCode": "R0E1M0", "twitter": "None", "instagram": "None", "facebook": "None", "youtube": "None", "website": "None", "summary": "None", "logo": "None", "latitude": 50.56733000000003, "longitude": -96.21714999999995}, "888491115RR0001": {"name": "ANISHNABEG OUTREACH EMPLOYMENT AND TRAINING INC.", "designationCode": "C", "categoryCode": "23", "address": "151 FREDERICK STREET          SUITE 501", "city": "KITCHENER", "province": "ON", "country": "CA", "postalCode": "N2H2M2", "twitter": "None", "instagram": "None", "facebook": "None", "youtube": "None", "website": "None", "summary": "None", "logo": "None", "latitude": 43.452378420191685, "longitude": -80.48419868039134}, "891550345RR0001": {"name": "ANISHNABIE NAADMAAGI GAMIG SUBSTANCE ABUSE TREATMENT CENTRE", "designationCode": "C", "categoryCode": "01", "address": "473 HWY 17 E", "city": "CUTLER", "province": "ON", "country": "CA", "postalCode": "P0P1B0", "twitter": "None", "instagram": "None", "facebook": "None", "youtube": "None", "website": "None", "summary": "None", "logo": "None", "latitude": 46.213268653554955, "longitude": -82.07183563018555}, "130310048RR0001": {"name": "ANISHNAWBE HEALTH TORONTO", "designationCode": "C", "categoryCode": "11", "address": "225 QUEEN STREET EAST", "city": "TORONTO", "province": "ON", "country": "CA", "postalCode": "M5A1S4", "twitter": "None", "instagram": "None", "facebook": "None", "youtube": "None", "website": "None", "summary": "None", "logo": "None", "latitude": 43.6543898531653, "longitude": -79.36983431181838}, "866542723RR0001": {"name": "ANISHNAWBE MUSHKIKI INC.", "designationCode": "C", "categoryCode": "11", "address": "2B - 101 SYNDICATE AVE N", "city": "THUNDER BAY", "province": "ON", "country": "CA", "postalCode": "P7C3V4", "twitter": "None", "instagram": "None", "facebook": "None", "youtube": "None", "website": "None", "summary": "None", "logo": "None", "latitude": 48.38586003497028, "longitude": -89.24782392979964}, "106714264RR0001": {"name": "ANJOU UNITED CHURCH", "designationCode": "C", "categoryCode": "44", "address": "7951 DADE AVENUE", "city": "ANJOU", "province": "QC", "country": "CA", "postalCode": "H1K1R4", "twitter": "None", "instagram": "None", "facebook": "None", "youtube": "None", "website": "None", "summary": "None", "logo": "None", "latitude": 45.60224269025909, "longitude": -73.54951928602334}, "822588273RR0001": {"name": "ANJUMAN - E - BADRI (OTTAWA)", "designationCode": "C", "categoryCode": "60", "address": "2102 - 1510 RIVERSIDE DR", "city": "OTTAWA", "province": "ON", "country": "CA", "postalCode": "K1G4X5", "twitter": "None", "instagram": "None", "facebook": "None", "youtube": "None", "website": "None", "summary": "None", "logo": "None", "latitude": 45.41038118016022, "longitude": -75.66303995894154}, "822609871RR0001": {"name": "ANJUMAN - E - HAKIMI (MONTREAL)", "designationCode": "C", "categoryCode": "60", "address": "3901 BOUL HENRI-BOURASSA QUEST", "city": "ST LAURENT", "province": "QC", "country": "CA", "postalCode": "H4L1A1", "twitter": "None", "instagram": "None", "facebook": "None", "youtube": "None", "website": "None", "summary": "None", "logo": "None", "latitude": 45.52761884820229, "longitude": -73.69531909729346}, "822583878RR0001": {"name": "ANJUMAN - E - JAMALI (VANCOUVER)", "designationCode": "C", "categoryCode": "60", "address": "202-8720 LANSDOWNE RD.", "city": "RICHMOND", "province": "BC", "country": "CA", "postalCode": "V6X1B9", "twitter": "None", "instagram": "None", "facebook": "None", "youtube": "None", "website": "None", "summary": "None", "logo": "None", "latitude": 49.17368062657278, "longitude": -123.12707126103}, "822612073RR0001": {"name": "ANJUMAN - E - SAIFEE (EDMONTON)", "designationCode": "C", "categoryCode": "60", "address": "7935-91 AVENUE", "city": "EDMONTON", "province": "AB", "country": "CA", "postalCode": "T6C1P9", "twitter": "None", "instagram": "None", "facebook": "None", "youtube": "None", "website": "None", "summary": "None", "logo": "None", "latitude": 53.52588054674263, "longitude": -113.45160141618096}, "822152740RR0001": {"name": "ANJUMAN - E - VAJIHI (CALGARY)", "designationCode": "C", "categoryCode": "60", "address": "SUITE 53 1811 4TH STREET SW", "city": "CALGARY", "province": "AB", "country": "CA", "postalCode": "T2S1W2", "twitter": "None", "instagram": "None", "facebook": "None", "youtube": "None", "website": "None", "summary": "None", "logo": "None", "latitude": 51.036415742714524, "longitude": -114.07157510090015}, "855291233RR0001": {"name": "ANJUMAN KHADIMUL MUSLIMEIN", "designationCode": "C", "categoryCode": "60", "address": "4640 KINGSTON RD", "city": "SCARBOROUGH", "province": "ON", "country": "CA", "postalCode": "M1E2P9", "twitter": "None", "instagram": "None", "facebook": "None", "youtube": "None", "website": "None", "summary": "None", "logo": "None", "latitude": 43.77505434779827, "longitude": -79.17736641355523}, "127593192RR0001": {"name": "ANJUMAN-E ANWARUL ISLAM OF MALTON", "designationCode": "C", "categoryCode": "60", "address": "7097 AIRPORT RD", "city": "MISSISSAUGA", "province": "ON", "country": "CA", "postalCode": "L4T2G7", "twitter": "None", "instagram": "None", "facebook": "None", "youtube": "None", "website": "None", "summary": "None", "logo": "None", "latitude": 43.70590910690143, "longitude": -79.64504505392732}, "810614743RR0001": {"name": "ANJUMAN-E-FAKHRI (MISSISSAUGA)", "designationCode": "C", "categoryCode": "60", "address": "6635 CAMPOBELLO RD", "city": "MISSISSAUGA", "province": "ON", "country": "CA", "postalCode": "L5N2W9", "twitter": "None", "instagram": "None", "facebook": "None", "youtube": "None", "website": "None", "summary": "None", "logo": "None", "latitude": 43.60712060341032, "longitude": -79.73241407129689}, "118787357RR0001": {"name": "ANJUMAN-E-ISLAHUL-MUSLEMIN OF TORONTO", "designationCode": "C", "categoryCode": "60", "address": "277 SCOTT RD", "city": "TORONTO", "province": "ON", "country": "CA", "postalCode": "M6M3V3", "twitter": "None", "instagram": "None", "facebook": "None", "youtube": "None", "website": "None", "summary": "None", "logo": "None", "latitude": 43.68961350458762, "longitude": -79.47221870687886}, "869486787RR0001": {"name": "ANJUMAN-E-KANEEZAN-E-ZAHRA INC", "designationCode": "C", "categoryCode": "39", "address": "2370 MIDLAND AVENUE           UNIT #A36", "city": "TORONTO", "province": "ON", "country": "CA", "postalCode": "M1S5C6", "twitter": "None", "instagram": "None", "facebook": "None", "youtube": "None", "website": "None", "summary": "None", "logo": "None", "latitude": 43.78047248955534, "longitude": -79.27611712424138}, "807884093RR0001": {"name": "ANML - RESQ Network of Ontario", "designationCode": "C", "categoryCode": "54", "address": "BOX 714", "city": "DURHAM", "province": "ON", "country": "CA", "postalCode": "N0G1R0", "twitter": "None", "instagram": "None", "facebook": "None", "youtube": "None", "website": "None", "summary": "None", "logo": "None", "latitude": 44.125520383994086, "longitude": -81.21636506037191}, "898776331RR0001": {"name": "ANN & SANDY CROSS CONSERVATION AREA", "designationCode": "C", "categoryCode": "53", "address": "20-104001 160 STREET W", "city": "FOOTHILLS", "province": "AB", "country": "CA", "postalCode": "T1S4K9", "twitter": "None", "instagram": "None", "facebook": "None", "youtube": "None", "website": "None", "summary": "None", "logo": "None", "latitude": 50.87921926124278, "longitude": -114.23277449999999}, "131159659RR0001": {"name": "ANN DAVIS TRANSITION SOCIETY", "designationCode": "C", "categoryCode": "09", "address": "9046 YOUNG RD", "city": "CHILLIWACK", "province": "BC", "country": "CA", "postalCode": "V2P4R6", "twitter": "None", "instagram": "None", "facebook": "None", "youtube": "None", "website": "None", "summary": "None", "logo": "None", "latitude": 49.16653771051419, "longitude": -121.95258202772827}, "118787399RR0001": {"name": "ANNA & EDWARD C. CHURCHILL FOUNDATION", "designationCode": "B", "categoryCode": "23", "address": "PO BOX 546", "city": "KINGSTON", "province": "ON", "country": "CA", "postalCode": "K7L4W8", "twitter": "None", "instagram": "None", "facebook": "None", "youtube": "None", "website": "None", "summary": "None", "logo": "None", "latitude": 44.23153200000006, "longitude": -76.47933049999993}, "888525441RR0001": {"name": "ANNAHEIM NEW HORIZONS INC", "designationCode": "C", "categoryCode": "56", "address": "PO BOX 141", "city": "ANNAHEIM", "province": "SK", "country": "CA", "postalCode": "S0K0G0", "twitter": "None", "instagram": "None", "facebook": "None", "youtube": "None", "website": "None", "summary": "None", "logo": "None", "latitude": 52.31674000000004, "longitude": -104.81776999999994}, "118787423RR0001": {"name": "ANNALIVIA THEATRICAL PRODUCTIONS OF TORONTO", "designationCode": "C", "categoryCode": "22", "address": "110 THE ESPLANADE, SUITE 103", "city": "TORONTO", "province": "ON", "country": "CA", "postalCode": "M5E1X9", "twitter": "None", "instagram": "None", "facebook": "None", "youtube": "None", "website": "None", "summary": "None", "logo": "None", "latitude": 43.64783487512251, "longitude": -79.37220341592116}, "106714637RR0001": {"name": "ANNAN WOODFORD PASTORAL CHARGE", "designationCode": "C", "categoryCode": "44", "address": "303234 33", "city": "ANNAN", "province": "ON", "country": "CA", "postalCode": "N0H1B0", "twitter": "None", "instagram": "None", "facebook": "None", "youtube": "None", "website": "None", "summary": "None", "logo": "None", "latitude": 44.62521900000006, "longitude": -80.87387299999993}, "893247965RR0001": {"name": "ANNAPOLIS AREA FOOD BANK SOCIETY", "designationCode": "C", "categoryCode": "09", "address": "P.O. BOX 341", "city": "ANNAPOLIS ROYAL", "province": "NS", "country": "CA", "postalCode": "B0S1A0", "twitter": "None", "instagram": "None", "facebook": "None", "youtube": "None", "website": "None", "summary": "None", "logo": "None", "latitude": 44.74294007660574, "longitude": -65.518980048906}, "876647918RR0001": {"name": "ANNAPOLIS BASIN VINEYARD", "designationCode": "C", "categoryCode": "39", "address": "P.O. BOX 327", "city": "ANNAPOLIS ROYAL", "province": "NS", "country": "CA", "postalCode": "B0S1A0", "twitter": "None", "instagram": "None", "facebook": "None", "youtube": "None", "website": "None", "summary": "None", "logo": "None", "latitude": 44.74294007660574, "longitude": -65.518980048906}, "888695665RR0001": {"name": "ANNAPOLIS COMMUNITY HEALTH CENTRE AUXILIARY", "designationCode": "C", "categoryCode": "19", "address": "P. O. BOX 384", "city": "ANNAPOLIS", "province": "NS", "country": "CA", "postalCode": "B0S1A0", "twitter": "None", "instagram": "None", "facebook": "None", "youtube": "None", "website": "None", "summary": "None", "logo": "None", "latitude": 44.73691800000006, "longitude": -65.49796699999993}, "118787456RR0001": {"name": "ANNAPOLIS COUNTY GROUND SEARCH & RESCUE", "designationCode": "C", "categoryCode": "59", "address": "PO BOX 234", "city": "BRIDGETOWN", "province": "NS", "country": "CA", "postalCode": "B0S1C0", "twitter": "None", "instagram": "None", "facebook": "None", "youtube": "None", "website": "None", "summary": "None", "logo": "None", "latitude": 44.85015000000004, "longitude": -65.29881999999998}, "892496449RR0001": {"name": "ANNAPOLIS DIGBY UNITED BAPTIST ASSOCIATION", "designationCode": "C", "categoryCode": "31", "address": "646 LANSDOWNE RD", "city": "SMITHS COVE", "province": "NS", "country": "CA", "postalCode": "B0S1S0", "twitter": "None", "instagram": "None", "facebook": "None", "youtube": "None", "website": "None", "summary": "None", "logo": "None", "latitude": 44.58074861223979, "longitude": -65.7122261379479}, "106714710RR0001": {"name": "ANNAPOLIS GRANVILLE PASTORAL CHARGE UNITED CHURCH OF CANADA", "designationCode": "C", "categoryCode": "44", "address": "PO BOX 493", "city": "ANNAPOLIS ROYAL", "province": "NS", "country": "CA", "postalCode": "B0S1A0", "twitter": "None", "instagram": "None", "facebook": "None", "youtube": "None", "website": "None", "summary": "None", "logo": "None", "latitude": 44.74294007660574, "longitude": -65.518980048906}, "107484107RR0001": {"name": "ANNAPOLIS HERITAGE SOCIETY", "designationCode": "C", "categoryCode": "52", "address": "PO BOX 503", "city": "ANNAPOLIS ROYAL", "province": "NS", "country": "CA", "postalCode": "B0S1A0", "twitter": "None", "instagram": "None", "facebook": "None", "youtube": "None", "website": "None", "summary": "None", "logo": "None", "latitude": 44.74294007660574, "longitude": -65.518980048906}, "118787506RR0001": {"name": "ANNAPOLIS REGION COMMUNITY ARTS COUNCIL", "designationCode": "C", "categoryCode": "22", "address": "PO BOX 534", "city": "ANNAPOLIS ROYAL", "province": "NS", "country": "CA", "postalCode": "B0S1A0", "twitter": "None", "instagram": "None", "facebook": "None", "youtube": "None", "website": "None", "summary": "None", "logo": "None", "latitude": 44.74294007660574, "longitude": -65.518980048906}, "119288918RR1204": {"name": "ANNAPOLIS ROYAL CONGREGATION OF JEHOVAH'S WITNESSES", "designationCode": "C", "categoryCode": "61", "address": "P.O BOX 39,2872 HWY #1", "city": "ANNAPOLIS ROYAL", "province": "NS", "country": "CA", "postalCode": "B0S1A0", "twitter": "None", "instagram": "None", "facebook": "None", "youtube": "None", "website": "None", "summary": "None", "logo": "None", "latitude": 44.701452289000244, "longitude": -65.56779724667338}, "106714736RR0001": {"name": "ANNAPOLIS ROYAL HISTORIC GARDENS SOCIETY", "designationCode": "C", "categoryCode": "50", "address": "BOX 278", "city": "ANNAPOLIS ROYAL", "province": "NS", "country": "CA", "postalCode": "B0S1A0", "twitter": "None", "instagram": "None", "facebook": "None", "youtube": "None", "website": "None", "summary": "None", "logo": "None", "latitude": 44.74294007660574, "longitude": -65.518980048906}, "118787555RR0001": {"name": "ANNAPOLIS VALLEY APPLE BLOSSOM FESTIVAL", "designationCode": "C", "categoryCode": "59", "address": "8 - 325 MAIN ST", "city": "KENTVILLE", "province": "NS", "country": "CA", "postalCode": "B4N1K5", "twitter": "None", "instagram": "None", "facebook": "None", "youtube": "None", "website": "None", "summary": "None", "logo": "None", "latitude": 45.07668642968407, "longitude": -64.49372217565949}, "137571139RR0001": {"name": "ANNAPOLIS VALLEY CONGREGATION (CHURCH OF GOD IN CHRIST, MENNONITE)", "designationCode": "C", "categoryCode": "34", "address": "2639 BLACK ROCK RD", "city": "GRAFTON", "province": "NS", "country": "CA", "postalCode": "B0P1V0", "twitter": "None", "instagram": "None", "facebook": "None", "youtube": "None", "website": "None", "summary": "None", "logo": "None", "latitude": 45.093174706070805, "longitude": -64.69429951156985}, "106714793RR0001": {"name": "ANNAPOLIS VALLEY HISTORICAL SOCIETY", "designationCode": "A", "categoryCode": "50", "address": "P.O.BOX 925", "city": "MIDDLETON", "province": "NS", "country": "CA", "postalCode": "B0S1P0", "twitter": "None", "instagram": "None", "facebook": "None", "youtube": "None", "website": "None", "summary": "None", "logo": "None", "latitude": 45.01449600000005, "longitude": -65.06449099999993}, "889974861RR0001": {"name": "ANNAPOLIS VALLEY HISTORICAL SOCIETY FOUNDATION", "designationCode": "A", "categoryCode": "53", "address": "PO BOX 925", "city": "MIDDLETON", "province": "NS", "country": "CA", "postalCode": "B0S1P0", "twitter": "None", "instagram": "None", "facebook": "None", "youtube": "None", "website": "None", "summary": "None", "logo": "None", "latitude": 45.01449600000005, "longitude": -65.06449099999993}, "119302081RR0001": {"name": "ANNAPOLIS VALLEY MONTHLY MEETING", "designationCode": "C", "categoryCode": "39", "address": "53 PLEASANT ST", "city": "WOLFVILLE", "province": "NS", "country": "CA", "postalCode": "B4P1M9", "twitter": "None", "instagram": "None", "facebook": "None", "youtube": "None", "website": "None", "summary": "None", "logo": "None"}, "883363418RR0001": {"name": "ANNAPOLIS VALLEY MUSIC FESTIVAL SOCIETY", "designationCode": "C", "categoryCode": "22", "address": "14 ELM AVE", "city": "KENTVILLE", "province": "NS", "country": "CA", "postalCode": "B4N1Y9", "twitter": "None", "instagram": "None", "facebook": "None", "youtube": "None", "website": "None", "summary": "None", "logo": "None", "latitude": 45.0745337405205, "longitude": -64.48762121146167}, "106714819RR0001": {"name": "ANNAPOLIS VALLEY REGIONAL LIBRARY BOARD", "designationCode": "C", "categoryCode": "50", "address": "PO BOX 510", "city": "BERWICK", "province": "NS", "country": "CA", "postalCode": "B0P1E0", "twitter": "None", "instagram": "None", "facebook": "None", "youtube": "None", "website": "None", "summary": "None", "logo": "None", "latitude": 45.04982000000007, "longitude": -64.73769999999996}, "872744339RR0001": {"name": "ANNAPOLIS VALLEY REGIONAL SCHOOL BOARD", "designationCode": "C", "categoryCode": "20", "address": "POST OFFICE BOX 340", "city": "BERWICK", "province": "NS", "country": "CA", "postalCode": "B0P1E0", "twitter": "None", "instagram": "None", "facebook": "None", "youtube": "None", "website": "None", "summary": "None", "logo": "None", "latitude": 45.04982000000007, "longitude": -64.73769999999996}, "862720067RR0001": {"name": "ANNAPOLIS VALLEY-HANTS COMMUNITY ACTION PROGRAM FOR CHILDREN ASSOCIATION", "designationCode": "C", "categoryCode": "09", "address": "BOX 893", "city": "KENTVILLE", "province": "NS", "country": "CA", "postalCode": "B4N4H8", "twitter": "None", "instagram": "None", "facebook": "None", "youtube": "None", "website": "None", "summary": "None", "logo": "None", "latitude": 45.07663200000006, "longitude": -64.49369299999994}, "890997976RR0001": {"name": "ANNAPOLIS WEST HEALTH FOUNDATION", "designationCode": "A", "categoryCode": "13", "address": "P O BOX 242", "city": "ANNAPOLIS", "province": "NS", "country": "CA", "postalCode": "B0S1A0", "twitter": "None", "instagram": "None", "facebook": "None", "youtube": "None", "website": "None", "summary": "None", "logo": "None", "latitude": 44.73691800000006, "longitude": -65.49796699999993}, "129827226RR0001": {"name": "ANNE & MAX TANENBAUM COMMUNITY HEBREW ACADEMY OF TORONTO", "designationCode": "C", "categoryCode": "20", "address": "200 WILMINGTON AVE", "city": "NORTH YORK", "province": "ON", "country": "CA", "postalCode": "M3H5J8", "twitter": "None", "instagram": "None", "facebook": "None", "youtube": "None", "website": "None", "summary": "None", "logo": "None", "latitude": 43.76201325699702, "longitude": -79.45660346425032}, "119108629RR0001": {"name": "ANNE B. RAFUSE MEMORIAL SCHOLARSHIP TRUST", "designationCode": "C", "categoryCode": "21", "address": "5910 INGLEWOOD DRIVE", "city": "HALIFAX", "province": "NS", "country": "CA", "postalCode": "B3H1B1", "twitter": "None", "instagram": "None", "facebook": "None", "youtube": "None", "website": "None", "summary": "None", "logo": "None", "latitude": 44.62337812210754, "longitude": -63.57601118792182}, "867955932RR0001": {"name": "ANNE CHORNEY PUBLIC LIBRARY", "designationCode": "C", "categoryCode": "50", "address": "BOX 130", "city": "WASKATENAU", "province": "AB", "country": "CA", "postalCode": "T0A3P0", "twitter": "None", "instagram": "None", "facebook": "None", "youtube": "None", "website": "None", "summary": "None", "logo": "None", "latitude": 54.09378000000004, "longitude": -112.78504001226229}, "106715485RR0001": {"name": "ANNE MURRAY CENTRE", "designationCode": "C", "categoryCode": "50", "address": "P.O. BOX 610", "city": "SPRINGHILL", "province": "NS", "country": "CA", "postalCode": "B0M1X0", "twitter": "None", "instagram": "None", "facebook": "None", "youtube": "None", "website": "None", "summary": "None", "logo": "None", "latitude": 45.65057000000007, "longitude": -64.05729999999994}, "118787639RR0001": {"name": "ANNSWELL COURT FOUNDATION", "designationCode": "C", "categoryCode": "01", "address": "25 THORNHILL SUMMIT DR", "city": "THORNHILL", "province": "ON", "country": "CA", "postalCode": "L3T7K9", "twitter": "None", "instagram": "None", "facebook": "None", "youtube": "None", "website": "None", "summary": "None", "logo": "None", "latitude": 43.817112743551256, "longitude": -79.4232627426572}, "107910259RR0228": {"name": "ANNUNCIATION BYZANTINE ROMANIAN CATHOLIC MISSION", "designationCode": "C", "categoryCode": "38", "address": "78 CLIFTON RD", "city": "TORONTO", "province": "ON", "country": "CA", "postalCode": "M4T2G2", "twitter": "None", "instagram": "None", "facebook": "None", "youtube": "None", "website": "None", "summary": "None", "logo": "None", "latitude": 43.69063554509783, "longitude": -79.38459515295153}, "119110450RR0004": {"name": "ANNUNCIATION OF OUR LORD PARISH", "designationCode": "C", "categoryCode": "38", "address": "280 LIMERIDGE ROAD WEST", "city": "HAMILTON", "province": "ON", "country": "CA", "postalCode": "L9C2V2", "twitter": "None", "instagram": "None", "facebook": "None", "youtube": "None", "website": "None", "summary": "None", "logo": "None", "latitude": 43.22306505695616, "longitude": -79.8980173921463}, "119264174RR0014": {"name": "ANNUNCIATION OF THE BLESSED VIRGIN MARY R C CHURCH", "designationCode": "C", "categoryCode": "38", "address": "BOX 369", "city": "NIPIGON", "province": "ON", "country": "CA", "postalCode": "P0T2J0", "twitter": "None", "instagram": "None", "facebook": "None", "youtube": "None", "website": "None", "summary": "None", "logo": "None", "latitude": 49.43220506449858, "longitude": -88.12945411505873}, "128967353RR0061": {"name": "ANNUNCIATION OF THE LORD PARISH", "designationCode": "C", "categoryCode": "38", "address": "2414 OGILVIE ROAD", "city": "GLOUCESTER", "province": "ON", "country": "CA", "postalCode": "K1J7N5", "twitter": "None", "instagram": "None", "facebook": "None", "youtube": "None", "website": "None", "summary": "None", "logo": "None", "latitude": 45.45850378270512, "longitude": -75.60137148075543}, "884003708RR0001": {"name": "ANNUNCIATION TO THE THEOTOKOS-ST NICHOLAS ORTHODOX CATHEDRAL", "designationCode": "C", "categoryCode": "39", "address": "15 LEBRETON STREET NORTH", "city": "OTTAWA", "province": "ON", "country": "CA", "postalCode": "K1R7H1", "twitter": "None", "instagram": "None", "facebook": "None", "youtube": "None", "website": "None", "summary": "None", "logo": "None", "latitude": 45.40956096670315, "longitude": -75.70907283080406}, "118787704RR0001": {"name": "ANOLA AND DISTRICT MUSEUM BOARD INC.", "designationCode": "C", "categoryCode": "50", "address": "BOX 153", "city": "ANOLA", "province": "MB", "country": "CA", "postalCode": "R0E0A0", "twitter": "None", "instagram": "None", "facebook": "None", "youtube": "None", "website": "None", "summary": "None", "logo": "None", "latitude": 49.88506000000007, "longitude": -96.64108999999996}, "106716459RR0001": {"name": "ANOLA FELLOWSHIP CHAPEL", "designationCode": "C", "categoryCode": "34", "address": "BOX 101", "city": "ANOLA", "province": "MB", "country": "CA", "postalCode": "R0E0A0", "twitter": "None", "instagram": "None", "facebook": "None", "youtube": "None", "website": "None", "summary": "None", "logo": "None", "latitude": 49.88506000000007, "longitude": -96.64108999999996}, "119288918RR1321": {"name": "ANOLA MANITOBA CONGREGATION OF JEHOVAH'S WITNESSES", "designationCode": "C", "categoryCode": "61", "address": "BOX 125 A                     RR 5", "city": "WINNIPEG", "province": "MB", "country": "CA", "postalCode": "R2C2Z2", "twitter": "None", "instagram": "None", "facebook": "None", "youtube": "None", "website": "None", "summary": "None", "logo": "None", "latitude": 49.92420300000006, "longitude": -96.99564499999994}, "118787753RR0001": {"name": "ANOLA UNITED CHURCH", "designationCode": "C", "categoryCode": "44", "address": "BOX 147", "city": "ANOLA", "province": "MB", "country": "CA", "postalCode": "R0E0A0", "twitter": "None", "instagram": "None", "facebook": "None", "youtube": "None", "website": "None", "summary": "None", "logo": "None", "latitude": 49.88506000000007, "longitude": -96.64108999999996}, "898047782RR0001": {"name": "ANONBY MISSIONARY SOCIETY", "designationCode": "C", "categoryCode": "47", "address": "BOX 1286", "city": "PRINCE GEORGE", "province": "BC", "country": "CA", "postalCode": "V2L4V3", "twitter": "None", "instagram": "None", "facebook": "None", "youtube": "None", "website": "None", "summary": "None", "logo": "None", "latitude": 53.91241800000006, "longitude": -122.74463149999994}, "832334411RR0001": {"name": "ANOOPAM MISSION CANADA INC.", "designationCode": "C", "categoryCode": "48", "address": "84 WALDEN STREET", "city": "MARKHAM", "province": "ON", "country": "CA", "postalCode": "L3S3Z4", "twitter": "None", "instagram": "None", "facebook": "None", "youtube": "None", "website": "None", "summary": "None", "logo": "None", "latitude": 43.8482006611172, "longitude": -79.27644646292359}, "891414195RR0001": {"name": "ANOREXIE ET BOULIMIE QU\u00c9BEC", "designationCode": "C", "categoryCode": "19", "address": "5500 TRANSCANADIENNE", "city": "POINTE-CLAIRE", "province": "QC", "country": "CA", "postalCode": "H9R1B6", "twitter": "None", "instagram": "None", "facebook": "None", "youtube": "None", "website": "None", "summary": "None", "logo": "None", "latitude": 45.4688277987127, "longitude": -73.81517487864079}, "893060178RR0001": {"name": "ANSGAR DANISH LUTHERAN CHURCH", "designationCode": "C", "categoryCode": "32", "address": "9554 108A AVENUE NW", "city": "EDMONTON", "province": "AB", "country": "CA", "postalCode": "T5H1C1", "twitter": "None", "instagram": "None", "facebook": "None", "youtube": "None", "website": "None", "summary": "None", "logo": "None", "latitude": 53.55521534722135, "longitude": -113.48720834416292}, "859749996RR0001": {"name": "ANSHEI LUBAVITCH SHOMRIM LABOKER", "designationCode": "C", "categoryCode": "42", "address": "4600 KENT AVE", "city": "MONTREAL", "province": "QC", "country": "CA", "postalCode": "H3W1H1", "twitter": "None", "instagram": "None", "facebook": "None", "youtube": "None", "website": "None", "summary": "None", "logo": "None", "latitude": 45.4965812031566, "longitude": -73.63694955271522}, "118787811RR0001": {"name": "ANSHEI STASZOW-SLIPI CONGREGATION", "designationCode": "C", "categoryCode": "42", "address": "11 SULTANA AVENUE", "city": "TORONTO", "province": "ON", "country": "CA", "postalCode": "M6A1S9", "twitter": "None", "instagram": "None", "facebook": "None", "youtube": "None", "website": "None", "summary": "None", "logo": "None", "latitude": 43.72853583484344, "longitude": -79.4326458985516}, "831785720RR0001": {"name": "ANSO COLLECTIVES & EDUCATION SUPPORT SOCIETY", "designationCode": "C", "categoryCode": "09", "address": "8137-106A STREET", "city": "GRANDE PRAIRIE", "province": "AB", "country": "CA", "postalCode": "T8W2H1", "twitter": "None", "instagram": "None", "facebook": "None", "youtube": "None", "website": "None", "summary": "None", "logo": "None", "latitude": 55.15307924562873, "longitude": -118.81541196332762}, "118787829RR0001": {"name": "ANSON GENERAL HOSPITAL", "designationCode": "C", "categoryCode": "10", "address": "58 ANSON DRIVE", "city": "IROGUOIS FALLS", "province": "ON", "country": "CA", "postalCode": "P0K1E0", "twitter": "None", "instagram": "None", "facebook": "None", "youtube": "None", "website": "None", "summary": "None", "logo": "None", "latitude": 48.768674053037756, "longitude": -80.68534472635179}, "118787845RR0001": {"name": "ANSPAYAXW SCHOOL SOCIETY", "designationCode": "C", "categoryCode": "20", "address": "1439 MARY BLACKWATER DR", "city": "KISPIOX", "province": "BC", "country": "CA", "postalCode": "V0J1Y4", "twitter": "None", "instagram": "None", "facebook": "None", "youtube": "None", "website": "None", "summary": "None", "logo": "None", "latitude": 55.35645174398046, "longitude": -127.68671620282515}, "857560726RR0001": {"name": "ANTHONY MATLASHEWSKI CHARITABLE FOUNDATION", "designationCode": "B", "categoryCode": "25", "address": "350-7TH AVE SW., 7TH FLR      BMO HARRIS PRIVATE BANKING", "city": "CALGARY", "province": "AB", "country": "CA", "postalCode": "T2P3N9", "twitter": "None", "instagram": "None", "facebook": "None", "youtube": "None", "website": "None", "summary": "None", "logo": "None", "latitude": 51.046701000000056, "longitude": -114.07017949999994}}