{"107910259RR0124": {"name": "St. Patrick's Parish", "designationCode": "C", "categoryCode": "38", "address": "5633 HIGHWAY 7", "city": "MARKHAM", "province": "ON", "country": "CA", "postalCode": "L3P1B6", "twitter": "None", "instagram": "None", "facebook": "None", "youtube": "None", "website": "None", "summary": "None", "logo": "None", "latitude": 43.87042592964289, "longitude": -79.2710391566734}, "107910259RR0134": {"name": "St. Patrick's Parish", "designationCode": "C", "categoryCode": "38", "address": "28 ROBERT ST. W.", "city": "PENETANGUISHENE", "province": "ON", "country": "CA", "postalCode": "L9M1N2", "twitter": "None", "instagram": "None", "facebook": "None", "youtube": "None", "website": "None", "summary": "None", "logo": "None", "latitude": 44.76765636841474, "longitude": -79.9362614152683}, "107910259RR0135": {"name": "St. Patrick's Parish", "designationCode": "C", "categoryCode": "38", "address": "1600 FLOS RD 4 WEST", "city": "PHELPSTON", "province": "ON", "country": "CA", "postalCode": "L0L2K0", "twitter": "None", "instagram": "None", "facebook": "None", "youtube": "None", "website": "None", "summary": "None", "logo": "None", "latitude": 44.50830000000006, "longitude": -79.75806649999993}, "107910259RR0142": {"name": "St. Patrick's Parish", "designationCode": "C", "categoryCode": "38", "address": "PO BOX 39", "city": "SCHOMBERG", "province": "ON", "country": "CA", "postalCode": "L0G1T0", "twitter": "None", "instagram": "None", "facebook": "None", "youtube": "None", "website": "None", "summary": "None", "logo": "None", "latitude": 44.00246003664379, "longitude": -79.68402999884614}, "107910259RR0143": {"name": "St. Patrick's Parish", "designationCode": "C", "categoryCode": "38", "address": "215 PINE ST BOX 640", "city": "STAYNER", "province": "ON", "country": "CA", "postalCode": "L0M1S0", "twitter": "None", "instagram": "None", "facebook": "None", "youtube": "None", "website": "None", "summary": "None", "logo": "None", "latitude": 44.41697038354797, "longitude": -80.09142801667709}, "107910259RR0152": {"name": "St. Patrick's Parish", "designationCode": "C", "categoryCode": "38", "address": "11873 THE GORE ROAD", "city": "BRAMPTON", "province": "ON", "country": "CA", "postalCode": "L6P0B2", "twitter": "None", "instagram": "None", "facebook": "None", "youtube": "None", "website": "None", "summary": "None", "logo": "None", "latitude": 43.81895022038197, "longitude": -79.72648299665312}, "888699469RR0001": {"name": "St. Paul & Area Palliative Care Association", "designationCode": "C", "categoryCode": "11", "address": "PO BOX 1891", "city": "ST PAUL", "province": "AB", "country": "CA", "postalCode": "T0A3A0", "twitter": "None", "instagram": "None", "facebook": "None", "youtube": "None", "website": "None", "summary": "None", "logo": "None", "latitude": 53.99207006217902, "longitude": -111.26834992613558}, "833913916RR0001": {"name": "St. Paul & District Hospital Foundation", "designationCode": "A", "categoryCode": "13", "address": "4713 - 48 AVENUE", "city": "ST. PAUL", "province": "AB", "country": "CA", "postalCode": "T0A3A3", "twitter": "None", "instagram": "None", "facebook": "None", "youtube": "None", "website": "None", "summary": "None", "logo": "None", "latitude": 53.98928286993843, "longitude": -111.29057325}, "107910259RR0087": {"name": "St. Paul the Apostle Parish", "designationCode": "C", "categoryCode": "38", "address": "3224 DUNDAS STREET WEST", "city": "TORONTO", "province": "ON", "country": "CA", "postalCode": "M6P2A3", "twitter": "None", "instagram": "None", "facebook": "None", "youtube": "None", "website": "None", "summary": "None", "logo": "None", "latitude": 43.66557652596792, "longitude": -79.4774821902591}, "847509015RR0001": {"name": "St. Paul Armenian Apostolic Church of St. Catharines", "designationCode": "C", "categoryCode": "39", "address": "156 MARTINDALE RD", "city": "ST. CATHARINES", "province": "ON", "country": "CA", "postalCode": "L2S2X9", "twitter": "None", "instagram": "None", "facebook": "None", "youtube": "None", "website": "None", "summary": "None", "logo": "None", "latitude": 43.16786134225834, "longitude": -79.27037876579784}, "883291825RR0001": {"name": "St. Paul Chinese Lutheran Church", "designationCode": "C", "categoryCode": "32", "address": "20 UNION STREET", "city": "MARKHAM", "province": "ON", "country": "CA", "postalCode": "L3R2H5", "twitter": "None", "instagram": "None", "facebook": "None", "youtube": "None", "website": "None", "summary": "None", "logo": "None", "latitude": 43.862763960586314, "longitude": -79.31127948739095}, "119110450RR0130": {"name": "St. Paul Chung Parish", "designationCode": "C", "categoryCode": "38", "address": "516 FRANKLIN STREET NORTH", "city": "KITCHENER", "province": "ON", "country": "CA", "postalCode": "N2A1Z4", "twitter": "None", "instagram": "None", "facebook": "None", "youtube": "None", "website": "None", "summary": "None", "logo": "None", "latitude": 43.44842318815296, "longitude": -80.45088361241267}, "890096845RR0001": {"name": "St. Paul Lutheran Church", "designationCode": "C", "categoryCode": "32", "address": "PO BOX 198", "city": "BURSTALL", "province": "SK", "country": "CA", "postalCode": "S0N0H0", "twitter": "None", "instagram": "None", "facebook": "None", "youtube": "None", "website": "None", "summary": "None", "logo": "None", "latitude": 50.65012000000007, "longitude": -109.90158999999994}, "813814019RR0001": {"name": "St. Paul Restitution Church of God", "designationCode": "B", "categoryCode": "39", "address": "159 ISLINGTON AVENUE", "city": "TORONTO", "province": "ON", "country": "CA", "postalCode": "M8V3B8", "twitter": "None", "instagram": "None", "facebook": "None", "youtube": "None", "website": "None", "summary": "None", "logo": "None", "latitude": 43.60180178296493, "longitude": -79.50565108739704}, "108099771RR0007": {"name": "St. Paul's Anglican Church", "designationCode": "C", "categoryCode": "30", "address": "27 ORKNEY ST. E.", "city": "CALEDONIA", "province": "ON", "country": "CA", "postalCode": "N3W1K9", "twitter": "None", "instagram": "None", "facebook": "None", "youtube": "None", "website": "None", "summary": "None", "logo": "None", "latitude": 43.076421693803205, "longitude": -79.9491349383099}, "132072810RR0001": {"name": "St. Paul's Anglican Church, Sandhurst", "designationCode": "C", "categoryCode": "30", "address": "25 HERITAGE DR", "city": "BATH", "province": "ON", "country": "CA", "postalCode": "K0H1G0", "twitter": "None", "instagram": "None", "facebook": "None", "youtube": "None", "website": "None", "summary": "None", "logo": "None", "latitude": 44.18211689119402, "longitude": -76.76750028714852}, "108084658RR0131": {"name": "St. Paul's Church Dunrobin", "designationCode": "C", "categoryCode": "30", "address": "1620 THOMAS A DOLAN PKWY      RR#2", "city": "DUNROBIN", "province": "ON", "country": "CA", "postalCode": "K0A1T0", "twitter": "None", "instagram": "None", "facebook": "None", "youtube": "None", "website": "None", "summary": "None", "logo": "None", "latitude": 45.40156330714477, "longitude": -76.05223620760094}, "107307191RR0016": {"name": "St. Paul's Co-Cathedral Parish", "designationCode": "C", "categoryCode": "38", "address": "720 SPADINA CRESCENT EAST", "city": "SASKATOON", "province": "SK", "country": "CA", "postalCode": "S7K3H2", "twitter": "None", "instagram": "None", "facebook": "None", "youtube": "None", "website": "None", "summary": "None", "logo": "None", "latitude": 52.12780461783704, "longitude": -106.65745355222428}, "108036427RR0001": {"name": "St. Paul's Evangelical Lutheran Church", "designationCode": "C", "categoryCode": "32", "address": "137 QUEEN STREET SOUTH", "city": "KITCHENER", "province": "ON", "country": "CA", "postalCode": "N2G1W2", "twitter": "None", "instagram": "None", "facebook": "None", "youtube": "None", "website": "None", "summary": "None", "logo": "None", "latitude": 43.44837578876465, "longitude": -80.49066355811091}, "134629948RR0001": {"name": "St. Paul's Evangelical Lutheran Church Ellerslie", "designationCode": "C", "categoryCode": "32", "address": "5104 ELLERSLIE RD SW", "city": "EDMONTON", "province": "AB", "country": "CA", "postalCode": "T6X1A3", "twitter": "None", "instagram": "None", "facebook": "None", "youtube": "None", "website": "None", "summary": "None", "logo": "None", "latitude": 53.42471449437316, "longitude": -113.41956052553522}, "108037227RR0001": {"name": "St. Paul's Leaskdale", "designationCode": "C", "categoryCode": "37", "address": "PO BOX 104", "city": "LEASKDALE", "province": "ON", "country": "CA", "postalCode": "L0C1C0", "twitter": "None", "instagram": "None", "facebook": "None", "youtube": "None", "website": "None", "summary": "None", "logo": "None", "latitude": 44.20467000000008, "longitude": -79.16136999999998}, "119288496RR0001": {"name": "St. Paul's United Church", "designationCode": "C", "categoryCode": "44", "address": "P.O. BOX 88", "city": "WARKWORTH", "province": "ON", "country": "CA", "postalCode": "K0K3K0", "twitter": "None", "instagram": "None", "facebook": "None", "youtube": "None", "website": "None", "summary": "None", "logo": "None", "latitude": 44.20071000000007, "longitude": -77.88983999999994}, "846001600RR0001": {"name": "St. Paul's United Church", "designationCode": "C", "categoryCode": "44", "address": "P.O. BOX 214", "city": "ST. WALBURG", "province": "SK", "country": "CA", "postalCode": "S0M2T0", "twitter": "None", "instagram": "None", "facebook": "None", "youtube": "None", "website": "None", "summary": "None", "logo": "None", "latitude": 53.63522000000006, "longitude": -109.20051999999998}, "118803105RR0001": {"name": "St. Paul's United Church Mildmay", "designationCode": "C", "categoryCode": "44", "address": "PO BOX 184", "city": "MILDMAY", "province": "ON", "country": "CA", "postalCode": "N0G2J0", "twitter": "None", "instagram": "None", "facebook": "None", "youtube": "None", "website": "None", "summary": "None", "logo": "None", "latitude": 44.04200000000003, "longitude": -81.11933999999997}, "132504267RR0001": {"name": "St. Pauls Evangelical Lutheran Church of Cupar", "designationCode": "C", "categoryCode": "32", "address": "BOX 427", "city": "CUPAR", "province": "SK", "country": "CA", "postalCode": "S0G0Y0", "twitter": "None", "instagram": "None", "facebook": "None", "youtube": "None", "website": "None", "summary": "None", "logo": "None", "latitude": 50.95008000000007, "longitude": -104.21777999999995}, "119109833RR0034": {"name": "St. Peter and St. Paul Parish", "designationCode": "C", "categoryCode": "38", "address": "14 ST. MICHAEL'S AVENUE", "city": "HALIFAX", "province": "NS", "country": "CA", "postalCode": "B3P1M5", "twitter": "None", "instagram": "None", "facebook": "None", "youtube": "None", "website": "None", "summary": "None", "logo": "None", "latitude": 44.61510159813018, "longitude": -63.61436594336097}, "118862283RR0001": {"name": "St. Peter and St. Simon the Apostle", "designationCode": "C", "categoryCode": "30", "address": "525 BLOOR STREET EAST", "city": "TORONTO", "province": "ON", "country": "CA", "postalCode": "M4W1J1", "twitter": "None", "instagram": "None", "facebook": "None", "youtube": "None", "website": "None", "summary": "None", "logo": "None", "latitude": 43.672179616134926, "longitude": -79.37386786678395}, "119110450RR0133": {"name": "St. Peter Mission", "designationCode": "C", "categoryCode": "38", "address": "378 EVERT STREET", "city": "GUELPH-ERAMOSA", "province": "ON", "country": "CA", "postalCode": "N0B2K0", "twitter": "None", "instagram": "None", "facebook": "None", "youtube": "None", "website": "None", "summary": "None", "logo": "None", "latitude": 43.66500866143313, "longitude": -80.15714928155393}, "778192526RR0001": {"name": "St. Peter's & Area Food Bank Society", "designationCode": "C", "categoryCode": "09", "address": "7088 WEST BAY HWY", "city": "CAPE GEORGE.", "province": "NS", "country": "CA", "postalCode": "B0E3B0", "twitter": "None", "instagram": "None", "facebook": "None", "youtube": "None", "website": "None", "summary": "None", "logo": "None", "latitude": 45.738932168157675, "longitude": -60.835923944947496}, "855152369RR0001": {"name": "St. Peter's by the Sea Community Church Society", "designationCode": "C", "categoryCode": "39", "address": "1237 SANDY POINT ROAD", "city": "SHELBURNE", "province": "NS", "country": "CA", "postalCode": "B0T1W0", "twitter": "None", "instagram": "None", "facebook": "None", "youtube": "None", "website": "None", "summary": "None", "logo": "None"}, "849915509RR0001": {"name": "St. Peter's Apostolic Spiritual Baptist Church", "designationCode": "C", "categoryCode": "39", "address": "549 KENNEDY ROAD", "city": "SCARBOROUGH", "province": "ON", "country": "CA", "postalCode": "M1K2B2", "twitter": "None", "instagram": "None", "facebook": "None", "youtube": "None", "website": "None", "summary": "None", "logo": "None", "latitude": 43.72119709270582, "longitude": -79.26321983164078}, "838540441RR0001": {"name": "St. Peter's Fireside Church", "designationCode": "C", "categoryCode": "39", "address": "302-938 HOWE ST", "city": "VANCOUVER", "province": "BC", "country": "CA", "postalCode": "V6Z1N9", "twitter": "None", "instagram": "None", "facebook": "None", "youtube": "None", "website": "None", "summary": "None", "logo": "None", "latitude": 49.280464646113565, "longitude": -123.1231076108548}, "859534620RR0001": {"name": "St. Peter's Heritage Society Inc.", "designationCode": "B", "categoryCode": "52", "address": "PO BOX 154", "city": "KRONAU", "province": "SK", "country": "CA", "postalCode": "S0G2T0", "twitter": "None", "instagram": "None", "facebook": "None", "youtube": "None", "website": "None", "summary": "None", "logo": "None", "latitude": 50.30688562344445, "longitude": -104.29520987087477}, "119197531RR0001": {"name": "St. Peter's Lutheran Church of New Denmark, New Brunswick.", "designationCode": "C", "categoryCode": "32", "address": "249 MAIN NEW DENMARK RD", "city": "NEW DENMARK", "province": "NB", "country": "CA", "postalCode": "E7G2B8", "twitter": "None", "instagram": "None", "facebook": "None", "youtube": "None", "website": "None", "summary": "None", "logo": "None", "latitude": 46.97520304331175, "longitude": -67.63304964094836}, "107910259RR0088": {"name": "St. Peter's Parish", "designationCode": "C", "categoryCode": "38", "address": "659 MARKHAM ST", "city": "TORONTO", "province": "ON", "country": "CA", "postalCode": "M6G2M1", "twitter": "None", "instagram": "None", "facebook": "None", "youtube": "None", "website": "None", "summary": "None", "logo": "None", "latitude": 43.66558500305841, "longitude": -79.4126499751286}, "107910259RR0178": {"name": "St. Peter's Parish", "designationCode": "C", "categoryCode": "38", "address": "100 BAINBRIDGE AVENUE", "city": "WOODBRIDGE", "province": "ON", "country": "CA", "postalCode": "L4L3Y1", "twitter": "None", "instagram": "None", "facebook": "None", "youtube": "None", "website": "None", "summary": "None", "logo": "None", "latitude": 43.78485615462498, "longitude": -79.61042683126541}, "811667880RR0001": {"name": "St. Philaret of New York Russian Orthodox Church Abroad in Edmonton", "designationCode": "C", "categoryCode": "39", "address": "8 HENDERSON BAY", "city": "SPRUCE GROVE", "province": "AB", "country": "CA", "postalCode": "T7X0C5", "twitter": "None", "instagram": "None", "facebook": "None", "youtube": "None", "website": "None", "summary": "None", "logo": "None", "latitude": 53.56091059674521, "longitude": -113.9431996698311}, "107910259RR0165": {"name": "St. Philip the Apostle Parish", "designationCode": "C", "categoryCode": "38", "address": "1314 OXFORD ST.", "city": "OSHAWA", "province": "ON", "country": "CA", "postalCode": "L1J3W6", "twitter": "None", "instagram": "None", "facebook": "None", "youtube": "None", "website": "None", "summary": "None", "logo": "None", "latitude": 43.86218559365813, "longitude": -78.8535964691264}, "107910259RR0103": {"name": "St. Philip Neri Parish", "designationCode": "C", "categoryCode": "38", "address": "2100 JANE STREET", "city": "DOWNSVIEW", "province": "ON", "country": "CA", "postalCode": "M3M1A1", "twitter": "None", "instagram": "None", "facebook": "None", "youtube": "None", "website": "None", "summary": "None", "logo": "None", "latitude": 43.719352827081806, "longitude": -79.50827734684597}, "119109817RR0160": {"name": "St. Philippe and St. Anne Vietnamese Martyrs Catholic Community", "designationCode": "C", "categoryCode": "38", "address": "700 CAMPBELL AVENUE", "city": "WINDSOR", "province": "ON", "country": "CA", "postalCode": "N9B2H7", "twitter": "None", "instagram": "None", "facebook": "None", "youtube": "None", "website": "None", "summary": "None", "logo": "None", "latitude": 42.3060100505222, "longitude": -83.05521349997134}, "752528323RR0001": {"name": "St. Philopateer And St. Demiana Coptic Orthodox Church", "designationCode": "C", "categoryCode": "39", "address": "364 GILPIN DRIVE,", "city": "NEWMARKET", "province": "ON", "country": "CA", "postalCode": "L3X3H2", "twitter": "None", "instagram": "None", "facebook": "None", "youtube": "None", "website": "None", "summary": "None", "logo": "None", "latitude": 44.06052405107044, "longitude": -79.49405424130087}, "842295255RR0001": {"name": "St. Pio Fraternity of the Secular Franciscan Order", "designationCode": "C", "categoryCode": "49", "address": "61 WILSON CRESCENT", "city": "RED DEER", "province": "AB", "country": "CA", "postalCode": "T4N5V6", "twitter": "None", "instagram": "None", "facebook": "None", "youtube": "None", "website": "None", "summary": "None", "logo": "None", "latitude": 52.251408546742624, "longitude": -113.83398377699233}, "107910259RR0010": {"name": "St. Pius X Parish", "designationCode": "C", "categoryCode": "38", "address": "2305 BLOOR ST W", "city": "TORONTO", "province": "ON", "country": "CA", "postalCode": "M6S1P1", "twitter": "None", "instagram": "None", "facebook": "None", "youtube": "None", "website": "None", "summary": "None", "logo": "None", "latitude": 43.6504208748054, "longitude": -79.47938557048882}, "851863472RR0001": {"name": "St. Pokrova Orthodox Church of Edwand, Alberta", "designationCode": "C", "categoryCode": "39", "address": "BOX 516", "city": "SMOKY LAKE", "province": "AB", "country": "CA", "postalCode": "T0A3C0", "twitter": "None", "instagram": "None", "facebook": "None", "youtube": "None", "website": "None", "summary": "None", "logo": "None", "latitude": 54.113230000000044, "longitude": -112.47107999999997}, "107910259RR0166": {"name": "St. Roch's Parish", "designationCode": "C", "categoryCode": "38", "address": "2889 ISLINGTON AVE.", "city": "WESTON", "province": "ON", "country": "CA", "postalCode": "M9L2T3", "twitter": "None", "instagram": "None", "facebook": "None", "youtube": "None", "website": "None", "summary": "None", "logo": "None", "latitude": 43.753705522072785, "longitude": -79.56858593816776}, "107910259RR0102": {"name": "St. Rose of Lima Parish", "designationCode": "C", "categoryCode": "38", "address": "3216 LAWRENCE AVE E", "city": "SCARBOROUGH", "province": "ON", "country": "CA", "postalCode": "M1H1A4", "twitter": "None", "instagram": "None", "facebook": "None", "youtube": "None", "website": "None", "summary": "None", "logo": "None", "latitude": 43.75646718795049, "longitude": -79.24129834237391}, "870865839RR0001": {"name": "St. Sava Serbian Orthodox Church", "designationCode": "C", "categoryCode": "39", "address": "580 TALBOT AVE", "city": "WINNIPEG", "province": "MB", "country": "CA", "postalCode": "R2L0R6", "twitter": "None", "instagram": "None", "facebook": "None", "youtube": "None", "website": "None", "summary": "None", "logo": "None", "latitude": 49.905696699953964, "longitude": -97.09883609132086}, "107910259RR0159": {"name": "St. Sebastian's Parish", "designationCode": "C", "categoryCode": "38", "address": "20 PAULINE AVE", "city": "TORONTO", "province": "ON", "country": "CA", "postalCode": "M6H3M8", "twitter": "None", "instagram": "None", "facebook": "None", "youtube": "None", "website": "None", "summary": "None", "logo": "None", "latitude": 43.66024246127882, "longitude": -79.43796710188109}, "855033817RR0001": {"name": "St. Silas Association - Belmont Cemetery", "designationCode": "C", "categoryCode": "59", "address": "1192 BELMONT RD.", "city": "NEWPORT", "province": "NS", "country": "CA", "postalCode": "B0N2A0", "twitter": "None", "instagram": "None", "facebook": "None", "youtube": "None", "website": "None", "summary": "None", "logo": "None", "latitude": 45.045012867592035, "longitude": -64.07663750903103}, "727637290RR0001": {"name": "St. Silas Orthodox Prison Ministry Society", "designationCode": "B", "categoryCode": "39", "address": "9855 CORBOULD ST", "city": "CHILLIWACK", "province": "BC", "country": "CA", "postalCode": "V2P4B8", "twitter": "None", "instagram": "None", "facebook": "None", "youtube": "None", "website": "None", "summary": "None", "logo": "None", "latitude": 49.18107028634119, "longitude": -121.9600472863412}, "865101141RR0001": {"name": "St. Simon's Church, North Vancouver", "designationCode": "C", "categoryCode": "39", "address": "114-1151 MOUNT SEYMOUR ROAD   P.O. BOX 9", "city": "NORTH VANCOUVER", "province": "BC", "country": "CA", "postalCode": "V7H2Y4", "twitter": "None", "instagram": "None", "facebook": "None", "youtube": "None", "website": "None", "summary": "None", "logo": "None", "latitude": 49.317533580904836, "longitude": -122.96902516270372}, "806955209RR0001": {"name": "St. Simon's Jacobite Syriac Orthodox Church, Edmonton", "designationCode": "C", "categoryCode": "39", "address": "PO BOX 67018 RPO MEADOWLARK", "city": "EDMONTON", "province": "AB", "country": "CA", "postalCode": "T5R5Y3", "twitter": "None", "instagram": "None", "facebook": "None", "youtube": "None", "website": "None", "summary": "None", "logo": "None", "latitude": 53.52145406559799, "longitude": -113.5958369896544}, "836612408RR0001": {"name": "St. Stanislaus College (Guyana) Alumni Society", "designationCode": "C", "categoryCode": "21", "address": "4544 SHEPPARD AVE EAST", "city": "TORONTO", "province": "ON", "country": "CA", "postalCode": "M1S1V2", "twitter": "None", "instagram": "None", "facebook": "None", "youtube": "None", "website": "None", "summary": "None", "logo": "None", "latitude": 43.78866914741161, "longitude": -79.26348634958728}, "107910259RR0092": {"name": "St. Stanislaus Kostka Parish", "designationCode": "C", "categoryCode": "38", "address": "12 DENISON AVENUE", "city": "TORONTO", "province": "ON", "country": "CA", "postalCode": "M5T2M4", "twitter": "None", "instagram": "None", "facebook": "None", "youtube": "None", "website": "None", "summary": "None", "logo": "None", "latitude": 43.6483695961683, "longitude": -79.40082518180499}, "825285422RR0001": {"name": "St. Stephen-Milltown Rotary Charity Inc.", "designationCode": "C", "categoryCode": "63", "address": "POST OFFICE BOX 75", "city": "ST. STEPHEN", "province": "NB", "country": "CA", "postalCode": "E3L2W9", "twitter": "None", "instagram": "None", "facebook": "None", "youtube": "None", "website": "None", "summary": "None", "logo": "None", "latitude": 45.19456800000006, "longitude": -67.27532299999993}, "108084658RR0105": {"name": "St. Stephen's Anglican Church, Buckingham", "designationCode": "C", "categoryCode": "30", "address": "2 CHEMIN DE LA BAIE TESKE", "city": "L'ANGE GARDIEN", "province": "QC", "country": "CA", "postalCode": "J8L0H1", "twitter": "None", "instagram": "None", "facebook": "None", "youtube": "None", "website": "None", "summary": "None", "logo": "None", "latitude": 45.600914147931235, "longitude": -75.51203263725542}, "107910259RR0236": {"name": "St. Stephen's Centre", "designationCode": "C", "categoryCode": "38", "address": "360 BAY STREET                SUITE 200", "city": "TORONTO", "province": "ON", "country": "CA", "postalCode": "M5H2V6", "twitter": "None", "instagram": "None", "facebook": "None", "youtube": "None", "website": "None", "summary": "None", "logo": "None", "latitude": 43.650556248975604, "longitude": -79.38136548488079}, "107950115RR0001": {"name": "St. Stephen's Church", "designationCode": "C", "categoryCode": "30", "address": "1121 14TH AVE SW", "city": "CALGARY", "province": "AB", "country": "CA", "postalCode": "T2R0P3", "twitter": "None", "instagram": "None", "facebook": "None", "youtube": "None", "website": "None", "summary": "None", "logo": "None", "latitude": 51.0401805212074, "longitude": -114.0876122216227}, "825908833RR0001": {"name": "St. Stephen's House of London", "designationCode": "C", "categoryCode": "57", "address": "36 GOWER ST", "city": "LONDON", "province": "ON", "country": "CA", "postalCode": "N6H2E6", "twitter": "None", "instagram": "None", "facebook": "None", "youtube": "None", "website": "None", "summary": "None", "logo": "None", "latitude": 42.992630055802316, "longitude": -81.26822010006343}, "821237054RR0001": {"name": "St. Stephen's Trust Society", "designationCode": "C", "categoryCode": "52", "address": "104-9710 SECOND STREET", "city": "SIDNEY", "province": "BC", "country": "CA", "postalCode": "V8L3C4", "twitter": "None", "instagram": "None", "facebook": "None", "youtube": "None", "website": "None", "summary": "None", "logo": "None", "latitude": 48.646961884984805, "longitude": -123.39663857080666}, "815281209RR0001": {"name": "St. Stephens Malankara Orthodox Church of Canada", "designationCode": "C", "categoryCode": "39", "address": "146-6399 SPINNAKER CIRCLE", "city": "MISSISSAUGA", "province": "ON", "country": "CA", "postalCode": "L5W1Z6", "twitter": "None", "instagram": "None", "facebook": "None", "youtube": "None", "website": "None", "summary": "None", "logo": "None", "latitude": 43.625636665272125, "longitude": -79.70842020044395}, "107910259RR0093": {"name": "St. Teresa's Parish", "designationCode": "C", "categoryCode": "38", "address": "123-11TH STREET", "city": "ETOBICOKE", "province": "ON", "country": "CA", "postalCode": "M8V3G6", "twitter": "None", "instagram": "None", "facebook": "None", "youtube": "None", "website": "None", "summary": "None", "logo": "None", "latitude": 43.598306071017, "longitude": -79.50903381868304}, "857041156RR0001": {"name": "St. Th\u00e9r\u00e8se Catholic Daycare Inc.", "designationCode": "C", "categoryCode": "01", "address": "29 DES MEURONS", "city": "WINNIPEG", "province": "MB", "country": "CA", "postalCode": "R2M2X7", "twitter": "None", "instagram": "None", "facebook": "None", "youtube": "None", "website": "None", "summary": "None", "logo": "None", "latitude": 49.86987714876795, "longitude": -97.10791219002796}, "129930228RR0037": {"name": "St. Theresa of the Child Jesus Parish", "designationCode": "C", "categoryCode": "38", "address": "44 MARIAN DRIVE", "city": "PERTH ANDOVER", "province": "NB", "country": "CA", "postalCode": "E7H3A7", "twitter": "None", "instagram": "None", "facebook": "None", "youtube": "None", "website": "None", "summary": "None", "logo": "None", "latitude": 46.75970467884118, "longitude": -67.70267337910741}, "107910259RR0100": {"name": "St. Theresa's Parish", "designationCode": "C", "categoryCode": "38", "address": "2559 KINGSTON RD", "city": "SCARBOROUGH", "province": "ON", "country": "CA", "postalCode": "M1M1M1", "twitter": "None", "instagram": "None", "facebook": "None", "youtube": "None", "website": "None", "summary": "None", "logo": "None", "latitude": 43.711462687748934, "longitude": -79.2477465160715}, "107910259RR0189": {"name": "St. Thomas the Apostle Parish", "designationCode": "C", "categoryCode": "38", "address": "14 HIGHGATE DR", "city": "MARKHAM", "province": "ON", "country": "CA", "postalCode": "L3R3R6", "twitter": "None", "instagram": "None", "facebook": "None", "youtube": "None", "website": "None", "summary": "None", "logo": "None", "latitude": 43.82653492480796, "longitude": -79.31666948211083}, "119110450RR0062": {"name": "St. Thomas the Apostle Parish", "designationCode": "C", "categoryCode": "38", "address": "715 CENTRE ROAD               PO BOX 348", "city": "WATERDOWN", "province": "ON", "country": "CA", "postalCode": "L0R2H0", "twitter": "None", "instagram": "None", "facebook": "None", "youtube": "None", "website": "None", "summary": "None", "logo": "None", "latitude": 43.34534079346785, "longitude": -79.91476135128939}, "107020323RR0026": {"name": "St. Thomas Anglican Church, Moose Factory", "designationCode": "C", "categoryCode": "30", "address": "P.O. BOX 30", "city": "MOOSE FACTORY", "province": "ON", "country": "CA", "postalCode": "P0L1W0", "twitter": "None", "instagram": "None", "facebook": "None", "youtube": "None", "website": "None", "summary": "None", "logo": "None", "latitude": 51.26000000000005, "longitude": -80.59705999999994}, "107910259RR0094": {"name": "St. Thomas Aquinas Parish", "designationCode": "C", "categoryCode": "38", "address": "640 GLENHOLME AVENUE", "city": "TORONTO", "province": "ON", "country": "CA", "postalCode": "M6E3G9", "twitter": "None", "instagram": "None", "facebook": "None", "youtube": "None", "website": "None", "summary": "None", "logo": "None", "latitude": 43.69635193865777, "longitude": -79.44513548101429}, "826297806RR0001": {"name": "St. Thomas Community Church", "designationCode": "C", "categoryCode": "39", "address": "123 CHURCHILL CRESCENT", "city": "ST-THOMAS", "province": "ON", "country": "CA", "postalCode": "N5R1R3", "twitter": "None", "instagram": "None", "facebook": "None", "youtube": "None", "website": "None", "summary": "None", "logo": "None", "latitude": 42.769547533095896, "longitude": -81.17935006743377}, "823668587RR0001": {"name": "St. Thomas Elgin Food Bank", "designationCode": "C", "categoryCode": "09", "address": "PO BOX 20025                  803 TALBOT ST", "city": "ST THOMAS", "province": "ON", "country": "CA", "postalCode": "N5P4H4", "twitter": "None", "instagram": "None", "facebook": "None", "youtube": "None", "website": "None", "summary": "None", "logo": "None", "latitude": 42.778939932714174, "longitude": -81.18547430898735}, "804202711RR0001": {"name": "St. Thomas Jacobite Syriac Orthodox Church, Calgary", "designationCode": "C", "categoryCode": "39", "address": "239 KINCORA HTS NW", "city": "CALGARY", "province": "AB", "country": "CA", "postalCode": "T3R1N6", "twitter": "None", "instagram": "None", "facebook": "None", "youtube": "None", "website": "None", "summary": "None", "logo": "None", "latitude": 51.15700902637194, "longitude": -114.13261078074322}, "107910259RR0099": {"name": "St. Thomas More Parish", "designationCode": "C", "categoryCode": "38", "address": "1 DORMINGTON DRIVE", "city": "SCARBOROUGH", "province": "ON", "country": "CA", "postalCode": "M1G3M9", "twitter": "None", "instagram": "None", "facebook": "None", "youtube": "None", "website": "None", "summary": "None", "logo": "None", "latitude": 43.77786013933287, "longitude": -79.22664584843345}, "806668257RR0001": {"name": "St. Thomas More Society", "designationCode": "C", "categoryCode": "21", "address": "37 ESPLANADE ST", "city": "SYDNEY", "province": "NS", "country": "CA", "postalCode": "B1P1A2", "twitter": "None", "instagram": "None", "facebook": "None", "youtube": "None", "website": "None", "summary": "None", "logo": "None", "latitude": 46.14371711824107, "longitude": -60.200042983611375}, "107910259RR0023": {"name": "St. Timothy Parish", "designationCode": "C", "categoryCode": "38", "address": "42 DAWSON RD.", "city": "ORANGEVILLE", "province": "ON", "country": "CA", "postalCode": "L9W2W3", "twitter": "None", "instagram": "None", "facebook": "None", "youtube": "None", "website": "None", "summary": "None", "logo": "None", "latitude": 43.913014877490205, "longitude": -80.10247764234978}, "807764881RR0001": {"name": "St. Timothy School Education Society", "designationCode": "C", "categoryCode": "21", "address": "27 SPERO PLACE", "city": "CALGARY", "province": "AB", "country": "CA", "postalCode": "T3R1G3", "twitter": "None", "instagram": "None", "facebook": "None", "youtube": "None", "website": "None", "summary": "None", "logo": "None", "latitude": 51.1729714989904, "longitude": -114.306723}, "107910259RR0101": {"name": "St. Timothy's Parish", "designationCode": "C", "categoryCode": "38", "address": "21 LEITH HILL ROAD", "city": "NORTH YORK", "province": "ON", "country": "CA", "postalCode": "M2J1Y9", "twitter": "None", "instagram": "None", "facebook": "None", "youtube": "None", "website": "None", "summary": "None", "logo": "None", "latitude": 43.776518838161664, "longitude": -79.35056732915929}, "107910259RR0095": {"name": "St. Vincent de Paul Parish", "designationCode": "C", "categoryCode": "38", "address": "263 RONCESVALLES AVE", "city": "TORONTO", "province": "ON", "country": "CA", "postalCode": "M6R2L9", "twitter": "None", "instagram": "None", "facebook": "None", "youtube": "None", "website": "None", "summary": "None", "logo": "None", "latitude": 43.64679308687745, "longitude": -79.4491905772695}, "132410671RR0497": {"name": "St. Vincent de Paul Society - Pope John XXIII Conference", "designationCode": "C", "categoryCode": "09", "address": "35 COLBY DRIVE", "city": "DARTHMOUTH", "province": "NS", "country": "CA", "postalCode": "B2V1N7", "twitter": "None", "instagram": "None", "facebook": "None", "youtube": "None", "website": "None", "summary": "None", "logo": "None", "latitude": 44.66766804576167, "longitude": -63.489440795746866}, "132397878RR0001": {"name": "St. Vincent Recreational Society", "designationCode": "C", "categoryCode": "56", "address": "POST OFFICE BOX 125", "city": "ST. VINCENT", "province": "AB", "country": "CA", "postalCode": "T0A3B0", "twitter": "None", "instagram": "None", "facebook": "None", "youtube": "None", "website": "None", "summary": "None", "logo": "None", "latitude": 54.80702206980597, "longitude": -111.91303042355929}, "843050998RR0001": {"name": "St. Vincent's Apartments Inc.", "designationCode": "C", "categoryCode": "09", "address": "1 BAYARD DRIVE", "city": "SAINT JOHN", "province": "NB", "country": "CA", "postalCode": "E2L3L5", "twitter": "None", "instagram": "None", "facebook": "None", "youtube": "None", "website": "None", "summary": "None", "logo": "None", "latitude": 45.279610143516486, "longitude": -66.05691635899367}, "119717817RR0001": {"name": "St. Vital Child Care Co-op Inc.", "designationCode": "C", "categoryCode": "56", "address": "15 ST MICHAEL RD", "city": "WINNIPEG", "province": "MB", "country": "CA", "postalCode": "R2M2K4", "twitter": "None", "instagram": "None", "facebook": "None", "youtube": "None", "website": "None", "summary": "None", "logo": "None", "latitude": 49.83281291427638, "longitude": -97.11534244035987}, "850132721RR0001": {"name": "St. Volodymyr Cathedral of Toronto", "designationCode": "C", "categoryCode": "39", "address": "406 BATHURST ST.", "city": "TORONTO", "province": "ON", "country": "CA", "postalCode": "M5T2S6", "twitter": "None", "instagram": "None", "facebook": "None", "youtube": "None", "website": "None", "summary": "None", "logo": "None", "latitude": 43.654151577846434, "longitude": -79.40680466406005}, "820939486RR0001": {"name": "St. Walburg & Area Senior Care Initiatives Inc.", "designationCode": "C", "categoryCode": "09", "address": "POST OFFICE BOX 373           117-3RD AVENUE EAST", "city": "ST WALBURG", "province": "SK", "country": "CA", "postalCode": "S0M2T0", "twitter": "None", "instagram": "None", "facebook": "None", "youtube": "None", "website": "None", "summary": "None", "logo": "None", "latitude": 53.63487642157408, "longitude": -109.19694205123005}, "107910259RR0096": {"name": "St. Wenceslaus Parish", "designationCode": "C", "categoryCode": "38", "address": "496 GLADSTONE AVE", "city": "TORONTO", "province": "ON", "country": "CA", "postalCode": "M6H3H9", "twitter": "None", "instagram": "None", "facebook": "None", "youtube": "None", "website": "None", "summary": "None", "logo": "None", "latitude": 43.6596660113683, "longitude": -79.43366497827301}, "107910259RR0097": {"name": "St. Wilfrid's Parish", "designationCode": "C", "categoryCode": "38", "address": "1675 FINCH AVENUE WEST", "city": "TORONTO", "province": "ON", "country": "CA", "postalCode": "M3J2G8", "twitter": "None", "instagram": "None", "facebook": "None", "youtube": "None", "website": "None", "summary": "None", "logo": "None", "latitude": 43.760742874805395, "longitude": -79.50121587731554}, "107909939RR0092": {"name": "St.Agnes Catholic Parish", "designationCode": "C", "categoryCode": "38", "address": "302 11 AVENUE SOUTH", "city": "CARSTAIRS", "province": "AB", "country": "CA", "postalCode": "T0M0N0", "twitter": "None", "instagram": "None", "facebook": "None", "youtube": "None", "website": "None", "summary": "None", "logo": "None", "latitude": 51.5607615, "longitude": -114.0983865}, "848623575RR0017": {"name": "St.Aloysius Parish", "designationCode": "C", "categoryCode": "38", "address": "41 JOHN STREET                PO BOX 340", "city": "FENELON FALLS", "province": "ON", "country": "CA", "postalCode": "K0M1N0", "twitter": "None", "instagram": "None", "facebook": "None", "youtube": "None", "website": "None", "summary": "None", "logo": "None", "latitude": 44.54039417573625, "longitude": -78.73763583452708}, "848623575RR0019": {"name": "St.Alphonsus Church", "designationCode": "C", "categoryCode": "38", "address": "98-118 COUNTY ROAD NO.5       PO BOX 10", "city": "WOOLER", "province": "ON", "country": "CA", "postalCode": "K0K3M0", "twitter": "None", "instagram": "None", "facebook": "None", "youtube": "None", "website": "None", "summary": "None", "logo": "None", "latitude": 44.15655300000006, "longitude": -77.70020299999993}, "848623575RR0018": {"name": "St.Alphonsus Liguori Church", "designationCode": "C", "categoryCode": "38", "address": "1066 WESTERN AVE", "city": "PETERBOROUGH", "province": "ON", "country": "CA", "postalCode": "K9J5W6", "twitter": "None", "instagram": "None", "facebook": "None", "youtube": "None", "website": "None", "summary": "None", "logo": "None", "latitude": 44.29174747183905, "longitude": -78.34140785659909}, "839184462RR0001": {"name": "St.Andrew the First Called Apostle Orthodox Mission Station", "designationCode": "C", "categoryCode": "39", "address": "P.O.BOX 463", "city": "CANORA", "province": "SK", "country": "CA", "postalCode": "S0A0L0", "twitter": "None", "instagram": "None", "facebook": "None", "youtube": "None", "website": "None", "summary": "None", "logo": "None", "latitude": 51.62535661313478, "longitude": -102.4443087080291}, "108190281RR0002": {"name": "St.Anne's Anglican Church (Byron)", "designationCode": "C", "categoryCode": "30", "address": "1344 COMMISSIONERS RD W", "city": "LONDON", "province": "ON", "country": "CA", "postalCode": "N6K1E1", "twitter": "None", "instagram": "None", "facebook": "None", "youtube": "None", "website": "None", "summary": "None", "logo": "None", "latitude": 42.96123824672524, "longitude": -81.33750241424772}, "848623575RR0020": {"name": "St.Anne's Church", "designationCode": "C", "categoryCode": "38", "address": "859 BARNARDO AVE", "city": "PETERBOROUGH", "province": "ON", "country": "CA", "postalCode": "K9H5W2", "twitter": "None", "instagram": "None", "facebook": "None", "youtube": "None", "website": "None", "summary": "None", "logo": "None", "latitude": 44.32211456477602, "longitude": -78.32603274652274}, "876353079RR0001": {"name": "St.ELIAS UKRAINIAN ORTHODOX CHURCH SOCIETY OF BONNYVILLE", "designationCode": "C", "categoryCode": "39", "address": "4801 46 STREET", "city": "BONNYVILLE", "province": "AB", "country": "CA", "postalCode": "T9N1G8", "twitter": "None", "instagram": "None", "facebook": "None", "youtube": "None", "website": "None", "summary": "None", "logo": "None", "latitude": 54.26613041909516, "longitude": -110.73017643251228}, "848623575RR0023": {"name": "St.John the Baptist Church", "designationCode": "C", "categoryCode": "38", "address": "300 WILSON ST", "city": "PETERBOROUGH", "province": "ON", "country": "CA", "postalCode": "K9J1T2", "twitter": "None", "instagram": "None", "facebook": "None", "youtube": "None", "website": "None", "summary": "None", "logo": "None", "latitude": 44.283973052484086, "longitude": -78.31798725327477}, "848623575RR0024": {"name": "St.John's Church", "designationCode": "C", "categoryCode": "38", "address": "1045 PORTAGE RD", "city": "KIRKFIELD", "province": "ON", "country": "CA", "postalCode": "K0M2B0", "twitter": "None", "instagram": "None", "facebook": "None", "youtube": "None", "website": "None", "summary": "None", "logo": "None", "latitude": 44.56383809203855, "longitude": -78.977929290538}, "839064862RR0001": {"name": "St.John's Vancouver Church", "designationCode": "C", "categoryCode": "30", "address": "2325 BURRARD ST", "city": "VANCOUVER", "province": "BC", "country": "CA", "postalCode": "V6J3J2", "twitter": "None", "instagram": "None", "facebook": "None", "youtube": "None", "website": "None", "summary": "None", "logo": "None", "latitude": 49.26520076019966, "longitude": -123.14576604498227}, "838626109RR0001": {"name": "St.Joseph's - Hospice of London", "designationCode": "C", "categoryCode": "10", "address": "PO BOX 1449 STN B", "city": "LONDON", "province": "ON", "country": "CA", "postalCode": "N6A5M2", "twitter": "None", "instagram": "None", "facebook": "None", "youtube": "None", "website": "None", "summary": "None", "logo": "None", "latitude": 42.98689500000006, "longitude": -81.24624349999993}, "848623575RR0025": {"name": "St.Joseph's Church", "designationCode": "C", "categoryCode": "38", "address": "127 LIBERTY ST S", "city": "BOWMANVILLE", "province": "ON", "country": "CA", "postalCode": "L1C2P5", "twitter": "None", "instagram": "None", "facebook": "None", "youtube": "None", "website": "None", "summary": "None", "logo": "None", "latitude": 43.902937413555236, "longitude": -78.67685046595334}, "848623575RR0026": {"name": "St.Joseph's Church", "designationCode": "C", "categoryCode": "38", "address": "118 MCMURRAY ST", "city": "BRACEBRIDGE", "province": "ON", "country": "CA", "postalCode": "P1L1R8", "twitter": "None", "instagram": "None", "facebook": "None", "youtube": "None", "website": "None", "summary": "None", "logo": "None", "latitude": 45.042827019418375, "longitude": -79.3158931592126}}