{"108084658RR0120": {"name": "ST. HELEN'S ANGLICAN CHURCH", "designationCode": "C", "categoryCode": "30", "address": "1234 PRESTONE DRIVE", "city": "ORLEANS", "province": "ON", "country": "CA", "postalCode": "K1E3X6", "twitter": "None", "instagram": "None", "facebook": "None", "youtube": "None", "website": "None", "summary": "None", "logo": "None", "latitude": 45.47996816954265, "longitude": -75.50363479667051}, "108019928RR0001": {"name": "ST. HELEN'S ANGLICAN CHURCH, VANCOUVER", "designationCode": "C", "categoryCode": "30", "address": "4405 WEST 8 AVENUE,", "city": "VANCOUVER", "province": "BC", "country": "CA", "postalCode": "V6R2A3", "twitter": "None", "instagram": "None", "facebook": "None", "youtube": "None", "website": "None", "summary": "None", "logo": "None", "latitude": 49.26554346047076, "longitude": -123.20664249708581}, "879176709RR0001": {"name": "ST. HELEN'S CEMETERY", "designationCode": "C", "categoryCode": "59", "address": "BOX 34", "city": "KUROKI", "province": "SK", "country": "CA", "postalCode": "S0A1Y0", "twitter": "None", "instagram": "None", "facebook": "None", "youtube": "None", "website": "None", "summary": "None", "logo": "None", "latitude": 51.87283000000008, "longitude": -103.48882999999995}, "118849470RR0043": {"name": "ST. HELEN'S PARISH", "designationCode": "C", "categoryCode": "38", "address": "3871 PANDORA ST", "city": "BURNABY", "province": "BC", "country": "CA", "postalCode": "V5C2A6", "twitter": "None", "instagram": "None", "facebook": "None", "youtube": "None", "website": "None", "summary": "None", "logo": "None", "latitude": 49.282933533758204, "longitude": -123.01955163918865}, "119109791RR0006": {"name": "ST. HELEN'S PARISH", "designationCode": "C", "categoryCode": "38", "address": "4106 MOUNTAIN ST", "city": "BEAMSVILLE", "province": "ON", "country": "CA", "postalCode": "L0R1B7", "twitter": "None", "instagram": "None", "facebook": "None", "youtube": "None", "website": "None", "summary": "None", "logo": "None", "latitude": 43.157477570434644, "longitude": -79.47794979972957}, "107585085RR0021": {"name": "ST. HENRY PARISH, LEASK, SK.", "designationCode": "C", "categoryCode": "38", "address": "BOX 70", "city": "LEASK", "province": "SK", "country": "CA", "postalCode": "S0J1M0", "twitter": "None", "instagram": "None", "facebook": "None", "youtube": "None", "website": "None", "summary": "None", "logo": "None", "latitude": 53.01679000000007, "longitude": -106.75113999999996}, "108019944RR0001": {"name": "ST. HENRY'S ROMAN CATHOLIC CHURCH", "designationCode": "C", "categoryCode": "38", "address": "BOX 100", "city": "MELVILLE", "province": "SK", "country": "CA", "postalCode": "S0A2P0", "twitter": "None", "instagram": "None", "facebook": "None", "youtube": "None", "website": "None", "summary": "None", "logo": "None", "latitude": 50.87164886256234, "longitude": -103.09293300498788}, "131201196RR0001": {"name": "ST. HERMAN OF ALASKA ORTHODOX CHURCH OF EDMONTON", "designationCode": "C", "categoryCode": "38", "address": "9930 167 ST NW", "city": "EDMONTON", "province": "AB", "country": "CA", "postalCode": "T5P4W7", "twitter": "None", "instagram": "None", "facebook": "None", "youtube": "None", "website": "None", "summary": "None", "logo": "None", "latitude": 53.53847767306243, "longitude": -113.6097924269141}, "119176311RR0001": {"name": "ST. HILARY'S CHURCH", "designationCode": "C", "categoryCode": "30", "address": "2055 HURONTARIO STREET", "city": "MISSISSAUGA", "province": "ON", "country": "CA", "postalCode": "L5A2E6", "twitter": "None", "instagram": "None", "facebook": "None", "youtube": "None", "website": "None", "summary": "None", "logo": "None", "latitude": 43.569838000662294, "longitude": -79.60171643840677}, "106713753RR0004": {"name": "ST. HILDA'S ANGLICAN CHURCH", "designationCode": "C", "categoryCode": "30", "address": "BOX 94", "city": "SAVONA", "province": "BC", "country": "CA", "postalCode": "V0K2J0", "twitter": "None", "instagram": "None", "facebook": "None", "youtube": "None", "website": "None", "summary": "None", "logo": "None", "latitude": 50.753973734430645, "longitude": -120.84276747377034}, "119176378RR0001": {"name": "ST. HILDA'S CHURCH FAIRBANK", "designationCode": "C", "categoryCode": "30", "address": "2353 DUFFERIN ST", "city": "TORONTO", "province": "ON", "country": "CA", "postalCode": "M6E5A5", "twitter": "None", "instagram": "None", "facebook": "None", "youtube": "None", "website": "None", "summary": "None", "logo": "None", "latitude": 43.695101828206994, "longitude": -79.44994634745248}, "119176402RR0001": {"name": "ST. HILDA'S TOWERS FOUNDATION", "designationCode": "A", "categoryCode": "03", "address": "2339 DUFFERIN STREET", "city": "TORONTO", "province": "ON", "country": "CA", "postalCode": "M6E4Z5", "twitter": "None", "instagram": "None", "facebook": "None", "youtube": "None", "website": "None", "summary": "None", "logo": "None", "latitude": 43.69469069914591, "longitude": -79.4497900363266}, "119176410RR0001": {"name": "ST. HILDA'S TOWERS INC.", "designationCode": "C", "categoryCode": "01", "address": "DIRECTOR OF FINANCE           2339 DUFFERIN ST", "city": "TORONTO", "province": "ON", "country": "CA", "postalCode": "M6E4Z5", "twitter": "None", "instagram": "None", "facebook": "None", "youtube": "None", "website": "None", "summary": "None", "logo": "None", "latitude": 43.69469069914591, "longitude": -79.4497900363266}, "107585085RR0045": {"name": "ST. HIPPOLYTE PARISH, VAWN, SK", "designationCode": "C", "categoryCode": "38", "address": "P.O.BOX 57", "city": "VAWM", "province": "SK", "country": "CA", "postalCode": "S0M2Z0", "twitter": "None", "instagram": "None", "facebook": "None", "youtube": "None", "website": "None", "summary": "None", "logo": "None", "latitude": 53.10772800000005, "longitude": -108.66171049999993}, "119176444RR0001": {"name": "ST. HUGH & ST. EDMUND ANGLICAN CHURCH", "designationCode": "C", "categoryCode": "30", "address": "7314 GOREWAY DRIVE", "city": "MISSISSAUGA", "province": "ON", "country": "CA", "postalCode": "L4T2V1", "twitter": "None", "instagram": "None", "facebook": "None", "youtube": "None", "website": "None", "summary": "None", "logo": "None", "latitude": 43.719585655260154, "longitude": -79.6399411031505}, "119176451RR0001": {"name": "ST. HYACINTH MISSION FUND", "designationCode": "C", "categoryCode": "47", "address": "PO BOX 46089 2339 OGILVIE RD", "city": "GLOUCESTER", "province": "ON", "country": "CA", "postalCode": "K1J9M7", "twitter": "None", "instagram": "None", "facebook": "None", "youtube": "None", "website": "None", "summary": "None", "logo": "None", "latitude": 45.45211383845013, "longitude": -75.59683716691598}, "846663813RR0001": {"name": "ST. IGNATIOUS KNANAYA JACOBITE CHURCH TORONTO", "designationCode": "C", "categoryCode": "39", "address": "POST OFFICE BOX 20014", "city": "MISSISSAUGA", "province": "ON", "country": "CA", "postalCode": "L5B4L7", "twitter": "None", "instagram": "None", "facebook": "None", "youtube": "None", "website": "None", "summary": "None", "logo": "None", "latitude": 43.58690700000005, "longitude": -79.64535049999994}, "119109833RR0028": {"name": "ST. IGNATIUS CHURCH", "designationCode": "C", "categoryCode": "38", "address": "5 BEDFORD ST", "city": "BEDFORD", "province": "NS", "country": "CA", "postalCode": "B4A1W5", "twitter": "None", "instagram": "None", "facebook": "None", "youtube": "None", "website": "None", "summary": "None", "logo": "None", "latitude": 44.72673543184843, "longitude": -63.66804994835263}, "119176527RR0001": {"name": "ST. IGNATIUS CHURCH", "designationCode": "C", "categoryCode": "38", "address": "BOX 106", "city": "KENDAL", "province": "SK", "country": "CA", "postalCode": "S0G2P0", "twitter": "None", "instagram": "None", "facebook": "None", "youtube": "None", "website": "None", "summary": "None", "logo": "None", "latitude": 50.250060000000076, "longitude": -103.61775999999998}, "107876468RR0008": {"name": "ST. IGNATIUS PARISH", "designationCode": "C", "categoryCode": "38", "address": "P.O. BOX 38", "city": "ST. ALBAN'S.", "province": "NL", "country": "CA", "postalCode": "A0H2E0", "twitter": "None", "instagram": "None", "facebook": "None", "youtube": "None", "website": "None", "summary": "None", "logo": "None", "latitude": 47.89864500000006, "longitude": -55.831773499999926}, "128967353RR0064": {"name": "ST. IGNATIUS PARISH", "designationCode": "C", "categoryCode": "39", "address": "518 DONALD STREET", "city": "OTTAWA", "province": "ON", "country": "CA", "postalCode": "K1K1L7", "twitter": "None", "instagram": "None", "facebook": "None", "youtube": "None", "website": "None", "summary": "None", "logo": "None", "latitude": 45.42853457501914, "longitude": -75.64506173299101}, "892855040RR0001": {"name": "ST. ILIJA SERBIAN ORTHODOX MISSIONARY PARISH", "designationCode": "C", "categoryCode": "39", "address": "585 GERSTMAR RD", "city": "KELOWNA", "province": "BC", "country": "CA", "postalCode": "V1X4B3", "twitter": "None", "instagram": "None", "facebook": "None", "youtube": "None", "website": "None", "summary": "None", "logo": "None", "latitude": 49.88234733527614, "longitude": -119.40944138545254}, "107585085RR0051": {"name": "ST. ISIDORE DE BELLEVUE PARISH, BELLEVUE, SK", "designationCode": "C", "categoryCode": "38", "address": "C.P. 87", "city": "ST-ISIDORE-DE-BELLEVUE", "province": "SK", "country": "CA", "postalCode": "S0K3Y0", "twitter": "None", "instagram": "None", "facebook": "None", "youtube": "None", "website": "None", "summary": "None", "logo": "None", "latitude": 52.783755000000056, "longitude": -105.92066149999994}, "735516924RR0001": {"name": "ST. JACOBS MENNONITE CHURCH", "designationCode": "C", "categoryCode": "34", "address": "1310 KING STREET N.           P.O. BOX 105", "city": "ST.JACOBS", "province": "ON", "country": "CA", "postalCode": "N0B2N0", "twitter": "None", "instagram": "None", "facebook": "None", "youtube": "None", "website": "None", "summary": "None", "logo": "None", "latitude": 43.53519377906978, "longitude": -80.5542335601884}, "118986223RR0001": {"name": "ST. JAMES AND KNOX PRESBYTERIAN CHURCHES", "designationCode": "C", "categoryCode": "37", "address": "11 LOCH BHREAGH DR", "city": "BOULARDERIE EAST", "province": "NS", "country": "CA", "postalCode": "B1X1J7", "twitter": "None", "instagram": "None", "facebook": "None", "youtube": "None", "website": "None", "summary": "None", "logo": "None", "latitude": 46.23117505546939, "longitude": -60.480163687031}, "119176733RR0001": {"name": "ST. JAMES AND ST. STEPHENS CHURCH", "designationCode": "C", "categoryCode": "30", "address": "PO BOX 192", "city": "FOXWARREN", "province": "MB", "country": "CA", "postalCode": "R0J0R0", "twitter": "None", "instagram": "None", "facebook": "None", "youtube": "None", "website": "None", "summary": "None", "logo": "None", "latitude": 50.520740000000046, "longitude": -101.15296999999998}, "108084658RR0071": {"name": "ST. JAMES ANGLICAN CHURCH", "designationCode": "C", "categoryCode": "30", "address": "225 EDMUND STREET", "city": "CARLETON PLACE", "province": "ON", "country": "CA", "postalCode": "K7C3E7", "twitter": "None", "instagram": "None", "facebook": "None", "youtube": "None", "website": "None", "summary": "None", "logo": "None", "latitude": 45.14293096892485, "longitude": -76.14668427211622}, "119177467RR0002": {"name": "ST. JAMES ANGLICAN CHURCH", "designationCode": "C", "categoryCode": "30", "address": "191 HOTCHKISS ST", "city": "GRAVENHURST", "province": "ON", "country": "CA", "postalCode": "P1P1H6", "twitter": "None", "instagram": "None", "facebook": "None", "youtube": "None", "website": "None", "summary": "None", "logo": "None", "latitude": 44.9186898420568, "longitude": -79.37470771259167}, "131866170RR0002": {"name": "ST. JAMES ANGLICAN CHURCH", "designationCode": "C", "categoryCode": "30", "address": "5 ST MARK'S STREET", "city": "ROSSLYN", "province": "ON", "country": "CA", "postalCode": "P7K0N7", "twitter": "None", "instagram": "None", "facebook": "None", "youtube": "None", "website": "None", "summary": "None", "logo": "None", "latitude": 48.365038298355785, "longitude": -89.44062294080467}, "873039499RR0001": {"name": "ST. JAMES ANGLICAN CHURCH", "designationCode": "C", "categoryCode": "30", "address": "489 552 HWY W", "city": "GOULAIS RIVER", "province": "ON", "country": "CA", "postalCode": "P0S1E0", "twitter": "None", "instagram": "None", "facebook": "None", "youtube": "None", "website": "None", "summary": "None", "logo": "None", "latitude": 46.731225619692836, "longitude": -84.37576117810119}, "893267773RR0002": {"name": "ST. JAMES ANGLICAN CHURCH", "designationCode": "C", "categoryCode": "30", "address": "34 DEER LODGE PLACE", "city": "WINNIPEG", "province": "MB", "country": "CA", "postalCode": "R3J2B7", "twitter": "None", "instagram": "None", "facebook": "None", "youtube": "None", "website": "None", "summary": "None", "logo": "None", "latitude": 49.8759858753823, "longitude": -97.22751238025839}, "119176766RR0001": {"name": "ST. JAMES ANGLICAN CHURCH EMILY", "designationCode": "C", "categoryCode": "30", "address": "1175 MILBURN ST", "city": "PETERBOROUGH", "province": "ON", "country": "CA", "postalCode": "K9H6P1", "twitter": "None", "instagram": "None", "facebook": "None", "youtube": "None", "website": "None", "summary": "None", "logo": "None", "latitude": 44.336860553436374, "longitude": -78.31984900571281}, "108099771RR0098": {"name": "ST. JAMES ANGLICAN CHURCH MERRITTON", "designationCode": "C", "categoryCode": "30", "address": "252 JAMES STREET NORTH", "city": "HAMILTON", "province": "ON", "country": "CA", "postalCode": "L8R2L3", "twitter": "None", "instagram": "None", "facebook": "None", "youtube": "None", "website": "None", "summary": "None", "logo": "None", "latitude": 43.26303055231121, "longitude": -79.866250127359}, "891207144RR0001": {"name": "ST. JAMES ASSINIBOIA DIVISIONAL CONCERT CHOIR INC.", "designationCode": "C", "categoryCode": "22", "address": "2574 PORTAGE AVE", "city": "WINNIPEG", "province": "MB", "country": "CA", "postalCode": "R3J0H8", "twitter": "None", "instagram": "None", "facebook": "None", "youtube": "None", "website": "None", "summary": "None", "logo": "None", "latitude": 49.87535094636207, "longitude": -97.26330934837519}, "119176964RR0001": {"name": "ST. JAMES CEMETERY AND CHAPEL", "designationCode": "C", "categoryCode": "30", "address": "BOX 81", "city": "OIL SPRINGS", "province": "ON", "country": "CA", "postalCode": "N0N1P0", "twitter": "None", "instagram": "None", "facebook": "None", "youtube": "None", "website": "None", "summary": "None", "logo": "None", "latitude": 42.78970003399107, "longitude": -82.41068905306726}, "119176949RR0001": {"name": "ST. JAMES CEMETERY BOARD WEST BROCK", "designationCode": "C", "categoryCode": "59", "address": "14 SOUTH BALSAM STREET", "city": "UXBRIDGE", "province": "ON", "country": "CA", "postalCode": "L9P1E9", "twitter": "None", "instagram": "None", "facebook": "None", "youtube": "None", "website": "None", "summary": "None", "logo": "None", "latitude": 44.105090414680426, "longitude": -79.12960306177492}, "119176956RR0001": {"name": "ST. JAMES CENTENNIAL UNITED CHURCH", "designationCode": "C", "categoryCode": "44", "address": "24 MARY ST", "city": "PARRY SOUND", "province": "ON", "country": "CA", "postalCode": "P2A1C9", "twitter": "None", "instagram": "None", "facebook": "None", "youtube": "None", "website": "None", "summary": "None", "logo": "None", "latitude": 45.34553847792724, "longitude": -80.03329194754457}, "107909939RR0025": {"name": "ST. JAMES CHURCH", "designationCode": "C", "categoryCode": "38", "address": "5504 20TH ST.S.W.", "city": "CALGARY", "province": "AB", "country": "CA", "postalCode": "T3E1R2", "twitter": "None", "instagram": "None", "facebook": "None", "youtube": "None", "website": "None", "summary": "None", "logo": "None", "latitude": 51.00454707799065, "longitude": -114.1091778369209}, "108021007RR0002": {"name": "ST. JAMES CHURCH", "designationCode": "C", "categoryCode": "30", "address": "184 OXFORD STREET", "city": "INGERSOLL", "province": "ON", "country": "CA", "postalCode": "N5C2V7", "twitter": "None", "instagram": "None", "facebook": "None", "youtube": "None", "website": "None", "summary": "None", "logo": "None", "latitude": 43.036231631138584, "longitude": -80.8827111401696}, "108099771RR0040": {"name": "ST. JAMES CHURCH", "designationCode": "C", "categoryCode": "30", "address": "137 MELVILLE STR", "city": "DUNDAS", "province": "ON", "country": "CA", "postalCode": "L9H2A6", "twitter": "None", "instagram": "None", "facebook": "None", "youtube": "None", "website": "None", "summary": "None", "logo": "None", "latitude": 43.26926023228135, "longitude": -79.96160321861123}, "119177319RR0002": {"name": "ST. JAMES CHURCH", "designationCode": "C", "categoryCode": "30", "address": "15 RIDGEBANK PL", "city": "NEW HAMBURG", "province": "ON", "country": "CA", "postalCode": "N3A2G3", "twitter": "None", "instagram": "None", "facebook": "None", "youtube": "None", "website": "None", "summary": "None", "logo": "None", "latitude": 43.373999643460174, "longitude": -80.68897730819958}, "119177350RR0002": {"name": "ST. JAMES CHURCH", "designationCode": "C", "categoryCode": "30", "address": "34317 NEIL RD", "city": "LUCAN", "province": "ON", "country": "CA", "postalCode": "N0M2J0", "twitter": "None", "instagram": "None", "facebook": "None", "youtube": "None", "website": "None", "summary": "None", "logo": "None", "latitude": 43.192966059611486, "longitude": -81.47574796242891}, "119177509RR0001": {"name": "ST. JAMES CHURCH", "designationCode": "C", "categoryCode": "38", "address": "PO BOX 57", "city": "DUNREA", "province": "MB", "country": "CA", "postalCode": "R0K0S0", "twitter": "None", "instagram": "None", "facebook": "None", "youtube": "None", "website": "None", "summary": "None", "logo": "None", "latitude": 49.40691000000004, "longitude": -99.73213999999996}, "119177558RR0001": {"name": "ST. JAMES CHURCH", "designationCode": "C", "categoryCode": "38", "address": "BOX 386", "city": "SOUTHEY", "province": "SK", "country": "CA", "postalCode": "S0G4P0", "twitter": "None", "instagram": "None", "facebook": "None", "youtube": "None", "website": "None", "summary": "None", "logo": "None", "latitude": 50.93338000000006, "longitude": -104.50109999999995}, "119177574RR0001": {"name": "ST. JAMES CHURCH", "designationCode": "C", "categoryCode": "30", "address": "70 SUNSET WAY", "city": "PRIDDIS", "province": "AB", "country": "CA", "postalCode": "T0L1W0", "twitter": "None", "instagram": "None", "facebook": "None", "youtube": "None", "website": "None", "summary": "None", "logo": "None", "latitude": 50.898904836805336, "longitude": -114.41599937388175}, "141034496RR0002": {"name": "ST. JAMES CHURCH", "designationCode": "C", "categoryCode": "30", "address": "6991 ST MARGARETS BAY RD", "city": "BOUTILIERS POINT", "province": "NS", "country": "CA", "postalCode": "B3Z1W4", "twitter": "None", "instagram": "None", "facebook": "None", "youtube": "None", "website": "None", "summary": "None", "logo": "None", "latitude": 44.6605313452881, "longitude": -63.941031155721504}, "119176998RR0002": {"name": "ST. JAMES CHURCH (BISHOP CARMICHAEL MEMORIAL)", "designationCode": "C", "categoryCode": "30", "address": "797 CH LAKESIDE", "city": "FOSTER", "province": "QC", "country": "CA", "postalCode": "J0E1R0", "twitter": "None", "instagram": "None", "facebook": "None", "youtube": "None", "website": "None", "summary": "None", "logo": "None", "latitude": 45.29661544401096, "longitude": -72.50210892161533}, "119109817RR0009": {"name": "ST. JAMES CHURCH & ST. JAMES PARISH", "designationCode": "C", "categoryCode": "38", "address": "PO BOX 8", "city": "SEAFORTH", "province": "ON", "country": "CA", "postalCode": "N0K1W0", "twitter": "None", "instagram": "None", "facebook": "None", "youtube": "None", "website": "None", "summary": "None", "logo": "None", "latitude": 43.55304000000007, "longitude": -81.39369999999997}, "108084658RR0079": {"name": "ST. JAMES CHURCH LEITRIM", "designationCode": "C", "categoryCode": "30", "address": "27 HAXBY PRIVATE", "city": "OTTAWA", "province": "ON", "country": "CA", "postalCode": "K1T3B5", "twitter": "None", "instagram": "None", "facebook": "None", "youtube": "None", "website": "None", "summary": "None", "logo": "None", "latitude": 45.36762061143174, "longitude": -75.6369705596688}, "119110443RR0050": {"name": "ST. JAMES CHURCH MISSION CHURCH", "designationCode": "C", "categoryCode": "38", "address": "2905 WESTPORT ROAD            RR2", "city": "GODFREY", "province": "ON", "country": "CA", "postalCode": "K0H1T0", "twitter": "None", "instagram": "None", "facebook": "None", "youtube": "None", "website": "None", "summary": "None", "logo": "None", "latitude": 44.629611352988846, "longitude": -76.56223434086802}, "108084658RR0002": {"name": "ST. JAMES CHURCH WRIGHT", "designationCode": "C", "categoryCode": "30", "address": "344 RTE 105", "city": "GRACEFIELD", "province": "QC", "country": "CA", "postalCode": "J0X1W0", "twitter": "None", "instagram": "None", "facebook": "None", "youtube": "None", "website": "None", "summary": "None", "logo": "None", "latitude": 46.08059838866831, "longitude": -76.06035687846516}, "108021098RR0001": {"name": "ST. JAMES CO-OPERATIVE NURSERY SCHOOL OF DUNDAS INC.", "designationCode": "C", "categoryCode": "20", "address": "137 MELVILLE ST", "city": "DUNDAS", "province": "ON", "country": "CA", "postalCode": "L9H2A6", "twitter": "None", "instagram": "None", "facebook": "None", "youtube": "None", "website": "None", "summary": "None", "logo": "None", "latitude": 43.26926023228135, "longitude": -79.96160321861123}, "119132181RR0001": {"name": "ST. JAMES COURT NON-PROFIT APARTMENTS CORPORATION", "designationCode": "C", "categoryCode": "01", "address": "BOX 606", "city": "BARRIE", "province": "ON", "country": "CA", "postalCode": "L4M4V1", "twitter": "None", "instagram": "None", "facebook": "None", "youtube": "None", "website": "None", "summary": "None", "logo": "None", "latitude": 44.38929300000005, "longitude": -79.68626449999994}, "108021106RR0001": {"name": "ST. JAMES DAY CARE CENTER", "designationCode": "C", "categoryCode": "20", "address": "3214 10TH AVE W", "city": "VANCOUVER", "province": "BC", "country": "CA", "postalCode": "V6K2L2", "twitter": "None", "instagram": "None", "facebook": "None", "youtube": "None", "website": "None", "summary": "None", "logo": "None", "latitude": 49.263310521207394, "longitude": -123.17650063780367}, "108021205RR0001": {"name": "ST. JAMES EVANGELICAL LUTHERAN CHURCH", "designationCode": "C", "categoryCode": "32", "address": "PO BOX 179", "city": "NEW DUNDEE", "province": "ON", "country": "CA", "postalCode": "N0B2E0", "twitter": "None", "instagram": "None", "facebook": "None", "youtube": "None", "website": "None", "summary": "None", "logo": "None", "latitude": 43.404130000000066, "longitude": -80.60290999999995}, "119177640RR0001": {"name": "ST. JAMES EVANGELICAL LUTHERAN CHURCH", "designationCode": "C", "categoryCode": "32", "address": "PO BOX 70                     1407 KING STREET NORTH", "city": "ST-JACOBS", "province": "ON", "country": "CA", "postalCode": "N0B2N0", "twitter": "None", "instagram": "None", "facebook": "None", "youtube": "None", "website": "None", "summary": "None", "logo": "None", "latitude": 43.53928349792255, "longitude": -80.55363834877922}, "807209267RR0001": {"name": "ST. JAMES GOSPEL CHAPEL INC.", "designationCode": "C", "categoryCode": "39", "address": "7 BROWNING BLVD", "city": "WINNIPEG", "province": "MB", "country": "CA", "postalCode": "R3K0K7", "twitter": "None", "instagram": "None", "facebook": "None", "youtube": "None", "website": "None", "summary": "None", "logo": "None", "latitude": 49.872380565064496, "longitude": -97.30503389217496}, "119177707RR0001": {"name": "ST. JAMES IN THE VALLEY UNITED CHURCH", "designationCode": "C", "categoryCode": "44", "address": "4510 TATE BLVD", "city": "VAL THERESE", "province": "ON", "country": "CA", "postalCode": "P3P1S8", "twitter": "None", "instagram": "None", "facebook": "None", "youtube": "None", "website": "None", "summary": "None", "logo": "None", "latitude": 46.651167282820694, "longitude": -81.00808050995465}, "108021239RR0001": {"name": "ST. JAMES LUTHERAN CHURCH", "designationCode": "C", "categoryCode": "32", "address": "PO BOX 29092  RPO HESPELER", "city": "CAMBRIDGE", "province": "ON", "country": "CA", "postalCode": "N3C0E6", "twitter": "None", "instagram": "None", "facebook": "None", "youtube": "None", "website": "None", "summary": "None", "logo": "None", "latitude": 43.43562517571174, "longitude": -80.32717996677682}, "119177715RR0001": {"name": "ST. JAMES LUTHERAN CHURCH", "designationCode": "C", "categoryCode": "32", "address": "120 DAWSON HEIGHTS RR#1", "city": "BLOCKHOUSE", "province": "NS", "country": "CA", "postalCode": "B0J1E0", "twitter": "None", "instagram": "None", "facebook": "None", "youtube": "None", "website": "None", "summary": "None", "logo": "None", "latitude": 44.41333856422776, "longitude": -64.51700772693148}, "119177749RR0001": {"name": "ST. JAMES LUTHERAN CHURCH", "designationCode": "C", "categoryCode": "32", "address": "TREASURER                     60 ARTHUR STREET S", "city": "ELMIRA", "province": "ON", "country": "CA", "postalCode": "N3B2M9", "twitter": "None", "instagram": "None", "facebook": "None", "youtube": "None", "website": "None", "summary": "None", "logo": "None", "latitude": 43.597874712476106, "longitude": -80.55934799518123}, "119177798RR0001": {"name": "ST. JAMES LUTHERAN CHURCH", "designationCode": "C", "categoryCode": "32", "address": "66 MILL ST", "city": "BADEN", "province": "ON", "country": "CA", "postalCode": "N3A2N6", "twitter": "None", "instagram": "None", "facebook": "None", "youtube": "None", "website": "None", "summary": "None", "logo": "None", "latitude": 43.40189677721032, "longitude": -80.66931670671232}, "119177780RR0001": {"name": "ST. JAMES LUTHERAN CHURCH OF WHITECOURT", "designationCode": "C", "categoryCode": "32", "address": "55 SUNSET BLVD", "city": "WHITECOURT", "province": "AB", "country": "CA", "postalCode": "T7S1H4", "twitter": "None", "instagram": "None", "facebook": "None", "youtube": "None", "website": "None", "summary": "None", "logo": "None", "latitude": 54.129201099342275, "longitude": -115.6708798501642}, "107020323RR0007": {"name": "ST. JAMES MEMORIAL CHURCH", "designationCode": "C", "categoryCode": "30", "address": "POST OFFICE BOX 850", "city": "GERALDTON", "province": "ON", "country": "CA", "postalCode": "P0T1M0", "twitter": "None", "instagram": "None", "facebook": "None", "youtube": "None", "website": "None", "summary": "None", "logo": "None", "latitude": 49.73012979055605, "longitude": -86.95068883318625}, "107020331RR0052": {"name": "ST. JAMES PARISH", "designationCode": "C", "categoryCode": "38", "address": "19 ST. THOMAS ROAD", "city": "RED BANK", "province": "NB", "country": "CA", "postalCode": "E9E1B2", "twitter": "None", "instagram": "None", "facebook": "None", "youtube": "None", "website": "None", "summary": "None", "logo": "None", "latitude": 46.943304339515095, "longitude": -65.82552363960907}, "107307191RR0053": {"name": "ST. JAMES PARISH", "designationCode": "C", "categoryCode": "38", "address": "BOX 156", "city": "WILKIE", "province": "SK", "country": "CA", "postalCode": "S0K4W0", "twitter": "None", "instagram": "None", "facebook": "None", "youtube": "None", "website": "None", "summary": "None", "logo": "None", "latitude": 52.410810000000026, "longitude": -108.70070999999996}, "107909939RR0071": {"name": "ST. JAMES PARISH", "designationCode": "C", "categoryCode": "38", "address": "30 ELMA ST WEST", "city": "OKOTOKS", "province": "AB", "country": "CA", "postalCode": "T1S1J7", "twitter": "None", "instagram": "None", "facebook": "None", "youtube": "None", "website": "None", "summary": "None", "logo": "None", "latitude": 50.726534851216655, "longitude": -113.97667462741518}, "118849470RR0085": {"name": "ST. JAMES PARISH", "designationCode": "C", "categoryCode": "38", "address": "2777 TOWNLINE RD", "city": "ABBOTSFORD", "province": "BC", "country": "CA", "postalCode": "V2T5E1", "twitter": "None", "instagram": "None", "facebook": "None", "youtube": "None", "website": "None", "summary": "None", "logo": "None", "latitude": 49.05277480344805, "longitude": -122.3601098679123}, "107585085RR0048": {"name": "ST. JAMES PARISH, ALBERTVILLE, SK", "designationCode": "C", "categoryCode": "38", "address": "BOX 100", "city": "ALBERTVILLE", "province": "SK", "country": "CA", "postalCode": "S0J0A0", "twitter": "None", "instagram": "None", "facebook": "None", "youtube": "None", "website": "None", "summary": "None", "logo": "None", "latitude": 53.400090000000034, "longitude": -105.55098999999996}, "889602868RR0001": {"name": "ST. JAMES PASTORAL CHARGE", "designationCode": "C", "categoryCode": "44", "address": "330 ELIZABETH AVE", "city": "ST. JOHN'S", "province": "NL", "country": "CA", "postalCode": "A1B1T9", "twitter": "None", "instagram": "None", "facebook": "None", "youtube": "None", "website": "None", "summary": "None", "logo": "None", "latitude": 47.56604656483335, "longitude": -52.73706403641258}, "867202418RR0001": {"name": "ST. JAMES PLACE", "designationCode": "C", "categoryCode": "09", "address": "20 ELLIOTT STREET", "city": "CAMBRIDGE", "province": "ON", "country": "CA", "postalCode": "N1R2J2", "twitter": "None", "instagram": "None", "facebook": "None", "youtube": "None", "website": "None", "summary": "None", "logo": "None", "latitude": 43.35282148600598, "longitude": -80.31149167000399}, "108021403RR0001": {"name": "ST. JAMES PRESBYTERIAN CHURCH", "designationCode": "C", "categoryCode": "37", "address": "19 MAIN ST N", "city": "FOREST", "province": "ON", "country": "CA", "postalCode": "N0N1J0", "twitter": "None", "instagram": "None", "facebook": "None", "youtube": "None", "website": "None", "summary": "None", "logo": "None", "latitude": 43.098875149850215, "longitude": -82.00034301717312}, "108021429RR0001": {"name": "ST. JAMES PRESBYTERIAN CHURCH", "designationCode": "C", "categoryCode": "37", "address": "310 MCNAUGHTON AVENUE WEST", "city": "CHATHAM", "province": "ON", "country": "CA", "postalCode": "N7L1R9", "twitter": "None", "instagram": "None", "facebook": "None", "youtube": "None", "website": "None", "summary": "None", "logo": "None", "latitude": 42.40767956422775, "longitude": -82.21053592919404}, "108021452RR0001": {"name": "ST. JAMES PRESBYTERIAN CHURCH", "designationCode": "C", "categoryCode": "37", "address": "PO BOX 843  STN MAIN", "city": "DAWSON CREEK", "province": "BC", "country": "CA", "postalCode": "V1G4H8", "twitter": "None", "instagram": "None", "facebook": "None", "youtube": "None", "website": "None", "summary": "None", "logo": "None", "latitude": 55.76171100000006, "longitude": -120.23704249999994}, "119177939RR0001": {"name": "ST. JAMES PRESBYTERIAN CHURCH", "designationCode": "C", "categoryCode": "37", "address": "PO BOX 228", "city": "OXFORD", "province": "NS", "country": "CA", "postalCode": "B0M1P0", "twitter": "None", "instagram": "None", "facebook": "None", "youtube": "None", "website": "None", "summary": "None", "logo": "None", "latitude": 45.73593000000005, "longitude": -63.86782999999997}, "119177947RR0001": {"name": "ST. JAMES PRESBYTERIAN CHURCH", "designationCode": "C", "categoryCode": "37", "address": "6659 HIGHWAY 354", "city": "KENNETCOOK", "province": "NS", "country": "CA", "postalCode": "B0N1P0", "twitter": "None", "instagram": "None", "facebook": "None", "youtube": "None", "website": "None", "summary": "None", "logo": "None", "latitude": 45.19464505312853, "longitude": -63.73277341907304}, "119177970RR0001": {"name": "ST. JAMES PRESBYTERIAN CHURCH", "designationCode": "C", "categoryCode": "37", "address": "7895 ROUTE 126", "city": "HARCOURT", "province": "NB", "country": "CA", "postalCode": "E4T2Z1", "twitter": "None", "instagram": "None", "facebook": "None", "youtube": "None", "website": "None", "summary": "None", "logo": "None", "latitude": 46.46709094599147, "longitude": -65.24341246221304}, "119178036RR0001": {"name": "ST. JAMES PRESBYTERIAN CHURCH", "designationCode": "C", "categoryCode": "37", "address": "44936 FERGUSON LINE           RR 8", "city": "ST THOMAS", "province": "ON", "country": "CA", "postalCode": "N5P3T3", "twitter": "None", "instagram": "None", "facebook": "None", "youtube": "None", "website": "None", "summary": "None", "logo": "None", "latitude": 42.83492546436589, "longitude": -81.12060922009348}, "119178085RR0001": {"name": "ST. JAMES PRESBYTERIAN CHURCH", "designationCode": "C", "categoryCode": "37", "address": "BOX 1586", "city": "MELFORT", "province": "SK", "country": "CA", "postalCode": "S0E1A0", "twitter": "None", "instagram": "None", "facebook": "None", "youtube": "None", "website": "None", "summary": "None", "logo": "None", "latitude": 52.85637, "longitude": -104.63436225000001}, "119177962RR0001": {"name": "ST. JAMES PRESBYTERIAN CHURCH INC.", "designationCode": "C", "categoryCode": "37", "address": "35 FITZROY ST", "city": "CHARLOTTETOWN", "province": "PE", "country": "CA", "postalCode": "C1A1R2", "twitter": "None", "instagram": "None", "facebook": "None", "youtube": "None", "website": "None", "summary": "None", "logo": "None", "latitude": 46.23488433166946, "longitude": -63.13214732445609}, "817158918RR0001": {"name": "ST. JAMES ROMAN CATHOLIC PARISH (GEORGETOWN) INC.", "designationCode": "C", "categoryCode": "38", "address": "PO BOX 75", "city": "GEORGETOWN", "province": "PE", "country": "CA", "postalCode": "C0A1L0", "twitter": "None", "instagram": "None", "facebook": "None", "youtube": "None", "website": "None", "summary": "None", "logo": "None", "latitude": 46.198799489087506, "longitude": -62.55041554596116}, "119178119RR0001": {"name": "ST. JAMES SCHOLARSHIP FOUNDATION", "designationCode": "C", "categoryCode": "21", "address": "2574 PORTAGE AVE", "city": "WINNIPEG", "province": "MB", "country": "CA", "postalCode": "R3J0H8", "twitter": "None", "instagram": "None", "facebook": "None", "youtube": "None", "website": "None", "summary": "None", "logo": "None", "latitude": 49.87535094636207, "longitude": -97.26330934837519}, "108021577RR0001": {"name": "ST. JAMES THE APOSTLE ANGLICAN CHURCH", "designationCode": "C", "categoryCode": "30", "address": "1105 EMPRESS ST", "city": "REGINA", "province": "SK", "country": "CA", "postalCode": "S4T5E4", "twitter": "None", "instagram": "None", "facebook": "None", "youtube": "None", "website": "None", "summary": "None", "logo": "None", "latitude": 50.46054238190317, "longitude": -104.6539508759019}, "108077579RR0001": {"name": "ST. JAMES THE APOSTLE BRAMPTON", "designationCode": "C", "categoryCode": "30", "address": "3 CATHEDRAL ROAD", "city": "BRAMPTON", "province": "ON", "country": "CA", "postalCode": "L6W2P1", "twitter": "None", "instagram": "None", "facebook": "None", "youtube": "None", "website": "None", "summary": "None", "logo": "None", "latitude": 43.678354428299095, "longitude": -79.74287834525944}, "107876476RR0006": {"name": "ST. JAMES THE GREATER CHURCH", "designationCode": "C", "categoryCode": "38", "address": "44 LAKESIDE AVE BOX 40", "city": "BLIND RIVER", "province": "ON", "country": "CA", "postalCode": "P0R1B0", "twitter": "None", "instagram": "None", "facebook": "None", "youtube": "None", "website": "None", "summary": "None", "logo": "None", "latitude": 46.18372989622508, "longitude": -82.95916697081844}, "856298005RR0001": {"name": "ST. JAMES TOWN FAMILY LITERACY SERVICES", "designationCode": "C", "categoryCode": "21", "address": "102-260 WELLESLEY ST.E.", "city": "TORONTO", "province": "ON", "country": "CA", "postalCode": "M4X1G6", "twitter": "None", "instagram": "None", "facebook": "None", "youtube": "None", "website": "None", "summary": "None", "logo": "None", "latitude": 43.66785716414603, "longitude": -79.37119596341358}, "108021601RR0001": {"name": "ST. JAMES UNITED CHURCH", "designationCode": "C", "categoryCode": "44", "address": "221 ROMAINE ST", "city": "PETERBOROUGH", "province": "ON", "country": "CA", "postalCode": "K9J2C3", "twitter": "None", "instagram": "None", "facebook": "None", "youtube": "None", "website": "None", "summary": "None", "logo": "None", "latitude": 44.29140187091024, "longitude": -78.32112372410421}, "108021643RR0001": {"name": "ST. JAMES UNITED CHURCH", "designationCode": "C", "categoryCode": "44", "address": "PO BOX 1178 STN MAIN", "city": "ANTIGONISH", "province": "NS", "country": "CA", "postalCode": "B2G2L6", "twitter": "None", "instagram": "None", "facebook": "None", "youtube": "None", "website": "None", "summary": "None", "logo": "None", "latitude": 45.6227685541313, "longitude": -61.98878201843836}, "108021676RR0001": {"name": "ST. JAMES UNITED CHURCH", "designationCode": "C", "categoryCode": "44", "address": "1435 RUE CITY COUNCILLORS", "city": "MONTREAL", "province": "QC", "country": "CA", "postalCode": "H3A2E4", "twitter": "None", "instagram": "None", "facebook": "None", "youtube": "None", "website": "None", "summary": "None", "logo": "None", "latitude": 45.505068987794985, "longitude": -73.56891775561203}, "108021700RR0001": {"name": "ST. JAMES UNITED CHURCH", "designationCode": "C", "categoryCode": "44", "address": "400 BURNHAMTHORPE ROAD", "city": "ETOBICOKE", "province": "ON", "country": "CA", "postalCode": "M9B2A8", "twitter": "None", "instagram": "None", "facebook": "None", "youtube": "None", "website": "None", "summary": "None", "logo": "None", "latitude": 43.64706082705317, "longitude": -79.55640628238801}, "108021718RR0001": {"name": "ST. JAMES UNITED CHURCH", "designationCode": "C", "categoryCode": "44", "address": "150 COLBORNE ST S", "city": "SIMCOE", "province": "ON", "country": "CA", "postalCode": "N3Y4H6", "twitter": "None", "instagram": "None", "facebook": "None", "youtube": "None", "website": "None", "summary": "None", "logo": "None", "latitude": 42.833229067430416, "longitude": -80.3049964965662}, "108021767RR0001": {"name": "ST. JAMES UNITED CHURCH", "designationCode": "C", "categoryCode": "44", "address": "4506 SHERWOOD DR", "city": "REGINA", "province": "SK", "country": "CA", "postalCode": "S4R4B4", "twitter": "None", "instagram": "None", "facebook": "None", "youtube": "None", "website": "None", "summary": "None", "logo": "None", "latitude": 50.476055256765875, "longitude": -104.64496729251556}, "119143048RR0001": {"name": "ST. JAMES UNITED CHURCH", "designationCode": "C", "categoryCode": "44", "address": "12 YOUNG ST.", "city": "ST. STEPHEN", "province": "NB", "country": "CA", "postalCode": "E3L3E5", "twitter": "None", "instagram": "None", "facebook": "None", "youtube": "None", "website": "None", "summary": "None", "logo": "None", "latitude": 45.20025741661367, "longitude": -67.27556829946913}, "119178242RR0001": {"name": "ST. JAMES UNITED CHURCH", "designationCode": "C", "categoryCode": "44", "address": "175 ACRES RD", "city": "WILLIAMSWOOD", "province": "NS", "country": "CA", "postalCode": "B3V1E3", "twitter": "None", "instagram": "None", "facebook": "None", "youtube": "None", "website": "None", "summary": "None", "logo": "None", "latitude": 44.5025688487219, "longitude": -63.642327885826965}, "119178267RR0001": {"name": "ST. JAMES UNITED CHURCH", "designationCode": "C", "categoryCode": "44", "address": "23 LAKEWOOD DR", "city": "BROOKSIDE", "province": "NS", "country": "CA", "postalCode": "B3T1S5", "twitter": "None", "instagram": "None", "facebook": "None", "youtube": "None", "website": "None", "summary": "None", "logo": "None", "latitude": 44.55027864308378, "longitude": -63.71687787284348}, "119178283RR0001": {"name": "ST. JAMES UNITED CHURCH", "designationCode": "C", "categoryCode": "44", "address": "143 OLD POST ROAD", "city": "PETITCODIAC", "province": "NB", "country": "CA", "postalCode": "E4Z4N1", "twitter": "None", "instagram": "None", "facebook": "None", "youtube": "None", "website": "None", "summary": "None", "logo": "None", "latitude": 45.93950032835124, "longitude": -65.17905578218553}, "119178309RR0001": {"name": "ST. JAMES UNITED CHURCH", "designationCode": "C", "categoryCode": "44", "address": "17 FORT RD", "city": "PERTH-ANDOVER", "province": "NB", "country": "CA", "postalCode": "E7H2B4", "twitter": "None", "instagram": "None", "facebook": "None", "youtube": "None", "website": "None", "summary": "None", "logo": "None", "latitude": 46.751148433865396, "longitude": -67.69981758008191}, "119178366RR0001": {"name": "ST. JAMES UNITED CHURCH", "designationCode": "C", "categoryCode": "44", "address": "BOX 69", "city": "LASHBURN", "province": "SK", "country": "CA", "postalCode": "S0M1H0", "twitter": "None", "instagram": "None", "facebook": "None", "youtube": "None", "website": "None", "summary": "None", "logo": "None", "latitude": 53.13346000000007, "longitude": -109.60150999999996}, "108021791RR0001": {"name": "ST. JAMES UNITED CHURCH WOLSELY", "designationCode": "C", "categoryCode": "44", "address": "PO BOX 465", "city": "WOLSELEY", "province": "SK", "country": "CA", "postalCode": "S0G5H0", "twitter": "None", "instagram": "None", "facebook": "None", "youtube": "None", "website": "None", "summary": "None", "logo": "None", "latitude": 50.411354882397546, "longitude": -102.93411353717349}, "131585689RR0001": {"name": "ST. JAMES UNITED CHURCH, UPPER MUSQUODOBOIT", "designationCode": "C", "categoryCode": "44", "address": "PO BOX 86", "city": "UPPER MUSQUODOBOIT", "province": "NS", "country": "CA", "postalCode": "B0N2M0", "twitter": "None", "instagram": "None", "facebook": "None", "youtube": "None", "website": "None", "summary": "None", "logo": "None", "latitude": 45.139470000000074, "longitude": -62.94832999999994}}