{"872118294RR0001": {"name": "ALBERTA CULTURAL EXCHANGE EXPERIENCE SOCIETY", "designationCode": "C", "categoryCode": "21", "address": "ALLENDALE SCHOOL              6415 106 STREET", "city": "EDMONTON", "province": "AB", "country": "CA", "postalCode": "T6H2V5", "twitter": "None", "instagram": "None", "facebook": "None", "youtube": "None", "website": "None", "summary": "None", "logo": "None", "latitude": 53.50082000000003, "longitude": -113.5043799588842}, "891606048RR0001": {"name": "ALBERTA CULTURAL SOCIETY OF THE DEAF", "designationCode": "C", "categoryCode": "09", "address": "11404 142 ST", "city": "EDMONTON", "province": "AB", "country": "CA", "postalCode": "T5M1V1", "twitter": "None", "instagram": "None", "facebook": "None", "youtube": "None", "website": "None", "summary": "None", "logo": "None", "latitude": 53.563085413266776, "longitude": -113.56589971487068}, "133713990RR0001": {"name": "ALBERTA DEAF SPORTS ASSOCIATION", "designationCode": "C", "categoryCode": "56", "address": "11404 142 ST NW", "city": "EDMONTON", "province": "AB", "country": "CA", "postalCode": "T5M1V1", "twitter": "None", "instagram": "None", "facebook": "None", "youtube": "None", "website": "None", "summary": "None", "logo": "None", "latitude": 53.563085413266776, "longitude": -113.56589971487068}, "106693120RR0001": {"name": "ALBERTA DEBATE AND SPEECH ASSOCIATION", "designationCode": "C", "categoryCode": "21", "address": "PO BOX 74144                  148-555 STRATHCONA BLVD SW", "city": "CALGARY", "province": "AB", "country": "CA", "postalCode": "T3H3B6", "twitter": "None", "instagram": "None", "facebook": "None", "youtube": "None", "website": "None", "summary": "None", "logo": "None", "latitude": 51.048614964481466, "longitude": -114.18470687082332}, "888098449RR0001": {"name": "ALBERTA DIABETES FOUNDATION", "designationCode": "A", "categoryCode": "13", "address": "1-020 HRIF-EAST               UNIVERSITY OF ALBERTA", "city": "EDMONTON", "province": "AB", "country": "CA", "postalCode": "T6G2E1", "twitter": "None", "instagram": "None", "facebook": "None", "youtube": "None", "website": "None", "summary": "None", "logo": "None", "latitude": 53.52503000000007, "longitude": -113.52540999999997}, "867059479RR0001": {"name": "ALBERTA DISABLED FOUNDATION", "designationCode": "C", "categoryCode": "09", "address": "POST OFFICE BOX 202           1500 14 STREET SW", "city": "CALGARY", "province": "AB", "country": "CA", "postalCode": "T3C1C9", "twitter": "None", "instagram": "None", "facebook": "None", "youtube": "None", "website": "None", "summary": "None", "logo": "None", "latitude": 51.039320732080775, "longitude": -114.09466623208077}, "135029825RR0001": {"name": "ALBERTA ECOTRUST FOUNDATION", "designationCode": "C", "categoryCode": "59", "address": "100 - 1711 10 AVE SW", "city": "CALGARY", "province": "AB", "country": "CA", "postalCode": "T3C0K1", "twitter": "None", "instagram": "None", "facebook": "None", "youtube": "None", "website": "None", "summary": "None", "logo": "None", "latitude": 51.04432255395597, "longitude": -114.09998183097696}, "118780717RR0001": {"name": "ALBERTA ELKS FOUNDATION", "designationCode": "B", "categoryCode": "65", "address": "PO BOX 445", "city": "BENTLEY", "province": "AB", "country": "CA", "postalCode": "T0C0J0", "twitter": "None", "instagram": "None", "facebook": "None", "youtube": "None", "website": "None", "summary": "None", "logo": "None", "latitude": 52.45537747553501, "longitude": -113.96484692260027}, "133800771RR0001": {"name": "ALBERTA EMERALD FOUNDATION", "designationCode": "C", "categoryCode": "59", "address": "700 SCOTIA TOWER 1            10060 JASPER AVE NW", "city": "EDMONTON", "province": "AB", "country": "CA", "postalCode": "T5J3R8", "twitter": "None", "instagram": "None", "facebook": "None", "youtube": "None", "website": "None", "summary": "None", "logo": "None", "latitude": 53.541084453834316, "longitude": -113.49278554108712}, "118780733RR0001": {"name": "ALBERTA FAMILY HISTORIES SOCIETY", "designationCode": "C", "categoryCode": "50", "address": "712-16 AVENUE NW", "city": "CALGARY", "province": "AB", "country": "CA", "postalCode": "T2M0J8", "twitter": "None", "instagram": "None", "facebook": "None", "youtube": "None", "website": "None", "summary": "None", "logo": "None", "latitude": 51.067089888947955, "longitude": -114.07728688894794}, "887222792RR0001": {"name": "ALBERTA FEDERATION OF METIS SETTLEMENT ASSOCIATIONS", "designationCode": "C", "categoryCode": "59", "address": "101, 10335 172 STREET", "city": "EDMONTON", "province": "AB", "country": "CA", "postalCode": "T5S1K9", "twitter": "None", "instagram": "None", "facebook": "None", "youtube": "None", "website": "None", "summary": "None", "logo": "None", "latitude": 53.546865000000054, "longitude": -113.61782149999993}, "890212194RR0001": {"name": "ALBERTA FELLOWSHIP OF CHRISTIAN COWBOYS", "designationCode": "C", "categoryCode": "47", "address": "1012 - 9 ST. WEST", "city": "HIGH RIVER", "province": "AB", "country": "CA", "postalCode": "T1V1B1", "twitter": "None", "instagram": "None", "facebook": "None", "youtube": "None", "website": "None", "summary": "None", "logo": "None", "latitude": 50.57539696915438, "longitude": -113.85194129028227}, "124733163RR0001": {"name": "ALBERTA FOSTER PARENT ASSOCIATION", "designationCode": "C", "categoryCode": "59", "address": "303 - 9488 51 AVE NW", "city": "EDMONTON", "province": "AB", "country": "CA", "postalCode": "T6E5A6", "twitter": "None", "instagram": "None", "facebook": "None", "youtube": "None", "website": "None", "summary": "None", "logo": "None", "latitude": 53.48817, "longitude": -113.47344225}, "891287344RR0001": {"name": "ALBERTA FOUNDATION FOR HEALTH RESEARCH", "designationCode": "A", "categoryCode": "13", "address": "10104 - 103 AVENUE NW         SUITE 1500", "city": "EDMONTON", "province": "AB", "country": "CA", "postalCode": "T5J4A7", "twitter": "None", "instagram": "None", "facebook": "None", "youtube": "None", "website": "None", "summary": "None", "logo": "None", "latitude": 53.54454866056893, "longitude": -113.4944772677884}, "118780790RR0001": {"name": "ALBERTA GENEALOGICAL SOCIETY", "designationCode": "C", "categoryCode": "50", "address": "162-14315 118 AVE NW", "city": "EDMONTON", "province": "AB", "country": "CA", "postalCode": "T5L4S6", "twitter": "None", "instagram": "None", "facebook": "None", "youtube": "None", "website": "None", "summary": "None", "logo": "None", "latitude": 53.57036251500459, "longitude": -113.56761324424374}, "890640790RR0001": {"name": "ALBERTA GOLF ASSOCIATION FOUNDATION", "designationCode": "B", "categoryCode": "23", "address": "22-11410 27 ST SE", "city": "CALGARY", "province": "AB", "country": "CA", "postalCode": "T2Z3R6", "twitter": "None", "instagram": "None", "facebook": "None", "youtube": "None", "website": "None", "summary": "None", "logo": "None", "latitude": 50.95295225344765, "longitude": -113.99483603286414}, "118780808RR0001": {"name": "ALBERTA GOSPEL OUTREACH", "designationCode": "C", "categoryCode": "47", "address": "404-13TH AVENUE N.E.", "city": "CALGARY", "province": "AB", "country": "CA", "postalCode": "T2E1C2", "twitter": "None", "instagram": "None", "facebook": "None", "youtube": "None", "website": "None", "summary": "None", "logo": "None", "latitude": 51.06417651875456, "longitude": -114.05580308381903}, "857375240RR0001": {"name": "ALBERTA GRAIN ELEVATOR SOCIETY", "designationCode": "C", "categoryCode": "50", "address": "BOX 102", "city": "RADWAY", "province": "AB", "country": "CA", "postalCode": "T0A2V0", "twitter": "None", "instagram": "None", "facebook": "None", "youtube": "None", "website": "None", "summary": "None", "logo": "None", "latitude": 54.064550000000054, "longitude": -112.94705999999996}, "118780824RR0001": {"name": "ALBERTA GUILD OF ENGLISH HANDBELL RINGERS", "designationCode": "C", "categoryCode": "59", "address": "21 COPPERPOND LINK SE", "city": "CALGARY", "province": "AB", "country": "CA", "postalCode": "T2Z0R2", "twitter": "None", "instagram": "None", "facebook": "None", "youtube": "None", "website": "None", "summary": "None", "logo": "None", "latitude": 50.918922900917515, "longitude": -113.92636555995725}, "890690548RR0001": {"name": "ALBERTA GUJARATI ASSOCIATION", "designationCode": "C", "categoryCode": "56", "address": "207-4918 ROPER ROAD", "city": "EDMONTON", "province": "AB", "country": "CA", "postalCode": "T6B3T7", "twitter": "None", "instagram": "None", "facebook": "None", "youtube": "None", "website": "None", "summary": "None", "logo": "None", "latitude": 53.49559953375819, "longitude": -113.416281}, "888436441RR0001": {"name": "ALBERTA HIGH SCHOOL DRAMA FESTIVAL ASSOCIATION", "designationCode": "C", "categoryCode": "22", "address": "302 WEST TERRANCE PLACE", "city": "COCHRANE", "province": "AB", "country": "CA", "postalCode": "T4C1S3", "twitter": "None", "instagram": "None", "facebook": "None", "youtube": "None", "website": "None", "summary": "None", "logo": "None", "latitude": 51.19457548600596, "longitude": -114.5122605}, "125812651RR0001": {"name": "ALBERTA HOME & SCHOOL COUNCILS' ASSOCIATION", "designationCode": "C", "categoryCode": "21", "address": "1200 9925 109 STREET", "city": "EDMONTON", "province": "AB", "country": "CA", "postalCode": "T5K2J8", "twitter": "None", "instagram": "None", "facebook": "None", "youtube": "None", "website": "None", "summary": "None", "logo": "None", "latitude": 53.53785802553523, "longitude": -113.508416260171}, "887995918RR0001": {"name": "ALBERTA HOME VISITATION NETWORK ASSOCIATION", "designationCode": "C", "categoryCode": "09", "address": "9321 JASPER AVE NW", "city": "EDMONTON", "province": "AB", "country": "CA", "postalCode": "T5H3T7", "twitter": "None", "instagram": "None", "facebook": "None", "youtube": "None", "website": "None", "summary": "None", "logo": "None", "latitude": 53.546527050205064, "longitude": -113.47735308442554}, "889058640RR0001": {"name": "ALBERTA HORTICULTURAL ASSOCIATION", "designationCode": "C", "categoryCode": "50", "address": "UNIT 323, 223 TUSCANY         SPRINGS BLVD NW", "city": "CALGARY", "province": "AB", "country": "CA", "postalCode": "T3L2M2", "twitter": "None", "instagram": "None", "facebook": "None", "youtube": "None", "website": "None", "summary": "None", "logo": "None", "latitude": 51.13298137557188, "longitude": -114.23769637099679}, "891468373RR0001": {"name": "ALBERTA HOSPICE PALLIATIVE CARE ASSOCIATION", "designationCode": "C", "categoryCode": "19", "address": "1245 70 AVENUE SE", "city": "CALGARY", "province": "AB", "country": "CA", "postalCode": "T2H2X8", "twitter": "None", "instagram": "None", "facebook": "None", "youtube": "None", "website": "None", "summary": "None", "logo": "None", "latitude": 50.991126623348286, "longitude": -114.03827921994926}, "140416140RR0001": {"name": "ALBERTA INSTITUTE FOR WILDLIFE CONSERVATION", "designationCode": "C", "categoryCode": "54", "address": "BOX 68", "city": "MADDEN", "province": "AB", "country": "CA", "postalCode": "T0M1L0", "twitter": "None", "instagram": "None", "facebook": "None", "youtube": "None", "website": "None", "summary": "None", "logo": "None", "latitude": 51.43381000000005, "longitude": -114.27968999999996}, "871189619RR0001": {"name": "ALBERTA INTERNATIONAL BAND FESTIVAL ASSOCIATION", "designationCode": "C", "categoryCode": "22", "address": "2618 145A AVE NW", "city": "EDMONTON", "province": "AB", "country": "CA", "postalCode": "T5Y1X1", "twitter": "None", "instagram": "None", "facebook": "None", "youtube": "None", "website": "None", "summary": "None", "logo": "None", "latitude": 53.60995931836791, "longitude": -113.3805482082925}, "868833377RR0001": {"name": "ALBERTA JUBILEE AUDITORIA FOUNDATION", "designationCode": "C", "categoryCode": "23", "address": "1415-14TH AVENUE NW", "city": "CALGARY", "province": "AB", "country": "CA", "postalCode": "T2N1M4", "twitter": "None", "instagram": "None", "facebook": "None", "youtube": "None", "website": "None", "summary": "None", "logo": "None", "latitude": 51.064379534480295, "longitude": -114.09225372300767}, "877272690RR0001": {"name": "ALBERTA LAKE MANAGEMENT SOCIETY", "designationCode": "C", "categoryCode": "59", "address": "PO BOX 4283", "city": "EDMONTON", "province": "AB", "country": "CA", "postalCode": "T6E4T3", "twitter": "None", "instagram": "None", "facebook": "None", "youtube": "None", "website": "None", "summary": "None", "logo": "None", "latitude": 53.499354000000054, "longitude": -113.46577549999994}, "876620501RR0001": {"name": "ALBERTA LAWYERS' ASSISTANCE SOCIETY (THE ASSIST PROGRAM)", "designationCode": "C", "categoryCode": "57", "address": "800 - 304 8 AVE SW", "city": "CALGARY", "province": "AB", "country": "CA", "postalCode": "T2P1C2", "twitter": "None", "instagram": "None", "facebook": "None", "youtube": "None", "website": "None", "summary": "None", "logo": "None", "latitude": 51.04571646047075, "longitude": -114.06826902692019}, "880306618RR0001": {"name": "ALBERTA LEGACY DEVELOPMENT SOCIETY", "designationCode": "C", "categoryCode": "52", "address": "5209  47TH STREET", "city": "LEDUC", "province": "AB", "country": "CA", "postalCode": "T9E7K7", "twitter": "None", "instagram": "None", "facebook": "None", "youtube": "None", "website": "None", "summary": "None", "logo": "None", "latitude": 53.26697703136361, "longitude": -113.54703410266049}, "128339694RR0001": {"name": "ALBERTA LIBRARY TRUSTEES ASSOCIATION", "designationCode": "C", "categoryCode": "50", "address": "4024 37A AVE NW", "city": "EDMONTON", "province": "AB", "country": "CA", "postalCode": "T6L7A1", "twitter": "None", "instagram": "None", "facebook": "None", "youtube": "None", "website": "None", "summary": "None", "logo": "None", "latitude": 53.47143934390314, "longitude": -113.39902753303704}, "886727791RR0001": {"name": "ALBERTA LIFE ISSUES EDUCATIONAL SOCIETY", "designationCode": "C", "categoryCode": "59", "address": "PO BOX 11507 STN MAIN", "city": "EDMONTON", "province": "AB", "country": "CA", "postalCode": "T5J3K5", "twitter": "None", "instagram": "None", "facebook": "None", "youtube": "None", "website": "None", "summary": "None", "logo": "None", "latitude": 53.54623500000005, "longitude": -113.49037249999994}, "130318041RR0001": {"name": "ALBERTA LUNG ASSOCIATION", "designationCode": "C", "categoryCode": "11", "address": "P.O. BOX 4500, STATION SOUTH", "city": "EDMONTON", "province": "AB", "country": "CA", "postalCode": "T6E6K2", "twitter": "None", "instagram": "None", "facebook": "None", "youtube": "None", "website": "None", "summary": "None", "logo": "None", "latitude": 53.499354000000054, "longitude": -113.46577549999994}, "873183503RR0001": {"name": "ALBERTA LYMPHEDEMA ASSOCIATION", "designationCode": "C", "categoryCode": "11", "address": "22 CRANLEIGH MANOR SE", "city": "CALGARY", "province": "AB", "country": "CA", "postalCode": "T3M1G6", "twitter": "None", "instagram": "None", "facebook": "None", "youtube": "None", "website": "None", "summary": "None", "logo": "None", "latitude": 50.890184161261416, "longitude": -113.99418060727677}, "106693864RR0001": {"name": "ALBERTA MUSEUMS ASSOCIATION", "designationCode": "C", "categoryCode": "50", "address": "404-10408 124 ST", "city": "EDMONTON", "province": "AB", "country": "CA", "postalCode": "T5N1R5", "twitter": "None", "instagram": "None", "facebook": "None", "youtube": "None", "website": "None", "summary": "None", "logo": "None", "latitude": 53.546470994171614, "longitude": -113.53595872872049}, "877479329RR0001": {"name": "ALBERTA MUSIC EDUCATION FOUNDATION", "designationCode": "C", "categoryCode": "22", "address": "11759 GROAT RD NW", "city": "EDMONTON", "province": "AB", "country": "CA", "postalCode": "T5M3K6", "twitter": "None", "instagram": "None", "facebook": "None", "youtube": "None", "website": "None", "summary": "None", "logo": "None", "latitude": 53.56974075240938, "longitude": -113.54923837596016}, "132700733RR0001": {"name": "ALBERTA NORTHERN LIGHTS WHEELCHAIR BASKETBALL SOCIETY", "designationCode": "C", "categoryCode": "09", "address": "BOX 65089 MISSION HILL PLAZA", "city": "ST ALBERT", "province": "AB", "country": "CA", "postalCode": "T8N5Y3", "twitter": "None", "instagram": "None", "facebook": "None", "youtube": "None", "website": "None", "summary": "None", "logo": "None", "latitude": 53.63292839909977, "longitude": -113.63602607541739}, "859165482RR0001": {"name": "ALBERTA PARENTING FOR THE FUTURE ASSOCIATION", "designationCode": "C", "categoryCode": "23", "address": "PO BOX 2695 STN MAIN", "city": "STONY PLAIN", "province": "AB", "country": "CA", "postalCode": "T7Z1Y2", "twitter": "None", "instagram": "None", "facebook": "None", "youtube": "None", "website": "None", "summary": "None", "logo": "None", "latitude": 53.52496080545697, "longitude": -114.006528332913}, "118780980RR0001": {"name": "ALBERTA PARKLAND DISTRICT OF THE EVANGELICAL FREE CHURCH OF CANADA", "designationCode": "C", "categoryCode": "39", "address": "49 CASCADE CRES", "city": "SHERWOOD PARK", "province": "AB", "country": "CA", "postalCode": "T8H0L9", "twitter": "None", "instagram": "None", "facebook": "None", "youtube": "None", "website": "None", "summary": "None", "logo": "None", "latitude": 53.54803551788916, "longitude": -113.27432408381902}, "867162471RR0001": {"name": "ALBERTA PENTECOSTAL MISSION SOCIETY", "designationCode": "C", "categoryCode": "49", "address": "2821 109 ST", "city": "EDMONTON", "province": "AB", "country": "CA", "postalCode": "T6J6B7", "twitter": "None", "instagram": "None", "facebook": "None", "youtube": "None", "website": "None", "summary": "None", "logo": "None", "latitude": 53.45882498058163, "longitude": -113.509525841307}, "118781004RR0001": {"name": "ALBERTA PIONEER RAILWAY ASSOCIATION", "designationCode": "C", "categoryCode": "52", "address": "24215 34 ST NW", "city": "EDMONTON", "province": "AB", "country": "CA", "postalCode": "T5Y6B4", "twitter": "None", "instagram": "None", "facebook": "None", "youtube": "None", "website": "None", "summary": "None", "logo": "None", "latitude": 53.70071224898087, "longitude": -113.3934037814783}, "129408795RR0001": {"name": "ALBERTA PIONEERS ASSOCIATION OF HANNA AND DISTRICT", "designationCode": "C", "categoryCode": "09", "address": "PO BOX 327", "city": "HANNA", "province": "AB", "country": "CA", "postalCode": "T0J1P0", "twitter": "None", "instagram": "None", "facebook": "None", "youtube": "None", "website": "None", "summary": "None", "logo": "None", "latitude": 51.64780345530559, "longitude": -111.93814762829588}, "130874829RR0001": {"name": "ALBERTA PLAYWRIGHTS' NETWORK SOCIETY", "designationCode": "C", "categoryCode": "22", "address": "208 - 331 41 AVE NE", "city": "CALGARY", "province": "AB", "country": "CA", "postalCode": "T2E2N4", "twitter": "None", "instagram": "None", "facebook": "None", "youtube": "None", "website": "None", "summary": "None", "logo": "None", "latitude": 51.090012, "longitude": -114.05598925861862}, "865740211RR0001": {"name": "ALBERTA POLICE BASED VICTIM SERVICES ASSOCIATION", "designationCode": "C", "categoryCode": "59", "address": "BOX 328", "city": "PINCHER CREEK", "province": "AB", "country": "CA", "postalCode": "T0K1W0", "twitter": "None", "instagram": "None", "facebook": "None", "youtube": "None", "website": "None", "summary": "None", "logo": "None", "latitude": 49.48739000000006, "longitude": -113.9366800732874}, "118781012RR0001": {"name": "ALBERTA POTTERS' ASSOCIATION", "designationCode": "C", "categoryCode": "22", "address": "#2 3516 15 STREET, SW", "city": "CALGARY", "province": "AB", "country": "CA", "postalCode": "T2T4A3", "twitter": "None", "instagram": "None", "facebook": "None", "youtube": "None", "website": "None", "summary": "None", "logo": "None", "latitude": 51.02263833527613, "longitude": -114.09755834023913}, "898351861RR0001": {"name": "ALBERTA PROVINCIAL RURAL CRIME WATCH ASSOCIATION", "designationCode": "C", "categoryCode": "59", "address": "P.O. BOX 4520", "city": "EDMONTON", "province": "AB", "country": "CA", "postalCode": "T6E4T7", "twitter": "None", "instagram": "None", "facebook": "None", "youtube": "None", "website": "None", "summary": "None", "logo": "None", "latitude": 53.499354000000054, "longitude": -113.46577549999994}, "106694102RR0001": {"name": "ALBERTA PUBLIC HEALTH ASSOCIATION", "designationCode": "C", "categoryCode": "11", "address": "4075 RTF, 8308-114 STREET", "city": "EDMONTON", "province": "AB", "country": "CA", "postalCode": "T6G2E1", "twitter": "None", "instagram": "None", "facebook": "None", "youtube": "None", "website": "None", "summary": "None", "logo": "None", "latitude": 53.51946857588589, "longitude": -113.5256207437334}, "825852874RR0001": {"name": "ALBERTA RAPTOR PRESERVATION SOCIETY", "designationCode": "C", "categoryCode": "54", "address": "1022 RUNDLE CRES NE", "city": "CALGARY", "province": "AB", "country": "CA", "postalCode": "T2E5M2", "twitter": "None", "instagram": "None", "facebook": "None", "youtube": "None", "website": "None", "summary": "None", "logo": "None", "latitude": 51.06157948043737, "longitude": -114.03925879557397}, "118781046RR0001": {"name": "ALBERTA RECREATION AND PARKS ASSOCIATION", "designationCode": "C", "categoryCode": "52", "address": "11759 GROAT RD NW", "city": "EDMONTON", "province": "AB", "country": "CA", "postalCode": "T5M3K6", "twitter": "None", "instagram": "None", "facebook": "None", "youtube": "None", "website": "None", "summary": "None", "logo": "None", "latitude": 53.56974075240938, "longitude": -113.54923837596016}, "888788999RR0001": {"name": "ALBERTA REGISTERED NURSES EDUCATIONAL TRUST", "designationCode": "C", "categoryCode": "21", "address": "11620 168 STREET", "city": "EDMONTON", "province": "AB", "country": "CA", "postalCode": "T5M4A6", "twitter": "None", "instagram": "None", "facebook": "None", "youtube": "None", "website": "None", "summary": "None", "logo": "None", "latitude": 53.566092, "longitude": -113.61063827762655}, "858535941RR0001": {"name": "ALBERTA RIPARIAN HABITAT MANAGEMENT SOCIETY", "designationCode": "C", "categoryCode": "59", "address": "2ND FLOOR YPM PLACE           530-8TH STREET SOUTH", "city": "LETHBRIDGE", "province": "AB", "country": "CA", "postalCode": "T1J2J8", "twitter": "None", "instagram": "None", "facebook": "None", "youtube": "None", "website": "None", "summary": "None", "logo": "None", "latitude": 49.69241948864795, "longitude": -112.83527331514459}, "129079315RR0001": {"name": "ALBERTA SCIENCE NETWORK: AN ALBERTA SOCIETY", "designationCode": "C", "categoryCode": "21", "address": "70 HIGH STREET SE             PO BOX 89088", "city": "CALGARY", "province": "AB", "country": "CA", "postalCode": "T2Z3V1", "twitter": "None", "instagram": "None", "facebook": "None", "youtube": "None", "website": "None", "summary": "None", "logo": "None", "latitude": 50.914826109902506, "longitude": -113.96082881040473}, "118781095RR0001": {"name": "ALBERTA SENIOR CITIZENS SPORT AND RECREATION ASSOCIATION", "designationCode": "C", "categoryCode": "56", "address": "11759 GROAT RD NW", "city": "EDMONTON", "province": "AB", "country": "CA", "postalCode": "T5M3K6", "twitter": "None", "instagram": "None", "facebook": "None", "youtube": "None", "website": "None", "summary": "None", "logo": "None", "latitude": 53.56974075240938, "longitude": -113.54923837596016}, "106694284RR0001": {"name": "ALBERTA SEVENTH STEP SOCIETY", "designationCode": "C", "categoryCode": "59", "address": "1820 27 AVENUE SOUTHWEST", "city": "CALGARY", "province": "AB", "country": "CA", "postalCode": "T2T1H1", "twitter": "None", "instagram": "None", "facebook": "None", "youtube": "None", "website": "None", "summary": "None", "logo": "None", "latitude": 51.02959784283935, "longitude": -114.10258120852836}, "896810199RR0001": {"name": "ALBERTA SOCIETY FOR PROMOTION OF SEXUAL HEALTH", "designationCode": "C", "categoryCode": "21", "address": "PO BOX 67156 RPO NORTHLAND VLG", "city": "CALGARY", "province": "AB", "country": "CA", "postalCode": "T2L2L2", "twitter": "None", "instagram": "None", "facebook": "None", "youtube": "None", "website": "None", "summary": "None", "logo": "None", "latitude": 51.102111190598386, "longitude": -114.14194633346696}, "887402394RR0001": {"name": "ALBERTA SOCIETY FOR THE VISUALLY IMPAIRED EDMONTON DISTRICT", "designationCode": "C", "categoryCode": "11", "address": "178 - 11007 JASPER AVE NW", "city": "EDMONTON", "province": "AB", "country": "CA", "postalCode": "T5K0K6", "twitter": "None", "instagram": "None", "facebook": "None", "youtube": "None", "website": "None", "summary": "None", "logo": "None", "latitude": 53.54088850288552, "longitude": -113.51116269317329}, "892788431RR0001": {"name": "ALBERTA SPORTS AND RECREATION ASSOCIATION FOR THE BLIND", "designationCode": "C", "categoryCode": "56", "address": "15 COLONEL BAKER PLACE NE     ROOM 007", "city": "CALGARY", "province": "AB", "country": "CA", "postalCode": "T2E4Z3", "twitter": "None", "instagram": "None", "facebook": "None", "youtube": "None", "website": "None", "summary": "None", "logo": "None", "latitude": 51.049435631138586, "longitude": -114.0334759067459}, "887978963RR0001": {"name": "ALBERTA SPORTS HALL OF FAME AND MUSEUM SOCIETY", "designationCode": "C", "categoryCode": "50", "address": "102, 4200 HWY 2", "city": "RED DEER", "province": "AB", "country": "CA", "postalCode": "T4N1E3", "twitter": "None", "instagram": "None", "facebook": "None", "youtube": "None", "website": "None", "summary": "None", "logo": "None", "latitude": 52.25943300000006, "longitude": -113.84086399999993}, "889756144RR0001": {"name": "ALBERTA STRING ASSOCIATION", "designationCode": "C", "categoryCode": "22", "address": "203-10221 111ST", "city": "EDMONTON", "province": "AB", "country": "CA", "postalCode": "T5K2W5", "twitter": "None", "instagram": "None", "facebook": "None", "youtube": "None", "website": "None", "summary": "None", "logo": "None", "latitude": 53.543363286877046, "longitude": -113.51205285043811}, "881185896RR0001": {"name": "ALBERTA STUDENT ASSESSMENT NETWORK", "designationCode": "C", "categoryCode": "21", "address": "#700, 11010 - 142 STREET      NORTHWEST", "city": "EDMONTON", "province": "AB", "country": "CA", "postalCode": "T5N2R1", "twitter": "None", "instagram": "None", "facebook": "None", "youtube": "None", "website": "None", "summary": "None", "logo": "None", "latitude": 53.55767700000001, "longitude": -113.56596971991966}, "130559404RR0001": {"name": "ALBERTA SYNOD OF THE EVANGELICAL LUTHERAN CHURCH IN CANADA", "designationCode": "C", "categoryCode": "32", "address": "10014 81 AVE", "city": "EDMONTON", "province": "AB", "country": "CA", "postalCode": "T6E1W8", "twitter": "None", "instagram": "None", "facebook": "None", "youtube": "None", "website": "None", "summary": "None", "logo": "None", "latitude": 53.51708247157926, "longitude": -113.48921241618096}, "118781228RR0001": {"name": "ALBERTA THEATRE PROJECTS DEVELOPMENT FOUNDATION", "designationCode": "A", "categoryCode": "23", "address": "220 9TH AVE SE", "city": "CALGARY", "province": "AB", "country": "CA", "postalCode": "T2G5C4", "twitter": "None", "instagram": "None", "facebook": "None", "youtube": "None", "website": "None", "summary": "None", "logo": "None", "latitude": 51.044540467684115, "longitude": -114.0598405269202}, "890759749RR0001": {"name": "ALBERTA TRAILNET SOCIETY", "designationCode": "C", "categoryCode": "56", "address": "11759 GROAT RD NW", "city": "EDMONTON", "province": "AB", "country": "CA", "postalCode": "T5M3K6", "twitter": "None", "instagram": "None", "facebook": "None", "youtube": "None", "website": "None", "summary": "None", "logo": "None", "latitude": 53.56974075240938, "longitude": -113.54923837596016}, "118781244RR0001": {"name": "ALBERTA UKRAINIAN COMMEMORATIVE SOCIETY", "designationCode": "C", "categoryCode": "03", "address": "224 GARIEPY CRESCENT", "city": "EDMONTON", "province": "AB", "country": "CA", "postalCode": "T6M1A2", "twitter": "None", "instagram": "None", "facebook": "None", "youtube": "None", "website": "None", "summary": "None", "logo": "None", "latitude": 53.4954027948815, "longitude": -113.61649090259095}, "855021739RR0001": {"name": "ALBERTA VIPASSANA FOUNDATION", "designationCode": "C", "categoryCode": "20", "address": "PO BOX 63084 RPO STADIUM", "city": "CALGARY", "province": "AB", "country": "CA", "postalCode": "T2N4S5", "twitter": "None", "instagram": "None", "facebook": "None", "youtube": "None", "website": "None", "summary": "None", "logo": "None", "latitude": 51.065529000000055, "longitude": -114.12679849999994}, "118781251RR0001": {"name": "ALBERTA WILDERNESS ASSOCIATION", "designationCode": "C", "categoryCode": "52", "address": "455 12 ST NW", "city": "CALGARY", "province": "AB", "country": "CA", "postalCode": "T2N1Y9", "twitter": "None", "instagram": "None", "facebook": "None", "youtube": "None", "website": "None", "summary": "None", "logo": "None", "latitude": 51.05616216180968, "longitude": -114.09180764086209}, "106687452RR0001": {"name": "ALBERTA WORKERS' HEALTH CENTRE SOCIETY", "designationCode": "C", "categoryCode": "11", "address": "600 - 12323 STONY PLAIN RD NW", "city": "EDMONTON", "province": "AB", "country": "CA", "postalCode": "T5N3Y5", "twitter": "None", "instagram": "None", "facebook": "None", "youtube": "None", "website": "None", "summary": "None", "logo": "None", "latitude": 53.54771619514249, "longitude": -113.5465007925734}, "883688186RR0001": {"name": "ALBERTA 2005 CENTENNIAL RAILWAY MUSEUM SOCIETY", "designationCode": "C", "categoryCode": "50", "address": "BOX 383", "city": "BEISEKER", "province": "AB", "country": "CA", "postalCode": "T0M0G0", "twitter": "None", "instagram": "None", "facebook": "None", "youtube": "None", "website": "None", "summary": "None", "logo": "None", "latitude": 51.386990000000026, "longitude": -113.52201999999994}, "854881968RR0001": {"name": "ALBERTA'S YOUTHVOLUNTEER! SOCIETY", "designationCode": "C", "categoryCode": "59", "address": "10718 124 ST NW", "city": "EDMONTON", "province": "AB", "country": "CA", "postalCode": "T5M0H1", "twitter": "None", "instagram": "None", "facebook": "None", "youtube": "None", "website": "None", "summary": "None", "logo": "None", "latitude": 53.5515477485429, "longitude": -113.53597025815085}, "106703382RR0001": {"name": "ALBERTON BAPTIST CHURCH", "designationCode": "C", "categoryCode": "31", "address": "PO BOX 340", "city": "ALBERTON", "province": "PE", "country": "CA", "postalCode": "C0B1B0", "twitter": "None", "instagram": "None", "facebook": "None", "youtube": "None", "website": "None", "summary": "None", "logo": "None", "latitude": 46.813510000000065, "longitude": -64.06533999999994}, "867619058RR0001": {"name": "ALBERTON ELMSDALE PASTORAL CHARGE", "designationCode": "C", "categoryCode": "44", "address": "PO BOX 381", "city": "ALBERTON", "province": "PE", "country": "CA", "postalCode": "C0B1B0", "twitter": "None", "instagram": "None", "facebook": "None", "youtube": "None", "website": "None", "summary": "None", "logo": "None", "latitude": 46.813510000000065, "longitude": -64.06533999999994}, "118781376RR0001": {"name": "ALBERTON LIBRARY LIMITED", "designationCode": "C", "categoryCode": "50", "address": "PO 449", "city": "ALBERTON", "province": "PE", "country": "CA", "postalCode": "C0B1B0", "twitter": "None", "instagram": "None", "facebook": "None", "youtube": "None", "website": "None", "summary": "None", "logo": "None", "latitude": 46.813510000000065, "longitude": -64.06533999999994}, "118781392RR0001": {"name": "ALBERTON PRESBYTERIAN CHURCH", "designationCode": "C", "categoryCode": "37", "address": "528 ALBERTON ROAD NORTH", "city": "ALBERTON", "province": "ON", "country": "CA", "postalCode": "L0R1A0", "twitter": "None", "instagram": "None", "facebook": "None", "youtube": "None", "website": "None", "summary": "None", "logo": "None", "latitude": 43.18643093888856, "longitude": -80.070709441281}, "119288918RR0762": {"name": "ALBERTON PRINCE EDWARD ISLAND CONGREGATION OF JEHOVAH'S WITNESSES", "designationCode": "C", "categoryCode": "61", "address": "PO BOX 284", "city": "ALBERTON", "province": "PE", "country": "CA", "postalCode": "C0B1B0", "twitter": "None", "instagram": "None", "facebook": "None", "youtube": "None", "website": "None", "summary": "None", "logo": "None", "latitude": 46.813510000000065, "longitude": -64.06533999999994}, "825585540RR0001": {"name": "ALBERTOWN ST. PETER AND ST. PAUL UKRAINIAN CATHOLIC CHURCH", "designationCode": "C", "categoryCode": "39", "address": "BOX 72", "city": "HAFFORD", "province": "SK", "country": "CA", "postalCode": "S0J1A0", "twitter": "None", "instagram": "None", "facebook": "None", "youtube": "None", "website": "None", "summary": "None", "logo": "None", "latitude": 52.71682000000004, "longitude": -107.35123999999996}, "118781442RR0001": {"name": "ALBION BOLTON HISTORICAL SOCIETY", "designationCode": "C", "categoryCode": "52", "address": "68 NANCY ST.", "city": "BOLTON", "province": "ON", "country": "CA", "postalCode": "L7E1B3", "twitter": "None", "instagram": "None", "facebook": "None", "youtube": "None", "website": "None", "summary": "None", "logo": "None", "latitude": 43.87773217733294, "longitude": -79.73698848793921}, "119288918RR0996": {"name": "ALBION CONGREGATION OF JEHOVAH'S WITNESSES", "designationCode": "C", "categoryCode": "61", "address": "32 AMARON AVENUE", "city": "ETOBICOKE", "province": "ON", "country": "CA", "postalCode": "M9V1Z1", "twitter": "None", "instagram": "None", "facebook": "None", "youtube": "None", "website": "None", "summary": "None", "logo": "None", "latitude": 43.74215435111649, "longitude": -79.57760447613822}, "119288918RR1040": {"name": "ALBION FALLS CONGREGATION OF JEHOVAH'S WITNESSES, HAMILTON ONTARIO", "designationCode": "C", "categoryCode": "61", "address": "277 STONE CHURCH RD W", "city": "HAMILTON", "province": "ON", "country": "CA", "postalCode": "L9B1A2", "twitter": "None", "instagram": "None", "facebook": "None", "youtube": "None", "website": "None", "summary": "None", "logo": "None", "latitude": 43.21420087091024, "longitude": -79.90179669207676}, "118781467RR0001": {"name": "ALBION HILLS BIBLE CHURCH", "designationCode": "C", "categoryCode": "47", "address": "PO BOX 606", "city": "BOLTON", "province": "ON", "country": "CA", "postalCode": "L7E5T4", "twitter": "None", "instagram": "None", "facebook": "None", "youtube": "None", "website": "None", "summary": "None", "logo": "None", "latitude": 43.880838000000054, "longitude": -79.73942299999993}, "131502916RR0001": {"name": "ALBION NEIGHBOURHOOD SERVICES", "designationCode": "C", "categoryCode": "59", "address": "14-21 PANORAMA COURT", "city": "TORONTO", "province": "ON", "country": "CA", "postalCode": "M9V4E3", "twitter": "None", "instagram": "None", "facebook": "None", "youtube": "None", "website": "None", "summary": "None", "logo": "None", "latitude": 43.74672253173897, "longitude": -79.58154027976228}, "119288918RR1186": {"name": "ALBOROZO CONGREGATION OF JEHOVAH'S WITNESSES, TORONTO ONTARIO", "designationCode": "C", "categoryCode": "61", "address": "5 MAPLE LEAF DR", "city": "NORTH YORK", "province": "ON", "country": "CA", "postalCode": "M6L1N4", "twitter": "None", "instagram": "None", "facebook": "None", "youtube": "None", "website": "None", "summary": "None", "logo": "None", "latitude": 43.70940867773697, "longitude": -79.50452675116864}, "850021429RR0001": {"name": "ALBRIGHT CHURCH INC.", "designationCode": "C", "categoryCode": "39", "address": "3400 DE VRIES AVE", "city": "EAST ST PAUL", "province": "MB", "country": "CA", "postalCode": "R2E0C8", "twitter": "None", "instagram": "None", "facebook": "None", "youtube": "None", "website": "None", "summary": "None", "logo": "None", "latitude": 49.956259613143565, "longitude": -97.0411791038512}, "118781475RR0001": {"name": "ALBRIGHT GARDENS HOMES, INCORPORATED", "designationCode": "C", "categoryCode": "01", "address": "5050 HILLSIDE DR", "city": "BEAMSVILLE", "province": "ON", "country": "CA", "postalCode": "L0R1B2", "twitter": "None", "instagram": "None", "facebook": "None", "youtube": "None", "website": "None", "summary": "None", "logo": "None", "latitude": 43.15230149138879, "longitude": -79.47668210684644}, "118781491RR0001": {"name": "ALBURY CEMETERY, LTD.", "designationCode": "C", "categoryCode": "59", "address": "950 COUNTY ROAD 3             RR 1    LEONARD BEDFORD", "city": "BELLEVILLE", "province": "ON", "country": "CA", "postalCode": "K8N4Z1", "twitter": "None", "instagram": "None", "facebook": "None", "youtube": "None", "website": "None", "summary": "None", "logo": "None", "latitude": 44.11957200000006, "longitude": -77.42871799999993}, "106696271RR0001": {"name": "ALCOHOLICS ANONYMOUS - HAMILTON CENTRAL OFFICE", "designationCode": "C", "categoryCode": "57", "address": "627 MAIN STREET EAST          SUITE 205", "city": "HAMILTON", "province": "ON", "country": "CA", "postalCode": "L8M1J5", "twitter": "None", "instagram": "None", "facebook": "None", "youtube": "None", "website": "None", "summary": "None", "logo": "None", "latitude": 43.24916603416224, "longitude": -79.84545463015762}, "873202014RR0001": {"name": "ALCOHOLICS ANONYMOUS MANITOBA CENTRAL OFFICE", "designationCode": "C", "categoryCode": "57", "address": "1856 PORTAGE AVE", "city": "WINNIPEG", "province": "MB", "country": "CA", "postalCode": "R3J0G9", "twitter": "None", "instagram": "None", "facebook": "None", "youtube": "None", "website": "None", "summary": "None", "logo": "None", "latitude": 49.878571506780666, "longitude": -97.21716347155058}, "118781616RR0001": {"name": "ALCOHOLICS ANONYMOUS TORONTO INTERGROUP", "designationCode": "C", "categoryCode": "57", "address": "202-234 EGLINTON AVE E", "city": "TORONTO", "province": "ON", "country": "CA", "postalCode": "M4P1K5", "twitter": "None", "instagram": "None", "facebook": "None", "youtube": "None", "website": "None", "summary": "None", "logo": "None", "latitude": 43.7089009100495, "longitude": -79.38780176683875}, "118781624RR0001": {"name": "ALCOHOLICS ANONYMOUS WINNIPEG GROUP", "designationCode": "C", "categoryCode": "57", "address": "794 HECTOR AVE", "city": "WINNIPEG", "province": "MB", "country": "CA", "postalCode": "R3M2G2", "twitter": "None", "instagram": "None", "facebook": "None", "youtube": "None", "website": "None", "summary": "None", "logo": "None", "latitude": 49.86113113015762, "longitude": -97.15132303468182}, "870667813RR0001": {"name": "ALCOVE ADDICTION RECOVERY FOR WOMEN SOCIETY", "designationCode": "C", "categoryCode": "09", "address": "1937 42 AVE SW", "city": "CALGARY", "province": "AB", "country": "CA", "postalCode": "T2T2M6", "twitter": "None", "instagram": "None", "facebook": "None", "youtube": "None", "website": "None", "summary": "None", "logo": "None", "latitude": 51.01599053231588, "longitude": -114.10555049999999}, "139413918RR0001": {"name": "ALDEBRAIN ATTENDANT CARE SERVICES OF TORONTO", "designationCode": "C", "categoryCode": "01", "address": "2155 LAWRENCE AVENUE EAST", "city": "SCARBOROUGH", "province": "ON", "country": "CA", "postalCode": "M1R5G9", "twitter": "None", "instagram": "None", "facebook": "None", "youtube": "None", "website": "None", "summary": "None", "logo": "None"}, "891260010RR0001": {"name": "ALDER FOUNDATION", "designationCode": "A", "categoryCode": "03", "address": "2100 GORDON DRIVE", "city": "KELOWNA", "province": "BC", "country": "CA", "postalCode": "V1W1A4", "twitter": "None", "instagram": "None", "facebook": "None", "youtube": "None", "website": "None", "summary": "None", "logo": "None", "latitude": 49.87536872056713, "longitude": -119.47715427943288}, "130661424RR0001": {"name": "ALDER GROVE HERITAGE SOCIETY", "designationCode": "C", "categoryCode": "50", "address": "3190-271 STREET", "city": "ALDERGROVE", "province": "BC", "country": "CA", "postalCode": "V4W3H7", "twitter": "None", "instagram": "None", "facebook": "None", "youtube": "None", "website": "None", "summary": "None", "logo": "None", "latitude": 49.059999000000005, "longitude": -122.47223960101572}, "868760307RR0001": {"name": "ALDERBROOK COMMUNITY CHURCH", "designationCode": "C", "categoryCode": "34", "address": "32025 GEORGE FERGUSON WAY     SUITE 303", "city": "ABBOTSFORD", "province": "BC", "country": "CA", "postalCode": "V2T2K7", "twitter": "None", "instagram": "None", "facebook": "None", "youtube": "None", "website": "None", "summary": "None", "logo": "None", "latitude": 49.05489653318127, "longitude": -122.33663061226844}, "106696537RR0001": {"name": "ALDERGROVE ALLIANCE CHURCH", "designationCode": "C", "categoryCode": "39", "address": "26291 28 AVENUE", "city": "ALDERGROVE", "province": "BC", "country": "CA", "postalCode": "V4W2W3", "twitter": "None", "instagram": "None", "facebook": "None", "youtube": "None", "website": "None", "summary": "None", "logo": "None", "latitude": 49.05298346883796, "longitude": -122.49540110505508}, "849934872RR0001": {"name": "ALDERGROVE FELLOWSHIP BAPTIST CHURCH", "designationCode": "C", "categoryCode": "31", "address": "28163 SWENSSON AVE.", "city": "ABBOTSFORD", "province": "BC", "country": "CA", "postalCode": "V4X1H6", "twitter": "None", "instagram": "None", "facebook": "None", "youtube": "None", "website": "None", "summary": "None", "logo": "None", "latitude": 49.051361647990674, "longitude": -122.4452486788612}, "887979243RR0001": {"name": "ALDERGROVE GOSPEL CHAPEL,", "designationCode": "C", "categoryCode": "39", "address": "PO BOX 41 STN ALDERGROVE", "city": "ALDERGROVE", "province": "BC", "country": "CA", "postalCode": "V4W2T7", "twitter": "None", "instagram": "None", "facebook": "None", "youtube": "None", "website": "None", "summary": "None", "logo": "None", "latitude": 49.057341056630904, "longitude": -122.459751}, "107519068RR0002": {"name": "ALDERGROVE LIONS SENIORS HOUSING SOCIETY", "designationCode": "C", "categoryCode": "01", "address": "27477-28TH AVENUE             BOX 257", "city": "ALDERGROVE", "province": "BC", "country": "CA", "postalCode": "V0X1A0", "twitter": "None", "instagram": "None", "facebook": "None", "youtube": "None", "website": "None", "summary": "None", "logo": "None", "latitude": 49.05312251269505, "longitude": -122.46295347016562}, "118781780RR0001": {"name": "ALDERGROVE SENIORS RENTAL HOUSING SOCIETY", "designationCode": "C", "categoryCode": "01", "address": "2888 273 ST", "city": "ALDERGROVE", "province": "BC", "country": "CA", "postalCode": "V4W3M6", "twitter": "None", "instagram": "None", "facebook": "None", "youtube": "None", "website": "None", "summary": "None", "logo": "None", "latitude": 49.055283259327325, "longitude": -122.46721609922142}, "133449223RR0001": {"name": "ALDERGROVE UNITED CHURCH", "designationCode": "C", "categoryCode": "44", "address": "101 - 27336 FRASER HWY", "city": "ALDERGROVE", "province": "BC", "country": "CA", "postalCode": "V4W3N5", "twitter": "None", "instagram": "None", "facebook": "None", "youtube": "None", "website": "None", "summary": "None", "logo": "None", "latitude": 49.057831564487564, "longitude": -122.46711299431585}}