{"119244440RR0001": {"name": "THE MASSED PIPES AND DRUMS OF MANITOBA INCORPORATED", "designationCode": "C", "categoryCode": "22", "address": "51 LEANDER CRES", "city": "WINNIPEG", "province": "MB", "country": "CA", "postalCode": "R3Y1W5", "twitter": "None", "instagram": "None", "facebook": "None", "youtube": "None", "website": "None", "summary": "None", "logo": "None", "latitude": 49.81546181957999, "longitude": -97.20795380235465}, "119283687RR0001": {"name": "THE MASSEY CENTRE FOR WOMEN", "designationCode": "C", "categoryCode": "01", "address": "1102 BROADVIEW AVENUE", "city": "TORONTO", "province": "ON", "country": "CA", "postalCode": "M4K2S5", "twitter": "None", "instagram": "None", "facebook": "None", "youtube": "None", "website": "None", "summary": "None", "logo": "None", "latitude": 43.68652647322401, "longitude": -79.35610366074182}, "119244457RR0001": {"name": "THE MASSEY FOUNDATION", "designationCode": "C", "categoryCode": "22", "address": "249 ST. JAMES RD E", "city": "NORTH VANCOUVER", "province": "BC", "country": "CA", "postalCode": "V7N1L3", "twitter": "None", "instagram": "None", "facebook": "None", "youtube": "None", "website": "None", "summary": "None", "logo": "None", "latitude": 49.33921554674262, "longitude": -123.067764}, "861983427RR0001": {"name": "THE MASTER FOUNDATION", "designationCode": "B", "categoryCode": "03", "address": "300 UNION STREET, 12TH FLOOR  P. O. BOX 5777", "city": "SAINT JOHN", "province": "NB", "country": "CA", "postalCode": "E2L4M3", "twitter": "None", "instagram": "None", "facebook": "None", "youtube": "None", "website": "None", "summary": "None", "logo": "None", "latitude": 45.27561675491954, "longitude": -66.0555860291419}, "119244465RR0001": {"name": "THE MASTER'S FOUNDATION", "designationCode": "C", "categoryCode": "39", "address": "4 - 1260 EGLINTON AVE E", "city": "MISSISSAUGA", "province": "ON", "country": "CA", "postalCode": "L4W1K8", "twitter": "None", "instagram": "None", "facebook": "None", "youtube": "None", "website": "None", "summary": "None", "logo": "None", "latitude": 43.64311374326914, "longitude": -79.61250749820246}, "866127228RR0001": {"name": "THE MASTER'S HAND MINISTRIES", "designationCode": "C", "categoryCode": "47", "address": "234 CATALINA DRIVE", "city": "BELLEVILLE", "province": "ON", "country": "CA", "postalCode": "K8R1C7", "twitter": "None", "instagram": "None", "facebook": "None", "youtube": "None", "website": "None", "summary": "None", "logo": "None", "latitude": 44.149871974753246, "longitude": -77.459121396157}, "887995447RR0001": {"name": "THE MASTER'S HOUSE BIBLE FELLOWSHIP", "designationCode": "C", "categoryCode": "39", "address": "1571 SANDHURST CIRCLE         P.O. BOX 63524", "city": "SCARBOROUGH", "province": "ON", "country": "CA", "postalCode": "M1V1V2", "twitter": "None", "instagram": "None", "facebook": "None", "youtube": "None", "website": "None", "summary": "None", "logo": "None", "latitude": 43.80883015463389, "longitude": -79.27093925104661}, "119288918RR0196": {"name": "THE MATHESON CONGREGATION OF JEHOVAH'S WITNESSES", "designationCode": "C", "categoryCode": "61", "address": "PO BOX 223", "city": "MATHESON", "province": "ON", "country": "CA", "postalCode": "P0K1N0", "twitter": "None", "instagram": "None", "facebook": "None", "youtube": "None", "website": "None", "summary": "None", "logo": "None", "latitude": 47.9392718793635, "longitude": -80.64669271189717}, "836827543RR0001": {"name": "THE MATHISON FAMILY FOUNDATION", "designationCode": "B", "categoryCode": "03", "address": "400 407-8TH AVENUE SW", "city": "CALGARY", "province": "AB", "country": "CA", "postalCode": "T2P1E5", "twitter": "None", "instagram": "None", "facebook": "None", "youtube": "None", "website": "None", "summary": "None", "logo": "None", "latitude": 51.04590663887669, "longitude": -114.07575818403993}, "852758929RR0001": {"name": "THE MATLOW FAMILY CHARITABLE TRUST", "designationCode": "B", "categoryCode": "03", "address": "100 FRONTENAC AVENUE", "city": "TORONTO", "province": "ON", "country": "CA", "postalCode": "M5N1Z9", "twitter": "None", "instagram": "None", "facebook": "None", "youtube": "None", "website": "None", "summary": "None", "logo": "None", "latitude": 43.71728216515656, "longitude": -79.42703984569214}, "887990661RR0001": {"name": "THE MATT FOUNDATION", "designationCode": "B", "categoryCode": "03", "address": "600-340 MARCH ROAD", "city": "KANATA", "province": "ON", "country": "CA", "postalCode": "K2K2E4", "twitter": "None", "instagram": "None", "facebook": "None", "youtube": "None", "website": "None", "summary": "None", "logo": "None", "latitude": 45.334955153268666, "longitude": -75.90663777901246}, "864538020RR0001": {"name": "THE MAURICE & MARILYN ROLLINS FOUNDATION", "designationCode": "B", "categoryCode": "03", "address": "199 FRONT STREET SUITE 215", "city": "BELLEVILLE", "province": "ON", "country": "CA", "postalCode": "K8N5H5", "twitter": "None", "instagram": "None", "facebook": "None", "youtube": "None", "website": "None", "summary": "None", "logo": "None", "latitude": 44.16343821178361, "longitude": -77.38396157043151}, "877014613RR0001": {"name": "THE MAURICE BRACHFELD CHARITABLE FOUNDATION", "designationCode": "B", "categoryCode": "03", "address": "22 ST. CLAIR AVENUE           SUITE 1200", "city": "TORONTO", "province": "ON", "country": "CA", "postalCode": "M4T2S3", "twitter": "None", "instagram": "None", "facebook": "None", "youtube": "None", "website": "None", "summary": "None", "logo": "None", "latitude": 43.688336132408, "longitude": -79.39301839967676}, "119244523RR0001": {"name": "THE MAURICE CODY RESEARCH FELLOWSHIPS TRUST", "designationCode": "C", "categoryCode": "21", "address": "130 KING ST. WEST 20TH FLOOR  BOX 430, STN FIRST CANADIAN PL", "city": "TORONTO", "province": "ON", "country": "CA", "postalCode": "M5X1K1", "twitter": "None", "instagram": "None", "facebook": "None", "youtube": "None", "website": "None", "summary": "None", "logo": "None", "latitude": 43.64826932503962, "longitude": -79.38190945606182}, "130524572RR0001": {"name": "THE MAURICE POLLACK FOUNDATION", "designationCode": "B", "categoryCode": "03", "address": "900 - 1980 RUE SHERBROOKE O", "city": "MONTREAL", "province": "QC", "country": "CA", "postalCode": "H3H1E8", "twitter": "None", "instagram": "None", "facebook": "None", "youtube": "None", "website": "None", "summary": "None", "logo": "None", "latitude": 45.49362439667184, "longitude": -73.58437916366098}, "859750804RR0001": {"name": "THE MAURO FAMILY FOUNDATION INC.", "designationCode": "B", "categoryCode": "03", "address": "855 WELLINGTON CRESCENT", "city": "WINNIPEG", "province": "MB", "country": "CA", "postalCode": "R3M0A7", "twitter": "None", "instagram": "None", "facebook": "None", "youtube": "None", "website": "None", "summary": "None", "logo": "None", "latitude": 49.87486251601326, "longitude": -97.17428195031454}, "119262095RR0001": {"name": "THE MAVOR MOORE THEATRE SOCIETY", "designationCode": "C", "categoryCode": "22", "address": "208 W. 23RD AVE", "city": "VANCOUVER", "province": "BC", "country": "CA", "postalCode": "V5Y2H3", "twitter": "None", "instagram": "None", "facebook": "None", "youtube": "None", "website": "None", "summary": "None", "logo": "None", "latitude": 49.249982495672164, "longitude": -123.11023363780367}, "134175967RR0001": {"name": "THE MAX AND BEATRICE WOLFE CHARITABLE FOUNDATION", "designationCode": "B", "categoryCode": "03", "address": "500-2005 SHEPPARD AVE EAST", "city": "TORONTO", "province": "ON", "country": "CA", "postalCode": "M2J5B4", "twitter": "None", "instagram": "None", "facebook": "None", "youtube": "None", "website": "None", "summary": "None", "logo": "None", "latitude": 43.77436849624909, "longitude": -79.33790961564398}, "119244556RR0001": {"name": "THE MAX AND LARRY ENKIN FOUNDATION", "designationCode": "B", "categoryCode": "03", "address": "PO BOX 57208                  JACKSON STATION", "city": "HAMILTON", "province": "ON", "country": "CA", "postalCode": "L8P4X1", "twitter": "None", "instagram": "None", "facebook": "None", "youtube": "None", "website": "None", "summary": "None", "logo": "None", "latitude": 43.25737371138311, "longitude": -79.88158506204714}, "895818664RR0001": {"name": "THE MAX CENTER FOR PERFORMING ARTS", "designationCode": "C", "categoryCode": "21", "address": "PO BOX 5229", "city": "DRAYTON VALLEY", "province": "AB", "country": "CA", "postalCode": "T7A1R4", "twitter": "None", "instagram": "None", "facebook": "None", "youtube": "None", "website": "None", "summary": "None", "logo": "None", "latitude": 53.22798600000006, "longitude": -114.98692399999993}, "888032844RR0001": {"name": "THE MAX CLARKSON FOUNDATION", "designationCode": "B", "categoryCode": "03", "address": "150 YORK STREET SUITE 1212", "city": "TORONTO", "province": "ON", "country": "CA", "postalCode": "M5H3S5", "twitter": "None", "instagram": "None", "facebook": "None", "youtube": "None", "website": "None", "summary": "None", "logo": "None", "latitude": 43.64973143574359, "longitude": -79.3843565691325}, "892674961RR0001": {"name": "THE MAXFIELD FOUNDATION", "designationCode": "B", "categoryCode": "03", "address": "255 GLEN MILLER ROAD, UNIT 6", "city": "TRENTON", "province": "ON", "country": "CA", "postalCode": "K8V5R1", "twitter": "None", "instagram": "None", "facebook": "None", "youtube": "None", "website": "None", "summary": "None", "logo": "None", "latitude": 44.137265867880494, "longitude": -77.58519787417022}, "860315084RR0001": {"name": "THE MAXWELL AND RUTH LEROY FOUNDATION", "designationCode": "A", "categoryCode": "03", "address": "1635 DUNDAS ST E", "city": "WHITBY", "province": "ON", "country": "CA", "postalCode": "L1N2K9", "twitter": "None", "instagram": "None", "facebook": "None", "youtube": "None", "website": "None", "summary": "None", "logo": "None", "latitude": 43.88726684537502, "longitude": -78.90925528960136}, "130828841RR0001": {"name": "THE MAY COURT CLUB OF KITCHENER-WATERLOO", "designationCode": "C", "categoryCode": "09", "address": "P.O. BOX 22105                50 WESTMOUNT RD N", "city": "WATERLOO", "province": "ON", "country": "CA", "postalCode": "N2L6J7", "twitter": "None", "instagram": "None", "facebook": "None", "youtube": "None", "website": "None", "summary": "None", "logo": "None", "latitude": 43.462472594124364, "longitude": -80.5389727565785}, "119244606RR0001": {"name": "THE MAY COURT CLUB OF LONDON", "designationCode": "C", "categoryCode": "09", "address": "PO BOX 24096", "city": "LONDON", "province": "ON", "country": "CA", "postalCode": "N6H5C4", "twitter": "None", "instagram": "None", "facebook": "None", "youtube": "None", "website": "None", "summary": "None", "logo": "None", "latitude": 42.98689500000006, "longitude": -81.24624349999993}, "119244614RR0001": {"name": "THE MAY COURT CLUB OF OAKVILLE", "designationCode": "A", "categoryCode": "03", "address": "PO BOX 761                    LAKESHORE WEST", "city": "OAKVILLE", "province": "ON", "country": "CA", "postalCode": "L6K0A9", "twitter": "None", "instagram": "None", "facebook": "None", "youtube": "None", "website": "None", "summary": "None", "logo": "None", "latitude": 43.43392717085388, "longitude": -79.68087896669049}, "119244630RR0001": {"name": "THE MAY COURT CLUB OF ST CATHARINES", "designationCode": "C", "categoryCode": "09", "address": "PO BOX 28021 PORT PLAZA       600 ONTARIO STREET", "city": "ST CATHARINES", "province": "ON", "country": "CA", "postalCode": "L2N7P9", "twitter": "None", "instagram": "None", "facebook": "None", "youtube": "None", "website": "None", "summary": "None", "logo": "None", "latitude": 43.19521590922742, "longitude": -79.26009689306993}, "119244648RR0001": {"name": "THE MAY COURT CLUB OF WINDSOR", "designationCode": "C", "categoryCode": "09", "address": "1122 WYANDOTTE ST E", "city": "WINDSOR", "province": "ON", "country": "CA", "postalCode": "N9A3K2", "twitter": "None", "instagram": "None", "facebook": "None", "youtube": "None", "website": "None", "summary": "None", "logo": "None", "latitude": 42.319749571209975, "longitude": -83.021060461019}, "892485848RR0001": {"name": "THE MAYERTHORPE CONGREGATION OF JEHOVAH'S WITNESSES", "designationCode": "C", "categoryCode": "61", "address": "BOX 1417", "city": "MAYERTHORPE", "province": "AB", "country": "CA", "postalCode": "T0E1N0", "twitter": "None", "instagram": "None", "facebook": "None", "youtube": "None", "website": "None", "summary": "None", "logo": "None", "latitude": 53.952450000000056, "longitude": -115.13884999999999}, "119244663RR0001": {"name": "THE MAYTREE FOUNDATION", "designationCode": "B", "categoryCode": "03", "address": "1600 - 77 BLOOR ST W", "city": "TORONTO", "province": "ON", "country": "CA", "postalCode": "M5S1M2", "twitter": "None", "instagram": "None", "facebook": "None", "youtube": "None", "website": "None", "summary": "None", "logo": "None", "latitude": 43.667372648743196, "longitude": -79.40049643191246}, "119244671RR0001": {"name": "THE MAYVON FOUNDATION", "designationCode": "B", "categoryCode": "03", "address": "620 WILSON AVENUE             SUITE 401", "city": "TORONTO", "province": "ON", "country": "CA", "postalCode": "M3K1Z3", "twitter": "None", "instagram": "None", "facebook": "None", "youtube": "None", "website": "None", "summary": "None", "logo": "None", "latitude": 43.73199250100961, "longitude": -79.46002264071787}, "862783453RR0001": {"name": "THE MAZEL FOUNDATION", "designationCode": "B", "categoryCode": "03", "address": "601 - 175 BLOOR ST E", "city": "TORONTO", "province": "ON", "country": "CA", "postalCode": "M4W3R8", "twitter": "None", "instagram": "None", "facebook": "None", "youtube": "None", "website": "None", "summary": "None", "logo": "None", "latitude": 43.67244585876691, "longitude": -79.37634608562912}, "863175121RR0001": {"name": "THE MCAULEY SCHOLARSHIP FUND", "designationCode": "C", "categoryCode": "21", "address": "171 FORSYTHE STREET", "city": "OAKVILLE", "province": "ON", "country": "CA", "postalCode": "L6K3K4", "twitter": "None", "instagram": "None", "facebook": "None", "youtube": "None", "website": "None", "summary": "None", "logo": "None", "latitude": 43.4435523938484, "longitude": -79.67491589327147}, "886597681RR0001": {"name": "THE MCCAIN FOUNDATION", "designationCode": "B", "categoryCode": "53", "address": "8800 MAIN STREET", "city": "FLORENCEVILLE-BRISTOL", "province": "NB", "country": "CA", "postalCode": "E7L1B2", "twitter": "None", "instagram": "None", "facebook": "None", "youtube": "None", "website": "None", "summary": "None", "logo": "None", "latitude": 46.44740124226082, "longitude": -67.61606090079638}, "873557912RR0001": {"name": "THE MCCLELLAND & STEWART CHARITABLE FOUNDATION", "designationCode": "B", "categoryCode": "23", "address": "320 FRONT ST W, STE 1400", "city": "TORONTO", "province": "ON", "country": "CA", "postalCode": "M5V3B6", "twitter": "None", "instagram": "None", "facebook": "None", "youtube": "None", "website": "None", "summary": "None", "logo": "None", "latitude": 43.643535209590574, "longitude": -79.39079551431115}, "119231322RR0001": {"name": "THE MCCOLL-EARLY FOUNDATION", "designationCode": "B", "categoryCode": "03", "address": "130 KING ST. WEST - 20TH FLOORBOX 430, STN FIRST CANADIAN PL", "city": "TORONTO", "province": "ON", "country": "CA", "postalCode": "M5X1K1", "twitter": "None", "instagram": "None", "facebook": "None", "youtube": "None", "website": "None", "summary": "None", "logo": "None", "latitude": 43.64826932503962, "longitude": -79.38190945606182}, "119244713RR0001": {"name": "THE MCCONNELL CREEK FARMERS' INSTITUTE", "designationCode": "C", "categoryCode": "56", "address": "35483 HARTLEY ROAD            RR#3", "city": "MISSION", "province": "BC", "country": "CA", "postalCode": "V2V0A8", "twitter": "None", "instagram": "None", "facebook": "None", "youtube": "None", "website": "None", "summary": "None", "logo": "None", "latitude": 49.24932262756656, "longitude": -122.24411401169479}, "136358397RR0001": {"name": "THE MCCORD MUSEUM FOUNDATION/ LA FONDATION DU MUS\u00c9E MCCORD", "designationCode": "A", "categoryCode": "53", "address": "690 SHERBROOKE STREET WEST", "city": "MONTREAL", "province": "QC", "country": "CA", "postalCode": "H3A1E9", "twitter": "None", "instagram": "None", "facebook": "None", "youtube": "None", "website": "None", "summary": "None", "logo": "None", "latitude": 45.50452147763876, "longitude": -73.57388750259707}, "129218632RR0001": {"name": "THE MCCREARY CENTRE SOCIETY", "designationCode": "C", "categoryCode": "01", "address": "3552 HASTINGS STREET EAST", "city": "VANCOUVER", "province": "BC", "country": "CA", "postalCode": "V5K2A7", "twitter": "None", "instagram": "None", "facebook": "None", "youtube": "None", "website": "None", "summary": "None", "logo": "None", "latitude": 49.28101443710344, "longitude": -123.02693241201408}, "119244739RR0001": {"name": "THE MCDOUGALL HOUSE ASSOCIATION", "designationCode": "C", "categoryCode": "01", "address": "11070 108 ST NW", "city": "EDMONTON", "province": "AB", "country": "CA", "postalCode": "T5H3A9", "twitter": "None", "instagram": "None", "facebook": "None", "youtube": "None", "website": "None", "summary": "None", "logo": "None", "latitude": 53.55855016763806, "longitude": -113.50663822150713}, "864362249RR0001": {"name": "THE MCDOUGALL UNITED CHURCH FOUNDATION", "designationCode": "A", "categoryCode": "03", "address": "8516 ATHABASCA STREET SE", "city": "CALGARY", "province": "AB", "country": "CA", "postalCode": "T2H1S1", "twitter": "None", "instagram": "None", "facebook": "None", "youtube": "None", "website": "None", "summary": "None", "logo": "None", "latitude": 50.97747583236193, "longitude": -114.05711839520472}, "140591611RR0001": {"name": "THE MCGARRY FOUNDATION INC", "designationCode": "B", "categoryCode": "03", "address": "200 - 260 ST MARY AVE", "city": "WINNIPEG", "province": "MB", "country": "CA", "postalCode": "R3C0M6", "twitter": "None", "instagram": "None", "facebook": "None", "youtube": "None", "website": "None", "summary": "None", "logo": "None", "latitude": 49.88988781775004, "longitude": -97.14513647574606}, "104010830RR0001": {"name": "THE MCGILL CHAMBER ORCHESTRA / L'ORCHESTRE DE CHAMBRE DE MCGILL", "designationCode": "C", "categoryCode": "22", "address": "5459 AVE EARNSCLIFFE", "city": "MONTREAL", "province": "QC", "country": "CA", "postalCode": "H3X2P8", "twitter": "None", "instagram": "None", "facebook": "None", "youtube": "None", "website": "None", "summary": "None", "logo": "None", "latitude": 45.48467017765004, "longitude": -73.63660064819102}, "896672136RR0001": {"name": "THE MCGIRR SPORTS SOCIETY", "designationCode": "C", "categoryCode": "56", "address": "6185 MCGIRR RD                PRESIDENT", "city": "NANAIMO", "province": "BC", "country": "CA", "postalCode": "V9V1M1", "twitter": "None", "instagram": "None", "facebook": "None", "youtube": "None", "website": "None", "summary": "None", "logo": "None", "latitude": 49.23837267496928, "longitude": -124.03191089378582}, "130585722RR0001": {"name": "THE MCILWRAITH FIELD NATURALISTS OF LONDON ONTARIO INCORPORATED", "designationCode": "C", "categoryCode": "52", "address": "PO BOX 24008 RPO CHERRY HILL", "city": "LONDON", "province": "ON", "country": "CA", "postalCode": "N6H5C4", "twitter": "None", "instagram": "None", "facebook": "None", "youtube": "None", "website": "None", "summary": "None", "logo": "None", "latitude": 42.98934912626871, "longitude": -81.27671211657318}, "891743445RR0001": {"name": "THE MCKEE CEMETERY COMPANY", "designationCode": "C", "categoryCode": "59", "address": "380 TOM ST", "city": "FERGUS", "province": "ON", "country": "CA", "postalCode": "N1M2A6", "twitter": "None", "instagram": "None", "facebook": "None", "youtube": "None", "website": "None", "summary": "None", "logo": "None", "latitude": 43.71506819542365, "longitude": -80.3699949849677}, "868811332RR0001": {"name": "THE MCKIBBIN FOUNDATION", "designationCode": "B", "categoryCode": "05", "address": "72 CRAIGVIEW DRIVE", "city": "GLEN HAVEN", "province": "NS", "country": "CA", "postalCode": "B3Z2S6", "twitter": "None", "instagram": "None", "facebook": "None", "youtube": "None", "website": "None", "summary": "None", "logo": "None", "latitude": 44.648262418546906, "longitude": -63.92729824721524}, "134368364RR0001": {"name": "THE MCLEAN FOUNDATION", "designationCode": "B", "categoryCode": "05", "address": "2 ST. CLAIR AVE W., SUITE 1008", "city": "TORONTO", "province": "ON", "country": "CA", "postalCode": "M4V1L5", "twitter": "None", "instagram": "None", "facebook": "None", "youtube": "None", "website": "None", "summary": "None", "logo": "None", "latitude": 43.688045209013644, "longitude": -79.39437622621033}, "119244762RR0001": {"name": "THE MCLEAN MCCUAIG FOUNDATION", "designationCode": "B", "categoryCode": "23", "address": "400-375 WATER STREET", "city": "VANCOUVER", "province": "BC", "country": "CA", "postalCode": "V6B5C6", "twitter": "None", "instagram": "None", "facebook": "None", "youtube": "None", "website": "None", "summary": "None", "logo": "None", "latitude": 49.28467938776022, "longitude": -123.11074543756123}, "119244770RR0001": {"name": "THE MCLELLAN FAMILY FOUNDATION INC", "designationCode": "B", "categoryCode": "53", "address": "118 LAKESHORE TERRACE", "city": "SASKATOON", "province": "SK", "country": "CA", "postalCode": "S7J3X6", "twitter": "None", "instagram": "None", "facebook": "None", "youtube": "None", "website": "None", "summary": "None", "logo": "None", "latitude": 52.09923451399405, "longitude": -106.59477052553522}, "859450439RR0001": {"name": "THE MCLELLAND FOUNDATION", "designationCode": "B", "categoryCode": "05", "address": "69 YONGE STREET, 2ND FLOOR", "city": "TORONTO", "province": "ON", "country": "CA", "postalCode": "M5E1K3", "twitter": "None", "instagram": "None", "facebook": "None", "youtube": "None", "website": "None", "summary": "None", "logo": "None", "latitude": 43.64884364086209, "longitude": -79.37772048193794}, "105227623RR0001": {"name": "THE MCMASTER CHILDREN'S CENTRE INC.", "designationCode": "C", "categoryCode": "01", "address": "1280 MAIN ST W T33 LOT \"0\"", "city": "HAMILTON", "province": "ON", "country": "CA", "postalCode": "L8S4K1", "twitter": "None", "instagram": "None", "facebook": "None", "youtube": "None", "website": "None", "summary": "None", "logo": "None", "latitude": 43.25797708006465, "longitude": -79.91932472220606}, "883402471RR0001": {"name": "THE MCNEIL CEMETERY COMPANY, LIMITED", "designationCode": "C", "categoryCode": "59", "address": "8 PERRY ST", "city": "OAKWOOD", "province": "ON", "country": "CA", "postalCode": "K0M2M0", "twitter": "None", "instagram": "None", "facebook": "None", "youtube": "None", "website": "None", "summary": "None", "logo": "None", "latitude": 44.33140408912783, "longitude": -78.8801364363205}, "868530692RR0001": {"name": "THE MEADOW LAKE & DISTRICT MUSEUM & HISTORICAL SOCIETY", "designationCode": "C", "categoryCode": "50", "address": "BOX 1028", "city": "MEADOWLAKE", "province": "SK", "country": "CA", "postalCode": "S9X1Y7", "twitter": "None", "instagram": "None", "facebook": "None", "youtube": "None", "website": "None", "summary": "None", "logo": "None", "latitude": 38.90808000000004, "longitude": -119.96569999999997}, "867675472RR0001": {"name": "THE MEDIA EVANGELISM ASSOCIATION", "designationCode": "C", "categoryCode": "49", "address": "1160 - 8766 MCKIM WAY", "city": "RICHMOND", "province": "BC", "country": "CA", "postalCode": "V6X4G4", "twitter": "None", "instagram": "None", "facebook": "None", "youtube": "None", "website": "None", "summary": "None", "logo": "None", "latitude": 49.183547505311424, "longitude": -123.1254811679758}, "119244804RR0001": {"name": "THE MEDICAL CENTRE TRUST ASSOCIATION", "designationCode": "A", "categoryCode": "65", "address": "PO BOX 281", "city": "COBOCONK", "province": "ON", "country": "CA", "postalCode": "K0M1K0", "twitter": "None", "instagram": "None", "facebook": "None", "youtube": "None", "website": "None", "summary": "None", "logo": "None", "latitude": 44.658990000000074, "longitude": -78.79767999999996}, "107687725RR0001": {"name": "THE MEDICINE HAT CHRISTIAN SCHOOL SOCIETY", "designationCode": "C", "categoryCode": "20", "address": "68 RICE DRIVE SE", "city": "MEDICINE HAT", "province": "AB", "country": "CA", "postalCode": "T1B3X2", "twitter": "None", "instagram": "None", "facebook": "None", "youtube": "None", "website": "None", "summary": "None", "logo": "None", "latitude": 49.99716250375092, "longitude": -110.62927366763806}, "895370286RR0001": {"name": "THE MEDICINE HAT COLLEGE FOUNDATION", "designationCode": "A", "categoryCode": "23", "address": "299 COLLEGE DR SE             TREASURER", "city": "MEDICINE HAT", "province": "AB", "country": "CA", "postalCode": "T1A3Y6", "twitter": "None", "instagram": "None", "facebook": "None", "youtube": "None", "website": "None", "summary": "None", "logo": "None", "latitude": 50.016662674995665, "longitude": -110.6840284817068}, "118903384RR0001": {"name": "THE MEDICINE HAT EVANGELICAL ASSOCIATION", "designationCode": "C", "categoryCode": "49", "address": "1714 SAAMIS DR N.W.", "city": "MEDICINE HAT", "province": "AB", "country": "CA", "postalCode": "T1C1W7", "twitter": "None", "instagram": "None", "facebook": "None", "youtube": "None", "website": "None", "summary": "None", "logo": "None", "latitude": 50.05054217485142, "longitude": -110.72584065419228}, "856684543RR0001": {"name": "THE MEETING HOUSE CHURCH FAMILY", "designationCode": "C", "categoryCode": "39", "address": "2700 BRISTOL CIRCLE", "city": "OAKVILLE", "province": "ON", "country": "CA", "postalCode": "L6H6E1", "twitter": "None", "instagram": "None", "facebook": "None", "youtube": "None", "website": "None", "summary": "None", "logo": "None"}, "865326771RR0001": {"name": "THE MEETING HOUSE SOCIETY", "designationCode": "C", "categoryCode": "50", "address": "RR 4 BOX 122                  867 LANGFORD ROAD, SOUTHVILLE", "city": "WEYMOUTH", "province": "NS", "country": "CA", "postalCode": "B0W3T0", "twitter": "None", "instagram": "None", "facebook": "None", "youtube": "None", "website": "None", "summary": "None", "logo": "None", "latitude": 44.34985612352119, "longitude": -65.89736171951657}, "865207146RR0001": {"name": "THE MEETING PLACE BAPTIST CHURCH", "designationCode": "C", "categoryCode": "31", "address": "3457 REDDEN RD", "city": "NANOOSE BAY", "province": "BC", "country": "CA", "postalCode": "V9P9H4", "twitter": "None", "instagram": "None", "facebook": "None", "youtube": "None", "website": "None", "summary": "None", "logo": "None", "latitude": 49.2853363699721, "longitude": -124.13838964573463}, "898709100RR0001": {"name": "THE MEETING PLACE CENTRE FOR GROWTH & HEALING", "designationCode": "C", "categoryCode": "09", "address": "180 TAMBROOK LANE             R.R. #5", "city": "HUNTSVILLE", "province": "ON", "country": "CA", "postalCode": "P1H2N5", "twitter": "None", "instagram": "None", "facebook": "None", "youtube": "None", "website": "None", "summary": "None", "logo": "None", "latitude": 45.40396435697354, "longitude": -79.28964114908506}, "134162486RR0001": {"name": "THE MEETING PLACE FELLOWSHIP INC", "designationCode": "C", "categoryCode": "34", "address": "B100-143 SMITH ST", "city": "WINNIPEG", "province": "MB", "country": "CA", "postalCode": "R3C1J5", "twitter": "None", "instagram": "None", "facebook": "None", "youtube": "None", "website": "None", "summary": "None", "logo": "None", "latitude": 49.889618529684356, "longitude": -97.13985366263815}, "871117982RR0001": {"name": "THE MEETING PLACE INC", "designationCode": "C", "categoryCode": "39", "address": "487 BRUNSWICK ST", "city": "FREDERICTON", "province": "NB", "country": "CA", "postalCode": "E3B5L6", "twitter": "None", "instagram": "None", "facebook": "None", "youtube": "None", "website": "None", "summary": "None", "logo": "None", "latitude": 45.96041434860633, "longitude": -66.6430627060708}, "886938117RR0001": {"name": "THE MEETING PLACE SOCIETY", "designationCode": "C", "categoryCode": "39", "address": "169 RUSSELL ST                P.O.BOX 25", "city": "PUGWASH", "province": "NS", "country": "CA", "postalCode": "B0K1L0", "twitter": "None", "instagram": "None", "facebook": "None", "youtube": "None", "website": "None", "summary": "None", "logo": "None", "latitude": 45.8535180180334, "longitude": -63.66202659134951}, "863674867RR0001": {"name": "THE MEG FOUNDATION / LA FONDATION MEG", "designationCode": "B", "categoryCode": "03", "address": "1155 RENE-LEVESQUE BLVD. WEST SUITE 2912", "city": "MONTREAL", "province": "QC", "country": "CA", "postalCode": "H3B2L5", "twitter": "None", "instagram": "None", "facebook": "None", "youtube": "None", "website": "None", "summary": "None", "logo": "None"}, "125878314RR0001": {"name": "THE MEL JR. & MARTY ZAJAC FOUNDATION", "designationCode": "A", "categoryCode": "03", "address": "300-2006 W 10TH AVE", "city": "VANCOUVER", "province": "BC", "country": "CA", "postalCode": "V6J2B3", "twitter": "None", "instagram": "None", "facebook": "None", "youtube": "None", "website": "None", "summary": "None", "logo": "None", "latitude": 49.26280554674261, "longitude": -123.15105305398464}, "119244861RR0001": {"name": "THE MELFORT AND DISTRICT MINOR SPORTS ASSOCIATION", "designationCode": "C", "categoryCode": "56", "address": "BOX 2668", "city": "MELFORT", "province": "SK", "country": "CA", "postalCode": "S0E1A0", "twitter": "None", "instagram": "None", "facebook": "None", "youtube": "None", "website": "None", "summary": "None", "logo": "None", "latitude": 52.85637, "longitude": -104.63436225000001}, "119244879RR0001": {"name": "THE MELFORT ARTS COUNCIL", "designationCode": "C", "categoryCode": "22", "address": "BOX 3467", "city": "MELFORT", "province": "SK", "country": "CA", "postalCode": "S0E1A0", "twitter": "None", "instagram": "None", "facebook": "None", "youtube": "None", "website": "None", "summary": "None", "logo": "None", "latitude": 52.85637, "longitude": -104.63436225000001}, "890058621RR0001": {"name": "THE MELITA DONOR'S CHOICE", "designationCode": "A", "categoryCode": "03", "address": "P.O. BOX 895", "city": "MELITA", "province": "MB", "country": "CA", "postalCode": "R0M1L0", "twitter": "None", "instagram": "None", "facebook": "None", "youtube": "None", "website": "None", "summary": "None", "logo": "None", "latitude": 49.26665000000003, "longitude": -100.96985999999998}, "860348184RR0001": {"name": "THE MELTZ CHARITABLE TRUST", "designationCode": "B", "categoryCode": "03", "address": "32 BROOKVIEW DRIVE", "city": "TORONTO", "province": "ON", "country": "CA", "postalCode": "M6A2K2", "twitter": "None", "instagram": "None", "facebook": "None", "youtube": "None", "website": "None", "summary": "None", "logo": "None", "latitude": 43.719924269490505, "longitude": -79.43668020220431}, "119244895RR0001": {"name": "THE MEMORIAL FUND FOR NOVA SCOTIA PHYSICIANS", "designationCode": "C", "categoryCode": "21", "address": "25 SPECTACLE LAKE DR", "city": "DARTMOUTH", "province": "NS", "country": "CA", "postalCode": "B3B1X7", "twitter": "None", "instagram": "None", "facebook": "None", "youtube": "None", "website": "None", "summary": "None", "logo": "None", "latitude": 44.701689336603785, "longitude": -63.58279079842992}, "119244903RR0001": {"name": "THE MEMORIAL HOSPITAL FOUNDATION-BOWMANVILLE", "designationCode": "C", "categoryCode": "13", "address": "47 LIBERTY ST S", "city": "BOWMANVILLE", "province": "ON", "country": "CA", "postalCode": "L1C2N4", "twitter": "None", "instagram": "None", "facebook": "None", "youtube": "None", "website": "None", "summary": "None", "logo": "None", "latitude": 43.90896936248479, "longitude": -78.67949945152662}, "888593399RR0001": {"name": "THE MEMORIAL SCHOLARSHIP TRUST FUND", "designationCode": "C", "categoryCode": "21", "address": "1090 BAYVIEW COURT", "city": "BATHURST", "province": "NB", "country": "CA", "postalCode": "E2A5W4", "twitter": "None", "instagram": "None", "facebook": "None", "youtube": "None", "website": "None", "summary": "None", "logo": "None", "latitude": 47.624803126262485, "longitude": -65.6130426483639}, "868832643RR0001": {"name": "THE MENDED HEARTS, INC", "designationCode": "C", "categoryCode": "11", "address": "HEALTH SCIENCES NORTH         41 RAMSEY LAKE ROAD", "city": "SUDBURY", "province": "ON", "country": "CA", "postalCode": "P3E5J1", "twitter": "None", "instagram": "None", "facebook": "None", "youtube": "None", "website": "None", "summary": "None", "logo": "None", "latitude": 46.46732000000003, "longitude": -80.99562999999995}, "119037943RR0001": {"name": "THE MENDELSON FAMILY FOUNDATION", "designationCode": "B", "categoryCode": "03", "address": "22 ST. CLAIR AVE E. SUITE 1010", "city": "TORONTO", "province": "ON", "country": "CA", "postalCode": "M4T2S3", "twitter": "None", "instagram": "None", "facebook": "None", "youtube": "None", "website": "None", "summary": "None", "logo": "None", "latitude": 43.688336132408, "longitude": -79.39301839967676}, "892322165RR0001": {"name": "THE MENNO SIMONS COLLEGE FOUNDATION CORPORATION", "designationCode": "A", "categoryCode": "23", "address": "500 SHAFTESBURY BOULEVARD", "city": "WINNIPEG", "province": "MB", "country": "CA", "postalCode": "R3P2N2", "twitter": "None", "instagram": "None", "facebook": "None", "youtube": "None", "website": "None", "summary": "None", "logo": "None"}, "119244952RR0001": {"name": "THE MENNONITE BENEVOLENT SOCIETY", "designationCode": "A", "categoryCode": "03", "address": "1045 CONCORDIA AVENUE", "city": "WINNIPEG", "province": "MB", "country": "CA", "postalCode": "R2K3S7", "twitter": "None", "instagram": "None", "facebook": "None", "youtube": "None", "website": "None", "summary": "None", "logo": "None", "latitude": 49.913237016994216, "longitude": -97.06704277347255}, "108088410RR0001": {"name": "THE MENNONITE BRETHREN CHURCH", "designationCode": "C", "categoryCode": "34", "address": "BOX 340", "city": "MANITOU", "province": "MB", "country": "CA", "postalCode": "R0G1G0", "twitter": "None", "instagram": "None", "facebook": "None", "youtube": "None", "website": "None", "summary": "None", "logo": "None", "latitude": 49.23673000000008, "longitude": -98.53495999999996}, "848397840RR0001": {"name": "THE MENNONITE HISTORICAL SOCIETY OF ALBERTA", "designationCode": "C", "categoryCode": "50", "address": "2946-32 STREET N.E.", "city": "CALGARY", "province": "AB", "country": "CA", "postalCode": "T1Y6J7", "twitter": "None", "instagram": "None", "facebook": "None", "youtube": "None", "website": "None", "summary": "None", "logo": "None", "latitude": 51.079319999999996, "longitude": -113.98857825526625}, "119244960RR0001": {"name": "THE MENNONITE HISTORICAL SOCIETY OF BRITISH COLUMBIA", "designationCode": "C", "categoryCode": "22", "address": "1818 CLEARBROOK RD", "city": "ABBOTSFORD", "province": "BC", "country": "CA", "postalCode": "V2T5X4", "twitter": "None", "instagram": "None", "facebook": "None", "youtube": "None", "website": "None", "summary": "None", "logo": "None", "latitude": 49.03424403662634, "longitude": -122.3375282212979}, "119244978RR0001": {"name": "THE MENNONITE HOME ASSOCIATION OF YORK COUNTY", "designationCode": "C", "categoryCode": "01", "address": "123 WELDON ROAD", "city": "STOUFFVILLE", "province": "ON", "country": "CA", "postalCode": "L4A0G8", "twitter": "None", "instagram": "None", "facebook": "None", "youtube": "None", "website": "None", "summary": "None", "logo": "None", "latitude": 43.966080832918784, "longitude": -79.25953911299796}, "119244986RR0001": {"name": "THE MENNONITE LITERARY SOCIETY, INC", "designationCode": "C", "categoryCode": "21", "address": "606-100 ARTHUR ST", "city": "WINNIPEG", "province": "MB", "country": "CA", "postalCode": "R3B1H3", "twitter": "None", "instagram": "None", "facebook": "None", "youtube": "None", "website": "None", "summary": "None", "logo": "None", "latitude": 49.897593000000015, "longitude": -97.1406225}, "119038602RR0001": {"name": "THE MENTAL HEALTH COUNCIL FOR SCARBOROUGH", "designationCode": "C", "categoryCode": "11", "address": "JIM MORRISSEY                 2 GLEN MUIR DR", "city": "SCARBOROUGH", "province": "ON", "country": "CA", "postalCode": "M1M2C7", "twitter": "None", "instagram": "None", "facebook": "None", "youtube": "None", "website": "None", "summary": "None", "logo": "None", "latitude": 43.73609515072985, "longitude": -79.23079633847877}, "892668419RR0001": {"name": "THE MERCURY PLAYERS SOCIETY", "designationCode": "C", "categoryCode": "22", "address": "917 JUBILEE ST", "city": "DUNCAN", "province": "BC", "country": "CA", "postalCode": "V9L1Y2", "twitter": "None", "instagram": "None", "facebook": "None", "youtube": "None", "website": "None", "summary": "None", "logo": "None", "latitude": 48.784785539529246, "longitude": -123.71158277699232}, "122380223RR0001": {"name": "THE MERCY OF GOD EVANGELISTIC MINISTRY", "designationCode": "C", "categoryCode": "47", "address": "356 SIMONS AVE", "city": "PETERBOROUGH", "province": "ON", "country": "CA", "postalCode": "K9K1E7", "twitter": "None", "instagram": "None", "facebook": "None", "youtube": "None", "website": "None", "summary": "None", "logo": "None", "latitude": 44.32368995839328, "longitude": -78.33768136764934}, "119245033RR0001": {"name": "THE MERLIN SENIOR CITIZENS FRIENDSHIP CLUB", "designationCode": "C", "categoryCode": "56", "address": "13 ERIE ST S", "city": "MERLIN", "province": "ON", "country": "CA", "postalCode": "N0P1W0", "twitter": "None", "instagram": "None", "facebook": "None", "youtube": "None", "website": "None", "summary": "None", "logo": "None", "latitude": 42.24054428253225, "longitude": -82.23077234153719}, "894989623RR0001": {"name": "THE MESSAGE OF ISLAM FOUNDATION INC.", "designationCode": "C", "categoryCode": "60", "address": "10555 ST. LAURENT BLVD", "city": "MONTREAL", "province": "QC", "country": "CA", "postalCode": "H3L2P5", "twitter": "None", "instagram": "None", "facebook": "None", "youtube": "None", "website": "None", "summary": "None", "logo": "None", "latitude": 45.549709866524154, "longitude": -73.66878541283408}, "801186768RR0001": {"name": "THE MESSIANIC CHURCH OF GOD", "designationCode": "C", "categoryCode": "39", "address": "1947A QUEEN ST E", "city": "TORONTO", "province": "ON", "country": "CA", "postalCode": "M4L1H7", "twitter": "None", "instagram": "None", "facebook": "None", "youtube": "None", "website": "None", "summary": "None", "logo": "None", "latitude": 43.66938890129106, "longitude": -79.30260540077253}, "858892912RR0001": {"name": "THE MESSIANIC JEWISH BIBLE SOCIETY", "designationCode": "C", "categoryCode": "20", "address": "103 FORESTGATE DR", "city": "HAMILTON", "province": "ON", "country": "CA", "postalCode": "L9C6A4", "twitter": "None", "instagram": "None", "facebook": "None", "youtube": "None", "website": "None", "summary": "None", "logo": "None", "latitude": 43.22888996973291, "longitude": -79.9201968259853}, "859956484RR0001": {"name": "THE METHODIST CHURCH OF LOVE", "designationCode": "C", "categoryCode": "39", "address": "301 - 9584 MANCHESTER DR", "city": "BURNABY", "province": "BC", "country": "CA", "postalCode": "V3N4R1", "twitter": "None", "instagram": "None", "facebook": "None", "youtube": "None", "website": "None", "summary": "None", "logo": "None", "latitude": 49.246666995268136, "longitude": -122.89808815696225}, "889730164RR0001": {"name": "THE METIS EDUCATION FOUNDATION OF THE METIS NATION OF ALBERTA ASSOCIATION", "designationCode": "C", "categoryCode": "21", "address": "2300, 10123-99 STREET", "city": "EDMONTON", "province": "AB", "country": "CA", "postalCode": "T5J3H1", "twitter": "None", "instagram": "None", "facebook": "None", "youtube": "None", "website": "None", "summary": "None", "logo": "None", "latitude": 53.54197556203473, "longitude": -113.48865557807756}, "131792020RR0001": {"name": "THE METISKOW & DISTRICT AGRICULTURAL SOCIETY", "designationCode": "C", "categoryCode": "56", "address": "BOX 29", "city": "METISKOW", "province": "AB", "country": "CA", "postalCode": "T0B3A0", "twitter": "None", "instagram": "None", "facebook": "None", "youtube": "None", "website": "None", "summary": "None", "logo": "None", "latitude": 52.44065000000006, "longitude": -110.64137999999997}, "127128221RR0001": {"name": "THE METROPOLITAN CO-OPERATIVE THEATRE SOCIETY", "designationCode": "C", "categoryCode": "23", "address": "1370 S.W. MARINE DRIVE", "city": "VANCOUVER", "province": "BC", "country": "CA", "postalCode": "V6P5Z9", "twitter": "None", "instagram": "None", "facebook": "None", "youtube": "None", "website": "None", "summary": "None", "logo": "None", "latitude": 49.20385321008151, "longitude": -123.13737111423035}, "132948969RR0001": {"name": "THE MEYER AND IDELLE WEINSTOCK CHARITABLE FOUNDATION", "designationCode": "B", "categoryCode": "23", "address": "2778 DUFFERIN STREET", "city": "TORONTO", "province": "ON", "country": "CA", "postalCode": "M6B3R7", "twitter": "None", "instagram": "None", "facebook": "None", "youtube": "None", "website": "None", "summary": "None", "logo": "None", "latitude": 43.70431076741304, "longitude": -79.4525882981128}, "858869688RR0001": {"name": "THE MEYER FAMILY FOUNDATION", "designationCode": "B", "categoryCode": "03", "address": "13 ELDERBERRY COURT", "city": "TORONTO", "province": "ON", "country": "CA", "postalCode": "M3H5X8", "twitter": "None", "instagram": "None", "facebook": "None", "youtube": "None", "website": "None", "summary": "None", "logo": "None", "latitude": 43.74670292561604, "longitude": -79.43005262805148}, "107696700RR0001": {"name": "THE MIAMI AGRICULTURAL SOCIETY", "designationCode": "C", "categoryCode": "56", "address": "BOX 353", "city": "MIAMI", "province": "MB", "country": "CA", "postalCode": "R0G1H0", "twitter": "None", "instagram": "None", "facebook": "None", "youtube": "None", "website": "None", "summary": "None", "logo": "None", "latitude": 49.37108000000006, "longitude": -98.24341999999996}, "888558830RR0001": {"name": "THE MIAMI POST-SECONDARY EDUCATIONAL ORGANIZATION", "designationCode": "C", "categoryCode": "21", "address": "RR#2", "city": "MIAMI", "province": "MB", "country": "CA", "postalCode": "R0G1H0", "twitter": "None", "instagram": "None", "facebook": "None", "youtube": "None", "website": "None", "summary": "None", "logo": "None", "latitude": 49.37108000000006, "longitude": -98.24341999999996}, "888361888RR0001": {"name": "THE MIAMI SENIOR CITIZENS HOUSING ASSOCIATION", "designationCode": "C", "categoryCode": "59", "address": "PO BOX 314", "city": "MIAMI", "province": "MB", "country": "CA", "postalCode": "R0G1H0", "twitter": "None", "instagram": "None", "facebook": "None", "youtube": "None", "website": "None", "summary": "None", "logo": "None", "latitude": 49.37108000000006, "longitude": -98.24341999999996}}