{"803142637RR0001": {"name": "Centro Familiar De Adoracion Family Worship Centre", "designationCode": "C", "categoryCode": "39", "address": "44 - 2655 GANANOQUE DR", "city": "MISSISSAUGA", "province": "ON", "country": "CA", "postalCode": "L5N3A6", "twitter": "None", "instagram": "None", "facebook": "None", "youtube": "None", "website": "None", "summary": "None", "logo": "None", "latitude": 43.593970254227074, "longitude": -79.76238712109699}, "843519638RR0001": {"name": "Century Initiative / Initiative Centennaire", "designationCode": "C", "categoryCode": "21", "address": "17 PRINCE ARTHUR AVE", "city": "TORONTO", "province": "ON", "country": "CA", "postalCode": "M5R1B2", "twitter": "None", "instagram": "None", "facebook": "None", "youtube": "None", "website": "None", "summary": "None", "logo": "None", "latitude": 43.669596783773, "longitude": -79.39599526366212}, "815771688RR0001": {"name": "Cercle Des Amis de la Maison Musicale de Warwick (CAMMW)", "designationCode": "B", "categoryCode": "22", "address": "11, RUE BOULANGER", "city": "WARWICK", "province": "QC", "country": "CA", "postalCode": "J0A1M0", "twitter": "None", "instagram": "None", "facebook": "None", "youtube": "None", "website": "None", "summary": "None", "logo": "None", "latitude": 45.9486837854751, "longitude": -71.99184024565737}, "809283930RR0001": {"name": "Ceridian Cares", "designationCode": "B", "categoryCode": "03", "address": "125 GARRY STREET              5TH FLOOR", "city": "WINNIPEG", "province": "MB", "country": "CA", "postalCode": "R3C3P2", "twitter": "None", "instagram": "None", "facebook": "None", "youtube": "None", "website": "None", "summary": "None", "logo": "None", "latitude": 49.88937705773556, "longitude": -97.13814830901975}, "812788750RR0001": {"name": "Cerwydden Seniors Society", "designationCode": "C", "categoryCode": "56", "address": "3243 COWICHAN LAKE ROAD", "city": "DUNCAN", "province": "BC", "country": "CA", "postalCode": "V9L4B8", "twitter": "None", "instagram": "None", "facebook": "None", "youtube": "None", "website": "None", "summary": "None", "logo": "None", "latitude": 48.789544344480056, "longitude": -123.73321601041602}, "851870030RR0001": {"name": "Cetus Research & Conservation Society", "designationCode": "C", "categoryCode": "54", "address": "7-920 JOHNSON ST", "city": "VICTORIA", "province": "BC", "country": "CA", "postalCode": "V8V3N4", "twitter": "None", "instagram": "None", "facebook": "None", "youtube": "None", "website": "None", "summary": "None", "logo": "None", "latitude": 48.42649235111649, "longitude": -123.35791749402739}, "800615684RR0001": {"name": "Chaara Fund Foundation", "designationCode": "A", "categoryCode": "03", "address": "1 MONASTERY LANE,", "city": "SCARBOROUGH", "province": "ON", "country": "CA", "postalCode": "M1L4V7", "twitter": "None", "instagram": "None", "facebook": "None", "youtube": "None", "website": "None", "summary": "None", "logo": "None", "latitude": 43.71578652123605, "longitude": -79.28581780985647}, "822250965RR0001": {"name": "Chabad \u00c9tudiants Juifs francophones", "designationCode": "C", "categoryCode": "49", "address": "6421 AV MCLYNN", "city": "MONTREAL", "province": "QC", "country": "CA", "postalCode": "H3X2R5", "twitter": "None", "instagram": "None", "facebook": "None", "youtube": "None", "website": "None", "summary": "None", "logo": "None", "latitude": 45.48872019929013, "longitude": -73.64609193337765}, "772550497RR0001": {"name": "Chabad at Western", "designationCode": "C", "categoryCode": "42", "address": "260 STEELE ST.", "city": "LONDON", "province": "ON", "country": "CA", "postalCode": "N6A2L1", "twitter": "None", "instagram": "None", "facebook": "None", "youtube": "None", "website": "None", "summary": "None", "logo": "None", "latitude": 43.00919214045806, "longitude": -81.25784234808673}, "846194157RR0001": {"name": "Chabad of Danforth-Beaches", "designationCode": "C", "categoryCode": "42", "address": "2273 QUEEN STREET EAST", "city": "TORONTO", "province": "ON", "country": "CA", "postalCode": "M4E1G5", "twitter": "None", "instagram": "None", "facebook": "None", "youtube": "None", "website": "None", "summary": "None", "logo": "None", "latitude": 43.671495867592014, "longitude": -79.29304350929083}, "808271373RR0001": {"name": "Chabad of Guelph", "designationCode": "C", "categoryCode": "42", "address": "81 COLLEGE AVENUE WEST", "city": "GUELPH", "province": "ON", "country": "CA", "postalCode": "N1G1S2", "twitter": "None", "instagram": "None", "facebook": "None", "youtube": "None", "website": "None", "summary": "None", "logo": "None", "latitude": 43.528052155461694, "longitude": -80.23821913549506}, "825590714RR0001": {"name": "Chabad of Maple Inc.", "designationCode": "C", "categoryCode": "42", "address": "70 SIR SANFORD FLEMING WAY,", "city": "MAPLE", "province": "ON", "country": "CA", "postalCode": "L6A0T3", "twitter": "None", "instagram": "None", "facebook": "None", "youtube": "None", "website": "None", "summary": "None", "logo": "None", "latitude": 43.85238862559866, "longitude": -79.4876910081943}, "791379126RR0001": {"name": "Chabad of Nanaimo Society", "designationCode": "C", "categoryCode": "42", "address": "4400 CHATTERTON WAY", "city": "VICTORIA", "province": "BC", "country": "CA", "postalCode": "V8X5J2", "twitter": "None", "instagram": "None", "facebook": "None", "youtube": "None", "website": "None", "summary": "None", "logo": "None", "latitude": 48.48674397890817, "longitude": -123.38178234341218}, "844238725RR0001": {"name": "Chabad of Richmond", "designationCode": "C", "categoryCode": "42", "address": "200 - 4775 BLUNDELL RD", "city": "RICHMOND", "province": "BC", "country": "CA", "postalCode": "V7C1H2", "twitter": "None", "instagram": "None", "facebook": "None", "youtube": "None", "website": "None", "summary": "None", "logo": "None", "latitude": 49.15570442634803, "longitude": -123.17059231615744}, "835749417RR0001": {"name": "Chabad of Vancouver Island", "designationCode": "C", "categoryCode": "42", "address": "201-4400 CHATTERTON WAY", "city": "VICTORIA", "province": "BC", "country": "CA", "postalCode": "V8X5J2", "twitter": "None", "instagram": "None", "facebook": "None", "youtube": "None", "website": "None", "summary": "None", "logo": "None", "latitude": 48.48674397890817, "longitude": -123.38178234341218}, "813983012RR0001": {"name": "Chabad on the Avenue", "designationCode": "C", "categoryCode": "49", "address": "157 FALKIRK ST.", "city": "TORONTO", "province": "ON", "country": "CA", "postalCode": "M5M4K4", "twitter": "None", "instagram": "None", "facebook": "None", "youtube": "None", "website": "None", "summary": "None", "logo": "None", "latitude": 43.73081218373823, "longitude": -79.42816292627985}, "819150392RR0001": {"name": "Chabad on Campus of Toronto", "designationCode": "C", "categoryCode": "42", "address": "1344 BATHURST ST", "city": "TORONTO", "province": "ON", "country": "CA", "postalCode": "M5R3H7", "twitter": "None", "instagram": "None", "facebook": "None", "youtube": "None", "website": "None", "summary": "None", "logo": "None", "latitude": 43.679376157366285, "longitude": -79.4168436519706}, "775437528RR0001": {"name": "Chabad on Campus Canada", "designationCode": "A", "categoryCode": "43", "address": "1114 RICHMOND STREET", "city": "LONDON", "province": "ON", "country": "CA", "postalCode": "N6A3K5", "twitter": "None", "instagram": "None", "facebook": "None", "youtube": "None", "website": "None", "summary": "None", "logo": "None", "latitude": 43.007410664464075, "longitude": -81.25953862888821}, "831324447RR0001": {"name": "Chabad Hope Center / Centre de l'espoir Chabad", "designationCode": "C", "categoryCode": "09", "address": "5110 DE COURTRAI STREET       SUITE 201", "city": "MONTREAL", "province": "QC", "country": "CA", "postalCode": "H3W1A7", "twitter": "None", "instagram": "None", "facebook": "None", "youtube": "None", "website": "None", "summary": "None", "logo": "None", "latitude": 45.49508332693759, "longitude": -73.64768835564679}, "818554792RR0001": {"name": "Chabad Jewish Centre of Barrie", "designationCode": "C", "categoryCode": "42", "address": "399 YORK HILL BLVD", "city": "THORNHILL", "province": "ON", "country": "CA", "postalCode": "L4J3B5", "twitter": "None", "instagram": "None", "facebook": "None", "youtube": "None", "website": "None", "summary": "None", "logo": "None", "latitude": 43.80075233775763, "longitude": -79.43731111558667}, "836750315RR0001": {"name": "Chabad Jewish Centre of Durham Region", "designationCode": "C", "categoryCode": "42", "address": "1121 DUNDAS STREET EAST", "city": "WHITBY", "province": "ON", "country": "CA", "postalCode": "L1N2K4", "twitter": "None", "instagram": "None", "facebook": "None", "youtube": "None", "website": "None", "summary": "None", "logo": "None", "latitude": 43.88395990423575, "longitude": -78.92397431181837}, "808734651RR0001": {"name": "Chabad Lubavitch of the Waterloo Region", "designationCode": "C", "categoryCode": "42", "address": "251 ALBERT ST", "city": "WATERLOO", "province": "ON", "country": "CA", "postalCode": "N2L3T7", "twitter": "None", "instagram": "None", "facebook": "None", "youtube": "None", "website": "None", "summary": "None", "logo": "None", "latitude": 43.474995273097186, "longitude": -80.532686947429}, "842413189RR0001": {"name": "Chabad Lubavitch of Downtown Toronto", "designationCode": "C", "categoryCode": "42", "address": "15A CLARENCE SQUARE", "city": "TORONTO", "province": "ON", "country": "CA", "postalCode": "M5V1H1", "twitter": "None", "instagram": "None", "facebook": "None", "youtube": "None", "website": "None", "summary": "None", "logo": "None", "latitude": 43.64446613188732, "longitude": -79.39390804157865}, "824192314RR0001": {"name": "Chabad Lubavitch of Laureleaf", "designationCode": "C", "categoryCode": "39", "address": "19 NEWBURY LANE", "city": "TORONTO", "province": "ON", "country": "CA", "postalCode": "M3H1H6", "twitter": "None", "instagram": "None", "facebook": "None", "youtube": "None", "website": "None", "summary": "None", "logo": "None", "latitude": 43.746264860378666, "longitude": -79.43546812155927}, "844219030RR0001": {"name": "Chabad Lubavitch of Saskatoon, Inc.", "designationCode": "C", "categoryCode": "42", "address": "8B-423 3110 8TH ST E", "city": "SASKATOON", "province": "SK", "country": "CA", "postalCode": "S7H0W2", "twitter": "None", "instagram": "None", "facebook": "None", "youtube": "None", "website": "None", "summary": "None", "logo": "None", "latitude": 52.1146810318711, "longitude": -106.60901193813994}, "833263429RR0001": {"name": "Chabad Lubavitch of York Mills", "designationCode": "C", "categoryCode": "42", "address": "2437 BAYVIEW AVE", "city": "NORTH YORK", "province": "ON", "country": "CA", "postalCode": "M2L1A5", "twitter": "None", "instagram": "None", "facebook": "None", "youtube": "None", "website": "None", "summary": "None", "logo": "None", "latitude": 43.73912624508047, "longitude": -79.38239526331634}, "839573532RR0001": {"name": "Chabad Lubavitch Windsor Corp.", "designationCode": "C", "categoryCode": "42", "address": "1420 VICTORIA AVENUE,", "city": "WINDSOR", "province": "ON", "country": "CA", "postalCode": "N8X1P3", "twitter": "None", "instagram": "None", "facebook": "None", "youtube": "None", "website": "None", "summary": "None", "logo": "None", "latitude": 42.30114971524606, "longitude": -83.0307951064114}, "784908725RR0001": {"name": "Chabad North Shore", "designationCode": "C", "categoryCode": "42", "address": "1811 ST. DENIS RD", "city": "WEST VANCOUVER", "province": "BC", "country": "CA", "postalCode": "V7V3W4", "twitter": "None", "instagram": "None", "facebook": "None", "youtube": "None", "website": "None", "summary": "None", "logo": "None", "latitude": 49.340685964700455, "longitude": -123.16312971410521}, "728728692RR0001": {"name": "Chabad Of Newfoundlad Inc.", "designationCode": "C", "categoryCode": "42", "address": "400 ST. MARY AVENUE           9TH FLOOR", "city": "WINNIPEG", "province": "MB", "country": "CA", "postalCode": "R3C4K5", "twitter": "None", "instagram": "None", "facebook": "None", "youtube": "None", "website": "None", "summary": "None", "logo": "None", "latitude": 49.88950684205681, "longitude": -97.14666363307181}, "803797133RR0001": {"name": "Chabad Okanagan Society", "designationCode": "C", "categoryCode": "42", "address": "2597 RICHTER STREET", "city": "KELOWNA", "province": "BC", "country": "CA", "postalCode": "V1Y5B6", "twitter": "None", "instagram": "None", "facebook": "None", "youtube": "None", "website": "None", "summary": "None", "logo": "None", "latitude": 49.867385323608055, "longitude": -119.48816372048992}, "836753244RR0001": {"name": "Chabad Russian Centre of Thornhill Woods", "designationCode": "C", "categoryCode": "42", "address": "8808 BATHURST ST", "city": "THORNHILL", "province": "ON", "country": "CA", "postalCode": "L4J8A7", "twitter": "None", "instagram": "None", "facebook": "None", "youtube": "None", "website": "None", "summary": "None", "logo": "None", "latitude": 43.836687440735254, "longitude": -79.45621972696014}, "849590690RR0001": {"name": "Chabad Student Network of Ottawa", "designationCode": "C", "categoryCode": "49", "address": "59 SWEETLAND AVE", "city": "OTTAWA", "province": "ON", "country": "CA", "postalCode": "K1N7T7", "twitter": "None", "instagram": "None", "facebook": "None", "youtube": "None", "website": "None", "summary": "None", "logo": "None", "latitude": 45.425075698597645, "longitude": -75.67896842835732}, "847548039RR0001": {"name": "Chabad-Lubavitch of Regina Inc", "designationCode": "C", "categoryCode": "42", "address": "31 DAFFODIL CRES", "city": "REGINA", "province": "SK", "country": "CA", "postalCode": "S4S5A2", "twitter": "None", "instagram": "None", "facebook": "None", "youtube": "None", "website": "None", "summary": "None", "logo": "None", "latitude": 50.404516806538254, "longitude": -104.60828373270253}, "815627948RR0001": {"name": "Chaban Ukrainian Dance Group", "designationCode": "C", "categoryCode": "22", "address": "211 ROBERTSON STREET", "city": "THUNDER BAY", "province": "ON", "country": "CA", "postalCode": "P7C2N7", "twitter": "None", "instagram": "None", "facebook": "None", "youtube": "None", "website": "None", "summary": "None", "logo": "None", "latitude": 48.3933896183853, "longitude": -89.23847210975828}, "835133596RR0001": {"name": "Chadi Family Foundation", "designationCode": "B", "categoryCode": "05", "address": "2151 SCOTIA PLACE             10060 JASPER AVENUE", "city": "EDMONTON", "province": "AB", "country": "CA", "postalCode": "T5J3R8", "twitter": "None", "instagram": "None", "facebook": "None", "youtube": "None", "website": "None", "summary": "None", "logo": "None", "latitude": 53.541084453834316, "longitude": -113.49278554108712}, "750752727RR0001": {"name": "Chaine de vie", "designationCode": "C", "categoryCode": "11", "address": "3107 AV DES HOTELS", "city": "QUEBEC", "province": "QC", "country": "CA", "postalCode": "G1W4W5", "twitter": "None", "instagram": "None", "facebook": "None", "youtube": "None", "website": "None", "summary": "None", "logo": "None", "latitude": 46.76315968079539, "longitude": -71.29417185322261}, "842561367RR0001": {"name": "Chaldean Catholic Eparchy of Mar Addai in Canada", "designationCode": "C", "categoryCode": "38", "address": "2 HIGH MEADOW PL", "city": "NORTH YORK", "province": "ON", "country": "CA", "postalCode": "M9L2Z5", "twitter": "None", "instagram": "None", "facebook": "None", "youtube": "None", "website": "None", "summary": "None", "logo": "None", "latitude": 43.75555609576426, "longitude": -79.53836771371685}, "835218264RR0001": {"name": "Chaleur Regional Hospital Auxiliary Inc.", "designationCode": "C", "categoryCode": "19", "address": "1750 SUNSET DRIVE", "city": "BATHURST", "province": "NB", "country": "CA", "postalCode": "E2A4L7", "twitter": "None", "instagram": "None", "facebook": "None", "youtube": "None", "website": "None", "summary": "None", "logo": "None", "latitude": 47.64597338544208, "longitude": -65.69401318915024}, "137591012RR0001": {"name": "Chalice (Canada)", "designationCode": "C", "categoryCode": "47", "address": "101 - 26 UNION ST", "city": "BEDFORD", "province": "NS", "country": "CA", "postalCode": "B4A2B5", "twitter": "None", "instagram": "None", "facebook": "None", "youtube": "None", "website": "None", "summary": "None", "logo": "None", "latitude": 44.732337945611334, "longitude": -63.660589677246016}, "812246825RR0001": {"name": "Challenge Aids and Malaria (Prevention and Treatment) In Africa (Chama) Aka Goodness Society", "designationCode": "C", "categoryCode": "09", "address": "6649 CHISHOLM AVE", "city": "HALIFAX", "province": "NS", "country": "CA", "postalCode": "B3L2R6", "twitter": "None", "instagram": "None", "facebook": "None", "youtube": "None", "website": "None", "summary": "None", "logo": "None", "latitude": 44.658035946448045, "longitude": -63.619799824600314}, "844211417RR0001": {"name": "Chalmers Church Cemetery Co.", "designationCode": "C", "categoryCode": "59", "address": "8 TULIP ST", "city": "GLACE BAY", "province": "NS", "country": "CA", "postalCode": "B1A4T1", "twitter": "None", "instagram": "None", "facebook": "None", "youtube": "None", "website": "None", "summary": "None", "logo": "None", "latitude": 46.20811366916728, "longitude": -59.996286004587624}, "848610630RR0001": {"name": "Chalmers Neighbourhood Renewal Corporation", "designationCode": "C", "categoryCode": "59", "address": "180 POPLAR AVENUE", "city": "WINNIPEG", "province": "MB", "country": "CA", "postalCode": "R2L2C3", "twitter": "None", "instagram": "None", "facebook": "None", "youtube": "None", "website": "None", "summary": "None", "logo": "None", "latitude": 49.91275214458433, "longitude": -97.11252000917526}, "118849280RR0001": {"name": "Chalmers United Church Keady, ON", "designationCode": "C", "categoryCode": "44", "address": "117006 GREY ROAD #3           RURAL ROUTE 4", "city": "TARA", "province": "ON", "country": "CA", "postalCode": "N0H2N0", "twitter": "None", "instagram": "None", "facebook": "None", "youtube": "None", "website": "None", "summary": "None", "logo": "None"}, "838619179RR0001": {"name": "Chaloner (Canada) Children's Charity", "designationCode": "C", "categoryCode": "05", "address": "525-8TH AVENUE S.W.           SUITE 2400", "city": "CALGARY", "province": "AB", "country": "CA", "postalCode": "T2P1G1", "twitter": "None", "instagram": "None", "facebook": "None", "youtube": "None", "website": "None", "summary": "None", "logo": "None", "latitude": 51.04579148124545, "longitude": -114.07258130659557}, "846808624RR0001": {"name": "Chamber Music in the Schools Society CMITS", "designationCode": "C", "categoryCode": "22", "address": "3222 KING EDWARD AVENUE", "city": "VANCOUVER", "province": "BC", "country": "CA", "postalCode": "V6L1V7", "twitter": "None", "instagram": "None", "facebook": "None", "youtube": "None", "website": "None", "summary": "None", "logo": "None", "latitude": 49.24991949567218, "longitude": -123.17636152553523}, "848120309RR0001": {"name": "Chamber Musicians of Kamloops Society", "designationCode": "C", "categoryCode": "22", "address": "PO BOX 1336 STN MAIN", "city": "KAMLOOPS", "province": "BC", "country": "CA", "postalCode": "V2C6L7", "twitter": "None", "instagram": "None", "facebook": "None", "youtube": "None", "website": "None", "summary": "None", "logo": "None", "latitude": 50.675883000000056, "longitude": -120.33898099999993}, "817192669RR0001": {"name": "Chamberlains Park Action Committee Inc.", "designationCode": "C", "categoryCode": "56", "address": "45 CAMBRIDGE CRESCENT", "city": "CONCEPTION BAY SOUTH", "province": "NL", "country": "CA", "postalCode": "A1W4E1", "twitter": "None", "instagram": "None", "facebook": "None", "youtube": "None", "website": "None", "summary": "None", "logo": "None", "latitude": 47.51747772434138, "longitude": -52.93517413521889}, "828322354RR0001": {"name": "Chaminade College School Foundation Inc.", "designationCode": "A", "categoryCode": "23", "address": "490 QUEEN'S DRIVE,", "city": "TORONTO", "province": "ON", "country": "CA", "postalCode": "M6L1M8", "twitter": "None", "instagram": "None", "facebook": "None", "youtube": "None", "website": "None", "summary": "None", "logo": "None", "latitude": 43.709641100236304, "longitude": -79.49581965211482}, "827265406RR0001": {"name": "Champ Foundation", "designationCode": "B", "categoryCode": "03", "address": "1500 GEORGIA ST W             SUITE 1250, BOX 62", "city": "VANCOUVER", "province": "BC", "country": "CA", "postalCode": "V6G2Z6", "twitter": "None", "instagram": "None", "facebook": "None", "youtube": "None", "website": "None", "summary": "None", "logo": "None", "latitude": 49.2900638104334, "longitude": -123.12989899362336}, "853312080RR0001": {"name": "Champion Life Centre (Calgary) Church", "designationCode": "C", "categoryCode": "39", "address": "3763 52 ST SE", "city": "CALGARY", "province": "AB", "country": "CA", "postalCode": "T2B3R3", "twitter": "None", "instagram": "None", "facebook": "None", "youtube": "None", "website": "None", "summary": "None", "logo": "None", "latitude": 51.021000000000015, "longitude": -113.95854567750581}, "816308126RR0001": {"name": "Champion Life Centre (London)", "designationCode": "C", "categoryCode": "39", "address": "PO BOX 32034                  RPO NORTHLAND", "city": "LONDON", "province": "ON", "country": "CA", "postalCode": "N5V5K4", "twitter": "None", "instagram": "None", "facebook": "None", "youtube": "None", "website": "None", "summary": "None", "logo": "None", "latitude": 42.98689500000006, "longitude": -81.24624349999993}, "896770898RR0001": {"name": "Champion Life International Outreach", "designationCode": "C", "categoryCode": "39", "address": "PO BOX 51060                  RPO CITY CENTRE", "city": "BRAMPTON", "province": "ON", "country": "CA", "postalCode": "L6T5M2", "twitter": "None", "instagram": "None", "facebook": "None", "youtube": "None", "website": "None", "summary": "None", "logo": "None", "latitude": 43.68815049793295, "longitude": -79.75036075680674}, "796704328RR0001": {"name": "Champions for Life Foundation / La Fondation Champions pour la vie", "designationCode": "C", "categoryCode": "11", "address": "26 RUE NORMANDY", "city": "BAIE-D'URFE", "province": "QC", "country": "CA", "postalCode": "H9X3E6", "twitter": "None", "instagram": "None", "facebook": "None", "youtube": "None", "website": "None", "summary": "None", "logo": "None", "latitude": 45.415950779069796, "longitude": -73.90719062049142}, "782271498RR0001": {"name": "Champlain East Mental Health Foundation", "designationCode": "A", "categoryCode": "13", "address": "329 PITT STREET,", "city": "CORNWALL", "province": "ON", "country": "CA", "postalCode": "K6J3R1", "twitter": "None", "instagram": "None", "facebook": "None", "youtube": "None", "website": "None", "summary": "None", "logo": "None", "latitude": 45.020416840412025, "longitude": -74.7298502561603}, "846254423RR0001": {"name": "Champney's West Heritage Group Inc.", "designationCode": "C", "categoryCode": "50", "address": "BOX 12 SITE 9 RR 1", "city": "PORT REXTON", "province": "NL", "country": "CA", "postalCode": "A0C2H0", "twitter": "None", "instagram": "None", "facebook": "None", "youtube": "None", "website": "None", "summary": "None", "logo": "None", "latitude": 48.396570000000054, "longitude": -53.325583999999935}, "856632492RR0001": {"name": "Champs Mentoring Champs", "designationCode": "C", "categoryCode": "09", "address": "2103-250 BRENYON WAY", "city": "SCARBOROUGH", "province": "ON", "country": "CA", "postalCode": "M1B3G3", "twitter": "None", "instagram": "None", "facebook": "None", "youtube": "None", "website": "None", "summary": "None", "logo": "None", "latitude": 43.807117725777644, "longitude": -79.21512327811749}, "847403706RR0001": {"name": "Chan Buddhist Society of Canada", "designationCode": "C", "categoryCode": "35", "address": "2106 RON HARNDEN ROAD", "city": "COBOURG", "province": "ON", "country": "CA", "postalCode": "K9A4J8", "twitter": "None", "instagram": "None", "facebook": "None", "youtube": "None", "website": "None", "summary": "None", "logo": "None"}, "845634955RR0001": {"name": "Chandramouleeshwara Shivaalayam", "designationCode": "C", "categoryCode": "48", "address": "3011 MARKHAM ROAD             UNIT 62 & 63", "city": "SCARBOROUGH", "province": "ON", "country": "CA", "postalCode": "M1X1L7", "twitter": "None", "instagram": "None", "facebook": "None", "youtube": "None", "website": "None", "summary": "None", "logo": "None", "latitude": 43.82842410770949, "longitude": -79.24961080047966}, "814919163RR0001": {"name": "Changchub Buddhist Church", "designationCode": "C", "categoryCode": "35", "address": "5 LAURA CRT", "city": "FALL RIVER", "province": "NS", "country": "CA", "postalCode": "B2T1H7", "twitter": "None", "instagram": "None", "facebook": "None", "youtube": "None", "website": "None", "summary": "None", "logo": "None", "latitude": 44.82002889866716, "longitude": -63.60637914397875}, "816009252RR0001": {"name": "Change Her World", "designationCode": "C", "categoryCode": "09", "address": "250 GLENDON ROAD", "city": "STRATFORD", "province": "ON", "country": "CA", "postalCode": "N5A5B7", "twitter": "None", "instagram": "None", "facebook": "None", "youtube": "None", "website": "None", "summary": "None", "logo": "None", "latitude": 43.38147308632921, "longitude": -80.965675202637}, "842231904RR0001": {"name": "Changing Futures Foundation", "designationCode": "B", "categoryCode": "09", "address": "4075 - 106 STREET", "city": "EDMONTON", "province": "AB", "country": "CA", "postalCode": "T6J7H3", "twitter": "None", "instagram": "None", "facebook": "None", "youtube": "None", "website": "None", "summary": "None", "logo": "None", "latitude": 53.4778290313636, "longitude": -113.50405783619975}, "812716835RR0001": {"name": "Changing Generations Youth Mentorship Program Inc.", "designationCode": "C", "categoryCode": "09", "address": "249 CRANBROOK CRES", "city": "KLEINBURG", "province": "ON", "country": "CA", "postalCode": "L4H4K9", "twitter": "None", "instagram": "None", "facebook": "None", "youtube": "None", "website": "None", "summary": "None", "logo": "None", "latitude": 43.836194704378656, "longitude": -79.65760890902877}, "808204895RR0001": {"name": "Changing Kids Inc.", "designationCode": "C", "categoryCode": "29", "address": "2157 HOWARD DR                PO BOX 1228", "city": "LAKEFIELD", "province": "ON", "country": "CA", "postalCode": "K0L2H0", "twitter": "None", "instagram": "None", "facebook": "None", "youtube": "None", "website": "None", "summary": "None", "logo": "None", "latitude": 44.5376585135031, "longitude": -78.09298167219796}, "830821237RR0001": {"name": "Changing Lives - Thailand", "designationCode": "C", "categoryCode": "01", "address": "535 EL CAMINO RD", "city": "KELOWNA", "province": "BC", "country": "CA", "postalCode": "V1X2S1", "twitter": "None", "instagram": "None", "facebook": "None", "youtube": "None", "website": "None", "summary": "None", "logo": "None", "latitude": 49.89493766472387, "longitude": -119.36872735328086}, "791387699RR0001": {"name": "Changing Lives Together Foundation", "designationCode": "A", "categoryCode": "03", "address": "1453 PRINCE RD,", "city": "WINDSOR", "province": "ON", "country": "CA", "postalCode": "N9C3Z4", "twitter": "None", "instagram": "None", "facebook": "None", "youtube": "None", "website": "None", "summary": "None", "logo": "None", "latitude": 42.28670496958962, "longitude": -83.06319772225693}, "804849081RR0001": {"name": "Changing People's Lives, Inc.", "designationCode": "C", "categoryCode": "47", "address": "PO BOX 10081                  RPO YONGE AND FINCH", "city": "NORTH YORK", "province": "ON", "country": "CA", "postalCode": "M2N0B6", "twitter": "None", "instagram": "None", "facebook": "None", "youtube": "None", "website": "None", "summary": "None", "logo": "None", "latitude": 43.77978000000002, "longitude": -79.415559}, "865759302RR0001": {"name": "Chapelhill International Ministries", "designationCode": "C", "categoryCode": "47", "address": "3138 PRESERVE DR", "city": "OAKVILLE", "province": "ON", "country": "CA", "postalCode": "L6M0V9", "twitter": "None", "instagram": "None", "facebook": "None", "youtube": "None", "website": "None", "summary": "None", "logo": "None", "latitude": 43.477275772404695, "longitude": -79.73838837567077}, "808497853RR0001": {"name": "Chapelle de la R\u00e9surrection", "designationCode": "C", "categoryCode": "39", "address": "355, RUE NOTRE-DAME", "city": "GATINEAU", "province": "QC", "country": "CA", "postalCode": "J8P1L4", "twitter": "None", "instagram": "None", "facebook": "None", "youtube": "None", "website": "None", "summary": "None", "logo": "None", "latitude": 45.481384486005965, "longitude": -75.64188235928214}, "107517070RR0001": {"name": "Chapelle Bonne Nouvelle/ Good News Chapel/ Cappella Buona Novella", "designationCode": "C", "categoryCode": "36", "address": "5845 COUTURE BLVD", "city": "ST-LEONARD", "province": "QC", "country": "CA", "postalCode": "H1P1A8", "twitter": "None", "instagram": "None", "facebook": "None", "youtube": "None", "website": "None", "summary": "None", "logo": "None", "latitude": 45.597721754399956, "longitude": -73.60804173780883}, "805716552RR0001": {"name": "Chapiteau du R\u00e9veil", "designationCode": "C", "categoryCode": "47", "address": "27 BERNARD DUMONT O.", "city": "ST-RAPHA\u00cbL-BELLE-CHASSE", "province": "QC", "country": "CA", "postalCode": "G0R4C0", "twitter": "None", "instagram": "None", "facebook": "None", "youtube": "None", "website": "None", "summary": "None", "logo": "None", "latitude": 46.82624495172818, "longitude": -70.8215363205896}, "806161527RR0001": {"name": "Character Curtain Calls", "designationCode": "C", "categoryCode": "22", "address": "22 LEXINGTON CRT", "city": "ST THOMAS", "province": "ON", "country": "CA", "postalCode": "N5R6H7", "twitter": "None", "instagram": "None", "facebook": "None", "youtube": "None", "website": "None", "summary": "None", "logo": "None", "latitude": 42.77107303376432, "longitude": -81.1527308770215}, "738437128RR0001": {"name": "Charis Community Worship Centre", "designationCode": "C", "categoryCode": "39", "address": "160 DEAN PARK RD", "city": "SCARBOROUGH", "province": "ON", "country": "CA", "postalCode": "M1B3E6", "twitter": "None", "instagram": "None", "facebook": "None", "youtube": "None", "website": "None", "summary": "None", "logo": "None", "latitude": 43.801150758237775, "longitude": -79.17676812447347}, "828678292RR0001": {"name": "Charis Good News Foundation", "designationCode": "B", "categoryCode": "03", "address": "225 - 9600 CAMERON STREET", "city": "BURNABY", "province": "BC", "country": "CA", "postalCode": "V3J7N3", "twitter": "None", "instagram": "None", "facebook": "None", "youtube": "None", "website": "None", "summary": "None", "logo": "None", "latitude": 49.25335621227395, "longitude": -122.89844180461633}, "830463725RR0001": {"name": "Charismatic Episcopal Church of Asia", "designationCode": "B", "categoryCode": "39", "address": "6357 NEUCHATEL RD", "city": "MISSISSAUGA", "province": "ON", "country": "CA", "postalCode": "L5N2J7", "twitter": "None", "instagram": "None", "facebook": "None", "youtube": "None", "website": "None", "summary": "None", "logo": "None", "latitude": 43.57658621426512, "longitude": -79.75145511653895}, "803378850RR0001": {"name": "Charismatic Renewal Ministries Inc.", "designationCode": "C", "categoryCode": "39", "address": "11 BUCKSAW ST", "city": "BRAMPTON", "province": "ON", "country": "CA", "postalCode": "L7A4R3", "twitter": "None", "instagram": "None", "facebook": "None", "youtube": "None", "website": "None", "summary": "None", "logo": "None", "latitude": 43.704095649396706, "longitude": -79.84048942563052}, "841839590RR0001": {"name": "Charit\u00e9 LEO (Leadership-Espoir-Opportunit\u00e9)/ LEO (Leadership-Espoir-Opportunit\u00e9) Charity", "designationCode": "C", "categoryCode": "29", "address": "2 CARLTON ST WEST MEZZANINE", "city": "TORONTO", "province": "ON", "country": "CA", "postalCode": "M5B1J3", "twitter": "None", "instagram": "None", "facebook": "None", "youtube": "None", "website": "None", "summary": "None", "logo": "None", "latitude": 43.66142348211082, "longitude": -79.38282201832186}, "886946599RR0001": {"name": "Charitable Trust Fund of the Rotary Club of Yarmouth", "designationCode": "C", "categoryCode": "65", "address": "16 HIGHLAND DR", "city": "MILTON HIGHLANDS", "province": "NS", "country": "CA", "postalCode": "B5A5K1", "twitter": "None", "instagram": "None", "facebook": "None", "youtube": "None", "website": "None", "summary": "None", "logo": "None", "latitude": 43.85913864669048, "longitude": -66.11913526758592}, "801966334RR0001": {"name": "Charities Aid Foundation Canada", "designationCode": "C", "categoryCode": "01", "address": "100 KING STREET WEST          SUITE 5600", "city": "TORONTO", "province": "ON", "country": "CA", "postalCode": "M5X1C9", "twitter": "None", "instagram": "None", "facebook": "None", "youtube": "None", "website": "None", "summary": "None", "logo": "None", "latitude": 43.648384198482056, "longitude": -79.38149974023302}, "817519069RR0001": {"name": "Charity of Hope to Assist Needy Children Everywhere Foundation", "designationCode": "A", "categoryCode": "03", "address": "204 - 235 RUE CHARLEVOIX", "city": "MONTREAL", "province": "QC", "country": "CA", "postalCode": "H3J2W9", "twitter": "None", "instagram": "None", "facebook": "None", "youtube": "None", "website": "None", "summary": "None", "logo": "None", "latitude": 45.481905826822015, "longitude": -73.57470196958867}, "842412611RR0001": {"name": "Charity Baptist Church", "designationCode": "C", "categoryCode": "31", "address": "1822 TORBROOK ROAD, RR 1      WILMOT", "city": "MEADOWVALE", "province": "NS", "country": "CA", "postalCode": "B0P1W0", "twitter": "None", "instagram": "None", "facebook": "None", "youtube": "None", "website": "None", "summary": "None", "logo": "None", "latitude": 44.942188175031625, "longitude": -64.97748057847308}, "853195105RR0001": {"name": "Charity Baptist Church of Stewart", "designationCode": "C", "categoryCode": "31", "address": "613 6TH AVENUE                POST OFFICE BOX 921", "city": "STEWART", "province": "BC", "country": "CA", "postalCode": "V0T1W0", "twitter": "None", "instagram": "None", "facebook": "None", "youtube": "None", "website": "None", "summary": "None", "logo": "None", "latitude": 55.936919318728336, "longitude": -129.9929186246347}, "725517494RR0001": {"name": "Charity Foundation of Canada", "designationCode": "B", "categoryCode": "03", "address": "110-13711 INTERNATIONAL PL", "city": "RICHMOND", "province": "BC", "country": "CA", "postalCode": "V6V2Z8", "twitter": "None", "instagram": "None", "facebook": "None", "youtube": "None", "website": "None", "summary": "None", "logo": "None", "latitude": 49.173760526544825, "longitude": -123.070491}, "836448282RR0001": {"name": "Charity Research and Development Foundation Canada", "designationCode": "C", "categoryCode": "59", "address": "207 - 314 CORDOVA ST W", "city": "VANCOUVER", "province": "BC", "country": "CA", "postalCode": "V6B1E8", "twitter": "None", "instagram": "None", "facebook": "None", "youtube": "None", "website": "None", "summary": "None", "logo": "None", "latitude": 49.283559295387356, "longitude": -123.10933699663431}, "809636236RR0001": {"name": "Charity Science Foundation of Canada", "designationCode": "B", "categoryCode": "03", "address": "BSMT - 644 CLAREMONT ST", "city": "COQUITLAM", "province": "BC", "country": "CA", "postalCode": "V3J3T4", "twitter": "None", "instagram": "None", "facebook": "None", "youtube": "None", "website": "None", "summary": "None", "logo": "None", "latitude": 49.265613135177944, "longitude": -122.89074643308919}, "811698976RR0001": {"name": "CharityVillage Foundation", "designationCode": "B", "categoryCode": "03", "address": "8170 LAWSON ROAD", "city": "MILTON", "province": "ON", "country": "CA", "postalCode": "L9T5C4", "twitter": "None", "instagram": "None", "facebook": "None", "youtube": "None", "website": "None", "summary": "None", "logo": "None", "latitude": 43.54653533328556, "longitude": -79.87763114054498}, "812393114RR0001": {"name": "Charlene Reaveley Children's Charity Society", "designationCode": "C", "categoryCode": "01", "address": "#201 - 2571 SHAUGHNESSY STREET", "city": "PORT COQUITLAM", "province": "BC", "country": "CA", "postalCode": "V3C3G3", "twitter": "None", "instagram": "None", "facebook": "None", "youtube": "None", "website": "None", "summary": "None", "logo": "None", "latitude": 49.2625280213803, "longitude": -122.78148400363533}, "841074974RR0001": {"name": "Charles & Eve Chang Foundation", "designationCode": "B", "categoryCode": "03", "address": "2150-1055 WEST HASTINGS STREET", "city": "VANCOUVER", "province": "BC", "country": "CA", "postalCode": "V6C0B2", "twitter": "None", "instagram": "None", "facebook": "None", "youtube": "None", "website": "None", "summary": "None", "logo": "None", "latitude": 49.28708845613391, "longitude": -123.11670497369869}, "815589726RR0001": {"name": "Charles Simeon Trust of Canada", "designationCode": "C", "categoryCode": "39", "address": "PO BOX 581 STN MAIN", "city": "OKOTOKS", "province": "AB", "country": "CA", "postalCode": "T1S1A7", "twitter": "None", "instagram": "None", "facebook": "None", "youtube": "None", "website": "None", "summary": "None", "logo": "None", "latitude": 50.72589600000006, "longitude": -113.97494149999994}, "854801685RR0001": {"name": "Charlford House Foundation", "designationCode": "A", "categoryCode": "03", "address": "6845 KITCHENER ST", "city": "BURNABY", "province": "BC", "country": "CA", "postalCode": "V5B2J8", "twitter": "None", "instagram": "None", "facebook": "None", "youtube": "None", "website": "None", "summary": "None", "logo": "None", "latitude": 49.27165122509479, "longitude": -122.9619170310818}, "814523049RR0001": {"name": "Charlie's Foundation / Fondation Charlie's", "designationCode": "B", "categoryCode": "09", "address": "730 - 9600 RUE MEILLEUR", "city": "MONTREAL", "province": "QC", "country": "CA", "postalCode": "H2N2E3", "twitter": "None", "instagram": "None", "facebook": "None", "youtube": "None", "website": "None", "summary": "None", "logo": "None", "latitude": 45.53879805961149, "longitude": -73.659538092042}, "800931057RR0001": {"name": "Charlotte and Leo Karassik Foundation / Fondation Charlotte et Leo Karassik", "designationCode": "B", "categoryCode": "03", "address": "5 KILBURN CRESCENT", "city": "HAMPSTEAD", "province": "QC", "country": "CA", "postalCode": "H3X3B8", "twitter": "None", "instagram": "None", "facebook": "None", "youtube": "None", "website": "None", "summary": "None", "logo": "None", "latitude": 45.48072076048814, "longitude": -73.63950294973762}, "828333096RR0001": {"name": "Charlotte County Cancer Society Inc.", "designationCode": "C", "categoryCode": "11", "address": "45 QUEEN STREET EAST", "city": "ST. STEPHEN", "province": "NB", "country": "CA", "postalCode": "E3L2J5", "twitter": "None", "instagram": "None", "facebook": "None", "youtube": "None", "website": "None", "summary": "None", "logo": "None", "latitude": 45.19706463056164, "longitude": -67.26919564377629}, "846977726RR0001": {"name": "Charlotte County Civic Centre Project Inc.", "designationCode": "C", "categoryCode": "56", "address": "12 BUDD AVE", "city": "ST STEPHEN", "province": "NB", "country": "CA", "postalCode": "E3L1E9", "twitter": "None", "instagram": "None", "facebook": "None", "youtube": "None", "website": "None", "summary": "None", "logo": "None", "latitude": 45.192980260476574, "longitude": -67.27381509944232}, "747590099RR0001": {"name": "Charlotte County Ground Search and Rescue Team Inc.", "designationCode": "C", "categoryCode": "59", "address": "PO BOX 2010 RPO KING ST", "city": "ST STEPHEN", "province": "NB", "country": "CA", "postalCode": "E3L0E8", "twitter": "None", "instagram": "None", "facebook": "None", "youtube": "None", "website": "None", "summary": "None", "logo": "None", "latitude": 45.198698288196766, "longitude": -67.27412180048736}, "119288918RR0244": {"name": "Charlottetown Congregation of Jehovah's Witnesses, Charlottetown, Prince Edward Island", "designationCode": "C", "categoryCode": "61", "address": "6 SARAH COURT", "city": "MERMAID", "province": "PE", "country": "CA", "postalCode": "C1B3G3", "twitter": "None", "instagram": "None", "facebook": "None", "youtube": "None", "website": "None", "summary": "None", "logo": "None", "latitude": 46.25182903774025, "longitude": -63.039867004154935}, "871100707RR0001": {"name": "Charterability Cruising for the Disabled", "designationCode": "C", "categoryCode": "56", "address": "1515 REBECCA STREET           PO BOX 60024", "city": "OAKVILLE", "province": "ON", "country": "CA", "postalCode": "L6L6R4", "twitter": "None", "instagram": "None", "facebook": "None", "youtube": "None", "website": "None", "summary": "None", "logo": "None", "latitude": 43.41156868279484, "longitude": -79.70521925601074}, "891470197RR0001": {"name": "Chartered Professional Accountants of Canada Foundation / Fondation des comptables professionnels agr\u00e9\u00e9s du Canada", "designationCode": "C", "categoryCode": "23", "address": "277 WELLINGTON ST W", "city": "TORONTO", "province": "ON", "country": "CA", "postalCode": "M5V3H2", "twitter": "None", "instagram": "None", "facebook": "None", "youtube": "None", "website": "None", "summary": "None", "logo": "None", "latitude": 43.64474981652159, "longitude": -79.39144648666979}, "103480935RR0001": {"name": "Chartered Professional Accountants of Manitoba Foundation Inc.", "designationCode": "B", "categoryCode": "23", "address": "1675 - 1 LOMBARD PL", "city": "WINNIPEG", "province": "MB", "country": "CA", "postalCode": "R3B0X3", "twitter": "None", "instagram": "None", "facebook": "None", "youtube": "None", "website": "None", "summary": "None", "logo": "None", "latitude": 49.89608549999999, "longitude": -97.13498849999999}, "886160894RR0001": {"name": "Chartered Professional Accountants of Ontario Foundation", "designationCode": "C", "categoryCode": "21", "address": "69 BLOOR STREET EAST", "city": "TORONTO", "province": "ON", "country": "CA", "postalCode": "M4W1B3", "twitter": "None", "instagram": "None", "facebook": "None", "youtube": "None", "website": "None", "summary": "None", "logo": "None", "latitude": 43.670586848693254, "longitude": -79.38496395723944}, "121932396RR0001": {"name": "Chartered Professional Accountants' Education Foundation of British Columbia", "designationCode": "A", "categoryCode": "21", "address": "800 - 555 HASTINGS ST W", "city": "VANCOUVER", "province": "BC", "country": "CA", "postalCode": "V6B4N6", "twitter": "None", "instagram": "None", "facebook": "None", "youtube": "None", "website": "None", "summary": "None", "logo": "None", "latitude": 49.28438037610344, "longitude": -123.11234462859974}}