{"107438863RR0001": {"name": "GOLDEN PRAIRIE ARTS COUNCIL INCORPORATED", "designationCode": "C", "categoryCode": "22", "address": "BOX 2103", "city": "CARMAN", "province": "MB", "country": "CA", "postalCode": "R0G0J0", "twitter": "None", "instagram": "None", "facebook": "None", "youtube": "None", "website": "None", "summary": "None", "logo": "None", "latitude": 49.50860000000006, "longitude": -98.00231999999994}, "872052428RR0001": {"name": "GOLDEN RETRIEVER RESCUE QUEBEC/SECOURS GOLDEN RETRIEVER QUEBEC", "designationCode": "C", "categoryCode": "54", "address": "18604 BUDGE", "city": "PIERREFONDS", "province": "QC", "country": "CA", "postalCode": "H9K1K8", "twitter": "None", "instagram": "None", "facebook": "None", "youtube": "None", "website": "None", "summary": "None", "logo": "None", "latitude": 45.44951391727751, "longitude": -73.88908093767681}, "873981872RR0001": {"name": "GOLDEN ROD COMMUNITY ASSOCIATION", "designationCode": "C", "categoryCode": "56", "address": "BOX 10 SITE 3 R R 1", "city": "AIRDRIE", "province": "AB", "country": "CA", "postalCode": "T4B2A3", "twitter": "None", "instagram": "None", "facebook": "None", "youtube": "None", "website": "None", "summary": "None", "logo": "None", "latitude": 51.28868400000006, "longitude": -114.01344349999994}, "118818491RR0078": {"name": "GOLDEN SEVENTH-DAY ADVENTIST CHURCH", "designationCode": "C", "categoryCode": "41", "address": "PO 1000", "city": "ABBOTSFORD", "province": "BC", "country": "CA", "postalCode": "V2S4P5", "twitter": "None", "instagram": "None", "facebook": "None", "youtube": "None", "website": "None", "summary": "None", "logo": "None", "latitude": 49.03851300000005, "longitude": -122.29441549999993}, "870582889RR0001": {"name": "GOLDEN SPADE FOUNDATION", "designationCode": "B", "categoryCode": "03", "address": "32509 VERDON WAY", "city": "ABBOTSFORD", "province": "BC", "country": "CA", "postalCode": "V2T7Y3", "twitter": "None", "instagram": "None", "facebook": "None", "youtube": "None", "website": "None", "summary": "None", "logo": "None", "latitude": 49.071561523226606, "longitude": -122.3228441030636}, "864428404RR0001": {"name": "GOLDEN THREAD FOUNDATION", "designationCode": "B", "categoryCode": "03", "address": "1500 WEST GEORGIA STREET      SUITE 1250, BOX 62", "city": "VANCOUVER", "province": "BC", "country": "CA", "postalCode": "V6G2Z6", "twitter": "None", "instagram": "None", "facebook": "None", "youtube": "None", "website": "None", "summary": "None", "logo": "None", "latitude": 49.2900638104334, "longitude": -123.12989899362336}, "889992798RR0001": {"name": "GOLDEN TOWN OUTREACH", "designationCode": "C", "categoryCode": "09", "address": "PO BOX 3245", "city": "MEAFORD", "province": "ON", "country": "CA", "postalCode": "N4L1A5", "twitter": "None", "instagram": "None", "facebook": "None", "youtube": "None", "website": "None", "summary": "None", "logo": "None", "latitude": 44.60664300000006, "longitude": -80.59286149999993}, "129928156RR0001": {"name": "GOLDEN TOWN RESIDENTIAL COMMUNITY INC.", "designationCode": "C", "categoryCode": "01", "address": "64-80 VICTORIA ST", "city": "MEAFORD", "province": "ON", "country": "CA", "postalCode": "N4L1R7", "twitter": "None", "instagram": "None", "facebook": "None", "youtube": "None", "website": "None", "summary": "None", "logo": "None", "latitude": 44.61204068372275, "longitude": -80.60148207841377}, "852812437RR0001": {"name": "GOLDEN TRIANGLE MISSION", "designationCode": "C", "categoryCode": "39", "address": "22 ESKER DRIVE", "city": "BRAMPTON", "province": "ON", "country": "CA", "postalCode": "L6Z3C7", "twitter": "None", "instagram": "None", "facebook": "None", "youtube": "None", "website": "None", "summary": "None", "logo": "None", "latitude": 43.73231103442204, "longitude": -79.7824114793122}, "129143400RR0001": {"name": "GOLDEN TWILIGHT LODGE INCORPORATED", "designationCode": "C", "categoryCode": "10", "address": "P.O. BOX 880", "city": "MACKLIN", "province": "SK", "country": "CA", "postalCode": "S0L2C0", "twitter": "None", "instagram": "None", "facebook": "None", "youtube": "None", "website": "None", "summary": "None", "logo": "None", "latitude": 52.33280000000008, "longitude": -109.93590999999998}, "107438954RR0001": {"name": "GOLDEN VALLEY LUTHERAN CHURCH", "designationCode": "C", "categoryCode": "32", "address": "PO BOX 72", "city": "VIKING", "province": "AB", "country": "CA", "postalCode": "T0B4N0", "twitter": "None", "instagram": "None", "facebook": "None", "youtube": "None", "website": "None", "summary": "None", "logo": "None", "latitude": 53.10014000000007, "longitude": -111.76843999999994}, "890199243RR0001": {"name": "GOLDEN WEST DISTRICT NO 26 OF THE ORDER OF AHEPA CHARITABLE FOUNDATION", "designationCode": "C", "categoryCode": "23", "address": "108-4500 ARBUTUS ST", "city": "VANCOUVER", "province": "BC", "country": "CA", "postalCode": "V6J4A2", "twitter": "None", "instagram": "None", "facebook": "None", "youtube": "None", "website": "None", "summary": "None", "logo": "None", "latitude": 49.245158749291846, "longitude": -123.15330086677841}, "889553244RR0001": {"name": "GOLDEN WEST DROP IN CENTRE", "designationCode": "C", "categoryCode": "56", "address": "BOX 128", "city": "SPRUCEVIEW", "province": "AB", "country": "CA", "postalCode": "T0M1V0", "twitter": "None", "instagram": "None", "facebook": "None", "youtube": "None", "website": "None", "summary": "None", "logo": "None", "latitude": 52.08588000000003, "longitude": -114.3085600116854}, "107438996RR0001": {"name": "GOLDEN WOMEN'S CENTRE SOCIETY", "designationCode": "C", "categoryCode": "59", "address": "BOX 2343", "city": "GOLDEN", "province": "BC", "country": "CA", "postalCode": "V0A1H0", "twitter": "None", "instagram": "None", "facebook": "None", "youtube": "None", "website": "None", "summary": "None", "logo": "None", "latitude": 51.30019925579286, "longitude": -117.05412925860504}, "141048637RR0001": {"name": "GOLDENVIEW CHARITABLE TRUST", "designationCode": "B", "categoryCode": "39", "address": "3425 2 AVENUE SOUTH", "city": "LETHBRIDGE", "province": "AB", "country": "CA", "postalCode": "T1J4V1", "twitter": "None", "instagram": "None", "facebook": "None", "youtube": "None", "website": "None", "summary": "None", "logo": "None", "latitude": 49.696839530439966, "longitude": -112.78914308381903}, "118941087RR0001": {"name": "GOLDEYE FOUNDATION SOCIETY", "designationCode": "C", "categoryCode": "56", "address": "202-5013 48 ST", "city": "STONY PLAIN", "province": "AB", "country": "CA", "postalCode": "T7Z1L8", "twitter": "None", "instagram": "None", "facebook": "None", "youtube": "None", "website": "None", "summary": "None", "logo": "None", "latitude": 53.52915641909516, "longitude": -114.00181480287425}, "847210168RR0001": {"name": "GOLDSTONE UNITED CHURCH", "designationCode": "C", "categoryCode": "44", "address": "6966 WELLINGTON CTY. RD. 11   RR #2", "city": "DRAYTON", "province": "ON", "country": "CA", "postalCode": "N0G1P0", "twitter": "None", "instagram": "None", "facebook": "None", "youtube": "None", "website": "None", "summary": "None", "logo": "None", "latitude": 43.72437305681028, "longitude": -80.69511247697771}, "119288918RR0203": {"name": "GOLDSTREAM CONGREGATION OF JEHOVAH'S WITNESSES, VICTORIA, BRITISH COLUMBIA", "designationCode": "C", "categoryCode": "61", "address": "2506 SELWYN RD", "city": "VICTORIA", "province": "BC", "country": "CA", "postalCode": "V9B3L1", "twitter": "None", "instagram": "None", "facebook": "None", "youtube": "None", "website": "None", "summary": "None", "logo": "None", "latitude": 48.45796308646178, "longitude": -123.49107614077897}, "890281066RR0001": {"name": "GOLDSTREAM FOOD BANK SOCIETY", "designationCode": "C", "categoryCode": "09", "address": "WESTSHORE PO BOX 28122", "city": "VICTORIA", "province": "BC", "country": "CA", "postalCode": "V9B6K8", "twitter": "None", "instagram": "None", "facebook": "None", "youtube": "None", "website": "None", "summary": "None", "logo": "None", "latitude": 48.49310400000006, "longitude": -123.50297599999993}, "129397840RR0001": {"name": "GOLDSTREAM PRESCHOOL ASSOCIATION", "designationCode": "C", "categoryCode": "20", "address": "935 GOLDSTREAM AVE", "city": "VICTORIA", "province": "BC", "country": "CA", "postalCode": "V9B2Y2", "twitter": "None", "instagram": "None", "facebook": "None", "youtube": "None", "website": "None", "summary": "None", "logo": "None", "latitude": 48.45088264051632, "longitude": -123.50698730518194}, "133923722RR0001": {"name": "GOLDSTREAM VOLUNTEER SALMONID ENHANCEMENT ASSOCIATION", "designationCode": "C", "categoryCode": "54", "address": "10348 DEVLIN PL", "city": "SIDNEY", "province": "BC", "country": "CA", "postalCode": "V8L4Y5", "twitter": "None", "instagram": "None", "facebook": "None", "youtube": "None", "website": "None", "summary": "None", "logo": "None", "latitude": 48.66314189370418, "longitude": -123.40906076106504}, "889866570RR0001": {"name": "GOLF FOR THE PHYSICALLY CHALLENGED", "designationCode": "C", "categoryCode": "56", "address": "1165 RUSHBROOKE RD", "city": "OAKVILLE", "province": "ON", "country": "CA", "postalCode": "L6M1H8", "twitter": "None", "instagram": "None", "facebook": "None", "youtube": "None", "website": "None", "summary": "None", "logo": "None", "latitude": 43.43813250764605, "longitude": -79.71986202844941}, "134884741RR0001": {"name": "GOLVIN CHARITABLE FOUNDATION", "designationCode": "B", "categoryCode": "53", "address": "CROWE SOBERMAN                366 DENISON STREET UNIT 1", "city": "MARKHAM", "province": "ON", "country": "CA", "postalCode": "L3R1B9", "twitter": "None", "instagram": "None", "facebook": "None", "youtube": "None", "website": "None", "summary": "None", "logo": "None", "latitude": 43.82264624233916, "longitude": -79.34754698877592}, "119288918RR0011": {"name": "GONDOLA CONGREGATION OF JEHOVAH'S WITNESSES", "designationCode": "C", "categoryCode": "61", "address": "360 CONESTOGA DRIVE", "city": "BRAMPTON", "province": "ON", "country": "CA", "postalCode": "L6Z2S9", "twitter": "None", "instagram": "None", "facebook": "None", "youtube": "None", "website": "None", "summary": "None", "logo": "None", "latitude": 43.71318276931761, "longitude": -79.78031826732612}, "891197741RR0001": {"name": "GONZAGA ARMY CADET FOUNDATION, INC.", "designationCode": "A", "categoryCode": "23", "address": "9 ROSSCOMMON PLACE", "city": "ST. JOHN'S", "province": "NL", "country": "CA", "postalCode": "A1A3C7", "twitter": "None", "instagram": "None", "facebook": "None", "youtube": "None", "website": "None", "summary": "None", "logo": "None", "latitude": 47.60637792477932, "longitude": -52.709457152114815}, "118941137RR0001": {"name": "GONZAGA HIGH SCHOOL ANCILLARY OPERATIONS FUND", "designationCode": "C", "categoryCode": "21", "address": "20 SMITHVILLE CRES.", "city": "ST. JOHN'S", "province": "NL", "country": "CA", "postalCode": "A1B2V2", "twitter": "None", "instagram": "None", "facebook": "None", "youtube": "None", "website": "None", "summary": "None", "logo": "None", "latitude": 47.578798945091734, "longitude": -52.72420886519743}, "107439382RR0001": {"name": "GONZALES PRE-SCHOOL GROUP", "designationCode": "C", "categoryCode": "20", "address": "2928 EASTDOWNE ROAD", "city": "VICTORIA", "province": "BC", "country": "CA", "postalCode": "V8R5R8", "twitter": "None", "instagram": "None", "facebook": "None", "youtube": "None", "website": "None", "summary": "None", "logo": "None", "latitude": 48.44193233971952, "longitude": -123.314481008627}, "887997138RR0001": {"name": "GOOD AS NEW SHOP", "designationCode": "A", "categoryCode": "03", "address": "BOX 205", "city": "SEDGEWICK", "province": "AB", "country": "CA", "postalCode": "T0B4C0", "twitter": "None", "instagram": "None", "facebook": "None", "youtube": "None", "website": "None", "summary": "None", "logo": "None", "latitude": 52.766850000000034, "longitude": -111.68503999999996}, "118941152RR0001": {"name": "GOOD COMPANIONS", "designationCode": "C", "categoryCode": "09", "address": "670 ALBERT ST", "city": "OTTAWA", "province": "ON", "country": "CA", "postalCode": "K1R6L2", "twitter": "None", "instagram": "None", "facebook": "None", "youtube": "None", "website": "None", "summary": "None", "logo": "None", "latitude": 45.41396541907137, "longitude": -75.71031307274022}, "108083171RR0001": {"name": "GOOD COMPANIONS 50 PLUS CLUB", "designationCode": "C", "categoryCode": "56", "address": "2609 19 AVE SW", "city": "CALGARY", "province": "AB", "country": "CA", "postalCode": "T3E0E9", "twitter": "None", "instagram": "None", "facebook": "None", "youtube": "None", "website": "None", "summary": "None", "logo": "None", "latitude": 51.03628754342441, "longitude": -114.12303322009349}, "102145224RR0001": {"name": "GOOD FOUNDATION INC.", "designationCode": "B", "categoryCode": "03", "address": "603-250 SYDENHAM ST", "city": "LONDON", "province": "ON", "country": "CA", "postalCode": "N6A5S1", "twitter": "None", "instagram": "None", "facebook": "None", "youtube": "None", "website": "None", "summary": "None", "logo": "None", "latitude": 42.9968289037448, "longitude": -81.25279027410679}, "858556913RR0001": {"name": "GOOD FRIENDS FELLOWSHIP", "designationCode": "C", "categoryCode": "47", "address": "219 BROADWAY AVE", "city": "ORANGEVILLE", "province": "ON", "country": "CA", "postalCode": "L9W1K4", "twitter": "None", "instagram": "None", "facebook": "None", "youtube": "None", "website": "None", "summary": "None", "logo": "None", "latitude": 43.919048858575614, "longitude": -80.09864549372982}, "892348442RR0001": {"name": "GOOD HAPPENINGS FOOD BANK", "designationCode": "C", "categoryCode": "09", "address": "RR 1", "city": "SOUTH RIVER", "province": "ON", "country": "CA", "postalCode": "P0A1X0", "twitter": "None", "instagram": "None", "facebook": "None", "youtube": "None", "website": "None", "summary": "None", "logo": "None", "latitude": 35.62862567349865, "longitude": -120.6832426959008}, "722732922RR0001": {"name": "GOOD NEIGHBORS CANADA", "designationCode": "C", "categoryCode": "09", "address": "94-1320 SAVANNAH DRIVE,", "city": "LONDON", "province": "ON", "country": "CA", "postalCode": "N5X0B7", "twitter": "None", "instagram": "None", "facebook": "None", "youtube": "None", "website": "None", "summary": "None", "logo": "None", "latitude": 43.050289986410014, "longitude": -81.24428792714524}, "118941251RR0001": {"name": "GOOD NEIGHBOUR CLUB OF BELLE RIVER AND AREA", "designationCode": "C", "categoryCode": "09", "address": "BOX 522                       272 ST. PAUL STREET", "city": "BELLE RIVER", "province": "ON", "country": "CA", "postalCode": "N0R1A0", "twitter": "None", "instagram": "None", "facebook": "None", "youtube": "None", "website": "None", "summary": "None", "logo": "None", "latitude": 42.290497257285466, "longitude": -82.70491760297762}, "108077710RR0001": {"name": "GOOD NEIGHBOUR MINISTRIES", "designationCode": "C", "categoryCode": "39", "address": "5270 NEW ST", "city": "BURLINGTON", "province": "ON", "country": "CA", "postalCode": "L7L1V5", "twitter": "None", "instagram": "None", "facebook": "None", "youtube": "None", "website": "None", "summary": "None", "logo": "None", "latitude": 43.3747166669169, "longitude": -79.74543139947522}, "131088007RR0001": {"name": "GOOD NEIGHBOURS CARE CENTRE OF PETERBOROUGH CORPORATION", "designationCode": "C", "categoryCode": "09", "address": "164 SHERBROOKE ST", "city": "PETERBOROUGH", "province": "ON", "country": "CA", "postalCode": "K9J2N3", "twitter": "None", "instagram": "None", "facebook": "None", "youtube": "None", "website": "None", "summary": "None", "logo": "None", "latitude": 44.3007954676841, "longitude": -78.3203924701656}, "118941277RR0001": {"name": "GOOD NEIGHBOURS RETIRED CITIZENS ASSOCIATION", "designationCode": "C", "categoryCode": "56", "address": "21 PALMMER ST", "city": "TRURO", "province": "NS", "country": "CA", "postalCode": "B2N4E8", "twitter": "None", "instagram": "None", "facebook": "None", "youtube": "None", "website": "None", "summary": "None", "logo": "None", "latitude": 45.36111517208146, "longitude": -63.272097404784006}, "118941285RR0001": {"name": "GOOD NEWS ASSEMBLY", "designationCode": "C", "categoryCode": "39", "address": "2114 UPPER MIDDLE ROAD EAST", "city": "OAKVILLE", "province": "ON", "country": "CA", "postalCode": "L6J4Z2", "twitter": "None", "instagram": "None", "facebook": "None", "youtube": "None", "website": "None", "summary": "None", "logo": "None", "latitude": 43.498529036903534, "longitude": -79.67583310294896}, "896187028RR0001": {"name": "GOOD NEWS ASSEMBLY FOR JESUS", "designationCode": "C", "categoryCode": "36", "address": "25 - 9272 121 ST", "city": "SURREY", "province": "BC", "country": "CA", "postalCode": "V3V7K8", "twitter": "None", "instagram": "None", "facebook": "None", "youtube": "None", "website": "None", "summary": "None", "logo": "None", "latitude": 49.1717144074384, "longitude": -122.8874495205149}, "849632948RR0001": {"name": "GOOD NEWS BAPTIST CHURCH INC.", "designationCode": "C", "categoryCode": "31", "address": "PO BOX 2801", "city": "CHARLOTTETOWN", "province": "PE", "country": "CA", "postalCode": "C1A8C4", "twitter": "None", "instagram": "None", "facebook": "None", "youtube": "None", "website": "None", "summary": "None", "logo": "None", "latitude": 46.23659700000006, "longitude": -63.12815449999994}, "837923564RR0001": {"name": "GOOD NEWS BIBLE CHAPEL", "designationCode": "C", "categoryCode": "39", "address": "PO BOX 64328 RPO THORNCLIFFE", "city": "CALGARY", "province": "AB", "country": "CA", "postalCode": "T2K6J7", "twitter": "None", "instagram": "None", "facebook": "None", "youtube": "None", "website": "None", "summary": "None", "logo": "None", "latitude": 51.103360846180706, "longitude": -114.06522155769314}, "867411043RR0001": {"name": "GOOD NEWS CENTRE", "designationCode": "C", "categoryCode": "39", "address": "244 - 13TH STREET NORTH", "city": "LETHBRIDGE", "province": "AB", "country": "CA", "postalCode": "T1H2R7", "twitter": "None", "instagram": "None", "facebook": "None", "youtube": "None", "website": "None", "summary": "None", "logo": "None", "latitude": 49.70244586372556, "longitude": -112.82419248629442}, "130845928RR0001": {"name": "GOOD NEWS CHRISTIAN REFORMED CHURCH OF LONDON", "designationCode": "C", "categoryCode": "39", "address": "476 CLARKE SIDE ROAD", "city": "LONDON", "province": "ON", "country": "CA", "postalCode": "N5V2C7", "twitter": "None", "instagram": "None", "facebook": "None", "youtube": "None", "website": "None", "summary": "None", "logo": "None", "latitude": 43.00814477687675, "longitude": -81.17749273221253}, "107439689RR0001": {"name": "GOOD NEWS COMMUNITY CHURCH", "designationCode": "C", "categoryCode": "39", "address": "BOX 8", "city": "RYLEY", "province": "AB", "country": "CA", "postalCode": "T0B4A0", "twitter": "None", "instagram": "None", "facebook": "None", "youtube": "None", "website": "None", "summary": "None", "logo": "None", "latitude": 53.28344000000004, "longitude": -112.43517999999995}, "810981472RR0001": {"name": "GOOD NEWS COMMUNITY CHURCH", "designationCode": "C", "categoryCode": "34", "address": "245B MAIN STREET", "city": "STEINBACH", "province": "MB", "country": "CA", "postalCode": "R5G1Y9", "twitter": "None", "instagram": "None", "facebook": "None", "youtube": "None", "website": "None", "summary": "None", "logo": "None", "latitude": 49.52761309751684, "longitude": -96.68665635293348}, "118941350RR0001": {"name": "GOOD NEWS FELLOWSHIP CHRISTIAN REFORMED CHURCH INC.", "designationCode": "C", "categoryCode": "39", "address": "891 ST.MARY'S ROAD", "city": "WINNIPEG", "province": "MB", "country": "CA", "postalCode": "R2M3R2", "twitter": "None", "instagram": "None", "facebook": "None", "youtube": "None", "website": "None", "summary": "None", "logo": "None", "latitude": 49.84627111296095, "longitude": -97.11268959322543}, "821794930RR0001": {"name": "GOOD NEWS FOR FIRST NATIONS SOCIETY", "designationCode": "B", "categoryCode": "09", "address": "2004 HAWKINS PL", "city": "VICTORIA", "province": "BC", "country": "CA", "postalCode": "V9B0E3", "twitter": "None", "instagram": "None", "facebook": "None", "youtube": "None", "website": "None", "summary": "None", "logo": "None", "latitude": 48.47807939826708, "longitude": -123.5130994590508}, "139942130RR0001": {"name": "GOOD NEWS INTERNATIONAL MINISTRIES", "designationCode": "C", "categoryCode": "47", "address": "PO BOX 628 STATION A", "city": "ABBOTSFORD", "province": "BC", "country": "CA", "postalCode": "V2T6Z8", "twitter": "None", "instagram": "None", "facebook": "None", "youtube": "None", "website": "None", "summary": "None", "logo": "None", "latitude": 49.05161700000005, "longitude": -122.32930399999994}, "138852421RR0001": {"name": "GOOD NEWS MENNONITE CHURCH INC", "designationCode": "C", "categoryCode": "34", "address": "2764 NESS AVE", "city": "WINNIPEG", "province": "MB", "country": "CA", "postalCode": "R3J1A7", "twitter": "None", "instagram": "None", "facebook": "None", "youtube": "None", "website": "None", "summary": "None", "logo": "None", "latitude": 49.887197991373, "longitude": -97.27180894506307}, "891669483RR0001": {"name": "GOOD NEWS MINISTRIES", "designationCode": "C", "categoryCode": "47", "address": "PO BOX 101", "city": "MILTON", "province": "ON", "country": "CA", "postalCode": "L9T2Y3", "twitter": "None", "instagram": "None", "facebook": "None", "youtube": "None", "website": "None", "summary": "None", "logo": "None", "latitude": 43.51104600000005, "longitude": -79.88386399999993}, "130397300RR0001": {"name": "GOOD NEWS MORAVIAN CHURCH", "designationCode": "C", "categoryCode": "39", "address": "2 PRIMROSE BOULEVARD", "city": "SHERWOOD PARK", "province": "AB", "country": "CA", "postalCode": "T8H1G2", "twitter": "None", "instagram": "None", "facebook": "None", "youtube": "None", "website": "None", "summary": "None", "logo": "None", "latitude": 53.54626345715252, "longitude": -113.26261147720608}, "107439713RR0001": {"name": "GOOD NEWS TABERNACLE", "designationCode": "C", "categoryCode": "36", "address": "187 HENLOW BAY", "city": "WINNIPEG", "province": "MB", "country": "CA", "postalCode": "R3Y1G4", "twitter": "None", "instagram": "None", "facebook": "None", "youtube": "None", "website": "None", "summary": "None", "logo": "None", "latitude": 49.8154349212013, "longitude": -97.19183723639614}, "853862043RR0001": {"name": "GOOD SAMARITAN CANADA (A LUTHERAN SOCIAL SERVICE ORGANIZATI ON)", "designationCode": "C", "categoryCode": "09", "address": "8861 75 STREET", "city": "EDMONTON", "province": "AB", "country": "CA", "postalCode": "T6C4G8", "twitter": "None", "instagram": "None", "facebook": "None", "youtube": "None", "website": "None", "summary": "None", "logo": "None", "latitude": 53.52384599999999, "longitude": -113.44278430287426}, "875417024RR0001": {"name": "GOOD SAMARITAN FOOD BANK INC", "designationCode": "C", "categoryCode": "09", "address": "26 REIDS HILL", "city": "GAGETOWN", "province": "NB", "country": "CA", "postalCode": "E5M1E6", "twitter": "None", "instagram": "None", "facebook": "None", "youtube": "None", "website": "None", "summary": "None", "logo": "None", "latitude": 45.79129796184668, "longitude": -66.14961306094182}, "118941558RR0001": {"name": "GOOD SHEPHERD (HAMILTON) TRUST FOUNDATION", "designationCode": "B", "categoryCode": "05", "address": "15 RAY ST N", "city": "HAMILTON", "province": "ON", "country": "CA", "postalCode": "L8R2X5", "twitter": "None", "instagram": "None", "facebook": "None", "youtube": "None", "website": "None", "summary": "None", "logo": "None", "latitude": 43.26039041553468, "longitude": -79.88045057749513}, "130636798RR0001": {"name": "GOOD SHEPHERD CENTRE HAMILTON", "designationCode": "C", "categoryCode": "01", "address": "15 RAY ST N", "city": "HAMILTON", "province": "ON", "country": "CA", "postalCode": "L8R2X5", "twitter": "None", "instagram": "None", "facebook": "None", "youtube": "None", "website": "None", "summary": "None", "logo": "None", "latitude": 43.26039041553468, "longitude": -79.88045057749513}, "131559932RR0001": {"name": "GOOD SHEPHERD CHURCH", "designationCode": "C", "categoryCode": "39", "address": "3621 LAWRENCETOWN ROAD", "city": "LAWRENCETOWN", "province": "NS", "country": "CA", "postalCode": "B2Z1P9", "twitter": "None", "instagram": "None", "facebook": "None", "youtube": "None", "website": "None", "summary": "None", "logo": "None", "latitude": 44.66176172306502, "longitude": -63.368047916267884}, "128967353RR0041": {"name": "GOOD SHEPHERD COMMUNITY", "designationCode": "C", "categoryCode": "38", "address": "3092 INNES ROAD", "city": "GLOUCESTER", "province": "ON", "country": "CA", "postalCode": "K1W1C8", "twitter": "None", "instagram": "None", "facebook": "None", "youtube": "None", "website": "None", "summary": "None", "logo": "None", "latitude": 45.44007894636207, "longitude": -75.54208117294684}, "118941491RR0001": {"name": "GOOD SHEPHERD COMMUNITY CHURCH", "designationCode": "C", "categoryCode": "39", "address": "BOX 174", "city": "CUT KNIFE", "province": "SK", "country": "CA", "postalCode": "S0M0N0", "twitter": "None", "instagram": "None", "facebook": "None", "youtube": "None", "website": "None", "summary": "None", "logo": "None", "latitude": 52.740921789497094, "longitude": -109.02330639630397}, "118941509RR0001": {"name": "GOOD SHEPHERD COMMUNITY CHURCH SCARBOROUGH", "designationCode": "C", "categoryCode": "39", "address": "390 BAMBURGH CIRCLE", "city": "SCARBOROUGH", "province": "ON", "country": "CA", "postalCode": "M1W3X3", "twitter": "None", "instagram": "None", "facebook": "None", "youtube": "None", "website": "None", "summary": "None", "logo": "None", "latitude": 43.81624249711446, "longitude": -79.32381227699231}, "107439861RR0001": {"name": "GOOD SHEPHERD EVANGELICAL LUTHERAN CHURCH", "designationCode": "C", "categoryCode": "32", "address": "374 STEWART BLVD", "city": "BROCKVILLE", "province": "ON", "country": "CA", "postalCode": "K6V4X1", "twitter": "None", "instagram": "None", "facebook": "None", "youtube": "None", "website": "None", "summary": "None", "logo": "None", "latitude": 44.60147226057505, "longitude": -75.70723214795987}, "129463816RR0001": {"name": "GOOD SHEPHERD EVANGELICAL LUTHERAN CHURCH, MONCTON, N B", "designationCode": "C", "categoryCode": "32", "address": "25 HILDEGARD DR", "city": "MONCTON", "province": "NB", "country": "CA", "postalCode": "E1G2G5", "twitter": "None", "instagram": "None", "facebook": "None", "youtube": "None", "website": "None", "summary": "None", "logo": "None", "latitude": 46.116694308096136, "longitude": -64.84115213061897}, "107439895RR0001": {"name": "GOOD SHEPHERD LUTHERAN CHURCH", "designationCode": "C", "categoryCode": "32", "address": "PO BOX 88", "city": "MELVILLE", "province": "SK", "country": "CA", "postalCode": "S0A2P0", "twitter": "None", "instagram": "None", "facebook": "None", "youtube": "None", "website": "None", "summary": "None", "logo": "None", "latitude": 50.87164886256234, "longitude": -103.09293300498788}, "107439945RR0001": {"name": "GOOD SHEPHERD LUTHERAN CHURCH", "designationCode": "C", "categoryCode": "32", "address": "910 12 AVE SW", "city": "HIGH RIVER", "province": "AB", "country": "CA", "postalCode": "T1V1B1", "twitter": "None", "instagram": "None", "facebook": "None", "youtube": "None", "website": "None", "summary": "None", "logo": "None", "latitude": 50.572061493796255, "longitude": -113.885784}, "107439960RR0001": {"name": "GOOD SHEPHERD LUTHERAN CHURCH", "designationCode": "C", "categoryCode": "32", "address": "2617 BELMONT AVE", "city": "VICTORIA", "province": "BC", "country": "CA", "postalCode": "V8R4A7", "twitter": "None", "instagram": "None", "facebook": "None", "youtube": "None", "website": "None", "summary": "None", "logo": "None", "latitude": 48.43684704662704, "longitude": -123.33968069828053}, "118941616RR0001": {"name": "GOOD SHEPHERD LUTHERAN CHURCH", "designationCode": "C", "categoryCode": "32", "address": "416-2ND STREET WEST", "city": "MEADOW LAKE", "province": "SK", "country": "CA", "postalCode": "S9X1C9", "twitter": "None", "instagram": "None", "facebook": "None", "youtube": "None", "website": "None", "summary": "None", "logo": "None", "latitude": 54.12831634587432, "longitude": -108.43625146348944}, "118941632RR0001": {"name": "GOOD SHEPHERD LUTHERAN CHURCH", "designationCode": "C", "categoryCode": "32", "address": "1215 MCKERCHER DR", "city": "SASKATOON", "province": "SK", "country": "CA", "postalCode": "S7H5L9", "twitter": "None", "instagram": "None", "facebook": "None", "youtube": "None", "website": "None", "summary": "None", "logo": "None", "latitude": 52.112007000000006, "longitude": -106.58685925059171}, "118941640RR0001": {"name": "GOOD SHEPHERD LUTHERAN CHURCH", "designationCode": "C", "categoryCode": "32", "address": "BOX 1383", "city": "VALLEYVIEW", "province": "AB", "country": "CA", "postalCode": "T0H3N0", "twitter": "None", "instagram": "None", "facebook": "None", "youtube": "None", "website": "None", "summary": "None", "logo": "None", "latitude": 55.05383002553526, "longitude": -117.28028991776837}, "130562853RR0001": {"name": "GOOD SHEPHERD LUTHERAN CHURCH", "designationCode": "C", "categoryCode": "32", "address": "552 FANSHAWE PARK ROAD", "city": "LONDON", "province": "ON", "country": "CA", "postalCode": "N5X1L1", "twitter": "None", "instagram": "None", "facebook": "None", "youtube": "None", "website": "None", "summary": "None", "logo": "None", "latitude": 43.03390886320593, "longitude": -81.25807796338492}, "140669656RR0001": {"name": "GOOD SHEPHERD LUTHERAN CHURCH", "designationCode": "C", "categoryCode": "32", "address": "11 CONCESSION 3 NORTH         R.R. #4", "city": "AMHERSTBURG", "province": "ON", "country": "CA", "postalCode": "N9V2Y9", "twitter": "None", "instagram": "None", "facebook": "None", "youtube": "None", "website": "None", "summary": "None", "logo": "None", "latitude": 42.145496120128136, "longitude": -83.0695368321686}, "885288423RR0001": {"name": "GOOD SHEPHERD LUTHERAN CHURCH", "designationCode": "C", "categoryCode": "39", "address": "200 FIFTH AVENUE SOUTH", "city": "KENORA", "province": "ON", "country": "CA", "postalCode": "P9N2A4", "twitter": "None", "instagram": "None", "facebook": "None", "youtube": "None", "website": "None", "summary": "None", "logo": "None", "latitude": 49.76505145628715, "longitude": -94.48495239800334}, "107439952RR0001": {"name": "GOOD SHEPHERD LUTHERAN CHURCH OF COQUITLAM", "designationCode": "C", "categoryCode": "32", "address": "1504 SPRICE AVE", "city": "COQUITLAM", "province": "BC", "country": "CA", "postalCode": "V3J2P6", "twitter": "None", "instagram": "None", "facebook": "None", "youtube": "None", "website": "None", "summary": "None", "logo": "None", "latitude": 49.25712053231591, "longitude": -122.85094427699232}, "141111062RR0001": {"name": "GOOD SHEPHERD LUTHERAN CHURCH,", "designationCode": "C", "categoryCode": "32", "address": "P.O. BOX 9", "city": "HUDSON BAY", "province": "SK", "country": "CA", "postalCode": "S0E0Y0", "twitter": "None", "instagram": "None", "facebook": "None", "youtube": "None", "website": "None", "summary": "None", "logo": "None", "latitude": 52.862685000000056, "longitude": -102.38924149999994}, "129114377RR0001": {"name": "GOOD SHEPHERD NON-PROFIT HOMES INC", "designationCode": "C", "categoryCode": "09", "address": "15 RAY ST N", "city": "HAMILTON", "province": "ON", "country": "CA", "postalCode": "L8R2X5", "twitter": "None", "instagram": "None", "facebook": "None", "youtube": "None", "website": "None", "summary": "None", "logo": "None", "latitude": 43.26039041553468, "longitude": -79.88045057749513}, "107910259RR0014": {"name": "GOOD SHEPHERD PARISH", "designationCode": "C", "categoryCode": "38", "address": "21 SIMONSTON BLVD", "city": "THORNHILL", "province": "ON", "country": "CA", "postalCode": "L3T4R6", "twitter": "None", "instagram": "None", "facebook": "None", "youtube": "None", "website": "None", "summary": "None", "logo": "None", "latitude": 43.81358711855819, "longitude": -79.36435822872049}, "140850371RR0001": {"name": "GOOD SHEPHERD PARISH", "designationCode": "C", "categoryCode": "38", "address": "114 COUNTESS AVE", "city": "PORTAGE LA PRAIRIE", "province": "MB", "country": "CA", "postalCode": "R1N0T2", "twitter": "None", "instagram": "None", "facebook": "None", "youtube": "None", "website": "None", "summary": "None", "logo": "None", "latitude": 49.97126610610691, "longitude": -98.28983605013339}, "118941699RR0001": {"name": "GOOD SHEPHERD PENTECOSTAL CHURCH", "designationCode": "C", "categoryCode": "36", "address": "2180 HOWARD AVE", "city": "WINDSOR", "province": "ON", "country": "CA", "postalCode": "N8X3V1", "twitter": "None", "instagram": "None", "facebook": "None", "youtube": "None", "website": "None", "summary": "None", "logo": "None", "latitude": 42.297007336949555, "longitude": -83.01660026807686}, "892012048RR0001": {"name": "GOOD SHEPHERD TAMIL CHURCH", "designationCode": "C", "categoryCode": "39", "address": "3638 LAWRENCE AVE E", "city": "SCARBOROUGH", "province": "ON", "country": "CA", "postalCode": "M1G1P6", "twitter": "None", "instagram": "None", "facebook": "None", "youtube": "None", "website": "None", "summary": "None", "logo": "None", "latitude": 43.76049315462499, "longitude": -79.22223768916257}, "888438843RR0001": {"name": "GOOD SHEPHERD UNITED ANGLICAN CHURCH", "designationCode": "C", "categoryCode": "39", "address": "BOX 516", "city": "TURTLEFORD", "province": "SK", "country": "CA", "postalCode": "S0M2Y0", "twitter": "None", "instagram": "None", "facebook": "None", "youtube": "None", "website": "None", "summary": "None", "logo": "None", "latitude": 53.38348000000008, "longitude": -108.95143999999999}, "875773723RR0001": {"name": "GOOD SHEPHERD'S CHINESE CHRISTIAN CHURCH", "designationCode": "C", "categoryCode": "39", "address": "7 GRETNA AVE", "city": "TORONTO", "province": "ON", "country": "CA", "postalCode": "M4A2H5", "twitter": "None", "instagram": "None", "facebook": "None", "youtube": "None", "website": "None", "summary": "None", "logo": "None", "latitude": 43.73461298112988, "longitude": -79.31568456699772}, "896482635RR0001": {"name": "GOOD SPIRIT BIBLE CAMP", "designationCode": "C", "categoryCode": "56", "address": "3206 BARTON PL", "city": "REGINA", "province": "SK", "country": "CA", "postalCode": "S4N7C7", "twitter": "None", "instagram": "None", "facebook": "None", "youtube": "None", "website": "None", "summary": "None", "logo": "None", "latitude": 50.45666188233587, "longitude": -104.53699707066171}, "812978278RR0001": {"name": "GOOD SPIRIT SCHOOL DIVISION NO. 204", "designationCode": "C", "categoryCode": "20", "address": "63 KING ST E", "city": "YORKTON", "province": "SK", "country": "CA", "postalCode": "S3N0T7", "twitter": "None", "instagram": "None", "facebook": "None", "youtube": "None", "website": "None", "summary": "None", "logo": "None", "latitude": 51.202856503750915, "longitude": -102.45887966472387}, "107833394RR0126": {"name": "GOOD TIDINGS PENTECOSTAL ASSEMBLY", "designationCode": "C", "categoryCode": "36", "address": "P.O.BOX 13", "city": "PORT SAUNDERS", "province": "NL", "country": "CA", "postalCode": "A0K4H0", "twitter": "None", "instagram": "None", "facebook": "None", "youtube": "None", "website": "None", "summary": "None", "logo": "None", "latitude": 50.693760000000054, "longitude": -57.22702999999996}, "881852214RR0001": {"name": "GOOD WILL SHAKESPEARE SOCIETY", "designationCode": "C", "categoryCode": "22", "address": "BOX 2501", "city": "SUMMERLAND", "province": "BC", "country": "CA", "postalCode": "V0H1Z0", "twitter": "None", "instagram": "None", "facebook": "None", "youtube": "None", "website": "None", "summary": "None", "logo": "None", "latitude": 49.60131900000006, "longitude": -119.67899299999993}, "107439440RR0001": {"name": "GOODERHAM PENTECOSTAL CHURCH", "designationCode": "C", "categoryCode": "36", "address": "BOX 93", "city": "GOODERHAM", "province": "ON", "country": "CA", "postalCode": "K0M1R0", "twitter": "None", "instagram": "None", "facebook": "None", "youtube": "None", "website": "None", "summary": "None", "logo": "None", "latitude": 44.90723300950823, "longitude": -78.37920012892532}, "891262628RR0001": {"name": "GOODLIFE KIDS FOUNDATION", "designationCode": "B", "categoryCode": "56", "address": "710 PROUDFOOT LANE", "city": "LONDON", "province": "ON", "country": "CA", "postalCode": "N6H5G5", "twitter": "None", "instagram": "None", "facebook": "None", "youtube": "None", "website": "None", "summary": "None", "logo": "None", "latitude": 42.98670345602734, "longitude": -81.28866995579713}, "118941384RR0001": {"name": "GOODNEWS RELEASE CENTRE OF THE PROPHETIC CHURCH OF GOD INCORPORATED TORONTO, CANADA", "designationCode": "C", "categoryCode": "39", "address": "2810 WESTON ROAD", "city": "NORTH YORK", "province": "ON", "country": "CA", "postalCode": "M9M2R9", "twitter": "None", "instagram": "None", "facebook": "None", "youtube": "None", "website": "None", "summary": "None", "logo": "None", "latitude": 43.71970819539498, "longitude": -79.53761055969746}, "888647179RR0001": {"name": "GOODSEED CANADA", "designationCode": "C", "categoryCode": "43", "address": "PO BOX 3704", "city": "OLDS", "province": "AB", "country": "CA", "postalCode": "T4H1P5", "twitter": "None", "instagram": "None", "facebook": "None", "youtube": "None", "website": "None", "summary": "None", "logo": "None", "latitude": 51.791613000000055, "longitude": -114.11061199999993}, "876354283RR0001": {"name": "GOODSEED INTERNATIONAL", "designationCode": "C", "categoryCode": "43", "address": "PO BOX 3704 STN MAIN", "city": "OLDS", "province": "AB", "country": "CA", "postalCode": "T4H1P5", "twitter": "None", "instagram": "None", "facebook": "None", "youtube": "None", "website": "None", "summary": "None", "logo": "None", "latitude": 51.791613000000055, "longitude": -114.11061199999993}, "119139426RR0001": {"name": "GOODWILL INDUSTRIES - ESSEX KENT LAMBTON INC.", "designationCode": "C", "categoryCode": "59", "address": "1121 WELLINGTON STREET", "city": "SARNIA", "province": "ON", "country": "CA", "postalCode": "N7S6J7", "twitter": "None", "instagram": "None", "facebook": "None", "youtube": "None", "website": "None", "summary": "None", "logo": "None", "latitude": 42.96811597008552, "longitude": -82.36639411813611}, "140591645RR0001": {"name": "GOODWILL INDUSTRIES NIAGARA", "designationCode": "C", "categoryCode": "59", "address": "271 RIDLEY RD", "city": "ST CATHARINES", "province": "ON", "country": "CA", "postalCode": "L2S0B3", "twitter": "None", "instagram": "None", "facebook": "None", "youtube": "None", "website": "None", "summary": "None", "logo": "None", "latitude": 43.14604333718072, "longitude": -79.26892201246481}, "118941764RR0001": {"name": "GOODWILL INDUSTRIES OF ALBERTA (REGISTERED SOCIETY)", "designationCode": "C", "categoryCode": "11", "address": "8761 51 AVE", "city": "EDMONTON", "province": "AB", "country": "CA", "postalCode": "T6E5H1", "twitter": "None", "instagram": "None", "facebook": "None", "youtube": "None", "website": "None", "summary": "None", "logo": "None", "latitude": 53.487998512840186, "longitude": -113.45970060935426}, "118941780RR0001": {"name": "GOODWOOD BAPTIST CHURCH", "designationCode": "C", "categoryCode": "31", "address": "BOX 97", "city": "GOODWOOD", "province": "ON", "country": "CA", "postalCode": "L0C1A0", "twitter": "None", "instagram": "None", "facebook": "None", "youtube": "None", "website": "None", "summary": "None", "logo": "None", "latitude": 44.03738025240474, "longitude": -79.19838691556373}, "118941798RR0001": {"name": "GOODWOOD UNITED CHURCH", "designationCode": "C", "categoryCode": "44", "address": "3880 FRONT ST                 PO BOX 9", "city": "GOODWOOD", "province": "ON", "country": "CA", "postalCode": "L0C1A0", "twitter": "None", "instagram": "None", "facebook": "None", "youtube": "None", "website": "None", "summary": "None", "logo": "None", "latitude": 44.032933593658136, "longitude": -79.19436506737215}, "892069774RR0001": {"name": "GOODYEAR CANADA INC", "designationCode": "C", "categoryCode": "75", "address": "450 KIPLING AVENUE", "city": "ETOBICOKE", "province": "ON", "country": "CA", "postalCode": "M8Z5E1", "twitter": "None", "instagram": "None", "facebook": "None", "youtube": "None", "website": "None", "summary": "None", "logo": "None", "latitude": 43.6090784357436, "longitude": -79.52153456913251}, "899241988RR0001": {"name": "GOOSE BAY MILITARY FAMILY RESOURCE CENTRE INC", "designationCode": "C", "categoryCode": "09", "address": "P.O. BOX 69                   STATION C", "city": "GOOSE BAY", "province": "NL", "country": "CA", "postalCode": "A0P1C0", "twitter": "None", "instagram": "None", "facebook": "None", "youtube": "None", "website": "None", "summary": "None", "logo": "None", "latitude": 53.29994604790562, "longitude": -60.31652858280004}, "888634227RR0001": {"name": "GOOSE COVE CEMETERY SOCIETY", "designationCode": "C", "categoryCode": "59", "address": "RR #4", "city": "BADDECK", "province": "NS", "country": "CA", "postalCode": "B0E1B0", "twitter": "None", "instagram": "None", "facebook": "None", "youtube": "None", "website": "None", "summary": "None", "logo": "None", "latitude": 46.105087584259984, "longitude": -60.76417071042622}, "136951027RR0001": {"name": "GOOSE LAKE HIGH EDUCATIONAL FOUNDATION INC", "designationCode": "C", "categoryCode": "21", "address": "GOOSE LAKE HIGH BOX 759", "city": "ROBLIN", "province": "MB", "country": "CA", "postalCode": "R0L1P0", "twitter": "None", "instagram": "None", "facebook": "None", "youtube": "None", "website": "None", "summary": "None", "logo": "None", "latitude": 51.22195162328277, "longitude": -101.35596162340737}, "894224161RR0001": {"name": "GOOSEY GANDER KINDERGARTEN ASSOCIATION", "designationCode": "C", "categoryCode": "20", "address": "3905 HARO RD", "city": "VICTORIA", "province": "BC", "country": "CA", "postalCode": "V8N4A8", "twitter": "None", "instagram": "None", "facebook": "None", "youtube": "None", "website": "None", "summary": "None", "logo": "None", "latitude": 48.46594149425853, "longitude": -123.30006476219117}}