{"128136918RR0016": {"name": "R.C. EPISCOPAL CORPORATION OF KEEWATIN SACRED HEART PARISH", "designationCode": "C", "categoryCode": "38", "address": "PO BOX 1320 STN MAIN", "city": "THE PAS", "province": "MB", "country": "CA", "postalCode": "R9A1L2", "twitter": "None", "instagram": "None", "facebook": "None", "youtube": "None", "website": "None", "summary": "None", "logo": "None", "latitude": 53.81342700000006, "longitude": -101.25038149999993}, "825574262RR0001": {"name": "R.C. MacGillivray Guest Home Foundation", "designationCode": "A", "categoryCode": "03", "address": "25 XAVIER DRIVE", "city": "SYDNEY", "province": "NS", "country": "CA", "postalCode": "B1S2R9", "twitter": "None", "instagram": "None", "facebook": "None", "youtube": "None", "website": "None", "summary": "None", "logo": "None", "latitude": 46.12334567473585, "longitude": -60.194515957787694}, "840433361RR0001": {"name": "R.C. PARISH OF SHAUNAVON CHRIST THE KING CHURCH", "designationCode": "C", "categoryCode": "38", "address": "BOX 637", "city": "SHAUNAVON", "province": "SK", "country": "CA", "postalCode": "S0N2M0", "twitter": "None", "instagram": "None", "facebook": "None", "youtube": "None", "website": "None", "summary": "None", "logo": "None", "latitude": 49.64645000000007, "longitude": -108.41961999999995}, "804386407RR0001": {"name": "R.C. Shepherds' Fund Foundation of Western Newfoundland Inc.", "designationCode": "A", "categoryCode": "43", "address": "P O BOX 1108                  15 MOUNT BERNARD AVE", "city": "CORNER BROOK", "province": "NL", "country": "CA", "postalCode": "A2H6T2", "twitter": "None", "instagram": "None", "facebook": "None", "youtube": "None", "website": "None", "summary": "None", "logo": "None"}, "828221028RR0001": {"name": "R.C.A.C. SHUSWAP SQUADRON SPONSORING COMMITTEE", "designationCode": "C", "categoryCode": "29", "address": "BOX 176", "city": "SALMON ARM", "province": "BC", "country": "CA", "postalCode": "V1E4N3", "twitter": "None", "instagram": "None", "facebook": "None", "youtube": "None", "website": "None", "summary": "None", "logo": "None", "latitude": 50.70318000000006, "longitude": -119.26884049999992}, "119128726RR0001": {"name": "R.C.A.F. Br. 364 Legion Poppy Fund", "designationCode": "C", "categoryCode": "05", "address": "742 MARTIN LANE", "city": "LASALLE", "province": "ON", "country": "CA", "postalCode": "N9J2W8", "twitter": "None", "instagram": "None", "facebook": "None", "youtube": "None", "website": "None", "summary": "None", "logo": "None", "latitude": 42.20602283287702, "longitude": -83.07713881623123}, "107939860RR0001": {"name": "R.C.C. EARLY CHILDHOOD CENTRE INC.", "designationCode": "C", "categoryCode": "01", "address": "A101-2055 NOTRE DAME AVE", "city": "WINNIPEG", "province": "MB", "country": "CA", "postalCode": "R3H0J9", "twitter": "None", "instagram": "None", "facebook": "None", "youtube": "None", "website": "None", "summary": "None", "logo": "None", "latitude": 49.91638885909885, "longitude": -97.20881436196207}, "831609185RR0001": {"name": "R.C.C.G. Amazing Grace Parish Incorporated", "designationCode": "C", "categoryCode": "39", "address": "2347 RIVERBEND CRESCENT", "city": "REGINA", "province": "SK", "country": "CA", "postalCode": "S4V1G5", "twitter": "None", "instagram": "None", "facebook": "None", "youtube": "None", "website": "None", "summary": "None", "logo": "None", "latitude": 50.44106707409551, "longitude": -104.53834559821709}, "774027528RR0001": {"name": "R.C.C.G. Light House Parish Incorporated", "designationCode": "C", "categoryCode": "39", "address": "11 - 207 MCCALLUM WAY", "city": "SASKATOON", "province": "SK", "country": "CA", "postalCode": "S7R0K6", "twitter": "None", "instagram": "None", "facebook": "None", "youtube": "None", "website": "None", "summary": "None", "logo": "None", "latitude": 52.15266846956002, "longitude": -106.73280377699231}, "860136167RR0001": {"name": "R.C.M. ACADEMY", "designationCode": "C", "categoryCode": "20", "address": "1390 EGLINTON AVE W", "city": "TORONTO", "province": "ON", "country": "CA", "postalCode": "M6C2E4", "twitter": "None", "instagram": "None", "facebook": "None", "youtube": "None", "website": "None", "summary": "None", "logo": "None", "latitude": 43.69837015794321, "longitude": -79.43791898058161}, "119111714RR0001": {"name": "R.C.S. - NETHERWOOD FOUNDATION INCORPORATED", "designationCode": "B", "categoryCode": "25", "address": "40 COLLEGE HILL RD", "city": "ROTHESAY", "province": "NB", "country": "CA", "postalCode": "E2E5H1", "twitter": "None", "instagram": "None", "facebook": "None", "youtube": "None", "website": "None", "summary": "None", "logo": "None"}, "896360542RR0001": {"name": "R.D.D.S. REGROUPEMENT DE DEFENSE DES DROITS SOCIAUX DU DISTRICT DE DRUMMOND", "designationCode": "C", "categoryCode": "59", "address": "1090 RUE LAFONTAINE", "city": "DRUMMONDVILLE", "province": "QC", "country": "CA", "postalCode": "J2B1M9", "twitter": "None", "instagram": "None", "facebook": "None", "youtube": "None", "website": "None", "summary": "None", "logo": "None", "latitude": 45.8682824929022, "longitude": -72.4723283221188}, "883736126RR0001": {"name": "R.E.A.CH INTERNATIONAL--RELIEF, EDUCATION AND CHILD SPONSORSHIP INTERNATIONAL", "designationCode": "C", "categoryCode": "09", "address": "68 ORANGE ST.", "city": "LEAMINGTON", "province": "ON", "country": "CA", "postalCode": "N8H1P9", "twitter": "None", "instagram": "None", "facebook": "None", "youtube": "None", "website": "None", "summary": "None", "logo": "None", "latitude": 42.05279250678068, "longitude": -82.5926940313636}, "838383222RR0001": {"name": "R.E.C. for Kids Society", "designationCode": "C", "categoryCode": "09", "address": "13379-68TH AVENUE", "city": "SURREY", "province": "BC", "country": "CA", "postalCode": "V3W2E8", "twitter": "None", "instagram": "None", "facebook": "None", "youtube": "None", "website": "None", "summary": "None", "logo": "None", "latitude": 49.12644407008991, "longitude": -122.85188024671483}, "119115343RR0001": {"name": "R.E.M. LEE THEATRE ALIVE (1988) SOCIETY", "designationCode": "A", "categoryCode": "21", "address": "4920 STRAUME AVENUE", "city": "TERRACE", "province": "BC", "country": "CA", "postalCode": "V8G4V8", "twitter": "None", "instagram": "None", "facebook": "None", "youtube": "None", "website": "None", "summary": "None", "logo": "None", "latitude": 54.52424045051609, "longitude": -128.60841319747246}, "141365858RR0001": {"name": "R.E.P.A.S. DE ROUYN-NORANDA", "designationCode": "C", "categoryCode": "09", "address": "210-380 AV. RICHARD", "city": "ROUYN-NORANDA", "province": "QC", "country": "CA", "postalCode": "J9X4L3", "twitter": "None", "instagram": "None", "facebook": "None", "youtube": "None", "website": "None", "summary": "None", "logo": "None", "latitude": 48.232449115182646, "longitude": -79.01576169294215}, "816344097RR0001": {"name": "R.E.S.P.E.C.T. Society for Women", "designationCode": "C", "categoryCode": "09", "address": "2313 MARINE DR", "city": "NEW WESTMINSTER", "province": "BC", "country": "CA", "postalCode": "V3M2H6", "twitter": "None", "instagram": "None", "facebook": "None", "youtube": "None", "website": "None", "summary": "None", "logo": "None", "latitude": 49.198054506780686, "longitude": -122.95269613933287}, "105230288RR0001": {"name": "R.J. NELSON FAMILY FOUNDATION", "designationCode": "B", "categoryCode": "03", "address": "SITE BOX 26                   5012 49 ST", "city": "LLOYDMINSTER", "province": "AB", "country": "CA", "postalCode": "T9V0K2", "twitter": "None", "instagram": "None", "facebook": "None", "youtube": "None", "website": "None", "summary": "None", "logo": "None", "latitude": 53.28254452596791, "longitude": -110.00708983236194}, "107899437RR0001": {"name": "R.K. MACDONALD NURSING HOME CORPORATION", "designationCode": "C", "categoryCode": "01", "address": "64 PLEASANT ST", "city": "ANTIGONISH", "province": "NS", "country": "CA", "postalCode": "B2G1W7", "twitter": "None", "instagram": "None", "facebook": "None", "youtube": "None", "website": "None", "summary": "None", "logo": "None", "latitude": 45.62440463454276, "longitude": -61.99195031620446}, "897842746RR0001": {"name": "R.K. NURSING HOME FOUNDATION", "designationCode": "A", "categoryCode": "13", "address": "BOX 1263", "city": "ANTIGONISH", "province": "NS", "country": "CA", "postalCode": "B2G2L6", "twitter": "None", "instagram": "None", "facebook": "None", "youtube": "None", "website": "None", "summary": "None", "logo": "None", "latitude": 45.62219400000005, "longitude": -61.99427149999994}, "119121341RR0001": {"name": "R.K.Y. CAMP", "designationCode": "C", "categoryCode": "56", "address": "100 WRIGHT CRESCENT", "city": "KINGSTON", "province": "ON", "country": "CA", "postalCode": "K7L4T9", "twitter": "None", "instagram": "None", "facebook": "None", "youtube": "None", "website": "None", "summary": "None", "logo": "None", "latitude": 44.23935144993916, "longitude": -76.51682497325268}, "119129393RR0001": {"name": "R.R.C. STUDENT'S ASSOCIATION BUILDING FUND INC.", "designationCode": "A", "categoryCode": "21", "address": "CM20-2055 NOTRE DAME AVE", "city": "WINNIPEG", "province": "MB", "country": "CA", "postalCode": "R3H0J9", "twitter": "None", "instagram": "None", "facebook": "None", "youtube": "None", "website": "None", "summary": "None", "logo": "None", "latitude": 49.91638885909885, "longitude": -97.20881436196207}, "815837653RR0001": {"name": "R&FS Charitable Trust", "designationCode": "B", "categoryCode": "05", "address": "22 ALEXANDRA WOOD", "city": "TORONTO", "province": "ON", "country": "CA", "postalCode": "M5N2S1", "twitter": "None", "instagram": "None", "facebook": "None", "youtube": "None", "website": "None", "summary": "None", "logo": "None", "latitude": 43.71183695862441, "longitude": -79.42334759285006}, "722238094RR0001": {"name": "R&J YOUNES FOUNDATION", "designationCode": "B", "categoryCode": "03", "address": "1 WYEGATE COURT", "city": "TORONTO", "province": "ON", "country": "CA", "postalCode": "M2L1P1", "twitter": "None", "instagram": "None", "facebook": "None", "youtube": "None", "website": "None", "summary": "None", "logo": "None", "latitude": 43.74614277713654, "longitude": -79.38233834745249}, "827718727RR0001": {"name": "R&M Lang Foundation", "designationCode": "B", "categoryCode": "05", "address": "P.O. BOX 261, STN. B          119 SPADINA AVENUE", "city": "TORONTO", "province": "ON", "country": "CA", "postalCode": "M5V2L1", "twitter": "None", "instagram": "None", "facebook": "None", "youtube": "None", "website": "None", "summary": "None", "logo": "None", "latitude": 43.647058487650746, "longitude": -79.39553888369218}, "839373867RR0001": {"name": "R\u00e9gie r\u00e9gionale de la sant\u00e9 A / Regional Health Authority A", "designationCode": "C", "categoryCode": "19", "address": "275, RUE MAIN, BUREAU 600", "city": "BATHURST", "province": "NB", "country": "CA", "postalCode": "E2A1A9", "twitter": "None", "instagram": "None", "facebook": "None", "youtube": "None", "website": "None", "summary": "None", "logo": "None", "latitude": 47.6205402129088, "longitude": -65.65178486912123}, "810970624RR0001": {"name": "R\u00e9pit du travailleur - Worker Rest", "designationCode": "C", "categoryCode": "09", "address": "13 - 580 RUE SAINT-JEAN", "city": "QUEBEC", "province": "QC", "country": "CA", "postalCode": "G1R1P6", "twitter": "None", "instagram": "None", "facebook": "None", "youtube": "None", "website": "None", "summary": "None", "logo": "None", "latitude": 46.81005829032254, "longitude": -71.22015412199197}, "889068094RR0001": {"name": "R\u00e9pit Richelieu", "designationCode": "C", "categoryCode": "09", "address": "665 AVENUE \u00c9VANG\u00c9LINE", "city": "SEPT-\u00ceLES", "province": "QC", "country": "CA", "postalCode": "G4R2N9", "twitter": "None", "instagram": "None", "facebook": "None", "youtube": "None", "website": "None", "summary": "None", "logo": "None", "latitude": 50.21306378821638, "longitude": -66.3887272711926}, "825277270RR0001": {"name": "R\u00e9pit Ted-Autisme Mont\u00e9r\u00e9gie", "designationCode": "C", "categoryCode": "01", "address": "2580, RUE MURVILLE", "city": "BROSSARD", "province": "QC", "country": "CA", "postalCode": "J4Y1M9", "twitter": "None", "instagram": "None", "facebook": "None", "youtube": "None", "website": "None", "summary": "None", "logo": "None", "latitude": 45.4594040558023, "longitude": -73.45991757022902}, "758583322RR0001": {"name": "R\u00e9pit, Bien-\u00c9tre", "designationCode": "C", "categoryCode": "09", "address": "4 - 200 RUE PRINCIPALE", "city": "SAINT-SAUVEUR", "province": "QC", "country": "CA", "postalCode": "J0R1R0", "twitter": "None", "instagram": "None", "facebook": "None", "youtube": "None", "website": "None", "summary": "None", "logo": "None", "latitude": 45.89576037382445, "longitude": -74.15613350663644}, "870632544RR0001": {"name": "R\u00e9seau cancer de la prostate Canada de l'ouest de l'\u00cele de Montr\u00e9al/Prostate Cancer Canada Network - Montr\u00e9al West Island", "designationCode": "C", "categoryCode": "11", "address": "CP 722 SUCC POINTE-CLAIRE", "city": "POINTE-CLAIRE", "province": "QC", "country": "CA", "postalCode": "H9R4S8", "twitter": "None", "instagram": "None", "facebook": "None", "youtube": "None", "website": "None", "summary": "None", "logo": "None", "latitude": 45.44809800000006, "longitude": -73.81735099999993}, "866555014RR0001": {"name": "R\u00e9seau cyclable de la Sauvagine", "designationCode": "C", "categoryCode": "56", "address": "50, RUE DU FORT", "city": "SOREL-TRACY", "province": "QC", "country": "CA", "postalCode": "J3P7X7", "twitter": "None", "instagram": "None", "facebook": "None", "youtube": "None", "website": "None", "summary": "None", "logo": "None", "latitude": 46.046784951411055, "longitude": -73.11578359740903}, "802119370RR0001": {"name": "R\u00e9seau d'\u00e9criture pour enfants - la voix d'Iman", "designationCode": "C", "categoryCode": "09", "address": "3714 RUE CELINE-MARIER", "city": "SAINT-LAURENT", "province": "QC", "country": "CA", "postalCode": "H4R3N4", "twitter": "None", "instagram": "None", "facebook": "None", "youtube": "None", "website": "None", "summary": "None", "logo": "None", "latitude": 45.501333853713554, "longitude": -73.72646574412816}, "810147637RR0001": {"name": "R\u00e9seau d'action en sant\u00e9 cardiovasculaire / Cardiovascular Health Action Association", "designationCode": "C", "categoryCode": "11", "address": "314 - 257 RUE SAINT-ARMAND", "city": "CHICOUTIMI", "province": "QC", "country": "CA", "postalCode": "G7G1S4", "twitter": "None", "instagram": "None", "facebook": "None", "youtube": "None", "website": "None", "summary": "None", "logo": "None", "latitude": 48.44524114797693, "longitude": -71.08687610552447}, "894672849RR0001": {"name": "R\u00e9seau d'enseignement francophone \u00e0 distance du Canada (REFAD)", "designationCode": "C", "categoryCode": "20", "address": "C.P. 47542                    C POSTAL PLATEAU MONT-ROYAL", "city": "MONTREAL", "province": "QC", "country": "CA", "postalCode": "H2H2S8", "twitter": "None", "instagram": "None", "facebook": "None", "youtube": "None", "website": "None", "summary": "None", "logo": "None", "latitude": 45.51239400000006, "longitude": -73.55469049999994}, "890980584RR0001": {"name": "R\u00e9seau d'intervention aupr\u00e8s des personnes ayant subi la violence organis\u00e9e (RIVO)", "designationCode": "C", "categoryCode": "09", "address": "6865 AV CHRISTOPHE-COLOMB     BUREAU 300", "city": "MONTREAL", "province": "QC", "country": "CA", "postalCode": "H2S2H3", "twitter": "None", "instagram": "None", "facebook": "None", "youtube": "None", "website": "None", "summary": "None", "logo": "None", "latitude": 45.540244287004306, "longitude": -73.60692887411288}, "806042313RR0001": {"name": "R\u00e9seau d'Appui Plus", "designationCode": "C", "categoryCode": "21", "address": "56 DUNLOP CRT", "city": "BRAMPTON", "province": "ON", "country": "CA", "postalCode": "L6X4Y4", "twitter": "None", "instagram": "None", "facebook": "None", "youtube": "None", "website": "None", "summary": "None", "logo": "None", "latitude": 43.678720751024414, "longitude": -79.80999873674192}, "872634605RR0001": {"name": "R\u00e9seau des complexes jeunesses multifonctionnels-P\u00e9ninsule Acadienne-Inc.", "designationCode": "C", "categoryCode": "09", "address": "604 RUE RIVIERE-A-LA-TRUITE", "city": "TRACADIE-SHEILA", "province": "NB", "country": "CA", "postalCode": "E1X1A7", "twitter": "None", "instagram": "None", "facebook": "None", "youtube": "None", "website": "None", "summary": "None", "logo": "None", "latitude": 47.51558729081608, "longitude": -64.92312154560824}, "803446723RR0001": {"name": "R\u00e9seau des Proches Aidants Les Moulins", "designationCode": "C", "categoryCode": "09", "address": "298 RUE JOSEPH-GUAY", "city": "TERREBONNE", "province": "QC", "country": "CA", "postalCode": "J6W4S3", "twitter": "None", "instagram": "None", "facebook": "None", "youtube": "None", "website": "None", "summary": "None", "logo": "None", "latitude": 45.69486999971156, "longitude": -73.65586758921472}, "119153831RR0001": {"name": "R\u00e9seau du patrimoine franco-ontarien", "designationCode": "C", "categoryCode": "50", "address": "267 DALHOUSIE ST", "city": "OTTAWA", "province": "ON", "country": "CA", "postalCode": "K1N7E3", "twitter": "None", "instagram": "None", "facebook": "None", "youtube": "None", "website": "None", "summary": "None", "logo": "None", "latitude": 45.43049899001668, "longitude": -75.69247797181038}, "121008965RR0001": {"name": "R\u00e9seau du sport \u00e9tudiant du Qu\u00e9bec (RSEQ)", "designationCode": "C", "categoryCode": "21", "address": "4545 PIERRE DE COUBERTIN", "city": "MONTREAL", "province": "QC", "country": "CA", "postalCode": "H1V3R2", "twitter": "None", "instagram": "None", "facebook": "None", "youtube": "None", "website": "None", "summary": "None", "logo": "None", "latitude": 45.555920590080106, "longitude": -73.55036240097485}, "141024570RR0001": {"name": "R\u00e9seau entraide solidarit\u00e9 monde", "designationCode": "C", "categoryCode": "09", "address": "25, RUE JARRY OUEST", "city": "MONTREAL", "province": "QC", "country": "CA", "postalCode": "H2P1S6", "twitter": "None", "instagram": "None", "facebook": "None", "youtube": "None", "website": "None", "summary": "None", "logo": "None", "latitude": 45.53849931447277, "longitude": -73.63160199685467}, "872544374RR0001": {"name": "R\u00e9seau intercoll\u00e9gial des activit\u00e9s socioculturelles du Qu\u00e9bec", "designationCode": "C", "categoryCode": "21", "address": "4635, 1\u00c8RE AVENUE             BUREAU 225", "city": "QU\u00c9BEC", "province": "QC", "country": "CA", "postalCode": "G1H2T1", "twitter": "None", "instagram": "None", "facebook": "None", "youtube": "None", "website": "None", "summary": "None", "logo": "None", "latitude": 46.84489485149185, "longitude": -71.25161813924596}, "819308354RR0001": {"name": "R\u00e9seau pour animaux perdus et trouv\u00e9s / Lost and Found Pet Network", "designationCode": "C", "categoryCode": "54", "address": "C.P. 89057                    COMPTOIR ELYS\u00c9E", "city": "LAVAL", "province": "QC", "country": "CA", "postalCode": "H7W5K1", "twitter": "None", "instagram": "None", "facebook": "None", "youtube": "None", "website": "None", "summary": "None", "logo": "None", "latitude": 45.527066448766604, "longitude": -73.75691294163757}, "728485129RR0001": {"name": "R\u00e9seau pour la paix et l'harmonie social / Peace Network for Social Harmony", "designationCode": "C", "categoryCode": "29", "address": "1000 RUE DE LA GAUCHETIERE O  BUREAU 900", "city": "MONTREAL", "province": "QC", "country": "CA", "postalCode": "H3B5H4", "twitter": "None", "instagram": "None", "facebook": "None", "youtube": "None", "website": "None", "summary": "None", "logo": "None", "latitude": 45.49846698248619, "longitude": -73.56698518102652}, "132670886RR0001": {"name": "R\u00e9seau pour le d\u00e9veloppement de l'alphab\u00e9tisme et des comp\u00e9tences Canada inc.", "designationCode": "C", "categoryCode": "29", "address": "235 CHEMIN MONTREAL", "city": "VANIER", "province": "ON", "country": "CA", "postalCode": "K1L6C7", "twitter": "None", "instagram": "None", "facebook": "None", "youtube": "None", "website": "None", "summary": "None", "logo": "None", "latitude": 45.4360034690691, "longitude": -75.6618840251312}, "133533190RR0001": {"name": "R\u00e9seau Avant de Craquer", "designationCode": "C", "categoryCode": "11", "address": "1990 RUE CYRILE-DUQUET #203", "city": "QUEBEC", "province": "QC", "country": "CA", "postalCode": "G1N4K8", "twitter": "None", "instagram": "None", "facebook": "None", "youtube": "None", "website": "None", "summary": "None", "logo": "None", "latitude": 46.79618544546712, "longitude": -71.26901220483005}, "866289648RR0001": {"name": "R\u00e9seau Internet de Brossard", "designationCode": "C", "categoryCode": "20", "address": "3205 BOUL DE ROME", "city": "BROSSARD", "province": "QC", "country": "CA", "postalCode": "J4Y1R2", "twitter": "None", "instagram": "None", "facebook": "None", "youtube": "None", "website": "None", "summary": "None", "logo": "None", "latitude": 45.4491920868488, "longitude": -73.4546381517108}, "806710380RR0001": {"name": "R\u00e9seau L'Intersection de Qu\u00e9bec", "designationCode": "C", "categoryCode": "09", "address": "269 - 265 RUE DE LA COURONNE", "city": "QUEBEC", "province": "QC", "country": "CA", "postalCode": "G1K6E1", "twitter": "None", "instagram": "None", "facebook": "None", "youtube": "None", "website": "None", "summary": "None", "logo": "None", "latitude": 46.81424191536039, "longitude": -71.2246968659003}, "899893960RR0001": {"name": "R\u00e9seau Petits Pas", "designationCode": "C", "categoryCode": "01", "address": "150 RUE PRINCIPALE NORD", "city": "MANIWAKI", "province": "QC", "country": "CA", "postalCode": "J9E2B8", "twitter": "None", "instagram": "None", "facebook": "None", "youtube": "None", "website": "None", "summary": "None", "logo": "None", "latitude": 46.38393945045877, "longitude": -75.98506331519391}, "817518327RR0001": {"name": "R\u00e9seau QUALAXIA", "designationCode": "C", "categoryCode": "11", "address": "5436 AV BRODEUR", "city": "MONTREAL", "province": "QC", "country": "CA", "postalCode": "H4A1J3", "twitter": "None", "instagram": "None", "facebook": "None", "youtube": "None", "website": "None", "summary": "None", "logo": "None", "latitude": 45.476953512897516, "longitude": -73.62032897319537}, "832729040RR0001": {"name": "R\u00e9seau Sentinelle Champlain", "designationCode": "C", "categoryCode": "09", "address": "3339, BOUL GRANDE-ALL\u00c9E", "city": "SAINT-HUBERT", "province": "QC", "country": "CA", "postalCode": "J4T2S9", "twitter": "None", "instagram": "None", "facebook": "None", "youtube": "None", "website": "None", "summary": "None", "logo": "None", "latitude": 45.49629404025042, "longitude": -73.4755752352127}, "887886752RR0001": {"name": "R\u00e9seaux d'entraide des Appalaches", "designationCode": "C", "categoryCode": "09", "address": "200, NOTRE-DAME OUEST", "city": "THETFORD MINES", "province": "QC", "country": "CA", "postalCode": "G6G1J6", "twitter": "None", "instagram": "None", "facebook": "None", "youtube": "None", "website": "None", "summary": "None", "logo": "None", "latitude": 46.08822320315661, "longitude": -71.30278932679336}, "819300237RR0001": {"name": "R\u00e9sidence \u00c0 l'ombre du clocher", "designationCode": "C", "categoryCode": "09", "address": "390, RUE DU GALAIS", "city": "NOTRE-DAME-DE-LOURDES", "province": "QC", "country": "CA", "postalCode": "J0K1K0", "twitter": "None", "instagram": "None", "facebook": "None", "youtube": "None", "website": "None", "summary": "None", "logo": "None", "latitude": 46.075706999999994, "longitude": -73.48893363644734}, "896158532RR0001": {"name": "R\u00e9sidence d'h\u00e9bergement La Chaumi\u00e8re inc.", "designationCode": "C", "categoryCode": "01", "address": "240, 4 AVENUE", "city": "VAL-D'OR", "province": "QC", "country": "CA", "postalCode": "J9P1G6", "twitter": "None", "instagram": "None", "facebook": "None", "youtube": "None", "website": "None", "summary": "None", "logo": "None", "latitude": 48.10157039107843, "longitude": -77.77451941020836}, "819997693RR0001": {"name": "R\u00e9sidence de soins Palliatifs Saint Raphael Inc./The Saint Raphael's Palliative Care Residence Inc.", "designationCode": "C", "categoryCode": "11", "address": "2001, AVENUE LAJOIE", "city": "MONTR\u00c9AL", "province": "QC", "country": "CA", "postalCode": "H3S1V6", "twitter": "None", "instagram": "None", "facebook": "None", "youtube": "None", "website": "None", "summary": "None", "logo": "None", "latitude": 45.51196486153249, "longitude": -73.61869184185431}, "132345729RR0001": {"name": "R\u00e9sidence des bl\u00e9s d'or inc.", "designationCode": "C", "categoryCode": "09", "address": "15, AVENUE DU MOULIN", "city": "ST-THOMAS-DIDYME", "province": "QC", "country": "CA", "postalCode": "G0W1P0", "twitter": "None", "instagram": "None", "facebook": "None", "youtube": "None", "website": "None", "summary": "None", "logo": "None", "latitude": 48.90889882956333, "longitude": -72.66435127335698}, "142984640RR0001": {"name": "R\u00e9sidence des Moissons", "designationCode": "C", "categoryCode": "09", "address": "235, TERRASSE CADOT", "city": "SAINTE-ANNE-DES-PLAINES", "province": "QC", "country": "CA", "postalCode": "J0N1H0", "twitter": "None", "instagram": "None", "facebook": "None", "youtube": "None", "website": "None", "summary": "None", "logo": "None", "latitude": 45.76470868079537, "longitude": -73.81485497484015}, "805421708RR0001": {"name": "R\u00e9sidence des Prairies", "designationCode": "C", "categoryCode": "09", "address": "150 RUE JETTE", "city": "NOTRE-DAME-DES-PRAIRIES", "province": "QC", "country": "CA", "postalCode": "J6E0V4", "twitter": "None", "instagram": "None", "facebook": "None", "youtube": "None", "website": "None", "summary": "None", "logo": "None", "latitude": 46.040334704974285, "longitude": -73.43347132168611}, "843376922RR0001": {"name": "R\u00e9sidence du Moulin", "designationCode": "C", "categoryCode": "09", "address": "165 RUE DE L'ECOLE", "city": "CHICOUTIMI", "province": "QC", "country": "CA", "postalCode": "G7H3X8", "twitter": "None", "instagram": "None", "facebook": "None", "youtube": "None", "website": "None", "summary": "None", "logo": "None", "latitude": 48.428718118789305, "longitude": -71.03905042264452}, "107887861RR0001": {"name": "R\u00e9sidence les Cascades inc.", "designationCode": "C", "categoryCode": "09", "address": "3461, BOULEVARD GOUIN EST", "city": "MONTR\u00c9AL", "province": "QC", "country": "CA", "postalCode": "H1H1B2", "twitter": "None", "instagram": "None", "facebook": "None", "youtube": "None", "website": "None", "summary": "None", "logo": "None", "latitude": 45.590547718304485, "longitude": -73.65046688291278}, "813706108RR0001": {"name": "R\u00e9sidence Bienvenue", "designationCode": "C", "categoryCode": "99", "address": "12684 BOUL GOUIN O", "city": "PIERREFONDS", "province": "QC", "country": "CA", "postalCode": "H8Z1W4", "twitter": "None", "instagram": "None", "facebook": "None", "youtube": "None", "website": "None", "summary": "None", "logo": "None", "latitude": 45.504740674643664, "longitude": -73.83582395765201}, "846062388RR0001": {"name": "R\u00e9sidence Charles Couillard 2006", "designationCode": "C", "categoryCode": "09", "address": "20, AVENUE ST-GEORGES", "city": "ST-CHARLES-DE-BELLECHASSE", "province": "QC", "country": "CA", "postalCode": "G0R2T0", "twitter": "None", "instagram": "None", "facebook": "None", "youtube": "None", "website": "None", "summary": "None", "logo": "None", "latitude": 46.77332793031924, "longitude": -70.94309652703576}, "144024486RR0001": {"name": "R\u00e9sidence Christ-Roi", "designationCode": "C", "categoryCode": "09", "address": "1190 RUE NOTRE-DAME", "city": "SHAWINIGAN", "province": "QC", "country": "CA", "postalCode": "G9N3S4", "twitter": "None", "instagram": "None", "facebook": "None", "youtube": "None", "website": "None", "summary": "None", "logo": "None", "latitude": 46.55904244298561, "longitude": -72.73907365358671}, "812601268RR0001": {"name": "R\u00e9sidence D'Ailleboust de Sainte-M\u00e9lanie", "designationCode": "C", "categoryCode": "09", "address": "1090 RTE PRINCIPALE", "city": "SAINTE-MELANIE", "province": "QC", "country": "CA", "postalCode": "J0K3A0", "twitter": "None", "instagram": "None", "facebook": "None", "youtube": "None", "website": "None", "summary": "None", "logo": "None", "latitude": 46.135854159559315, "longitude": -73.51188340697705}, "810524421RR0001": {"name": "R\u00e9sidence Dor\u00e9e", "designationCode": "C", "categoryCode": "09", "address": "4822, RUE DES PEUPLIERS", "city": "LA DOR\u00c9", "province": "QC", "country": "CA", "postalCode": "G8J1E6", "twitter": "None", "instagram": "None", "facebook": "None", "youtube": "None", "website": "None", "summary": "None", "logo": "None", "latitude": 48.71188258257829, "longitude": -72.64724006728618}, "865346159RR0001": {"name": "R\u00e9sidence Florentine-Dansereau", "designationCode": "C", "categoryCode": "09", "address": "21 RUE SAINT-PASCAL", "city": "VERCHERES", "province": "QC", "country": "CA", "postalCode": "J0L2R0", "twitter": "None", "instagram": "None", "facebook": "None", "youtube": "None", "website": "None", "summary": "None", "logo": "None", "latitude": 45.7761188151366, "longitude": -73.35616842226915}, "852923648RR0001": {"name": "R\u00e9sidence G\u00e9rard Blanchet", "designationCode": "C", "categoryCode": "09", "address": "1022 RUE MARCELLIN", "city": "DESBIENS", "province": "QC", "country": "CA", "postalCode": "G0W1N0", "twitter": "None", "instagram": "None", "facebook": "None", "youtube": "None", "website": "None", "summary": "None", "logo": "None", "latitude": 48.4182803072594, "longitude": -71.94796493421437}, "858904196RR0001": {"name": "R\u00e9sidence Jah Jireh", "designationCode": "B", "categoryCode": "09", "address": "279 BRIGGS OUEST", "city": "LONGEUIL", "province": "QC", "country": "CA", "postalCode": "J4J1R2", "twitter": "None", "instagram": "None", "facebook": "None", "youtube": "None", "website": "None", "summary": "None", "logo": "None", "latitude": 45.52944565029715, "longitude": -73.4904605259679}, "849713557RR0001": {"name": "R\u00e9sidence Jean-Paul II inc.", "designationCode": "C", "categoryCode": "09", "address": "8470 RUE CENTRALE", "city": "LASALLE", "province": "QC", "country": "CA", "postalCode": "H8P1N1", "twitter": "None", "instagram": "None", "facebook": "None", "youtube": "None", "website": "None", "summary": "None", "logo": "None", "latitude": 45.41878788591388, "longitude": -73.61422431611754}, "827487190RR0001": {"name": "R\u00e9sidence La P'tite Maison Bleue", "designationCode": "C", "categoryCode": "01", "address": "2406 9E RANG", "city": "ROXTON FALLS", "province": "QC", "country": "CA", "postalCode": "J0H1E0", "twitter": "None", "instagram": "None", "facebook": "None", "youtube": "None", "website": "None", "summary": "None", "logo": "None", "latitude": 45.57627405229244, "longitude": -72.59835925285105}, "837860899RR0001": {"name": "R\u00e9sidence Le Monarque", "designationCode": "C", "categoryCode": "11", "address": "532 RUE NOTRE-DAME", "city": "MONTEBELLO", "province": "QC", "country": "CA", "postalCode": "J0V1L0", "twitter": "None", "instagram": "None", "facebook": "None", "youtube": "None", "website": "None", "summary": "None", "logo": "None", "latitude": 45.650130539529265, "longitude": -74.94056130391252}, "820059533RR0001": {"name": "R\u00e9sidence Meilleur du Haut Pontiac", "designationCode": "C", "categoryCode": "09", "address": "75 RUE NOTRE-DAME", "city": "L'\u00ceSLE-AUX-ALLUMETTES", "province": "QC", "country": "CA", "postalCode": "J0X1M0", "twitter": "None", "instagram": "None", "facebook": "None", "youtube": "None", "website": "None", "summary": "None", "logo": "None", "latitude": 45.910169369438364, "longitude": -77.07280578005074}, "816767735RR0001": {"name": "R\u00e9sidence Saint-Thomas", "designationCode": "C", "categoryCode": "09", "address": "1240 ROUTE 158", "city": "SAINT-THOMAS", "province": "QC", "country": "CA", "postalCode": "J0K3L0", "twitter": "None", "instagram": "None", "facebook": "None", "youtube": "None", "website": "None", "summary": "None", "logo": "None", "latitude": 46.01758457894941, "longitude": -73.3422378190572}, "809928260RR0001": {"name": "R\u00e9sidence St-Jean-Baptiste-Chicoutimi", "designationCode": "C", "categoryCode": "09", "address": "38, RUE FRONTENAC", "city": "CHICOUTIMI", "province": "QC", "country": "CA", "postalCode": "G7G2C5", "twitter": "None", "instagram": "None", "facebook": "None", "youtube": "None", "website": "None", "summary": "None", "logo": "None", "latitude": 48.43985116959997, "longitude": -71.07671379358341}, "821595444RR0001": {"name": "R\u00e9sidence St-Jean-Eudes", "designationCode": "C", "categoryCode": "09", "address": "2098, RUE OCTAVE", "city": "JONQUIERE", "province": "QC", "country": "CA", "postalCode": "G7S4A7", "twitter": "None", "instagram": "None", "facebook": "None", "youtube": "None", "website": "None", "summary": "None", "logo": "None", "latitude": 48.432750600063436, "longitude": -71.13244001872589}, "841506447RR0001": {"name": "R\u00e9sidence St-Paul-Chicoutimi", "designationCode": "C", "categoryCode": "09", "address": "524 RUE SAINT-AUGUSTIN", "city": "CHICOUTIMI", "province": "QC", "country": "CA", "postalCode": "G7J2J9", "twitter": "None", "instagram": "None", "facebook": "None", "youtube": "None", "website": "None", "summary": "None", "logo": "None", "latitude": 48.41478981764676, "longitude": -71.08647765113386}, "870423068RR0002": {"name": "R\u00e9sidences C\u00f4me-Cartier", "designationCode": "C", "categoryCode": "09", "address": "220 RUE LABELLE SUD", "city": "RIVIERE-ROUGE", "province": "QC", "country": "CA", "postalCode": "J0T1T0", "twitter": "None", "instagram": "None", "facebook": "None", "youtube": "None", "website": "None", "summary": "None", "logo": "None", "latitude": 46.40775457092153, "longitude": -74.87049883498767}, "835637067RR0001": {"name": "R\u00e9sidences L\u00e9onaises", "designationCode": "C", "categoryCode": "09", "address": "18 PLACE DE L'\u00c9GLISE", "city": "SAINT-L\u00c9ON-LE-GRAND", "province": "QC", "country": "CA", "postalCode": "G0J2W0", "twitter": "None", "instagram": "None", "facebook": "None", "youtube": "None", "website": "None", "summary": "None", "logo": "None", "latitude": 48.37978526478731, "longitude": -67.50438164917198}, "803252402RR0001": {"name": "R\u00e9sidences Pygmalion", "designationCode": "C", "categoryCode": "09", "address": "290, CHEMIN B\u00c9CHARD", "city": "VAL-D'OR", "province": "QC", "country": "CA", "postalCode": "J9P0C1", "twitter": "None", "instagram": "None", "facebook": "None", "youtube": "None", "website": "None", "summary": "None", "logo": "None", "latitude": 48.25953757975172, "longitude": -77.94852498646067}, "801980020RR0001": {"name": "R\u00e9verb\u00e8re Th\u00e9\u00e2tre", "designationCode": "C", "categoryCode": "22", "address": "1012, MONT-ROYAL EST          BUREAU 107", "city": "MONTR\u00c9AL", "province": "QC", "country": "CA", "postalCode": "H2J1X6", "twitter": "None", "instagram": "None", "facebook": "None", "youtube": "None", "website": "None", "summary": "None", "logo": "None", "latitude": 45.52751606826714, "longitude": -73.57961028585046}, "817384431RR0001": {"name": "R\u00eanes de la Libert\u00e9", "designationCode": "C", "categoryCode": "56", "address": "1980, RUE SHERBROOKE OUEST    SUITE 900", "city": "MONTR\u00c9AL", "province": "QC", "country": "CA", "postalCode": "H3H1E8", "twitter": "None", "instagram": "None", "facebook": "None", "youtube": "None", "website": "None", "summary": "None", "logo": "None", "latitude": 45.493851552859475, "longitude": -73.58409800204882}, "856175849RR0001": {"name": "R\u00c9SEAU ACC\u00c8S CR\u00c9DIT", "designationCode": "C", "categoryCode": "09", "address": "101-76 ST-GERMAIN O", "city": "RIMOUSKI", "province": "QC", "country": "CA", "postalCode": "G5L4B5", "twitter": "None", "instagram": "None", "facebook": "None", "youtube": "None", "website": "None", "summary": "None", "logo": "None", "latitude": 48.44923590921493, "longitude": -68.53320288612892}, "132529041RR0001": {"name": "R\u00c9SEAU ACCESS NETWORK", "designationCode": "C", "categoryCode": "11", "address": "111 LARCH STREET, SUITE 400   BOX 10", "city": "SUDBURY", "province": "ON", "country": "CA", "postalCode": "P3E4T5", "twitter": "None", "instagram": "None", "facebook": "None", "youtube": "None", "website": "None", "summary": "None", "logo": "None", "latitude": 46.49124153028181, "longitude": -80.9926881898312}, "131587859RR0001": {"name": "R\u00c9SEAU ALTERNATIF ET COMMUNAUTAIRE DES ORGANISMES (RACOR) ENSANT\u00c9 MENTALE", "designationCode": "C", "categoryCode": "11", "address": "55 AVENUE DU MONT ROYAL OUEST BUREAU 602", "city": "MONTREAL", "province": "QC", "country": "CA", "postalCode": "H2T2S6", "twitter": "None", "instagram": "None", "facebook": "None", "youtube": "None", "website": "None", "summary": "None", "logo": "None", "latitude": 45.519369756881446, "longitude": -73.5870339511799}, "852635234RR0001": {"name": "R\u00c9SEAU DE COMMUNICATION POUR LA PR\u00c9VENTION DES ACTES CRIMINELS", "designationCode": "C", "categoryCode": "09", "address": "PO BOX 32058 CSP SAINT-ANDR\u00c9", "city": "MONTR\u00c9AL", "province": "QC", "country": "CA", "postalCode": "H2L4Y5", "twitter": "None", "instagram": "None", "facebook": "None", "youtube": "None", "website": "None", "summary": "None", "logo": "None", "latitude": 45.518293863210474, "longitude": -73.56232569710893}, "104483169RR0001": {"name": "R\u00c9SIDENCE BERTHIAUME-DU TREMBLAY", "designationCode": "C", "categoryCode": "01", "address": "1635, BOULEVARD GOUIN EST", "city": "MONTREAL", "province": "QC", "country": "CA", "postalCode": "H2C1C2", "twitter": "None", "instagram": "None", "facebook": "None", "youtube": "None", "website": "None", "summary": "None", "logo": "None", "latitude": 45.5664815614987, "longitude": -73.66177114648737}, "141126110RR0001": {"name": "R\u00c9SIDENCE DE LABRECQUE", "designationCode": "C", "categoryCode": "01", "address": "1410 RUE PRINCIPALE", "city": "LABRECQUE", "province": "QC", "country": "CA", "postalCode": "G0W2S0", "twitter": "None", "instagram": "None", "facebook": "None", "youtube": "None", "website": "None", "summary": "None", "logo": "None", "latitude": 48.67384699275798, "longitude": -71.52377496055672}, "132671306RR0002": {"name": "R\u00c9SIDENCE DU PHARE INC.", "designationCode": "C", "categoryCode": "01", "address": "1268 BOUL DE CAP-DES-ROSIERS", "city": "GASPE", "province": "QC", "country": "CA", "postalCode": "G4X6H1", "twitter": "None", "instagram": "None", "facebook": "None", "youtube": "None", "website": "None", "summary": "None", "logo": "None", "latitude": 48.86260969190388, "longitude": -64.20733095438256}, "104483342RR0001": {"name": "R\u00c9SIDENCE FLEURIE INC.", "designationCode": "C", "categoryCode": "01", "address": "12320 NOTRE-DAME EST", "city": "MONTREAL", "province": "QC", "country": "CA", "postalCode": "H1B2Z1", "twitter": "None", "instagram": "None", "facebook": "None", "youtube": "None", "website": "None", "summary": "None", "logo": "None", "latitude": 45.643553402995, "longitude": -73.48971151520612}, "119017127RR0001": {"name": "R\u00c9SIDENCE J\u00c9SUITE JEAN-DE-BR\u00c9BEUF", "designationCode": "C", "categoryCode": "46", "address": "460 1ER RUE", "city": "RICHELIEU", "province": "QC", "country": "CA", "postalCode": "J3L4B5", "twitter": "None", "instagram": "None", "facebook": "None", "youtube": "None", "website": "None", "summary": "None", "logo": "None", "latitude": 45.44870556942925, "longitude": -73.2618040494552}, "852958982RR0001": {"name": "R\u00c9SIDENCE LATERROISE INC.", "designationCode": "C", "categoryCode": "09", "address": "9-6159 RUE LAPOINTE", "city": "LATERRI\u00c8RE", "province": "QC", "country": "CA", "postalCode": "G7N0A4", "twitter": "None", "instagram": "None", "facebook": "None", "youtube": "None", "website": "None", "summary": "None", "logo": "None", "latitude": 48.31047483068851, "longitude": -71.1084513785563}, "874599319RR0001": {"name": "R\u00c9SIDENCE LAURIER", "designationCode": "C", "categoryCode": "09", "address": "238 14E AVENUE", "city": "SAINT-LIN-LAURENTIDES", "province": "QC", "country": "CA", "postalCode": "J5M2X5", "twitter": "None", "instagram": "None", "facebook": "None", "youtube": "None", "website": "None", "summary": "None", "logo": "None", "latitude": 45.85504152726691, "longitude": -73.756224}, "107306052RR0001": {"name": "R\u00c9SIDENCE VALL\u00c9E DE LA ROUGE INC.", "designationCode": "C", "categoryCode": "09", "address": "102 RUE DU VERT-PRE", "city": "HUBERDEAU", "province": "QC", "country": "CA", "postalCode": "J0T1G0", "twitter": "None", "instagram": "None", "facebook": "None", "youtube": "None", "website": "None", "summary": "None", "logo": "None", "latitude": 45.974777216227025, "longitude": -74.63702671259168}, "138503263RR0001": {"name": "R\u00c9ZO (sant\u00e9 et mieux-\u00eatre des hommes gais et bisexuels)", "designationCode": "C", "categoryCode": "11", "address": "CP 246 SUCC C", "city": "MONTREAL", "province": "QC", "country": "CA", "postalCode": "H2L4K1", "twitter": "None", "instagram": "None", "facebook": "None", "youtube": "None", "website": "None", "summary": "None", "logo": "None", "latitude": 45.51239400000006, "longitude": -73.55469049999994}, "807447016RR0001": {"name": "Rachael's Centre for Torah, Mussar & Ethics", "designationCode": "C", "categoryCode": "20", "address": "143 ARNOLD CRES", "city": "RICHMOND HILL", "province": "ON", "country": "CA", "postalCode": "L4C3R7", "twitter": "None", "instagram": "None", "facebook": "None", "youtube": "None", "website": "None", "summary": "None", "logo": "None", "latitude": 43.87070500998333, "longitude": -79.44385684531677}, "823405527RR0001": {"name": "Racham International Charitable Association", "designationCode": "C", "categoryCode": "01", "address": "PO BOX 2404 STN A", "city": "ABBOTSFORD", "province": "BC", "country": "CA", "postalCode": "V2T4X3", "twitter": "None", "instagram": "None", "facebook": "None", "youtube": "None", "website": "None", "summary": "None", "logo": "None", "latitude": 49.05161700000005, "longitude": -122.32930399999994}, "843796384RR0001": {"name": "Rachel's Kids Development Fund", "designationCode": "C", "categoryCode": "59", "address": "D - 525 NINTH ST E", "city": "CORNWALL", "province": "ON", "country": "CA", "postalCode": "K6H0A3", "twitter": "None", "instagram": "None", "facebook": "None", "youtube": "None", "website": "None", "summary": "None", "logo": "None", "latitude": 45.03190592091283, "longitude": -74.7235381058918}, "819431701RR0001": {"name": "Rachmaninoff Music Academy", "designationCode": "C", "categoryCode": "22", "address": "395 QUEENSTON ROAD            RR 4", "city": "NIAGARA-ON-THE-LAKE", "province": "ON", "country": "CA", "postalCode": "L0S1J0", "twitter": "None", "instagram": "None", "facebook": "None", "youtube": "None", "website": "None", "summary": "None", "logo": "None", "latitude": 43.163706532315885, "longitude": -79.16259235928213}, "830663456RR0001": {"name": "Radha Govind Cultural Society", "designationCode": "C", "categoryCode": "48", "address": "2348 30 AVENUE", "city": "EDMONTON", "province": "AB", "country": "CA", "postalCode": "T6T1Z8", "twitter": "None", "instagram": "None", "facebook": "None", "youtube": "None", "website": "None", "summary": "None", "logo": "None", "latitude": 53.460857460470756, "longitude": -113.37633}}