{"856332903RR0001": {"name": "EGLISE DE DIEU (SEPTIEME JOUR) / CHURCH OF GOD (SEVENTH DAY) / IGLESIA DE DIOS (SEPTIMO DIA)", "designationCode": "C", "categoryCode": "39", "address": "2305 RUE DE CARIGNAN", "city": "LAVAL", "province": "QC", "country": "CA", "postalCode": "H7K2B5", "twitter": "None", "instagram": "None", "facebook": "None", "youtube": "None", "website": "None", "summary": "None", "logo": "None", "latitude": 45.6206187618731, "longitude": -73.73273661489418}, "133235929RR0009": {"name": "EGLISE DE DIEU AU QUEBEC CHURCH OF GOD IN QUEBEC", "designationCode": "C", "categoryCode": "39", "address": "19 RUE ORLY", "city": "GRANBY", "province": "QC", "country": "CA", "postalCode": "J2H1Y4", "twitter": "None", "instagram": "None", "facebook": "None", "youtube": "None", "website": "None", "summary": "None", "logo": "None", "latitude": 45.42730149708581, "longitude": -72.72552163353315}, "870297793RR0001": {"name": "EGLISE DE DIEU BETHEL ROUMAINE /ROMANIAN CHURCH OF GOD BETHEL", "designationCode": "C", "categoryCode": "39", "address": "670, AVENUE J.-J. JOUBERT", "city": "LAVAL", "province": "QC", "country": "CA", "postalCode": "H7G4J1", "twitter": "None", "instagram": "None", "facebook": "None", "youtube": "None", "website": "None", "summary": "None", "logo": "None", "latitude": 45.578576683305535, "longitude": -73.67586084987573}, "870713310RR0001": {"name": "EGLISE DE DIEU BREBIS DU SEIGNEUR", "designationCode": "C", "categoryCode": "39", "address": "PO BOX 7361                   STATION VANIER", "city": "OTTAWA", "province": "ON", "country": "CA", "postalCode": "K1L8E4", "twitter": "None", "instagram": "None", "facebook": "None", "youtube": "None", "website": "None", "summary": "None", "logo": "None", "latitude": 45.42177300000006, "longitude": -75.69115999999994}, "865440028RR0001": {"name": "EGLISE DE DIEU CENTRALE DE MONTREAL", "designationCode": "C", "categoryCode": "47", "address": "12348 RUE LOUISE-DECHENE", "city": "MONTREAL", "province": "QC", "country": "CA", "postalCode": "H1C2K6", "twitter": "None", "instagram": "None", "facebook": "None", "youtube": "None", "website": "None", "summary": "None", "logo": "None", "latitude": 45.664378072710534, "longitude": -73.54793012519461}, "855769766RR0001": {"name": "EGLISE DE DIEU D'EXPRESSION FRANCAISE D'OTTAWA/FRENCH CHURCH OF GOD OF OTTAWA", "designationCode": "C", "categoryCode": "39", "address": "1161A AND 1161B CYRVILLE", "city": "OTTAWA", "province": "ON", "country": "CA", "postalCode": "K1J7S6", "twitter": "None", "instagram": "None", "facebook": "None", "youtube": "None", "website": "None", "summary": "None", "logo": "None", "latitude": 45.423836965263334, "longitude": -75.63160562743155}, "892599069RR0001": {"name": "EGLISE DE DIEU DE BETHEL", "designationCode": "C", "categoryCode": "39", "address": "7290 BLOOMFIELD", "city": "MONTREAL", "province": "QC", "country": "CA", "postalCode": "H3N2G9", "twitter": "None", "instagram": "None", "facebook": "None", "youtube": "None", "website": "None", "summary": "None", "logo": "None", "latitude": 45.52781608630055, "longitude": -73.62567935013553}, "141051284RR0002": {"name": "EGLISE DE DIEU DE GARIZIM", "designationCode": "C", "categoryCode": "39", "address": "11800 4E AVENUE", "city": "MONTREAL", "province": "QC", "country": "CA", "postalCode": "H1E5Y2", "twitter": "None", "instagram": "None", "facebook": "None", "youtube": "None", "website": "None", "summary": "None", "logo": "None", "latitude": 45.62274540299499, "longitude": -73.60222042261492}, "899327118RR0001": {"name": "EGLISE DE DIEU DE L'ETERNITE", "designationCode": "C", "categoryCode": "39", "address": "46, RUE RICHARD", "city": "LAVAL", "province": "QC", "country": "CA", "postalCode": "H7M1T8", "twitter": "None", "instagram": "None", "facebook": "None", "youtube": "None", "website": "None", "summary": "None", "logo": "None", "latitude": 45.586107042731925, "longitude": -73.71235985134763}, "894424993RR0001": {"name": "EGLISE DE DIEU DE LA NOUVELLE ALLIANCE (EDNA)", "designationCode": "C", "categoryCode": "39", "address": "2441 HEATON AVE", "city": "OTTAWA", "province": "ON", "country": "CA", "postalCode": "K1G1J8", "twitter": "None", "instagram": "None", "facebook": "None", "youtube": "None", "website": "None", "summary": "None", "logo": "None", "latitude": 45.39329166945574, "longitude": -75.61327974522469}, "892921966RR0001": {"name": "EGLISE DE DIEU DE LA PROPHETIE AU QUEBEC", "designationCode": "C", "categoryCode": "39", "address": "5054 RUE ANTONINO-SPADA", "city": "SAINT-LEONARD", "province": "QC", "country": "CA", "postalCode": "H1R0B5", "twitter": "None", "instagram": "None", "facebook": "None", "youtube": "None", "website": "None", "summary": "None", "logo": "None", "latitude": 45.591591363581315, "longitude": -73.61597681236663}, "890727548RR0001": {"name": "EGLISE DE DIEU DE LA PROPHETIE DE MONTREAL-NORD/CHURCH OF GOD OF PROPHECY MONTREAL-NORD", "designationCode": "C", "categoryCode": "39", "address": "5626 BOUL. L\u00c9GER", "city": "MONTREAL-NORD", "province": "QC", "country": "CA", "postalCode": "H1G1K3", "twitter": "None", "instagram": "None", "facebook": "None", "youtube": "None", "website": "None", "summary": "None", "logo": "None", "latitude": 45.61436435025112, "longitude": -73.63047189670526}, "846421477RR0001": {"name": "EGLISE DE DIEU DE ST-MICHEL", "designationCode": "C", "categoryCode": "39", "address": "3157, BOULEVARD ROBERT", "city": "MONTREAL", "province": "QC", "country": "CA", "postalCode": "H1Z1X9", "twitter": "None", "instagram": "None", "facebook": "None", "youtube": "None", "website": "None", "summary": "None", "logo": "None", "latitude": 45.56698708104908, "longitude": -73.61924395158394}, "894182179RR0001": {"name": "EGLISE DE DIEU DU MONT SINAI", "designationCode": "C", "categoryCode": "39", "address": "1675 AV MORGAN", "city": "MONTREAL", "province": "QC", "country": "CA", "postalCode": "H1V2P8", "twitter": "None", "instagram": "None", "facebook": "None", "youtube": "None", "website": "None", "summary": "None", "logo": "None", "latitude": 45.552541797131866, "longitude": -73.53620192824175}, "863079422RR0001": {"name": "EGLISE DE DIEU EBEN-EZER", "designationCode": "C", "categoryCode": "39", "address": "1939, AV. CHARLAND", "city": "MONTREAL", "province": "QC", "country": "CA", "postalCode": "H1Z1A1", "twitter": "None", "instagram": "None", "facebook": "None", "youtube": "None", "website": "None", "summary": "None", "logo": "None", "latitude": 45.56560823703039, "longitude": -73.6440086877776}, "890642994RR0001": {"name": "EGLISE DE DIEU EN CHRIST (MENNONITE) DU QUEBEC", "designationCode": "C", "categoryCode": "34", "address": "401, RUE NOTRE-DAME", "city": "ROXTON FALLS", "province": "QC", "country": "CA", "postalCode": "J0H1E0", "twitter": "None", "instagram": "None", "facebook": "None", "youtube": "None", "website": "None", "summary": "None", "logo": "None", "latitude": 45.579979544121436, "longitude": -72.51415999331103}, "825330673RR0001": {"name": "EGLISE DE DIEU EVANGELIQUE RIVE-SUD", "designationCode": "C", "categoryCode": "39", "address": "3305 RUE DE SALIERES", "city": "SAINT-HUBERT", "province": "QC", "country": "CA", "postalCode": "J3Z0A5", "twitter": "None", "instagram": "None", "facebook": "None", "youtube": "None", "website": "None", "summary": "None", "logo": "None", "latitude": 45.4671459528247, "longitude": -73.34725950862699}, "899165930RR0001": {"name": "EGLISE DE DIEU HAITIENNE DE MONTREAL", "designationCode": "C", "categoryCode": "39", "address": "2520 RUE CHARLAND", "city": "MONTREAL", "province": "QC", "country": "CA", "postalCode": "H1Z1C5", "twitter": "None", "instagram": "None", "facebook": "None", "youtube": "None", "website": "None", "summary": "None", "logo": "None", "latitude": 45.57212859671656, "longitude": -73.6384278055573}, "827827072RR0001": {"name": "EGLISE DE DIEU KADOSH SHADDAI / IGLESIA DE DIOS KADOSH SHADDAI", "designationCode": "C", "categoryCode": "39", "address": "706 RUE A. GIBEAULT", "city": "GATINEAU", "province": "QC", "country": "CA", "postalCode": "J8R4C5", "twitter": "None", "instagram": "None", "facebook": "None", "youtube": "None", "website": "None", "summary": "None", "logo": "None", "latitude": 45.50477100360669, "longitude": -75.62957153569143}, "891306540RR0001": {"name": "EGLISE DE DIEU MISSION APOSTOLIQUE", "designationCode": "C", "categoryCode": "39", "address": "1115 DU COTEAU", "city": "LAVAL", "province": "QC", "country": "CA", "postalCode": "H7A2B1", "twitter": "None", "instagram": "None", "facebook": "None", "youtube": "None", "website": "None", "summary": "None", "logo": "None", "latitude": 45.67383312129948, "longitude": -73.5826948956374}, "818929721RR0001": {"name": "EGLISE DE DIEU MONTREAL NORD-OUEST", "designationCode": "C", "categoryCode": "39", "address": "2821 RUE D'AIGREMONT", "city": "LAVAL", "province": "QC", "country": "CA", "postalCode": "H7E5K4", "twitter": "None", "instagram": "None", "facebook": "None", "youtube": "None", "website": "None", "summary": "None", "logo": "None", "latitude": 45.60030756206337, "longitude": -73.6830578158864}, "829342542RR0001": {"name": "EGLISE DE DIEU O'BRIEN/THE O'BRIEN CHURCH OF GOD", "designationCode": "C", "categoryCode": "39", "address": "11961 O'BRIEN BOULEVARD", "city": "MONTREAL", "province": "QC", "country": "CA", "postalCode": "H4J1Z1", "twitter": "None", "instagram": "None", "facebook": "None", "youtube": "None", "website": "None", "summary": "None", "logo": "None", "latitude": 45.531944244532205, "longitude": -73.70620835079936}, "890828346RR0001": {"name": "EGLISE DE DIEU PENTECOTISTE \"MOUVEMENT INTERNATIONAL\" IGLES", "designationCode": "C", "categoryCode": "39", "address": "658 - 3E AVENUE", "city": "LACHINEL", "province": "QC", "country": "CA", "postalCode": "H8S2T8", "twitter": "None", "instagram": "None", "facebook": "None", "youtube": "None", "website": "None", "summary": "None", "logo": "None", "latitude": 45.441193348673025, "longitude": -73.66661667610865}, "101589455RR0001": {"name": "EGLISE DE DIEU REPARATEUR DES BRECHES", "designationCode": "C", "categoryCode": "39", "address": "8200 RUE BIRNAM", "city": "MONTREAL", "province": "QC", "country": "CA", "postalCode": "H3N2T9", "twitter": "None", "instagram": "None", "facebook": "None", "youtube": "None", "website": "None", "summary": "None", "logo": "None", "latitude": 45.528758079087176, "longitude": -73.63950096670314}, "872247309RR0001": {"name": "EGLISE DE DIEU SAINTETE", "designationCode": "C", "categoryCode": "39", "address": "12058, AVENUE COPERNIC", "city": "MONTREAL", "province": "QC", "country": "CA", "postalCode": "H1E1V9", "twitter": "None", "instagram": "None", "facebook": "None", "youtube": "None", "website": "None", "summary": "None", "logo": "None", "latitude": 45.6331711024007, "longitude": -73.59271518806605}, "843307125RR0001": {"name": "EGLISE DE DIEU TAMIL DE ZION / TAMIL ZION CHURCH OF GOD", "designationCode": "C", "categoryCode": "39", "address": "7383 BOUL.ST.LAURENT          SUITE 102", "city": "MONTREAL", "province": "QC", "country": "CA", "postalCode": "H2R1W7", "twitter": "None", "instagram": "None", "facebook": "None", "youtube": "None", "website": "None", "summary": "None", "logo": "None", "latitude": 45.53587630143104, "longitude": -73.62070105285945}, "834192569RR0001": {"name": "EGLISE DE JEAN INC.", "designationCode": "C", "categoryCode": "39", "address": "626, ROUTE DU SANCTUAIRE", "city": "LAC-ETCHEMIN", "province": "QC", "country": "CA", "postalCode": "G0R1S0", "twitter": "None", "instagram": "None", "facebook": "None", "youtube": "None", "website": "None", "summary": "None", "logo": "None", "latitude": 46.38889625578277, "longitude": -70.50398658702751}, "871696019RR0001": {"name": "EGLISE DE JESUS-CHRIST \"LA DERNIERE SAISON\"", "designationCode": "C", "categoryCode": "39", "address": "10857 BOUL PIE-IX", "city": "MONTREAL-NORD", "province": "QC", "country": "CA", "postalCode": "H1H4A9", "twitter": "None", "instagram": "None", "facebook": "None", "youtube": "None", "website": "None", "summary": "None", "logo": "None", "latitude": 45.59082800695358, "longitude": -73.63713140296633}, "141949057RR0001": {"name": "EGLISE DE JESUS-CHRIST DE L'ABITIBI", "designationCode": "C", "categoryCode": "39", "address": "21 RUE DES \u00c9RABLES", "city": "SENNETERRE", "province": "QC", "country": "CA", "postalCode": "J0Y2M0", "twitter": "None", "instagram": "None", "facebook": "None", "youtube": "None", "website": "None", "summary": "None", "logo": "None", "latitude": 48.36473356702638, "longitude": -77.21742605759131}, "107286791RR0001": {"name": "EGLISE DE JESUS-CHRIST DE LA PENTECOTE", "designationCode": "C", "categoryCode": "39", "address": "77-125 RUE                    C.P 1003", "city": "SHAWINIGAN-SUD", "province": "QC", "country": "CA", "postalCode": "G9P4E6", "twitter": "None", "instagram": "None", "facebook": "None", "youtube": "None", "website": "None", "summary": "None", "logo": "None", "latitude": 46.52573221062978, "longitude": -72.73309409723615}, "134519107RR0001": {"name": "EGLISE DE JESUS-CHRIST PERE-FILS-ST-ESPRIT", "designationCode": "C", "categoryCode": "39", "address": "8370 BLVD LACORDAIRE          BUREAU 306-2", "city": "SAINT-LEONARD", "province": "QC", "country": "CA", "postalCode": "H1R3Y6", "twitter": "None", "instagram": "None", "facebook": "None", "youtube": "None", "website": "None", "summary": "None", "logo": "None", "latitude": 45.58593308825408, "longitude": -73.59577164997947}, "118782630RR0006": {"name": "EGLISE DE L'ALLIANCE CHRETIENNE ET MISSIONNAIRE DE STE-FOY", "designationCode": "C", "categoryCode": "49", "address": "70 GRANDE ALLEE O", "city": "QUEBEC", "province": "QC", "country": "CA", "postalCode": "G1R2G6", "twitter": "None", "instagram": "None", "facebook": "None", "youtube": "None", "website": "None", "summary": "None", "logo": "None", "latitude": 46.802393558168234, "longitude": -71.22343678937023}, "870644002RR0001": {"name": "EGLISE DE LA GRANDE FAMILLE DE DIEU", "designationCode": "C", "categoryCode": "39", "address": "14140, DE MONTIGNY", "city": "MONTREAL", "province": "QC", "country": "CA", "postalCode": "H1A1K4", "twitter": "None", "instagram": "None", "facebook": "None", "youtube": "None", "website": "None", "summary": "None", "logo": "None", "latitude": 45.670358305297505, "longitude": -73.4989568907613}, "133308213RR0001": {"name": "EGLISE DE LA NOUVELLE ESPERANCE", "designationCode": "C", "categoryCode": "36", "address": "104-7240 BLD MAURICE-DUPLESSIS", "city": "MONTREAL", "province": "QC", "country": "CA", "postalCode": "H1E4A7", "twitter": "None", "instagram": "None", "facebook": "None", "youtube": "None", "website": "None", "summary": "None", "logo": "None", "latitude": 45.62357821259166, "longitude": -73.60225936635128}, "107286817RR0001": {"name": "EGLISE DE LA PAROLE VIVANTE", "designationCode": "C", "categoryCode": "36", "address": "540 RUE FRONTENAC", "city": "BERTHIERVILLE", "province": "QC", "country": "CA", "postalCode": "J0K1A0", "twitter": "None", "instagram": "None", "facebook": "None", "youtube": "None", "website": "None", "summary": "None", "logo": "None", "latitude": 46.08352229920933, "longitude": -73.17211726496019}, "118904101RR0001": {"name": "EGLISE DE LA PENTECOTE EVANGEL THE EVANGEL PENTECOSTAL CHURCH", "designationCode": "C", "categoryCode": "36", "address": "2152 STE-CATHERINE ST. WEST", "city": "MONTREAL", "province": "QC", "country": "CA", "postalCode": "H3H1M7", "twitter": "None", "instagram": "None", "facebook": "None", "youtube": "None", "website": "None", "summary": "None", "logo": "None", "latitude": 45.49074395446948, "longitude": -73.58281087036198}, "135851889RR0001": {"name": "EGLISE DE LA PENTECOTE PIEDRA VIVA/IGLESIA PENTECOSTAL PIEDRA VIVA", "designationCode": "C", "categoryCode": "39", "address": "7400 MAURICE COURTOIS", "city": "MONTREAL", "province": "QC", "country": "CA", "postalCode": "H1E3N6", "twitter": "None", "instagram": "None", "facebook": "None", "youtube": "None", "website": "None", "summary": "None", "logo": "None", "latitude": 45.631895051330254, "longitude": -73.60660887743111}, "107909939RR0018": {"name": "EGLISE DE STE-FAMILLE", "designationCode": "C", "categoryCode": "38", "address": "1717 5 STREET SW", "city": "CALGARY", "province": "AB", "country": "CA", "postalCode": "T2S2A8", "twitter": "None", "instagram": "None", "facebook": "None", "youtube": "None", "website": "None", "summary": "None", "logo": "None", "latitude": 51.037090742714526, "longitude": -114.07423362643537}, "894918697RR0001": {"name": "EGLISE DES ADORATEURS CHRETIENS BAPTISTES", "designationCode": "C", "categoryCode": "39", "address": "4720 AV. PAPINEAU", "city": "MONTREAL", "province": "QC", "country": "CA", "postalCode": "H2H1V3", "twitter": "None", "instagram": "None", "facebook": "None", "youtube": "None", "website": "None", "summary": "None", "logo": "None", "latitude": 45.53403698277465, "longitude": -73.57711560618027}, "119008787RR0001": {"name": "EGLISE DES FRERES MENNONITES DE ST-LAURENT QUEBEC", "designationCode": "C", "categoryCode": "34", "address": "1775 BOUL EDOUARD-LAURIN", "city": "SAINT-LAURENT", "province": "QC", "country": "CA", "postalCode": "H4L2B9", "twitter": "None", "instagram": "None", "facebook": "None", "youtube": "None", "website": "None", "summary": "None", "logo": "None", "latitude": 45.51044020595523, "longitude": -73.68580951736956}, "119008787RR0002": {"name": "EGLISE DES FRERES MENNONITES DE STE-THERESE", "designationCode": "C", "categoryCode": "34", "address": "2, CHEMIN DU RAVEN", "city": "STE-THERESE", "province": "QC", "country": "CA", "postalCode": "J7E2T2", "twitter": "None", "instagram": "None", "facebook": "None", "youtube": "None", "website": "None", "summary": "None", "logo": "None", "latitude": 45.647666860253516, "longitude": -73.83689364115183}, "868403544RR0001": {"name": "EGLISE DES RACHETES DE L'ETERNEL", "designationCode": "C", "categoryCode": "39", "address": "12176, RUE CHARLES RENARD", "city": "MONTREAL", "province": "QC", "country": "CA", "postalCode": "H1E1X6", "twitter": "None", "instagram": "None", "facebook": "None", "youtube": "None", "website": "None", "summary": "None", "logo": "None", "latitude": 45.63694653398934, "longitude": -73.59170145242066}, "118895705RR0001": {"name": "EGLISE DU BON BERGER", "designationCode": "C", "categoryCode": "36", "address": "CP 993", "city": "THETFORD MINES", "province": "QC", "country": "CA", "postalCode": "G6G7N1", "twitter": "None", "instagram": "None", "facebook": "None", "youtube": "None", "website": "None", "summary": "None", "logo": "None", "latitude": 46.09057200000005, "longitude": -71.29926349999994}, "118895721RR0001": {"name": "EGLISE DU CHRIST (MONTREAL)/IGLESIA NI CRISTO (MONTREAL)", "designationCode": "C", "categoryCode": "39", "address": "300 ST-CHARLES BLVD.", "city": "BEACONSFIELD", "province": "QC", "country": "CA", "postalCode": "H9W2X6", "twitter": "None", "instagram": "None", "facebook": "None", "youtube": "None", "website": "None", "summary": "None", "logo": "None", "latitude": 45.44520313737099, "longitude": -73.85200445259355}, "887978245RR0001": {"name": "EGLISE DU DIEU FIDELE \"E D F\"", "designationCode": "C", "categoryCode": "39", "address": "8422 9E AVENUE", "city": "MONTREAL", "province": "QC", "country": "CA", "postalCode": "H1Z2Z3", "twitter": "None", "instagram": "None", "facebook": "None", "youtube": "None", "website": "None", "summary": "None", "logo": "None", "latitude": 45.56496672410422, "longitude": -73.61594219859764}, "885248047RR0001": {"name": "EGLISE DU JUBILEE DE QUEBEC", "designationCode": "B", "categoryCode": "39", "address": "4458-M DES BOSQUETS", "city": "ST-AUGUSTIN", "province": "QC", "country": "CA", "postalCode": "G3A1C2", "twitter": "None", "instagram": "None", "facebook": "None", "youtube": "None", "website": "None", "summary": "None", "logo": "None", "latitude": 46.750591025823695, "longitude": -71.37505812949378}, "892679960RR0001": {"name": "EGLISE DU NAZAREEN DE ST-MICHEL", "designationCode": "C", "categoryCode": "39", "address": "8455 9 AVE", "city": "MONTREAL", "province": "QC", "country": "CA", "postalCode": "H1Z2Z4", "twitter": "None", "instagram": "None", "facebook": "None", "youtube": "None", "website": "None", "summary": "None", "logo": "None", "latitude": 45.565230257573944, "longitude": -73.6164013524728}, "894179779RR0001": {"name": "EGLISE DU NAZAREEN DU QUEBEC / THE CHURCH OF THE NAZARENE OFQUEBEC", "designationCode": "C", "categoryCode": "39", "address": "451 RUE SPRING GARDEN", "city": "DOLLARD-DES-ORMEAUX", "province": "QC", "country": "CA", "postalCode": "H9B1T2", "twitter": "None", "instagram": "None", "facebook": "None", "youtube": "None", "website": "None", "summary": "None", "logo": "None", "latitude": 45.49987297140636, "longitude": -73.79047639990792}, "813259876RR0001": {"name": "EGLISE DU NAZAREEN LE ROCHER DES SIECLES", "designationCode": "C", "categoryCode": "39", "address": "12354 - 26E AVENUE", "city": "MONTREAL", "province": "QC", "country": "CA", "postalCode": "H1E1X6", "twitter": "None", "instagram": "None", "facebook": "None", "youtube": "None", "website": "None", "summary": "None", "logo": "None", "latitude": 45.63965506243874, "longitude": -73.59254315142232}, "860747542RR0001": {"name": "EGLISE DU PEUPLE DE DIEU/PEOPLE CHURCH OF GOD", "designationCode": "C", "categoryCode": "49", "address": "1780 RUE PAQUETTE", "city": "BROSSARD", "province": "QC", "country": "CA", "postalCode": "J4W2Y6", "twitter": "None", "instagram": "None", "facebook": "None", "youtube": "None", "website": "None", "summary": "None", "logo": "None", "latitude": 45.465962951151255, "longitude": -73.47587223117333}, "139677298RR0001": {"name": "EGLISE DU PLEIN EVANGILE", "designationCode": "C", "categoryCode": "36", "address": "248 BOUL PERRON OUEST", "city": "NEW RICHMOND", "province": "QC", "country": "CA", "postalCode": "G0C2B0", "twitter": "None", "instagram": "None", "facebook": "None", "youtube": "None", "website": "None", "summary": "None", "logo": "None", "latitude": 48.17067073304832, "longitude": -65.87383159732306}, "894420090RR0001": {"name": "EGLISE DU PLEIN EVANGILE DE LA F.E.C.I.E.C. INC.", "designationCode": "C", "categoryCode": "39", "address": "7944 5E RANG", "city": "DISRAELI", "province": "QC", "country": "CA", "postalCode": "G0N1E0", "twitter": "None", "instagram": "None", "facebook": "None", "youtube": "None", "website": "None", "summary": "None", "logo": "None", "latitude": 45.880168550951836, "longitude": -71.38361615184625}, "130397573RR0001": {"name": "EGLISE DU SACRE-COEUR,", "designationCode": "C", "categoryCode": "38", "address": "424 AVENUE BRANDON", "city": "WINNIPEG", "province": "MB", "country": "CA", "postalCode": "R3L0T6", "twitter": "None", "instagram": "None", "facebook": "None", "youtube": "None", "website": "None", "summary": "None", "logo": "None", "latitude": 49.868118053551946, "longitude": -97.1356322890531}, "864406335RR0001": {"name": "EGLISE DU SANCTUAIRE EVANGELIQUE BAPTISTE DE MONTREAL", "designationCode": "C", "categoryCode": "39", "address": "3875 EST BOUL CREMAZIE", "city": "MONTREAL", "province": "QC", "country": "CA", "postalCode": "H1Z2K9", "twitter": "None", "instagram": "None", "facebook": "None", "youtube": "None", "website": "None", "summary": "None", "logo": "None", "latitude": 45.56855873855958, "longitude": -73.6018046332447}, "886247022RR0001": {"name": "EGLISE DU SENTIER DE LA VALLEE DU RICHELIEU / RICHELIEU VALLEY PATH'S CHURCH", "designationCode": "C", "categoryCode": "39", "address": "C.P. 35", "city": "CHAMBLY", "province": "QC", "country": "CA", "postalCode": "J3L4B1", "twitter": "None", "instagram": "None", "facebook": "None", "youtube": "None", "website": "None", "summary": "None", "logo": "None", "latitude": 45.44688887675296, "longitude": -73.28799924287813}, "118791490RR0001": {"name": "EGLISE ESPOIR ET VIE", "designationCode": "C", "categoryCode": "36", "address": "200 AVENUE DES PINS           CASE POSTALE 34", "city": "LA SARRE", "province": "QC", "country": "CA", "postalCode": "J9Z1H8", "twitter": "None", "instagram": "None", "facebook": "None", "youtube": "None", "website": "None", "summary": "None", "logo": "None", "latitude": 48.811222646113556, "longitude": -79.1943496376881}, "107287211RR0001": {"name": "EGLISE EVANG\u00c9LIQUE BAPTISTE DE VALLEYFIELD", "designationCode": "C", "categoryCode": "31", "address": "CP 447", "city": "SALABERRY-DE-VALLEYFIELD", "province": "QC", "country": "CA", "postalCode": "J6S4V7", "twitter": "None", "instagram": "None", "facebook": "None", "youtube": "None", "website": "None", "summary": "None", "logo": "None", "latitude": 45.25893600000006, "longitude": -74.10716449999994}, "889063657RR0001": {"name": "EGLISE EVANGELIQUE APOTRES ET PROPHETES MONT HOREB", "designationCode": "C", "categoryCode": "39", "address": "8044 ST. MICHEL 2EME ETAGE", "city": "MONTREAL", "province": "QC", "country": "CA", "postalCode": "H1Z3E1", "twitter": "None", "instagram": "None", "facebook": "None", "youtube": "None", "website": "None", "summary": "None", "logo": "None", "latitude": 45.563506734635794, "longitude": -73.60913216253083}, "101589489RR0001": {"name": "EGLISE EVANGELIQUE ASSOCIEE DE VERDUN", "designationCode": "C", "categoryCode": "39", "address": "350 WOODLAND", "city": "VERDUN", "province": "QC", "country": "CA", "postalCode": "H4H1V6", "twitter": "None", "instagram": "None", "facebook": "None", "youtube": "None", "website": "None", "summary": "None", "logo": "None", "latitude": 45.45239452510254, "longitude": -73.57005469900167}, "118895952RR0001": {"name": "EGLISE EVANGELIQUE BAPTISTE", "designationCode": "C", "categoryCode": "31", "address": "343 RUE LANCTOT CP 292", "city": "CHIBOUGAMAU", "province": "QC", "country": "CA", "postalCode": "G8P2K7", "twitter": "None", "instagram": "None", "facebook": "None", "youtube": "None", "website": "None", "summary": "None", "logo": "None", "latitude": 49.92180544800593, "longitude": -74.3669530453863}, "107286239RR0001": {"name": "EGLISE EVANGELIQUE BAPTISTE D'ALMA", "designationCode": "C", "categoryCode": "31", "address": "42 CHEMIN DE LAEROPORT", "city": "ALMA", "province": "QC", "country": "CA", "postalCode": "G8B5V2", "twitter": "None", "instagram": "None", "facebook": "None", "youtube": "None", "website": "None", "summary": "None", "logo": "None", "latitude": 48.51269277266449, "longitude": -71.65723538663504}, "865736573RR0001": {"name": "EGLISE EVANGELIQUE BAPTISTE D'ORLEANS", "designationCode": "C", "categoryCode": "39", "address": "480 BOUL CHARLEMAGNE", "city": "ORLEANS", "province": "ON", "country": "CA", "postalCode": "K4A1S0", "twitter": "None", "instagram": "None", "facebook": "None", "youtube": "None", "website": "None", "summary": "None", "logo": "None", "latitude": 45.46831666994667, "longitude": -75.48892732387917}, "860075860RR0001": {"name": "EGLISE EVANGELIQUE BAPTISTE D'OTTAWA", "designationCode": "C", "categoryCode": "31", "address": "284 AVE KING EDWARD", "city": "OTTAWA", "province": "ON", "country": "CA", "postalCode": "K1N7M4", "twitter": "None", "instagram": "None", "facebook": "None", "youtube": "None", "website": "None", "summary": "None", "logo": "None", "latitude": 45.430997396329886, "longitude": -75.68780530809613}, "894729169RR0001": {"name": "EGLISE EVANGELIQUE BAPTISTE DE BAIE-COMEAU", "designationCode": "C", "categoryCode": "38", "address": "400 RUE DE PUYJALON", "city": "BAIE-COMEAU", "province": "QC", "country": "CA", "postalCode": "G5C1M5", "twitter": "None", "instagram": "None", "facebook": "None", "youtube": "None", "website": "None", "summary": "None", "logo": "None", "latitude": 49.19293641661365, "longitude": -68.24858664516125}, "107287047RR0001": {"name": "EGLISE EVANGELIQUE BAPTISTE DE CHARLEVOIX", "designationCode": "C", "categoryCode": "31", "address": "34 BOUL NOTRE-DAME", "city": "CLERMONT", "province": "QC", "country": "CA", "postalCode": "G4A1C4", "twitter": "None", "instagram": "None", "facebook": "None", "youtube": "None", "website": "None", "summary": "None", "logo": "None", "latitude": 47.68759272159404, "longitude": -70.21290774883136}, "141258228RR0001": {"name": "EGLISE EVANGELIQUE BAPTISTE DE COTE DES NEIGES", "designationCode": "C", "categoryCode": "49", "address": "4824 CH DE LA COTE-DES-NEIGES BUREAU 206", "city": "MONTREAL", "province": "QC", "country": "CA", "postalCode": "H3V1G4", "twitter": "None", "instagram": "None", "facebook": "None", "youtube": "None", "website": "None", "summary": "None", "logo": "None", "latitude": 45.49532050288555, "longitude": -73.61328180391251}, "814829875RR0001": {"name": "EGLISE EVANGELIQUE BAPTISTE DE COWANSVILLE", "designationCode": "C", "categoryCode": "39", "address": "137 RUE JOHN", "city": "COWANSVILLE", "province": "QC", "country": "CA", "postalCode": "J2K1W9", "twitter": "None", "instagram": "None", "facebook": "None", "youtube": "None", "website": "None", "summary": "None", "logo": "None", "latitude": 45.203087557851134, "longitude": -72.75032411671184}, "880959713RR0001": {"name": "EGLISE EVANGELIQUE BAPTISTE DE L'ESPOIR", "designationCode": "C", "categoryCode": "39", "address": "20845, BOUL. HENRI-BOURASSA", "city": "QU\u00c9BEC", "province": "QC", "country": "CA", "postalCode": "G2N1P6", "twitter": "None", "instagram": "None", "facebook": "None", "youtube": "None", "website": "None", "summary": "None", "logo": "None", "latitude": 46.90660613347583, "longitude": -71.32111078325339}, "869420521RR0001": {"name": "EGLISE EVANGELIQUE BAPTISTE DE LA CITE", "designationCode": "C", "categoryCode": "39", "address": "13 RUE MENARD", "city": "ST-BASILE-LE-GRAND", "province": "QC", "country": "CA", "postalCode": "J3N1J1", "twitter": "None", "instagram": "None", "facebook": "None", "youtube": "None", "website": "None", "summary": "None", "logo": "None", "latitude": 45.52038255565808, "longitude": -73.29420591574828}, "890181944RR0001": {"name": "EGLISE EVANGELIQUE BAPTISTE DE LA GRACE", "designationCode": "C", "categoryCode": "31", "address": "3065 BOUL WALLBERG", "city": "DOLBEAU-MISTASSINI", "province": "QC", "country": "CA", "postalCode": "G8L3P4", "twitter": "None", "instagram": "None", "facebook": "None", "youtube": "None", "website": "None", "summary": "None", "logo": "None", "latitude": 48.890182737145935, "longitude": -72.28357644021564}, "118895853RR0001": {"name": "EGLISE EVANGELIQUE BAPTISTE DE LA LIEVRE", "designationCode": "C", "categoryCode": "31", "address": "117 RUE MCLAREN OUEST         C.P. 2734", "city": "GATINEAU", "province": "QC", "country": "CA", "postalCode": "J8L2X1", "twitter": "None", "instagram": "None", "facebook": "None", "youtube": "None", "website": "None", "summary": "None", "logo": "None", "latitude": 45.586355855415675, "longitude": -75.42191262141505}, "888861473RR0001": {"name": "EGLISE EVANGELIQUE BAPTISTE DE MANAHAIM", "designationCode": "C", "categoryCode": "39", "address": "12082, 63E AVENUE", "city": "MONTREAL", "province": "QC", "country": "CA", "postalCode": "H1C2A5", "twitter": "None", "instagram": "None", "facebook": "None", "youtube": "None", "website": "None", "summary": "None", "logo": "None", "latitude": 45.65324336496629, "longitude": -73.55936480365271}, "836390278RR0001": {"name": "EGLISE EVANGELIQUE BAPTISTE DE MONT-TREMBLANT", "designationCode": "C", "categoryCode": "39", "address": "C.P.4415", "city": "MONT-TREMBLANT", "province": "QC", "country": "CA", "postalCode": "J8E1A1", "twitter": "None", "instagram": "None", "facebook": "None", "youtube": "None", "website": "None", "summary": "None", "logo": "None", "latitude": 46.11832800000006, "longitude": -74.60168299999994}, "894388487RR0001": {"name": "EGLISE EVANGELIQUE BAPTISTE DE POINTE-AUX-TREMBLES", "designationCode": "C", "categoryCode": "31", "address": "1321 BOUL SAINT-JEAN BAPTISTE", "city": "MONTREAL", "province": "QC", "country": "CA", "postalCode": "H1B4A2", "twitter": "None", "instagram": "None", "facebook": "None", "youtube": "None", "website": "None", "summary": "None", "logo": "None", "latitude": 45.64205229672783, "longitude": -73.50284902816095}, "125731869RR0001": {"name": "EGLISE EVANGELIQUE BAPTISTE DE QUEBEC", "designationCode": "C", "categoryCode": "31", "address": "4700 AVE CHAUVEAU", "city": "NEUFCHATEL", "province": "QC", "country": "CA", "postalCode": "G2C1A7", "twitter": "None", "instagram": "None", "facebook": "None", "youtube": "None", "website": "None", "summary": "None", "logo": "None", "latitude": 46.82541181548238, "longitude": -71.35967870684927}, "107287146RR0001": {"name": "EGLISE EVANGELIQUE BAPTISTE DE QUEBEC-EST", "designationCode": "C", "categoryCode": "31", "address": "8870 RUE DU POINT-DU-JOUR", "city": "QUEBEC", "province": "QC", "country": "CA", "postalCode": "G2C1S3", "twitter": "None", "instagram": "None", "facebook": "None", "youtube": "None", "website": "None", "summary": "None", "logo": "None", "latitude": 46.82562263226376, "longitude": -71.35821259489887}, "107287161RR0001": {"name": "EGLISE EVANGELIQUE BAPTISTE DE ROBERVAL", "designationCode": "C", "categoryCode": "31", "address": "2116 BOUL DU JARDIN", "city": "SAINT-FELICIEN", "province": "QC", "country": "CA", "postalCode": "G8K2T4", "twitter": "None", "instagram": "None", "facebook": "None", "youtube": "None", "website": "None", "summary": "None", "logo": "None", "latitude": 48.685663684459385, "longitude": -72.495873955566}, "118895903RR0002": {"name": "EGLISE EVANGELIQUE BAPTISTE DE SAINT-HYACINTHE", "designationCode": "C", "categoryCode": "31", "address": "405 BOUL LAURIER", "city": "STE-MADELEINE", "province": "QC", "country": "CA", "postalCode": "J0H1S0", "twitter": "None", "instagram": "None", "facebook": "None", "youtube": "None", "website": "None", "summary": "None", "logo": "None", "latitude": 45.59495614467483, "longitude": -73.09738813887856}, "107287187RR0001": {"name": "EGLISE EVANGELIQUE BAPTISTE DE SHAWINIGAN SUD", "designationCode": "C", "categoryCode": "31", "address": "2500 ROUTE LAMOTHE CP 1315", "city": "SHAWINIGAN SUD", "province": "QC", "country": "CA", "postalCode": "G9N6T5", "twitter": "None", "instagram": "None", "facebook": "None", "youtube": "None", "website": "None", "summary": "None", "logo": "None", "latitude": 46.506417000000056, "longitude": -72.71595349999993}, "141002956RR0001": {"name": "EGLISE EVANGELIQUE BAPTISTE DE SMYRNE", "designationCode": "C", "categoryCode": "31", "address": "9603, BOUL. MAURICE-DUPLESSIS", "city": "MONTREAL", "province": "QC", "country": "CA", "postalCode": "H1E4M6", "twitter": "None", "instagram": "None", "facebook": "None", "youtube": "None", "website": "None", "summary": "None", "logo": "None", "latitude": 45.6506577951986, "longitude": -73.56189377632849}, "118895937RR0001": {"name": "EGLISE EVANGELIQUE BAPTISTE DE SOREL-TRACY", "designationCode": "C", "categoryCode": "31", "address": "8520 MARIE-VICTORIN", "city": "TRACY", "province": "QC", "country": "CA", "postalCode": "J3R1T5", "twitter": "None", "instagram": "None", "facebook": "None", "youtube": "None", "website": "None", "summary": "None", "logo": "None", "latitude": 46.01340236912123, "longitude": -73.16218947258977}, "107287179RR0001": {"name": "EGLISE EVANGELIQUE BAPTISTE DES ETCHEMINS", "designationCode": "C", "categoryCode": "31", "address": "3241, AV. DES EGLISES", "city": "LEVIS", "province": "QC", "country": "CA", "postalCode": "G6X1V9", "twitter": "None", "instagram": "None", "facebook": "None", "youtube": "None", "website": "None", "summary": "None", "logo": "None", "latitude": 46.71183478544642, "longitude": -71.27346949068051}, "107287245RR0001": {"name": "EGLISE EVANGELIQUE BAPTISTE DU LAC ST-LOUIS", "designationCode": "C", "categoryCode": "31", "address": "157 PRINCIPALE", "city": "CHATEAGUAY", "province": "QC", "country": "CA", "postalCode": "J6K1G2", "twitter": "None", "instagram": "None", "facebook": "None", "youtube": "None", "website": "None", "summary": "None", "logo": "None", "latitude": 45.35691886254305, "longitude": -73.76205502314063}, "898522685RR0001": {"name": "EGLISE EVANGELIQUE BAPTISTE DU PHARE", "designationCode": "C", "categoryCode": "31", "address": "715, AVENUE DU PHARE EST", "city": "MATANE", "province": "QC", "country": "CA", "postalCode": "G4W1A9", "twitter": "None", "instagram": "None", "facebook": "None", "youtube": "None", "website": "None", "summary": "None", "logo": "None", "latitude": 48.85233953952925, "longitude": -67.50061294310116}, "885322313RR0001": {"name": "EGLISE EVANGELIQUE BAPTISTE EVEIL A LA GRACE", "designationCode": "C", "categoryCode": "31", "address": "1248 RUE PRINCIPALE", "city": "NANTES", "province": "QC", "country": "CA", "postalCode": "G0Y1G0", "twitter": "None", "instagram": "None", "facebook": "None", "youtube": "None", "website": "None", "summary": "None", "logo": "None", "latitude": 45.63170943381034, "longitude": -71.02360515508727}, "869843755RR0001": {"name": "EGLISE EVANGELIQUE BAPTISTE GALILEE", "designationCode": "C", "categoryCode": "39", "address": "1636 RUE MONTGOMERY", "city": "SAINT-HUBERT", "province": "QC", "country": "CA", "postalCode": "J4T1J7", "twitter": "None", "instagram": "None", "facebook": "None", "youtube": "None", "website": "None", "summary": "None", "logo": "None", "latitude": 45.49518253675931, "longitude": -73.46417668898968}, "891527285RR0001": {"name": "EGLISE EVANGELIQUE BAPTISTE L'ARCHE DE L'ALLIANCE", "designationCode": "C", "categoryCode": "39", "address": "11 RUE CALAIS", "city": "BLAINVILLE", "province": "QC", "country": "CA", "postalCode": "J7C5C3", "twitter": "None", "instagram": "None", "facebook": "None", "youtube": "None", "website": "None", "summary": "None", "logo": "None", "latitude": 45.68392098138967, "longitude": -73.90708778700429}, "118895986RR0001": {"name": "EGLISE EVANGELIQUE BAPTISTE L'EAU VIVE", "designationCode": "C", "categoryCode": "31", "address": "240 RUE MONTREAL", "city": "SHERBROOKE", "province": "QC", "country": "CA", "postalCode": "J1H1E3", "twitter": "None", "instagram": "None", "facebook": "None", "youtube": "None", "website": "None", "summary": "None", "logo": "None", "latitude": 45.40616815762609, "longitude": -71.89714081429987}, "893080572RR0001": {"name": "EGLISE EVANGELIQUE BAPTISTE LE JARDIN DU BIEN-AIME", "designationCode": "C", "categoryCode": "31", "address": "3050 BOUL ROSEMONT", "city": "MONTREAL", "province": "QC", "country": "CA", "postalCode": "H1Y1M2", "twitter": "None", "instagram": "None", "facebook": "None", "youtube": "None", "website": "None", "summary": "None", "logo": "None", "latitude": 45.55131460392991, "longitude": -73.58200682719738}, "133894386RR0001": {"name": "EGLISE EVANGELIQUE BAPTISTE MARANATHA", "designationCode": "C", "categoryCode": "31", "address": "1349 ST-ZOTIQUE EST", "city": "MONTREAL", "province": "QC", "country": "CA", "postalCode": "H2G1J6", "twitter": "None", "instagram": "None", "facebook": "None", "youtube": "None", "website": "None", "summary": "None", "logo": "None", "latitude": 45.5420792087252, "longitude": -73.60261362741632}, "867869513RR0001": {"name": "EGLISE EVANGELIQUE BAPTISTE SALEM", "designationCode": "B", "categoryCode": "39", "address": "6969 PIE 1X", "city": "MONTREAL", "province": "QC", "country": "CA", "postalCode": "H2A2G3", "twitter": "None", "instagram": "None", "facebook": "None", "youtube": "None", "website": "None", "summary": "None", "logo": "None", "latitude": 45.56520691369947, "longitude": -73.58785509158065}, "888077245RR0001": {"name": "EGLISE EVANGELIQUE BAPTISTE SHEBA", "designationCode": "C", "categoryCode": "31", "address": "2565 RUE HOLT", "city": "MONTREAL", "province": "QC", "country": "CA", "postalCode": "H1Y1N4", "twitter": "None", "instagram": "None", "facebook": "None", "youtube": "None", "website": "None", "summary": "None", "logo": "None", "latitude": 45.546527199838394, "longitude": -73.58236939552184}, "118896018RR0001": {"name": "EGLISE EVANGELIQUE BAPTISTE SION", "designationCode": "C", "categoryCode": "31", "address": "8477 RENE DESCARTES", "city": "MONTREAL", "province": "QC", "country": "CA", "postalCode": "H1E3E9", "twitter": "None", "instagram": "None", "facebook": "None", "youtube": "None", "website": "None", "summary": "None", "logo": "None", "latitude": 45.63700235527142, "longitude": -73.58076074759062}, "896109014RR0001": {"name": "EGLISE EVANGELIQUE BAPTISTE VIE NOUVELLE DE LANAUDIERE", "designationCode": "C", "categoryCode": "39", "address": "3000 VISITATION", "city": "ST-CHARLES BORROMEE", "province": "QC", "country": "CA", "postalCode": "J6E7Y8", "twitter": "None", "instagram": "None", "facebook": "None", "youtube": "None", "website": "None", "summary": "None", "logo": "None"}, "871576708RR0001": {"name": "EGLISE EVANGELIQUE BETHESDA TABERNACLE", "designationCode": "C", "categoryCode": "39", "address": "1325, RUE DES CHENES", "city": "RETENTIGNY", "province": "QC", "country": "CA", "postalCode": "J5Y4B9", "twitter": "None", "instagram": "None", "facebook": "None", "youtube": "None", "website": "None", "summary": "None", "logo": "None", "latitude": 45.786430288649086, "longitude": -73.41657977174086}, "121384721RR0001": {"name": "EGLISE EVANGELIQUE BETHSAIDA", "designationCode": "C", "categoryCode": "39", "address": "8886 9E AVENUE", "city": "MONTREAL", "province": "QC", "country": "CA", "postalCode": "H1Z3A4", "twitter": "None", "instagram": "None", "facebook": "None", "youtube": "None", "website": "None", "summary": "None", "logo": "None", "latitude": 45.56927967303376, "longitude": -73.62567341439195}, "834269144RR0001": {"name": "EGLISE EVANGELIQUE CHRETIENNE DE LORRAINE", "designationCode": "C", "categoryCode": "34", "address": "222 BOUL.HENRI-BOURASSA EST   #39", "city": "MONTR\u00c9AL", "province": "QC", "country": "CA", "postalCode": "H3L1B9", "twitter": "None", "instagram": "None", "facebook": "None", "youtube": "None", "website": "None", "summary": "None", "logo": "None", "latitude": 45.552313257833745, "longitude": -73.66965137313194}, "872102207RR0001": {"name": "EGLISE EVANGELIQUE CHRETIENNE MARANATHA", "designationCode": "C", "categoryCode": "39", "address": "456 KING ST EAST", "city": "TORONTO", "province": "ON", "country": "CA", "postalCode": "M5A1L4", "twitter": "None", "instagram": "None", "facebook": "None", "youtube": "None", "website": "None", "summary": "None", "logo": "None", "latitude": 43.65521113517795, "longitude": -79.35905676285405}, "832645964RR0001": {"name": "EGLISE EVANGELIQUE DE BLAINVILLE / BLAINVILLE EVANGELICAL CHURCH", "designationCode": "C", "categoryCode": "39", "address": "1187, RUE JOHN-TAPP", "city": "BLAINVILLE", "province": "QC", "country": "CA", "postalCode": "J7C4Y6", "twitter": "None", "instagram": "None", "facebook": "None", "youtube": "None", "website": "None", "summary": "None", "logo": "None", "latitude": 45.68366499971154, "longitude": -73.8904069946043}, "118896042RR0001": {"name": "EGLISE EVANGELIQUE DE CHIBOUGAMAU", "designationCode": "C", "categoryCode": "39", "address": "CP 24 PDF BUREAU-CHEF", "city": "CHIBOUGAMAU", "province": "QC", "country": "CA", "postalCode": "G8P2K5", "twitter": "None", "instagram": "None", "facebook": "None", "youtube": "None", "website": "None", "summary": "None", "logo": "None", "latitude": 49.91362800000006, "longitude": -74.36880349999993}}