{"817338387RR0001": {"name": "Newfoundland and Labrador Archaeological Society, Inc.", "designationCode": "C", "categoryCode": "50", "address": "PO BOX 23031 RPO CHURCHILL SQ.", "city": "ST. JOHN'S", "province": "NL", "country": "CA", "postalCode": "A1B4J9", "twitter": "None", "instagram": "None", "facebook": "None", "youtube": "None", "website": "None", "summary": "None", "logo": "None", "latitude": 47.57470538694076, "longitude": -52.7226658486743}, "894415587RR0002": {"name": "Newfoundland and Labrador Environment Network Inc.", "designationCode": "C", "categoryCode": "29", "address": "BOX 5125, STN. C", "city": "ST. JOHN'S", "province": "NL", "country": "CA", "postalCode": "A1C5V5", "twitter": "None", "instagram": "None", "facebook": "None", "youtube": "None", "website": "None", "summary": "None", "logo": "None", "latitude": 47.56082100000006, "longitude": -52.71219349999993}, "822544631RR0001": {"name": "Newfoundland and Labrador Military Museum Inc.", "designationCode": "C", "categoryCode": "53", "address": "112 MILITARY RD", "city": "ST. JOHN'S", "province": "NL", "country": "CA", "postalCode": "A1C2C9", "twitter": "None", "instagram": "None", "facebook": "None", "youtube": "None", "website": "None", "summary": "None", "logo": "None", "latitude": 47.56971191341101, "longitude": -52.707437176120834}, "137071916RR0001": {"name": "Newfoundland and Labrador Pensioners, Senior Citizens/50+ Federation", "designationCode": "C", "categoryCode": "09", "address": "PO BOX 99                     11 PONDSIDE ROAD", "city": "CHAPEL ARM", "province": "NL", "country": "CA", "postalCode": "A0B1L0", "twitter": "None", "instagram": "None", "facebook": "None", "youtube": "None", "website": "None", "summary": "None", "logo": "None", "latitude": 47.51710719664004, "longitude": -53.67448470503992}, "739549129RR0001": {"name": "Newfoundland and Labrador Prostate Cancer Support Groups Advisory Board Inc.", "designationCode": "C", "categoryCode": "11", "address": "PO BOX 731", "city": "MOUNT PEARL", "province": "NL", "country": "CA", "postalCode": "A1N2Y2", "twitter": "None", "instagram": "None", "facebook": "None", "youtube": "None", "website": "None", "summary": "None", "logo": "None", "latitude": 47.51892600000005, "longitude": -52.81489249999993}, "819231770RR0001": {"name": "Newfoundland Catholic Renewal", "designationCode": "C", "categoryCode": "49", "address": "59 NORTH STREET", "city": "CORNER BROOK", "province": "NL", "country": "CA", "postalCode": "A2H2K9", "twitter": "None", "instagram": "None", "facebook": "None", "youtube": "None", "website": "None", "summary": "None", "logo": "None", "latitude": 48.953172309481104, "longitude": -57.93005025852623}, "119288918RR1065": {"name": "Newfoundland Circuit 1A of Jehovah's Witnesses", "designationCode": "C", "categoryCode": "61", "address": "1762 PORTUGAL COVE RD", "city": "PORTUGAL COVE-ST PHILIPS", "province": "NL", "country": "CA", "postalCode": "A1M2N5", "twitter": "None", "instagram": "None", "facebook": "None", "youtube": "None", "website": "None", "summary": "None", "logo": "None", "latitude": 47.62728324106342, "longitude": -52.84247150133715}, "119288918RR1442": {"name": "Newfoundland Circuit 1B of Jehovah's Witnesses", "designationCode": "C", "categoryCode": "39", "address": "POST OFFICE BOX 429", "city": "BISHOPS FALLS", "province": "NL", "country": "CA", "postalCode": "A0H1C0", "twitter": "None", "instagram": "None", "facebook": "None", "youtube": "None", "website": "None", "summary": "None", "logo": "None", "latitude": 49.02019800000005, "longitude": -55.469811499999935}, "119288918RR1064": {"name": "Newfoundland Circuit 1C of Jehovah's Witnesses", "designationCode": "C", "categoryCode": "61", "address": "25 VETERANS SQ", "city": "CORNER BROOK", "province": "NL", "country": "CA", "postalCode": "A2H1T8", "twitter": "None", "instagram": "None", "facebook": "None", "youtube": "None", "website": "None", "summary": "None", "logo": "None", "latitude": 48.95494262836862, "longitude": -57.93249905343638}, "828605527RR0001": {"name": "Newfoundland Dance Presenters Inc.", "designationCode": "C", "categoryCode": "22", "address": "PO BOX 815 STATION C", "city": "ST JOHN'S", "province": "NL", "country": "CA", "postalCode": "A1C5L7", "twitter": "None", "instagram": "None", "facebook": "None", "youtube": "None", "website": "None", "summary": "None", "logo": "None", "latitude": 47.56082100000006, "longitude": -52.71219349999993}, "839913431RR0001": {"name": "Newfoundland T'Railway Charitable Organization Inc.", "designationCode": "C", "categoryCode": "56", "address": "195 ELIZABETH DRIVE UNIT 7    P.O. BOX 306", "city": "GANDER", "province": "NL", "country": "CA", "postalCode": "A1V1W7", "twitter": "None", "instagram": "None", "facebook": "None", "youtube": "None", "website": "None", "summary": "None", "logo": "None", "latitude": 48.95359773325081, "longitude": -54.61974651350308}, "130693518RR0001": {"name": "Newgate 180 Addiction Solutions", "designationCode": "C", "categoryCode": "57", "address": "PO BOX 724", "city": "MERRICKVILLE", "province": "ON", "country": "CA", "postalCode": "K0G1N0", "twitter": "None", "instagram": "None", "facebook": "None", "youtube": "None", "website": "None", "summary": "None", "logo": "None", "latitude": 44.91574000000003, "longitude": -75.83684999999997}, "834014714RR0001": {"name": "Newholm Community Heritage Centre and Friends of Holy Trinity Newholm", "designationCode": "C", "categoryCode": "56", "address": "369 CONCESSION 4 & 5 ROAD WESTRR 2", "city": "HUNTSVILLE", "province": "ON", "country": "CA", "postalCode": "P1H2J3", "twitter": "None", "instagram": "None", "facebook": "None", "youtube": "None", "website": "None", "summary": "None", "logo": "None", "latitude": 45.22937990092127, "longitude": -79.17939464115241}, "805674876RR0001": {"name": "Newhope Legacy Community Foundation Inc.", "designationCode": "A", "categoryCode": "03", "address": "48 MAIN STREET                POST OFFICE BOX 130", "city": "FILLMORE", "province": "SK", "country": "CA", "postalCode": "S0G1N0", "twitter": "None", "instagram": "None", "facebook": "None", "youtube": "None", "website": "None", "summary": "None", "logo": "None", "latitude": 49.87851514296503, "longitude": -103.43677242844196}, "840026801RR0001": {"name": "Newlife Church Toronto", "designationCode": "C", "categoryCode": "39", "address": "360 SACKVILLE STREET", "city": "TORONTO", "province": "ON", "country": "CA", "postalCode": "M4X1S4", "twitter": "None", "instagram": "None", "facebook": "None", "youtube": "None", "website": "None", "summary": "None", "logo": "None", "latitude": 43.665605319175974, "longitude": -79.36528295588312}, "828456954RR0001": {"name": "Newman Sound Men's Choir Inc.", "designationCode": "C", "categoryCode": "22", "address": "194 MIDDLE COVE RD", "city": "MIDDLE COVE", "province": "NL", "country": "CA", "postalCode": "A1K2A4", "twitter": "None", "instagram": "None", "facebook": "None", "youtube": "None", "website": "None", "summary": "None", "logo": "None", "latitude": 47.64385988709639, "longitude": -52.71904342836779}, "806663803RR0001": {"name": "Newmarket Children's Dream Charity", "designationCode": "C", "categoryCode": "56", "address": "204 SHERWOOD PL", "city": "NEWMARKET", "province": "ON", "country": "CA", "postalCode": "L3Y8E5", "twitter": "None", "instagram": "None", "facebook": "None", "youtube": "None", "website": "None", "summary": "None", "logo": "None", "latitude": 44.05100452510255, "longitude": -79.46640896863639}, "818394058RR0001": {"name": "Newmarket Church of the Nazarene", "designationCode": "C", "categoryCode": "39", "address": "79 MAIN ST. S.", "city": "NEWMARKET", "province": "ON", "country": "CA", "postalCode": "L3Y7V1", "twitter": "None", "instagram": "None", "facebook": "None", "youtube": "None", "website": "None", "summary": "None", "logo": "None", "latitude": 44.05649406217896, "longitude": -79.45976633677667}, "846172484RR0001": {"name": "Newmarket Islamic Centre", "designationCode": "C", "categoryCode": "60", "address": "700 MULOCK DRIVE,", "city": "NEWMARKET", "province": "ON", "country": "CA", "postalCode": "L3Y9C1", "twitter": "None", "instagram": "None", "facebook": "None", "youtube": "None", "website": "None", "summary": "None", "logo": "None", "latitude": 44.043755862543044, "longitude": -79.44378746055764}, "823974860RR0001": {"name": "Newmarket Lions Club Charitable Trust", "designationCode": "C", "categoryCode": "65", "address": "P.O. BOX 55", "city": "NEWMARKET", "province": "ON", "country": "CA", "postalCode": "L3Y4W3", "twitter": "None", "instagram": "None", "facebook": "None", "youtube": "None", "website": "None", "summary": "None", "logo": "None", "latitude": 44.04015600000005, "longitude": -79.45853299999993}, "123172306RR0001": {"name": "Newport and District Rink Commission", "designationCode": "C", "categoryCode": "56", "address": "PO BOX 43", "city": "NEWPORT", "province": "NS", "country": "CA", "postalCode": "B0N2A0", "twitter": "None", "instagram": "None", "facebook": "None", "youtube": "None", "website": "None", "summary": "None", "logo": "None", "latitude": 45.00597000000005, "longitude": -64.01166999999998}, "802966655RR0001": {"name": "NewBirth Kingdom Ministries", "designationCode": "C", "categoryCode": "39", "address": "405-150 GRAYDON HALL DR", "city": "NORTH YORK", "province": "ON", "country": "CA", "postalCode": "M3A3B1", "twitter": "None", "instagram": "None", "facebook": "None", "youtube": "None", "website": "None", "summary": "None", "logo": "None", "latitude": 43.764812090647645, "longitude": -79.34382709752443}, "131799835RR0001": {"name": "NewCastle Lodge For Senior And Family Dwellings", "designationCode": "C", "categoryCode": "09", "address": "165 KING AVE E", "city": "NEWCASTLE", "province": "ON", "country": "CA", "postalCode": "L1B1L5", "twitter": "None", "instagram": "None", "facebook": "None", "youtube": "None", "website": "None", "summary": "None", "logo": "None", "latitude": 43.918130157850015, "longitude": -78.58567776237618}, "847921509RR0001": {"name": "Nexim International Development Organization", "designationCode": "C", "categoryCode": "01", "address": "617 VAUGHAN RD,", "city": "TORONTO", "province": "ON", "country": "CA", "postalCode": "M6C2R4", "twitter": "None", "instagram": "None", "facebook": "None", "youtube": "None", "website": "None", "summary": "None", "logo": "None", "latitude": 43.69237327728078, "longitude": -79.44032898138968}, "815198403RR0001": {"name": "Next Canada", "designationCode": "C", "categoryCode": "21", "address": "130 BLOOR STREET WEST         SUITE 702", "city": "TORONTO", "province": "ON", "country": "CA", "postalCode": "M5S1N5", "twitter": "None", "instagram": "None", "facebook": "None", "youtube": "None", "website": "None", "summary": "None", "logo": "None", "latitude": 43.66903515462497, "longitude": -79.39274744061966}, "849852496RR0001": {"name": "Next Gen World Leadership Society", "designationCode": "C", "categoryCode": "47", "address": "9261 INVERMUIR RD", "city": "SHIRLEY", "province": "BC", "country": "CA", "postalCode": "V9Z1G3", "twitter": "None", "instagram": "None", "facebook": "None", "youtube": "None", "website": "None", "summary": "None", "logo": "None", "latitude": 48.38407627887166, "longitude": -123.87518349149755}, "850012154RR0001": {"name": "Next Generation Energy Alternatives Incorporated", "designationCode": "C", "categoryCode": "59", "address": "39 PARLIAMENT STREET          SUITE 414", "city": "TORONTO", "province": "ON", "country": "CA", "postalCode": "M5A4R2", "twitter": "None", "instagram": "None", "facebook": "None", "youtube": "None", "website": "None", "summary": "None", "logo": "None", "latitude": 43.649854572587486, "longitude": -79.36191938505478}, "849275854RR0001": {"name": "Next Generation Ministries Inc.", "designationCode": "C", "categoryCode": "47", "address": "BOX 49", "city": "GARDENTON", "province": "MB", "country": "CA", "postalCode": "R0A0M0", "twitter": "None", "instagram": "None", "facebook": "None", "youtube": "None", "website": "None", "summary": "None", "logo": "None", "latitude": 49.089540000000056, "longitude": -96.69761999999997}, "806512489RR0001": {"name": "Next Generation Nepal (Canada)", "designationCode": "C", "categoryCode": "09", "address": "3136 CANTELON CRESCENT", "city": "MISSISSAUGA", "province": "ON", "country": "CA", "postalCode": "L5N3J8", "twitter": "None", "instagram": "None", "facebook": "None", "youtube": "None", "website": "None", "summary": "None", "logo": "None", "latitude": 43.57397468333419, "longitude": -79.7558993154537}, "853131258RR0001": {"name": "Next Level Ministries", "designationCode": "C", "categoryCode": "39", "address": "89 AURIGA DRIVE", "city": "OTTAWA", "province": "ON", "country": "CA", "postalCode": "K2E7Z2", "twitter": "None", "instagram": "None", "facebook": "None", "youtube": "None", "website": "None", "summary": "None", "logo": "None", "latitude": 45.32790875685278, "longitude": -75.71363925033192}, "809182405RR0001": {"name": "Next Step Ministries Society", "designationCode": "C", "categoryCode": "09", "address": "200 - 317 37 AVE NE", "city": "CALGARY", "province": "AB", "country": "CA", "postalCode": "T2E6P6", "twitter": "None", "instagram": "None", "facebook": "None", "youtube": "None", "website": "None", "summary": "None", "logo": "None", "latitude": 51.08590800000001, "longitude": -114.0546105}, "756345898RR0001": {"name": "NextJen JUDAISM", "designationCode": "B", "categoryCode": "49", "address": "144 ALMORE AVE", "city": "NORTH YORK", "province": "ON", "country": "CA", "postalCode": "M3H2J1", "twitter": "None", "instagram": "None", "facebook": "None", "youtube": "None", "website": "None", "summary": "None", "logo": "None", "latitude": 43.74613315794321, "longitude": -79.44726645504639}, "809949886RR0001": {"name": "Nexus Centre", "designationCode": "C", "categoryCode": "39", "address": "31 BRUBACHER STREET", "city": "KITCHENER", "province": "ON", "country": "CA", "postalCode": "N2H2V8", "twitter": "None", "instagram": "None", "facebook": "None", "youtube": "None", "website": "None", "summary": "None", "logo": "None", "latitude": 43.45086638882808, "longitude": -80.47998166665711}, "863321865RR0001": {"name": "Nezul Be Hunuyeh Child and Family Services Society", "designationCode": "C", "categoryCode": "01", "address": "PO BOX 1180", "city": "FORT ST. JAMES", "province": "BC", "country": "CA", "postalCode": "V0J1P0", "twitter": "None", "instagram": "None", "facebook": "None", "youtube": "None", "website": "None", "summary": "None", "logo": "None", "latitude": 54.44540000000006, "longitude": -124.25099999999998}, "864959648RR0001": {"name": "Ngystle Society", "designationCode": "C", "categoryCode": "59", "address": "162 2ND AVENUE                POST OFFICE BOX 1496", "city": "SKIDEGATE", "province": "BC", "country": "CA", "postalCode": "V0T1S0", "twitter": "None", "instagram": "None", "facebook": "None", "youtube": "None", "website": "None", "summary": "None", "logo": "None", "latitude": 53.26342767401287, "longitude": -131.99259896069825}, "819622861RR0001": {"name": "Nia Centre for the Arts Incorporated", "designationCode": "C", "categoryCode": "22", "address": "524 OAKWOOD AVE", "city": "YORK", "province": "ON", "country": "CA", "postalCode": "M6E2X1", "twitter": "None", "instagram": "None", "facebook": "None", "youtube": "None", "website": "None", "summary": "None", "logo": "None", "latitude": 43.69200477101971, "longitude": -79.44056331337623}, "755976495RR0001": {"name": "Niagara Christian Gleaners", "designationCode": "C", "categoryCode": "01", "address": "42 KIMBER ROAD", "city": "LOWBANKS", "province": "ON", "country": "CA", "postalCode": "N0A1K0", "twitter": "None", "instagram": "None", "facebook": "None", "youtube": "None", "website": "None", "summary": "None", "logo": "None", "latitude": 42.85487403895327, "longitude": -79.4750867710197}, "107516999RR0001": {"name": "Niagara Community Church", "designationCode": "C", "categoryCode": "36", "address": "5014 PETTIT AVE", "city": "NIAGARA FALLS", "province": "ON", "country": "CA", "postalCode": "L2E7B1", "twitter": "None", "instagram": "None", "facebook": "None", "youtube": "None", "website": "None", "summary": "None", "logo": "None", "latitude": 43.1012255342778, "longitude": -79.10551344460173}, "741073894RR0001": {"name": "Niagara Falls Community Cats", "designationCode": "C", "categoryCode": "54", "address": "8176 BARRETT CRES", "city": "NIAGARA FALLS", "province": "ON", "country": "CA", "postalCode": "L2H3L8", "twitter": "None", "instagram": "None", "facebook": "None", "youtube": "None", "website": "None", "summary": "None", "logo": "None", "latitude": 43.10732055785111, "longitude": -79.13569972009348}, "856647557RR0001": {"name": "Niagara Falls Community Health Centre Inc.", "designationCode": "C", "categoryCode": "11", "address": "4481 QUEEN STREET             PO BOX 123", "city": "NIAGARA FALLS", "province": "ON", "country": "CA", "postalCode": "L2E6S8", "twitter": "None", "instagram": "None", "facebook": "None", "youtube": "None", "website": "None", "summary": "None", "logo": "None", "latitude": 43.106646518754566, "longitude": -79.06716369317328}, "849188958RR0001": {"name": "Niagara Furniture Bank", "designationCode": "C", "categoryCode": "09", "address": "53 ONTARIO ST", "city": "ST CATHARINES", "province": "ON", "country": "CA", "postalCode": "L2R5J3", "twitter": "None", "instagram": "None", "facebook": "None", "youtube": "None", "website": "None", "summary": "None", "logo": "None", "latitude": 43.1556174720702, "longitude": -79.24691056996922}, "899402697RR0001": {"name": "Niagara Health Foundation", "designationCode": "A", "categoryCode": "11", "address": "65 THIRD ST", "city": "WELLAND", "province": "ON", "country": "CA", "postalCode": "L3B4W6", "twitter": "None", "instagram": "None", "facebook": "None", "youtube": "None", "website": "None", "summary": "None", "logo": "None", "latitude": 42.980699891839585, "longitude": -79.24909823189924}, "855391264RR0001": {"name": "Niagara International Music Festival", "designationCode": "C", "categoryCode": "22", "address": "2203 - 633 BAY ST", "city": "TORONTO", "province": "ON", "country": "CA", "postalCode": "M5G2G4", "twitter": "None", "instagram": "None", "facebook": "None", "youtube": "None", "website": "None", "summary": "None", "logo": "None", "latitude": 43.65673291064104, "longitude": -79.38411971449625}, "858533151RR0001": {"name": "Niagara Land Trust Foundation", "designationCode": "C", "categoryCode": "59", "address": "27-200 FITCH ST               SUITE 233", "city": "WELLAND", "province": "ON", "country": "CA", "postalCode": "L3C4V9", "twitter": "None", "instagram": "None", "facebook": "None", "youtube": "None", "website": "None", "summary": "None", "logo": "None", "latitude": 42.99447599999999, "longitude": -79.26317325}, "846349769RR0001": {"name": "Niagara Military Museum", "designationCode": "C", "categoryCode": "50", "address": "5049 VICTORIA AVE", "city": "NIAGARA FALLS", "province": "ON", "country": "CA", "postalCode": "L2E4E2", "twitter": "None", "instagram": "None", "facebook": "None", "youtube": "None", "website": "None", "summary": "None", "logo": "None", "latitude": 43.1011344657222, "longitude": -79.07307162204928}, "856442728RR0001": {"name": "Niagara Presbytery", "designationCode": "C", "categoryCode": "44", "address": "13 - 660 ALBERT ST", "city": "FORT ERIE", "province": "ON", "country": "CA", "postalCode": "L2A0A1", "twitter": "None", "instagram": "None", "facebook": "None", "youtube": "None", "website": "None", "summary": "None", "logo": "None", "latitude": 42.89533406575689, "longitude": -78.93304987698782}, "855804415RR0001": {"name": "Niagara Retreat Church", "designationCode": "C", "categoryCode": "39", "address": "15-11 GLEN CAMERON RD", "city": "THORNHILL", "province": "ON", "country": "CA", "postalCode": "L3T4N3", "twitter": "None", "instagram": "None", "facebook": "None", "youtube": "None", "website": "None", "summary": "None", "logo": "None", "latitude": 43.80589083758475, "longitude": -79.4193874644528}, "897825527RR0001": {"name": "Niagara Safety Village", "designationCode": "C", "categoryCode": "59", "address": "100 NIAGARA COLLEGE BLVD", "city": "WELLAND", "province": "ON", "country": "CA", "postalCode": "L3C7L3", "twitter": "None", "instagram": "None", "facebook": "None", "youtube": "None", "website": "None", "summary": "None", "logo": "None", "latitude": 43.0145486912545, "longitude": -79.26211310394748}, "892720178RR0001": {"name": "Niagara-on-the-Lake Horticultural Society", "designationCode": "C", "categoryCode": "52", "address": "P.O. BOX 734", "city": "NIAGARA ON THE LAKE", "province": "ON", "country": "CA", "postalCode": "L0S1J0", "twitter": "None", "instagram": "None", "facebook": "None", "youtube": "None", "website": "None", "summary": "None", "logo": "None", "latitude": 43.23448500000005, "longitude": -79.16177149999993}, "833511249RR0001": {"name": "Niagara's School For Alternative Learners", "designationCode": "C", "categoryCode": "20", "address": "15 ELSE ST", "city": "ST CATHARINES", "province": "ON", "country": "CA", "postalCode": "L2N2B9", "twitter": "None", "instagram": "None", "facebook": "None", "youtube": "None", "website": "None", "summary": "None", "logo": "None", "latitude": 43.18740796280801, "longitude": -79.23885162479058}, "824856157RR0001": {"name": "Nicaragua Children's Foundation", "designationCode": "B", "categoryCode": "23", "address": "3855 BAYRIDGE AVENUE", "city": "WEST VANCOUVER", "province": "BC", "country": "CA", "postalCode": "V7V3J3", "twitter": "None", "instagram": "None", "facebook": "None", "youtube": "None", "website": "None", "summary": "None", "logo": "None", "latitude": 49.34312080045008, "longitude": -123.22366916844612}, "825354400RR0001": {"name": "Nicaragua International Development Project", "designationCode": "C", "categoryCode": "09", "address": "432 - 990 CENTRE AVE NE", "city": "CALGARY", "province": "AB", "country": "CA", "postalCode": "T2E2M9", "twitter": "None", "instagram": "None", "facebook": "None", "youtube": "None", "website": "None", "summary": "None", "logo": "None", "latitude": 51.052464860318224, "longitude": -114.03929809559091}, "838376614RR0001": {"name": "Nicaraguan Child Education Society", "designationCode": "C", "categoryCode": "21", "address": "11238 BLANEY CRESCENT", "city": "PITT MEADOWS", "province": "BC", "country": "CA", "postalCode": "V3Y2W2", "twitter": "None", "instagram": "None", "facebook": "None", "youtube": "None", "website": "None", "summary": "None", "logo": "None", "latitude": 49.206805826533554, "longitude": -122.67412148387116}, "859168833RR0001": {"name": "Nichiren Buddha Hokkeko Society", "designationCode": "C", "categoryCode": "35", "address": "OFFICE - 365 DAY ROAD", "city": "DUNCAN", "province": "BC", "country": "CA", "postalCode": "V9L3K4", "twitter": "None", "instagram": "None", "facebook": "None", "youtube": "None", "website": "None", "summary": "None", "logo": "None", "latitude": 48.77826383819033, "longitude": -123.69171217753447}, "849028006RR0001": {"name": "Nichola Goddard Foundation Inc.", "designationCode": "B", "categoryCode": "03", "address": "45 PARKSIDE DRIVE", "city": "CHARLOTTETOWN", "province": "PE", "country": "CA", "postalCode": "C1E1N1", "twitter": "None", "instagram": "None", "facebook": "None", "youtube": "None", "website": "None", "summary": "None", "logo": "None", "latitude": 46.254017535662776, "longitude": -63.15970110159263}, "856136007RR0001": {"name": "Nickel Independent Film and Video Festival Inc.", "designationCode": "C", "categoryCode": "22", "address": "P.O BOX 1644 STN C", "city": "ST JOHN'S", "province": "NL", "country": "CA", "postalCode": "A1C5P3", "twitter": "None", "instagram": "None", "facebook": "None", "youtube": "None", "website": "None", "summary": "None", "logo": "None", "latitude": 47.56082100000006, "longitude": -52.71219349999993}, "838278786RR0001": {"name": "Nicol Family Foundation", "designationCode": "B", "categoryCode": "03", "address": "PO BOX 94102 RPO BEDFORD PARK", "city": "TORONTO", "province": "ON", "country": "CA", "postalCode": "M4N3R1", "twitter": "None", "instagram": "None", "facebook": "None", "youtube": "None", "website": "None", "summary": "None", "logo": "None", "latitude": 43.72830000000005, "longitude": -79.39917999999994}, "734118896RR0001": {"name": "Nicola Family Foundation", "designationCode": "B", "categoryCode": "03", "address": "1800-510 GEORGIA W ST", "city": "VANCOUVER", "province": "BC", "country": "CA", "postalCode": "V6B0M3", "twitter": "None", "instagram": "None", "facebook": "None", "youtube": "None", "website": "None", "summary": "None", "logo": "None", "latitude": 49.28012307167682, "longitude": -123.11442679241839}, "889115929RR0001": {"name": "Nicola Watershed Community Round Table Society", "designationCode": "C", "categoryCode": "59", "address": "1890 HAMILTON AVENUE          P.O. BOX 400", "city": "MERRITT", "province": "BC", "country": "CA", "postalCode": "V1K1B8", "twitter": "None", "instagram": "None", "facebook": "None", "youtube": "None", "website": "None", "summary": "None", "logo": "None", "latitude": 50.107789928386, "longitude": -120.79439632682201}, "824297659RR0001": {"name": "Nicole \"Niki\" King Memorial Society", "designationCode": "C", "categoryCode": "21", "address": "75 COUNTY LINE RD", "city": "CLEVELAND", "province": "NS", "country": "CA", "postalCode": "B0E1J0", "twitter": "None", "instagram": "None", "facebook": "None", "youtube": "None", "website": "None", "summary": "None", "logo": "None", "latitude": 45.67212237336215, "longitude": -61.22923526674919}, "868750142RR0001": {"name": "Night Hoops Basketball Society", "designationCode": "C", "categoryCode": "59", "address": "1 KINGSWAY", "city": "VANCOUVER", "province": "BC", "country": "CA", "postalCode": "V5T3H7", "twitter": "None", "instagram": "None", "facebook": "None", "youtube": "None", "website": "None", "summary": "None", "logo": "None", "latitude": 49.26401856370816, "longitude": -123.10044685841676}, "802479436RR0001": {"name": "Nightlight Canada", "designationCode": "C", "categoryCode": "39", "address": "825 GARDINERS ROAD", "city": "KINGSTON", "province": "ON", "country": "CA", "postalCode": "K7M7E6", "twitter": "None", "instagram": "None", "facebook": "None", "youtube": "None", "website": "None", "summary": "None", "logo": "None", "latitude": 44.252630601996664, "longitude": -76.56852124874445}, "853412286RR0001": {"name": "Nikibasika Development Program", "designationCode": "C", "categoryCode": "09", "address": "312 - 201 CARLAW AVE", "city": "TORONTO", "province": "ON", "country": "CA", "postalCode": "M4M2S3", "twitter": "None", "instagram": "None", "facebook": "None", "youtube": "None", "website": "None", "summary": "None", "logo": "None", "latitude": 43.66242171746777, "longitude": -79.34059052853632}, "133433946RR0001": {"name": "Nikkei National Museum & Cultural Centre", "designationCode": "C", "categoryCode": "56", "address": "100-6688 SOUTHOAKS CR", "city": "BURNABY", "province": "BC", "country": "CA", "postalCode": "V5E4M7", "twitter": "None", "instagram": "None", "facebook": "None", "youtube": "None", "website": "None", "summary": "None", "logo": "None", "latitude": 49.21773530189758, "longitude": -122.96628178986198}, "794220699RR0001": {"name": "Nikki's Sewing Room Corp.", "designationCode": "C", "categoryCode": "09", "address": "POST OFFICE BOX 252", "city": "EATONIA", "province": "SK", "country": "CA", "postalCode": "S0L0Y0", "twitter": "None", "instagram": "None", "facebook": "None", "youtube": "None", "website": "None", "summary": "None", "logo": "None", "latitude": 51.216810000000066, "longitude": -109.38480999999996}, "815431374RR0001": {"name": "Nikola Tesla Educational Corporation", "designationCode": "C", "categoryCode": "21", "address": "5418 BLUE SPRUCE AVE", "city": "BURLINGTON", "province": "ON", "country": "CA", "postalCode": "L7L7C4", "twitter": "None", "instagram": "None", "facebook": "None", "youtube": "None", "website": "None", "summary": "None", "logo": "None", "latitude": 43.40113721842004, "longitude": -79.78874604925278}, "812889483RR0001": {"name": "Nimbus Christian Education", "designationCode": "C", "categoryCode": "20", "address": "135 KINGHAM ROAD,", "city": "ACTON", "province": "ON", "country": "CA", "postalCode": "L7J1S3", "twitter": "None", "instagram": "None", "facebook": "None", "youtube": "None", "website": "None", "summary": "None", "logo": "None", "latitude": 43.62300867435811, "longitude": -80.03782115841321}, "847397619RR0001": {"name": "Nine Miles of Smiles (NMS) a Healthcare Volunteer Organization Inc.", "designationCode": "C", "categoryCode": "11", "address": "11 LOCKSLEY AVENUE", "city": "TORONTO", "province": "ON", "country": "CA", "postalCode": "M6E3K2", "twitter": "None", "instagram": "None", "facebook": "None", "youtube": "None", "website": "None", "summary": "None", "logo": "None", "latitude": 43.696743505972606, "longitude": -79.44743935426182}, "135929552RR0001": {"name": "Nine Sparrows Arts Foundation", "designationCode": "A", "categoryCode": "22", "address": "19 WESTMOUNT PARK ROAD", "city": "TORONTO", "province": "ON", "country": "CA", "postalCode": "M9P1R4", "twitter": "None", "instagram": "None", "facebook": "None", "youtube": "None", "website": "None", "summary": "None", "logo": "None", "latitude": 43.691067798199725, "longitude": -79.52652510323742}, "814424800RR0001": {"name": "Ninth Life Cat Rescue of Ontario", "designationCode": "C", "categoryCode": "54", "address": "PO BOX 40056                  2525 PRINCE MICHAEL DRIVE", "city": "OAKVILLE", "province": "ON", "country": "CA", "postalCode": "L6H0E9", "twitter": "None", "instagram": "None", "facebook": "None", "youtube": "None", "website": "None", "summary": "None", "logo": "None", "latitude": 43.49756620768599, "longitude": -79.70799302319888}, "889405791RR0001": {"name": "Nipawin Apostolic Church", "designationCode": "C", "categoryCode": "36", "address": "BOX 612", "city": "NIPAWIN", "province": "SK", "country": "CA", "postalCode": "S0E1E0", "twitter": "None", "instagram": "None", "facebook": "None", "youtube": "None", "website": "None", "summary": "None", "logo": "None", "latitude": 53.396118, "longitude": -104.00834700000001}, "119288918RR0324": {"name": "Nipawin Congregation of Jehovah's Witnesses, Nipawin, Saskatchewan", "designationCode": "C", "categoryCode": "61", "address": "POST OFFICE BOX 1374", "city": "NIPAWIN", "province": "SK", "country": "CA", "postalCode": "S0E1E0", "twitter": "None", "instagram": "None", "facebook": "None", "youtube": "None", "website": "None", "summary": "None", "logo": "None", "latitude": 53.396118, "longitude": -104.00834700000001}, "758165898RR0001": {"name": "Nipissing Youth for Christ", "designationCode": "C", "categoryCode": "49", "address": "1465 BEECHWOOD RD", "city": "NORTH BAY", "province": "ON", "country": "CA", "postalCode": "P1B4P7", "twitter": "None", "instagram": "None", "facebook": "None", "youtube": "None", "website": "None", "summary": "None", "logo": "None", "latitude": 46.32590175295764, "longitude": -79.47955341672922}, "866862873RR0002": {"name": "Nirmal Takhat Baba Budha Sahib Association of Canada", "designationCode": "C", "categoryCode": "62", "address": "9373 - 120 STREET", "city": "DELTA", "province": "BC", "country": "CA", "postalCode": "V4C6R9", "twitter": "None", "instagram": "None", "facebook": "None", "youtube": "None", "website": "None", "summary": "None", "logo": "None", "latitude": 49.173515863725555, "longitude": -122.8903320483005}, "107775777RR0001": {"name": "Nisga'a Valley Health Authority", "designationCode": "C", "categoryCode": "19", "address": "POST OFFICE BOX 234", "city": "GITLAXT'AAMIKS", "province": "BC", "country": "CA", "postalCode": "V0J1A0", "twitter": "None", "instagram": "None", "facebook": "None", "youtube": "None", "website": "None", "summary": "None", "logo": "None", "latitude": 55.54291200000006, "longitude": -126.91071799999993}, "137530606RR0001": {"name": "Nishnawbe-Aski Legal Services Corporation", "designationCode": "C", "categoryCode": "59", "address": "109 MISSION RD", "city": "FORT WILLIAM FIRST NATION", "province": "ON", "country": "CA", "postalCode": "P7J1K7", "twitter": "None", "instagram": "None", "facebook": "None", "youtube": "None", "website": "None", "summary": "None", "logo": "None", "latitude": 48.355472819773425, "longitude": -89.2646736865621}, "886594324RR0001": {"name": "Niwasa Kendaaswin Teg", "designationCode": "C", "categoryCode": "20", "address": "1869 MAIN STREET EAST", "city": "HAMILTON", "province": "ON", "country": "CA", "postalCode": "L8H2G2", "twitter": "None", "instagram": "None", "facebook": "None", "youtube": "None", "website": "None", "summary": "None", "logo": "None", "latitude": 43.23570707412416, "longitude": -79.78936395822039}, "840685135RR0001": {"name": "No Borders Animal Rescue Society (NOBARS)", "designationCode": "C", "categoryCode": "54", "address": "7070 - 35468 RANGE ROAD 30", "city": "RED DEER COUNTY", "province": "AB", "country": "CA", "postalCode": "T4G0M3", "twitter": "None", "instagram": "None", "facebook": "None", "youtube": "None", "website": "None", "summary": "None", "logo": "None", "latitude": 52.031912836516874, "longitude": -114.2944337576895}, "845831841RR0001": {"name": "No Limits Adaptive Ski Association", "designationCode": "C", "categoryCode": "56", "address": "260 ELIZABETH STREET,         UNIT 2", "city": "SAULT STE MARIE", "province": "ON", "country": "CA", "postalCode": "P6A6J3", "twitter": "None", "instagram": "None", "facebook": "None", "youtube": "None", "website": "None", "summary": "None", "logo": "None", "latitude": 46.50687518181463, "longitude": -84.30339439880844}, "810321323RR0001": {"name": "No Limits Church (British Columbia)", "designationCode": "C", "categoryCode": "39", "address": "20-11355 COTTONWOOD DR", "city": "MAPLE RIDGE", "province": "BC", "country": "CA", "postalCode": "V2X2C6", "twitter": "None", "instagram": "None", "facebook": "None", "youtube": "None", "website": "None", "summary": "None", "logo": "None", "latitude": 49.20917758312655, "longitude": -122.57681123232717}, "847834538RR0001": {"name": "No Limits Ministries International", "designationCode": "C", "categoryCode": "39", "address": "14 CAPELLA WAY", "city": "BRAMPTON", "province": "ON", "country": "CA", "postalCode": "L6P3E8", "twitter": "None", "instagram": "None", "facebook": "None", "youtube": "None", "website": "None", "summary": "None", "logo": "None", "latitude": 43.79064282099364, "longitude": -79.68670381614619}, "813857489RR0001": {"name": "No Ordinary Journey Foundation", "designationCode": "C", "categoryCode": "21", "address": "6003 DALMEAD CRESCENT NW", "city": "CALGARY", "province": "AB", "country": "CA", "postalCode": "T3A1G1", "twitter": "None", "instagram": "None", "facebook": "None", "youtube": "None", "website": "None", "summary": "None", "logo": "None", "latitude": 51.10734552899767, "longitude": -114.142644}, "824118335RR0001": {"name": "No Other Than Jesus Christ", "designationCode": "C", "categoryCode": "47", "address": "82 SEAHORSE AVE", "city": "BRAMPTON", "province": "ON", "country": "CA", "postalCode": "L6V4N8", "twitter": "None", "instagram": "None", "facebook": "None", "youtube": "None", "website": "None", "summary": "None", "logo": "None", "latitude": 43.720031189018364, "longitude": -79.76146095963402}, "822125506RR0001": {"name": "No Stone Left Alone Memorial Foundation", "designationCode": "C", "categoryCode": "59", "address": "11420-107 AVE NW", "city": "EDMONTON", "province": "AB", "country": "CA", "postalCode": "T5H0Y5", "twitter": "None", "instagram": "None", "facebook": "None", "youtube": "None", "website": "None", "summary": "None", "logo": "None", "latitude": 53.551430491054944, "longitude": -113.5184625}, "803861988RR0001": {"name": "No Time for That Anti-Bullying Society", "designationCode": "C", "categoryCode": "21", "address": "210-1600 KENASTON BLVD.,      SUITE 321", "city": "WINNIPEG", "province": "MB", "country": "CA", "postalCode": "R3P0Y4", "twitter": "None", "instagram": "None", "facebook": "None", "youtube": "None", "website": "None", "summary": "None", "logo": "None", "latitude": 49.82358641122515, "longitude": -97.20329655042795}, "848276986RR0001": {"name": "No. 9 Contemporary Art & the Environment", "designationCode": "C", "categoryCode": "50", "address": "39 QUEENS QUAY E. 2ND FLOOR,  SUITE 100", "city": "TORONTO", "province": "ON", "country": "CA", "postalCode": "M5E0A5", "twitter": "None", "instagram": "None", "facebook": "None", "youtube": "None", "website": "None", "summary": "None", "logo": "None", "latitude": 43.642693301113894, "longitude": -79.37231479765146}, "866433055RR0001": {"name": "No\u00ebl des enfants d\u00e9munis", "designationCode": "C", "categoryCode": "09", "address": "12215, 2E AVENUE", "city": "ST-GEORGES", "province": "QC", "country": "CA", "postalCode": "G5Y1X7", "twitter": "None", "instagram": "None", "facebook": "None", "youtube": "None", "website": "None", "summary": "None", "logo": "None", "latitude": 46.11979186929413, "longitude": -70.66927658240539}, "848320339RR0001": {"name": "Noah Logan Society for the Advancement of African Women and Children", "designationCode": "C", "categoryCode": "01", "address": "22-5156 CORDOVA BAY ROAD", "city": "VICTORIA", "province": "BC", "country": "CA", "postalCode": "V8Y2X6", "twitter": "None", "instagram": "None", "facebook": "None", "youtube": "None", "website": "None", "summary": "None", "logo": "None", "latitude": 48.52357595390807, "longitude": -123.36783483741397}, "805170560RR0001": {"name": "Noah's Clubhouse Charitable Organization", "designationCode": "C", "categoryCode": "11", "address": "12 WINTERBERRY DR", "city": "MARKHAM", "province": "ON", "country": "CA", "postalCode": "L3S4G3", "twitter": "None", "instagram": "None", "facebook": "None", "youtube": "None", "website": "None", "summary": "None", "logo": "None", "latitude": 43.86221507412416, "longitude": -79.23268684139296}, "826431009RR0001": {"name": "Noel Pastoral Charge", "designationCode": "C", "categoryCode": "44", "address": "4588 HIGHWAY 215, PO BOX 33", "city": "NOEL", "province": "NS", "country": "CA", "postalCode": "B0N2C0", "twitter": "None", "instagram": "None", "facebook": "None", "youtube": "None", "website": "None", "summary": "None", "logo": "None", "latitude": 45.29552241671711, "longitude": -63.748020930942864}, "828700583RR0001": {"name": "Noelle's Gift to Children", "designationCode": "A", "categoryCode": "23", "address": "PO BOX 3334 SARNIA MAIN", "city": "SARNIA", "province": "ON", "country": "CA", "postalCode": "N7T8G6", "twitter": "None", "instagram": "None", "facebook": "None", "youtube": "None", "website": "None", "summary": "None", "logo": "None", "latitude": 42.97877700000005, "longitude": -82.40368399999993}, "730933298RR0001": {"name": "Nohtsi Gots'adi Catholic Foundation", "designationCode": "A", "categoryCode": "43", "address": "5117 52 ST", "city": "YELLOWKNIFE", "province": "NT", "country": "CA", "postalCode": "X1A1T7", "twitter": "None", "instagram": "None", "facebook": "None", "youtube": "None", "website": "None", "summary": "None", "logo": "None", "latitude": 62.45152717689483, "longitude": -114.37082072687275}, "834273013RR0001": {"name": "Nomad Ministries Inc.", "designationCode": "C", "categoryCode": "47", "address": "105 CLAREMONT DRIVE", "city": "FREDERICTON", "province": "NB", "country": "CA", "postalCode": "E3A1E7", "twitter": "None", "instagram": "None", "facebook": "None", "youtube": "None", "website": "None", "summary": "None", "logo": "None", "latitude": 45.978124904235756, "longitude": -66.69309653482605}, "837113364RR0001": {"name": "Nonviolence International Canada", "designationCode": "C", "categoryCode": "21", "address": "3-521 SIMCOE STREET", "city": "VICTORIA", "province": "BC", "country": "CA", "postalCode": "V8V1M1", "twitter": "None", "instagram": "None", "facebook": "None", "youtube": "None", "website": "None", "summary": "None", "logo": "None", "latitude": 48.41490274242608, "longitude": -123.3730323691499}, "830917803RR0001": {"name": "Noo(s) Logo(s), Espace d\u00e9di\u00e9 au langage: cr\u00e9ation, formation, solidarit\u00e9", "designationCode": "C", "categoryCode": "20", "address": "324 RUE VEILLETTE", "city": "CONTRECOEUR", "province": "QC", "country": "CA", "postalCode": "J0L1C0", "twitter": "None", "instagram": "None", "facebook": "None", "youtube": "None", "website": "None", "summary": "None", "logo": "None", "latitude": 45.93227617011958, "longitude": -73.2041812393963}, "870385267RR0001": {"name": "Noojmowin Teg Health Centre", "designationCode": "C", "categoryCode": "11", "address": "48 HILLSIDE ROAD, HIGHWAY 540 POSTAL BAG 2002", "city": "LITTLE CURRENT", "province": "ON", "country": "CA", "postalCode": "P0P1K0", "twitter": "None", "instagram": "None", "facebook": "None", "youtube": "None", "website": "None", "summary": "None", "logo": "None", "latitude": 45.9720974126985, "longitude": -81.93298638567117}, "852146083RR0001": {"name": "Nor-Mac Community Assisted Living Initiative Inc.", "designationCode": "C", "categoryCode": "09", "address": "BOX 268", "city": "MACGREGOR", "province": "MB", "country": "CA", "postalCode": "R0H0R0", "twitter": "None", "instagram": "None", "facebook": "None", "youtube": "None", "website": "None", "summary": "None", "logo": "None", "latitude": 49.965220000000045, "longitude": -98.77929999999998}, "856446158RR0001": {"name": "Nora's Gift Foundation", "designationCode": "B", "categoryCode": "03", "address": "4119 MONTROSE CRESCENT", "city": "BURLINGTON", "province": "ON", "country": "CA", "postalCode": "L7M4J4", "twitter": "None", "instagram": "None", "facebook": "None", "youtube": "None", "website": "None", "summary": "None", "logo": "None"}, "819523317RR0001": {"name": "Norfold County Sports Hall of Recognition", "designationCode": "C", "categoryCode": "50", "address": "95 CULVER ST", "city": "SIMCOE", "province": "ON", "country": "CA", "postalCode": "N3Y2V5", "twitter": "None", "instagram": "None", "facebook": "None", "youtube": "None", "website": "None", "summary": "None", "logo": "None", "latitude": 42.83471578434992, "longitude": -80.30166728155129}, "886203850RR0001": {"name": "Norfolk Community Help Centre", "designationCode": "C", "categoryCode": "09", "address": "505 FAIRGROUND RD", "city": "LANGTON", "province": "ON", "country": "CA", "postalCode": "N0E1G0", "twitter": "None", "instagram": "None", "facebook": "None", "youtube": "None", "website": "None", "summary": "None", "logo": "None", "latitude": 42.65009459285005, "longitude": -80.66218365944374}}