{"119153021RR0001": {"name": "LES AMIS DU JARDIN BOTANIQUE DE MONTREAL", "designationCode": "A", "categoryCode": "03", "address": "4101 RUE SHERBROOKE EST", "city": "MONTREAL", "province": "QC", "country": "CA", "postalCode": "H1X2B2", "twitter": "None", "instagram": "None", "facebook": "None", "youtube": "None", "website": "None", "summary": "None", "logo": "None", "latitude": 45.556460725295054, "longitude": -73.55448215612533}, "874831514RR0001": {"name": "LES AMIS DU JUVENAT INC.", "designationCode": "C", "categoryCode": "21", "address": "30, RUE DU JUVENAT", "city": "ST-ROMUALD", "province": "QC", "country": "CA", "postalCode": "G6V6P5", "twitter": "None", "instagram": "None", "facebook": "None", "youtube": "None", "website": "None", "summary": "None", "logo": "None", "latitude": 46.801086000000055, "longitude": -71.17385749999994}, "891314775RR0001": {"name": "LES AMIS DU MANOIR SAINT-JEAN BAPTISTE INC.", "designationCode": "B", "categoryCode": "03", "address": "5 AVENUE RICHARD", "city": "BOUCTOUCHE", "province": "NB", "country": "CA", "postalCode": "E4S3T2", "twitter": "None", "instagram": "None", "facebook": "None", "youtube": "None", "website": "None", "summary": "None", "logo": "None", "latitude": 46.47695351218074, "longitude": -64.72063305756919}, "119014397RR0001": {"name": "LES AMIS DU MUSEE FRANCOIS-PILOTE INC.", "designationCode": "A", "categoryCode": "55", "address": "100 4E AVENUE", "city": "LA POCATIERE", "province": "QC", "country": "CA", "postalCode": "G0R1Z0", "twitter": "None", "instagram": "None", "facebook": "None", "youtube": "None", "website": "None", "summary": "None", "logo": "None", "latitude": 47.36699289757065, "longitude": -70.03980789130864}, "878543123RR0001": {"name": "LES AMIS DU PARC DE LA GATINEAU/THE FRIENDS OF GATINEAU PARK", "designationCode": "C", "categoryCode": "52", "address": "227 - 33 CH SCOTT", "city": "CHELSEA", "province": "QC", "country": "CA", "postalCode": "J9B1R5", "twitter": "None", "instagram": "None", "facebook": "None", "youtube": "None", "website": "None", "summary": "None", "logo": "None", "latitude": 45.506591067718865, "longitude": -75.81183078440722}, "871440103RR0001": {"name": "LES AMIS DU PARC PROVINCIAL SAINT-MALO INC./THE FRIENDS OF ST-MALO PROVINCIAL PARK INC.", "designationCode": "C", "categoryCode": "52", "address": "CP 456", "city": "ST-MALO", "province": "MB", "country": "CA", "postalCode": "R0A1T0", "twitter": "None", "instagram": "None", "facebook": "None", "youtube": "None", "website": "None", "summary": "None", "logo": "None", "latitude": 49.31380157685065, "longitude": -96.95277278028621}, "144471968RR0001": {"name": "LES AMIS DU PARC SAINT-NICOLAS", "designationCode": "C", "categoryCode": "56", "address": "80 RUE COULOMBE", "city": "MONTMAGNY", "province": "QC", "country": "CA", "postalCode": "G5V4A1", "twitter": "None", "instagram": "None", "facebook": "None", "youtube": "None", "website": "None", "summary": "None", "logo": "None", "latitude": 46.97262333166947, "longitude": -70.55152345848019}, "899586929RR0001": {"name": "LES AMIS DU PATRIMOINE DE SAINT-VENANT-DE-PAQUETTE", "designationCode": "C", "categoryCode": "56", "address": "5 CHEMIN DU VILLAGE", "city": "SAINT-VENANT-DE-PAQUETTE", "province": "QC", "country": "CA", "postalCode": "J0B1S0", "twitter": "None", "instagram": "None", "facebook": "None", "youtube": "None", "website": "None", "summary": "None", "logo": "None", "latitude": 45.12523671048555, "longitude": -71.46191721899697}, "119014413RR0001": {"name": "LES AMIS DU PATRO D'OTTAWA INC.", "designationCode": "C", "categoryCode": "59", "address": "40 RUE COBOURG", "city": "OTTAWA", "province": "ON", "country": "CA", "postalCode": "K1N8Z6", "twitter": "None", "instagram": "None", "facebook": "None", "youtube": "None", "website": "None", "summary": "None", "logo": "None", "latitude": 45.43513221201476, "longitude": -75.68109349601795}, "887900660RR0001": {"name": "LES AMIS DU PERE PIO ENR-GLI AMICI DI PADRE PIO ENR", "designationCode": "C", "categoryCode": "49", "address": "7625 CASGRAIN AVE", "city": "MONTREAL", "province": "QC", "country": "CA", "postalCode": "H2R1Y9", "twitter": "None", "instagram": "None", "facebook": "None", "youtube": "None", "website": "None", "summary": "None", "logo": "None", "latitude": 45.53808489537761, "longitude": -73.6235561426511}, "122815400RR0001": {"name": "LES AMIS DU PLEIN AIR", "designationCode": "C", "categoryCode": "52", "address": "POST OFFICE BOX 472", "city": "CHETICAMP", "province": "NS", "country": "CA", "postalCode": "B0E1H0", "twitter": "None", "instagram": "None", "facebook": "None", "youtube": "None", "website": "None", "summary": "None", "logo": "None"}, "141443473RR0001": {"name": "LES AMIS DU RAYON D'OR", "designationCode": "C", "categoryCode": "09", "address": "450, RUE DE LA MER", "city": "GRANDES-BERGERONNES", "province": "QC", "country": "CA", "postalCode": "G0T1G0", "twitter": "None", "instagram": "None", "facebook": "None", "youtube": "None", "website": "None", "summary": "None", "logo": "None", "latitude": 48.239214412320564, "longitude": -69.54337142407985}, "135846772RR0001": {"name": "LES AMIS ET AMIES DE LA TERRE DE QUEBEC", "designationCode": "C", "categoryCode": "59", "address": "870 AVE DE SALABERRY          SUITE 210", "city": "QUEBEC", "province": "QC", "country": "CA", "postalCode": "G1R2T9", "twitter": "None", "instagram": "None", "facebook": "None", "youtube": "None", "website": "None", "summary": "None", "logo": "None", "latitude": 46.80589182679337, "longitude": -71.22672208246271}, "868082470RR0001": {"name": "LES AMIS-SOLEILS DE ST-BRUNO", "designationCode": "C", "categoryCode": "11", "address": "CP 99 SUCC BUREAU-CHEF", "city": "SAINT-BRUNO", "province": "QC", "country": "CA", "postalCode": "J3V4P8", "twitter": "None", "instagram": "None", "facebook": "None", "youtube": "None", "website": "None", "summary": "None", "logo": "None", "latitude": 45.52679400000005, "longitude": -73.34480599999993}, "103070595RR0001": {"name": "LES ANCIENS ET AMIS DE L'ACADEMIE SAINTE-FAMILLE INC.", "designationCode": "C", "categoryCode": "50", "address": "399-106, RUE DU COUVENT", "city": "TRACADIE-SHEILA", "province": "NB", "country": "CA", "postalCode": "E1X1E1", "twitter": "None", "instagram": "None", "facebook": "None", "youtube": "None", "website": "None", "summary": "None", "logo": "None", "latitude": 47.51346010641787, "longitude": -64.90630135358899}, "119014454RR0001": {"name": "LES ANTONIENNES DE MARIE", "designationCode": "C", "categoryCode": "46", "address": "927 EST, JACQUES-CARTIER", "city": "CHICOUTIMI", "province": "QC", "country": "CA", "postalCode": "G7H2A3", "twitter": "None", "instagram": "None", "facebook": "None", "youtube": "None", "website": "None", "summary": "None", "logo": "None", "latitude": 48.42373440997723, "longitude": -71.04019612210753}, "813258274RR0001": {"name": "LES APPARTEMENTS LOUISBOURG", "designationCode": "C", "categoryCode": "09", "address": "125 AVE. LOUISBOURG", "city": "BONAVENTURE", "province": "QC", "country": "CA", "postalCode": "G0C1E0", "twitter": "None", "instagram": "None", "facebook": "None", "youtube": "None", "website": "None", "summary": "None", "logo": "None", "latitude": 48.04840471859293, "longitude": -65.49141610730544}, "138382296RR0001": {"name": "LES APPARTEMENTS MONT\u00c9R\u00c9GIE", "designationCode": "C", "categoryCode": "09", "address": "2250, RUE CARTIER", "city": "LONGUEUIL", "province": "QC", "country": "CA", "postalCode": "J4K4E9", "twitter": "None", "instagram": "None", "facebook": "None", "youtube": "None", "website": "None", "summary": "None", "logo": "None", "latitude": 45.514505253938594, "longitude": -73.48174238149915}, "137209516RR0001": {"name": "LES APPARTEMENTS SHAWVILLE INC/ SHAWVILLE APARTMENTS INC", "designationCode": "C", "categoryCode": "01", "address": "PO BOX 460", "city": "SHAWVILLE", "province": "QC", "country": "CA", "postalCode": "J0X2Y0", "twitter": "None", "instagram": "None", "facebook": "None", "youtube": "None", "website": "None", "summary": "None", "logo": "None", "latitude": 45.599560000000054, "longitude": -76.49331999999998}, "128443249RR0001": {"name": "LES ARAIGNEES DU BOUI-BOUI", "designationCode": "C", "categoryCode": "22", "address": "UNIVERSITE SAINTE-ANNE", "city": "POINTE-DE-L'EGLISE", "province": "NS", "country": "CA", "postalCode": "B0W1M0", "twitter": "None", "instagram": "None", "facebook": "None", "youtube": "None", "website": "None", "summary": "None", "logo": "None", "latitude": 44.33283000000006, "longitude": -66.11532999999997}, "135316818RR0001": {"name": "LES ARTISANS BENEVOLES DE LA PAIX EN MAURICIE", "designationCode": "C", "categoryCode": "09", "address": "700 RUE SAINTE-CECILE", "city": "TROIS-RIVIERES", "province": "QC", "country": "CA", "postalCode": "G9A1L2", "twitter": "None", "instagram": "None", "facebook": "None", "youtube": "None", "website": "None", "summary": "None", "logo": "None", "latitude": 46.34953176853821, "longitude": -72.5406405577069}, "103072385RR0001": {"name": "LES ARTISANS BENEVOLES DU CHSLD PROVIDENCE NOTRE-DAME DE LOURDES", "designationCode": "C", "categoryCode": "01", "address": "1870, BOUL. PIE IX", "city": "MONTREAL", "province": "QC", "country": "CA", "postalCode": "H1V2C6", "twitter": "None", "instagram": "None", "facebook": "None", "youtube": "None", "website": "None", "summary": "None", "logo": "None", "latitude": 45.5500071845463, "longitude": -73.54053956454487}, "140707282RR0001": {"name": "LES ARTISANS DE PAIX INTERNATIONALE", "designationCode": "C", "categoryCode": "09", "address": "2 - 310 BOUL SAINTE-ROSE", "city": "LAVAL", "province": "QC", "country": "CA", "postalCode": "H7L1M6", "twitter": "None", "instagram": "None", "facebook": "None", "youtube": "None", "website": "None", "summary": "None", "logo": "None", "latitude": 45.61025841159334, "longitude": -73.79341401788916}, "118795194RR0001": {"name": "LES ASSOCIES BENEVOLES QUALIFIES AU SERVICE DES JEUNES A.B.S.J. INC.", "designationCode": "C", "categoryCode": "29", "address": "10780 RUE LAVERDURE", "city": "MONTREAL", "province": "QC", "country": "CA", "postalCode": "H3L2L9", "twitter": "None", "instagram": "None", "facebook": "None", "youtube": "None", "website": "None", "summary": "None", "logo": "None", "latitude": 45.55253309351391, "longitude": -73.67173931738695}, "877834200RR0001": {"name": "LES ATELIERS CINQ-EPICES, DES SAVEURS POUR TOUS", "designationCode": "C", "categoryCode": "21", "address": "1945, RUE MULLINS             RC 12", "city": "MONTREAL", "province": "QC", "country": "CA", "postalCode": "H3K1N9", "twitter": "None", "instagram": "None", "facebook": "None", "youtube": "None", "website": "None", "summary": "None", "logo": "None", "latitude": 45.48090306523738, "longitude": -73.56151176897089}, "119013076RR0001": {"name": "LES ATELIERS JARDIN DU COIN ST-HONOR\u00c9-FALARDEAU", "designationCode": "C", "categoryCode": "01", "address": "CASIER POSTALE 514            3560, BOULEVARD MARTEL", "city": "ST-HONOR\u00c9", "province": "QC", "country": "CA", "postalCode": "G0V1L0", "twitter": "None", "instagram": "None", "facebook": "None", "youtube": "None", "website": "None", "summary": "None", "logo": "None", "latitude": 48.53417206243875, "longitude": -71.08593581828192}, "121773436RR0001": {"name": "LES ATELIERS QUATRE SAISONS INC", "designationCode": "C", "categoryCode": "09", "address": "12296 NOTRE-DAME EST", "city": "MONTREAL", "province": "QC", "country": "CA", "postalCode": "H1B2Z1", "twitter": "None", "instagram": "None", "facebook": "None", "youtube": "None", "website": "None", "summary": "None", "logo": "None", "latitude": 45.64352445406544, "longitude": -73.48971503800004}, "107614752RR0001": {"name": "LES ATELIERS TRANSITION INC.", "designationCode": "C", "categoryCode": "59", "address": "104 - 3000 RUE SAINT-PROSPER", "city": "SAINT-HYACINTHE", "province": "QC", "country": "CA", "postalCode": "J2S2A4", "twitter": "None", "instagram": "None", "facebook": "None", "youtube": "None", "website": "None", "summary": "None", "logo": "None", "latitude": 45.62265797864837, "longitude": -72.96429946575086}, "847516366RR0001": {"name": "LES AUGUSTINES DE LA MISERICORDE DE JESUS DU MONASTERE DE DOLBEAU-MISTASSINI", "designationCode": "C", "categoryCode": "49", "address": "80, AVENUE DES HOSPITALIERES", "city": "DOLBEAU-MISTASSINI", "province": "QC", "country": "CA", "postalCode": "G8L2Y3", "twitter": "None", "instagram": "None", "facebook": "None", "youtube": "None", "website": "None", "summary": "None", "logo": "None", "latitude": 48.887510932252475, "longitude": -72.24158026729839}, "118796531RR0001": {"name": "LES AUGUSTINES DE LA MISERICORDE DE JESUS DU MONASTERE DE L'HOTEL DIEU DU SACRE-COEUR DE JESUS", "designationCode": "C", "categoryCode": "46", "address": "1-A, AV. DU SACRE-COEUR", "city": "QUEBEC", "province": "QC", "country": "CA", "postalCode": "G1N2W1", "twitter": "None", "instagram": "None", "facebook": "None", "youtube": "None", "website": "None", "summary": "None", "logo": "None", "latitude": 46.81227418068815, "longitude": -71.24531467548842}, "122078546RR0001": {"name": "LES AUXILIAIRES BENEVOLES DE L'HOPITAL CHARLES-LE MOYNE INC.", "designationCode": "C", "categoryCode": "19", "address": "3120 BOUL.TASCHEREAU", "city": "GREENFIELD PARK", "province": "QC", "country": "CA", "postalCode": "J4V2H1", "twitter": "None", "instagram": "None", "facebook": "None", "youtube": "None", "website": "None", "summary": "None", "logo": "None", "latitude": 45.497871107652145, "longitude": -73.4857737630556}, "135308021RR0001": {"name": "LES AUXILIAIRES BENEVOLES DE L'HOPITAL D'ARGENTEUIL/THE AUXILIARY OF L'HOPITAL D'ARGENTEUIL", "designationCode": "A", "categoryCode": "19", "address": "145 BOUL. DE LA PROVIDENCE", "city": "LACHUTE", "province": "QC", "country": "CA", "postalCode": "J8H3W7", "twitter": "None", "instagram": "None", "facebook": "None", "youtube": "None", "website": "None", "summary": "None", "logo": "None", "latitude": 45.662432771545035, "longitude": -74.3510467127379}, "125953794RR0001": {"name": "LES AUXILIAIRES BENEVOLES DE L'HOPITAL DE SEPT-ILES INC", "designationCode": "C", "categoryCode": "19", "address": "45 PERE DIVET", "city": "SEPT-ILES", "province": "QC", "country": "CA", "postalCode": "G4R3N7", "twitter": "None", "instagram": "None", "facebook": "None", "youtube": "None", "website": "None", "summary": "None", "logo": "None", "latitude": 50.209502414404135, "longitude": -66.3831412819377}, "132985037RR0001": {"name": "LES AUXILIAIRES BENEVOLES DE L'HOPITAL LA PROVIDENCE DE MAGOG INC", "designationCode": "C", "categoryCode": "19", "address": "677, RUE SHERBROOKE", "city": "MAGOG", "province": "QC", "country": "CA", "postalCode": "J1X2S4", "twitter": "None", "instagram": "None", "facebook": "None", "youtube": "None", "website": "None", "summary": "None", "logo": "None", "latitude": 45.26974064337225, "longitude": -72.14110991329544}, "103080305RR0001": {"name": "LES AUXILIAIRES BENEVOLES DU CENTRE DE SANTE SAINTE-FAMILLE", "designationCode": "C", "categoryCode": "19", "address": "22 NOTRE-DAME NORD", "city": "VILLE-MARIE", "province": "QC", "country": "CA", "postalCode": "J9V1W8", "twitter": "None", "instagram": "None", "facebook": "None", "youtube": "None", "website": "None", "summary": "None", "logo": "None"}, "889207999RR0001": {"name": "LES AUXILIAIRES BENEVOLES DU CENTRE HOSPITALIER DE WATERLOO", "designationCode": "C", "categoryCode": "09", "address": "C.P. 1230", "city": "WATERLOO", "province": "QC", "country": "CA", "postalCode": "J0E2N0", "twitter": "None", "instagram": "None", "facebook": "None", "youtube": "None", "website": "None", "summary": "None", "logo": "None", "latitude": 45.5047321932767, "longitude": -73.64926549555855}, "100300219RR0001": {"name": "LES AUXILIAIRES BENEVOLES DU CENTRE HOSPITALIER UNIVERSITAIRE DE SHERBROOKE", "designationCode": "C", "categoryCode": "19", "address": "580 RUE BOWEN SUD             HOTEL DIEU DE SHERBROOKE", "city": "SHERBROOKE", "province": "QC", "country": "CA", "postalCode": "J1G2E8", "twitter": "None", "instagram": "None", "facebook": "None", "youtube": "None", "website": "None", "summary": "None", "logo": "None", "latitude": 45.39875808061877, "longitude": -71.88023954541224}, "125254144RR0001": {"name": "LES AUXILIAIRES BENEVOLES DU CHRN ET DE LA MAISON PIE XII", "designationCode": "C", "categoryCode": "19", "address": "4, 9E RUE", "city": "ROUYN-NORANDA", "province": "QC", "country": "CA", "postalCode": "J9X2B2", "twitter": "None", "instagram": "None", "facebook": "None", "youtube": "None", "website": "None", "summary": "None", "logo": "None", "latitude": 48.24390969995396, "longitude": -79.02002186225458}, "121028526RR0001": {"name": "LES AUXILIAIRES DE L'HOPITAL BROME-MISSISQUOI-PERKINS INC", "designationCode": "A", "categoryCode": "19", "address": "950, RUE PRINCIPALE", "city": "COWANSVILLE", "province": "QC", "country": "CA", "postalCode": "J2K1K3", "twitter": "None", "instagram": "None", "facebook": "None", "youtube": "None", "website": "None", "summary": "None", "logo": "None", "latitude": 45.20788259276408, "longitude": -72.71425286485072}, "119014678RR0001": {"name": "LES AUXILIAIRES DE L'HOPITAL GENERAL JUIF SIR MORTIMER B. DAVIS / THE AUXILIARY OF THE SIR MORTIMER B. DAVIS - JEWISH GENERAL HOSPITAL", "designationCode": "C", "categoryCode": "19", "address": "3755 CH COTE-SAINTE-CATHERINE", "city": "MONTREAL", "province": "QC", "country": "CA", "postalCode": "H3T1E2", "twitter": "None", "instagram": "None", "facebook": "None", "youtube": "None", "website": "None", "summary": "None", "logo": "None", "latitude": 45.497694044926, "longitude": -73.62844462285645}, "129137790RR0001": {"name": "LES AUXILIAIRES DE L'HOPITAL REGIONAL D'EDMUNDSTON", "designationCode": "C", "categoryCode": "19", "address": "275 BOUL HEBERT", "city": "EDMUNDSTON", "province": "NB", "country": "CA", "postalCode": "E3V4E4", "twitter": "None", "instagram": "None", "facebook": "None", "youtube": "None", "website": "None", "summary": "None", "logo": "None", "latitude": 47.37753500011439, "longitude": -68.31242765797693}, "105195150RR0001": {"name": "LES AUXILIAIRES DE L'H\u00d4PITAL G\u00c9N\u00c9RAL DE MONTR\u00c9AL/THE AUXILIARY OF THE MONTR\u00c9AL GENERAL HOSPITAL", "designationCode": "C", "categoryCode": "19", "address": "1650 AVENUE CEDAR", "city": "MONTREAL", "province": "QC", "country": "CA", "postalCode": "H3G1A4", "twitter": "None", "instagram": "None", "facebook": "None", "youtube": "None", "website": "None", "summary": "None", "logo": "None", "latitude": 45.497485682209586, "longitude": -73.58957935824893}, "103080321RR0001": {"name": "LES AUXILIAIRES DES PAUVRES DE SAINT-FRANCOIS", "designationCode": "C", "categoryCode": "49", "address": "425 STE-ANGELE", "city": "TROIS-RIVIERES", "province": "QC", "country": "CA", "postalCode": "G9A1M3", "twitter": "None", "instagram": "None", "facebook": "None", "youtube": "None", "website": "None", "summary": "None", "logo": "None", "latitude": 46.34714528253223, "longitude": -72.53887211714454}, "885227264RR0001": {"name": "LES AVENTURIERS DE L'ARCHEOLOGIE DANS LE HAUT-SAINT-LAURENT", "designationCode": "C", "categoryCode": "52", "address": "10, RUE KING, SUITE 400", "city": "HUNTINGDON", "province": "QC", "country": "CA", "postalCode": "J0S1H0", "twitter": "None", "instagram": "None", "facebook": "None", "youtube": "None", "website": "None", "summary": "None", "logo": "None", "latitude": 45.088640328351225, "longitude": -74.173405095216}, "119014736RR0001": {"name": "LES BALLETS JAZZ DE MONTREAL", "designationCode": "C", "categoryCode": "22", "address": "1210 SHERBROOKE EST", "city": "MONTR\u00c9AL", "province": "QC", "country": "CA", "postalCode": "H2L1L9", "twitter": "None", "instagram": "None", "facebook": "None", "youtube": "None", "website": "None", "summary": "None", "logo": "None", "latitude": 45.5226015858965, "longitude": -73.56550230622113}, "120516620RR0001": {"name": "LES BARBAPARENTS", "designationCode": "C", "categoryCode": "09", "address": "542 KING GEORGE", "city": "LONGUEUIL", "province": "QC", "country": "CA", "postalCode": "J4J2V7", "twitter": "None", "instagram": "None", "facebook": "None", "youtube": "None", "website": "None", "summary": "None", "logo": "None", "latitude": 45.533612483755626, "longitude": -73.47093114331493}, "898853361RR0001": {"name": "LES BENEVOLES DE L'HOPITAL BOURGET INC.", "designationCode": "C", "categoryCode": "19", "address": "11570 RUE NOTRE-DAME EST", "city": "POINTE-AUX-TREMBLES", "province": "QC", "country": "CA", "postalCode": "H1B2X4", "twitter": "None", "instagram": "None", "facebook": "None", "youtube": "None", "website": "None", "summary": "None", "logo": "None", "latitude": 45.63397812709921, "longitude": -73.49328527930093}, "122018443RR0001": {"name": "LES BENEVOLES DE L'HOPITAL ST-FRANCOIS D'ASSISE INC.", "designationCode": "C", "categoryCode": "19", "address": "775, RUE SAINT-VIATEUR        #319", "city": "CHARLESBOURG", "province": "QC", "country": "CA", "postalCode": "G2L2S2", "twitter": "None", "instagram": "None", "facebook": "None", "youtube": "None", "website": "None", "summary": "None", "logo": "None", "latitude": 46.87864693834066, "longitude": -71.24434068896102}, "863176327RR0001": {"name": "LES BENEVOLES DE LA SANTE DU DOMAINE DES FORESTIERS", "designationCode": "C", "categoryCode": "19", "address": "309 BOUL. DESJARDINS", "city": "MANIWAKI", "province": "QC", "country": "CA", "postalCode": "J9E2E7", "twitter": "None", "instagram": "None", "facebook": "None", "youtube": "None", "website": "None", "summary": "None", "logo": "None", "latitude": 46.39201722604261, "longitude": -75.98129502798362}, "119014751RR0001": {"name": "LES BENEVOLES DU CENTRE D'ACCUEIL FATHER DOWD/THE AUXILIARY OF THE FATHER DOWD MEMORIAL HOME", "designationCode": "C", "categoryCode": "19", "address": "6565 CH HUDSON", "city": "MONTREAL", "province": "QC", "country": "CA", "postalCode": "H3S2T7", "twitter": "None", "instagram": "None", "facebook": "None", "youtube": "None", "website": "None", "summary": "None", "logo": "None", "latitude": 45.506719411362205, "longitude": -73.6310319386291}, "131469199RR0001": {"name": "LES BERGERS DES COEURS DE JESUS ET DE MARIE", "designationCode": "C", "categoryCode": "01", "address": "37 AVE GAGNON", "city": "ROUYN-NORANDA", "province": "QC", "country": "CA", "postalCode": "J9Y0E5", "twitter": "None", "instagram": "None", "facebook": "None", "youtube": "None", "website": "None", "summary": "None", "logo": "None", "latitude": 48.2897858872702, "longitude": -79.02394557360458}, "119014793RR0001": {"name": "LES BLES D'OR DE LORETTE INC", "designationCode": "C", "categoryCode": "56", "address": "1254 DAWSON RD                PO BOX 148", "city": "LORETTE", "province": "MB", "country": "CA", "postalCode": "R0A0Y0", "twitter": "None", "instagram": "None", "facebook": "None", "youtube": "None", "website": "None", "summary": "None", "logo": "None", "latitude": 49.753993919677285, "longitude": -96.89795364476699}, "873528590RR0001": {"name": "LES BOYS SCOUTS DU CANADA, LE CONSEIL PROVINCIAL DU QUEBEC, INC. / BOY SCOUTS OF CANADA QUEBEC PROVINCIAL COUNCIL", "designationCode": "C", "categoryCode": "29", "address": "200 - 1345 BASELINE RD", "city": "OTTAWA", "province": "ON", "country": "CA", "postalCode": "K2C0A7", "twitter": "None", "instagram": "None", "facebook": "None", "youtube": "None", "website": "None", "summary": "None", "logo": "None", "latitude": 45.36323425483263, "longitude": -75.73574151710977}, "883133811RR0001": {"name": "LES BREBIS DE J\u00c9SUS", "designationCode": "C", "categoryCode": "46", "address": "35, CHEMIN DE L'EGLISE", "city": "ST. PETRONILLE", "province": "QC", "country": "CA", "postalCode": "G0A4C0", "twitter": "None", "instagram": "None", "facebook": "None", "youtube": "None", "website": "None", "summary": "None", "logo": "None", "latitude": 46.84941966028047, "longitude": -71.13605058505978}, "866476534RR0001": {"name": "LES BUFFETS INSERE-JEUNES", "designationCode": "C", "categoryCode": "09", "address": "CP 178 SUCC. ST-MICHEL", "city": "MONTREAL", "province": "QC", "country": "CA", "postalCode": "H2A3M1", "twitter": "None", "instagram": "None", "facebook": "None", "youtube": "None", "website": "None", "summary": "None", "logo": "None", "latitude": 45.557373744886085, "longitude": -73.59418775487934}, "118989490RR0001": {"name": "LES CAPUCINS DU QU\u00c9BEC", "designationCode": "C", "categoryCode": "46", "address": "3650 BOUL DE LA ROUSSELIERE", "city": "POINTE AUX TREMBLES", "province": "QC", "country": "CA", "postalCode": "H1A2X9", "twitter": "None", "instagram": "None", "facebook": "None", "youtube": "None", "website": "None", "summary": "None", "logo": "None", "latitude": 45.67050432283996, "longitude": -73.51178670863827}, "130382419RR0001": {"name": "LES CARMELITES MISSIONAIRES (QUEBEC)", "designationCode": "C", "categoryCode": "46", "address": "990 BOUL SAINTE-ANNE", "city": "SAINT-CHARLES-BORROMEE", "province": "QC", "country": "CA", "postalCode": "J6E5B5", "twitter": "None", "instagram": "None", "facebook": "None", "youtube": "None", "website": "None", "summary": "None", "logo": "None", "latitude": 46.037127592301815, "longitude": -73.45421438631791}, "130309826RR0001": {"name": "LES CEDRES-CENTRE D'ACCUEIL POUR PERSONNES AGEES/CEDARS HOME FOR ELDERLY PEOPLE", "designationCode": "C", "categoryCode": "01", "address": "200-1275 CH DE LA COTE-VERTU", "city": "ST-LAURENT", "province": "QC", "country": "CA", "postalCode": "H4L4V2", "twitter": "None", "instagram": "None", "facebook": "None", "youtube": "None", "website": "None", "summary": "None", "logo": "None", "latitude": 45.51680295175682, "longitude": -73.67946167854409}, "130681638RR0001": {"name": "LES CENTRES D'ACCUEIL HERITAGE", "designationCode": "C", "categoryCode": "01", "address": "104-33 HAHN PLACE", "city": "TORONTO", "province": "ON", "country": "CA", "postalCode": "M5A4G2", "twitter": "None", "instagram": "None", "facebook": "None", "youtube": "None", "website": "None", "summary": "None", "logo": "None", "latitude": 43.649290046915496, "longitude": -79.36310808780108}, "891459596RR0001": {"name": "LES CERCLES D'EMPRUNT DE MONTREAL", "designationCode": "C", "categoryCode": "09", "address": "4630 AV COOLBROOK", "city": "MONTREAL", "province": "QC", "country": "CA", "postalCode": "H3X2K6", "twitter": "None", "instagram": "None", "facebook": "None", "youtube": "None", "website": "None", "summary": "None", "logo": "None", "latitude": 45.480902680247134, "longitude": -73.6260619071786}, "103086104RR0001": {"name": "LES CERCLES DES JEUNES NATURALISTES", "designationCode": "C", "categoryCode": "21", "address": "4101 RUE SHERBROOKE E", "city": "MONTREAL", "province": "QC", "country": "CA", "postalCode": "H1X2B2", "twitter": "None", "instagram": "None", "facebook": "None", "youtube": "None", "website": "None", "summary": "None", "logo": "None", "latitude": 45.556460725295054, "longitude": -73.55448215612533}, "103086252RR0001": {"name": "LES CHAMPIGNOLES DE FARNHAM INC.", "designationCode": "C", "categoryCode": "09", "address": "455 RUE YAMASKA E", "city": "FARNHAM", "province": "QC", "country": "CA", "postalCode": "J2N1J2", "twitter": "None", "instagram": "None", "facebook": "None", "youtube": "None", "website": "None", "summary": "None", "logo": "None", "latitude": 45.28575099226705, "longitude": -72.97419730221043}, "132520537RR0001": {"name": "LES CHANOINES REGULIERS DE L'IMMACULEE-CONCEPTION", "designationCode": "C", "categoryCode": "38", "address": "410-3355 RUE IVAN-FRANKO", "city": "LACHINE", "province": "QC", "country": "CA", "postalCode": "H8T1N9", "twitter": "None", "instagram": "None", "facebook": "None", "youtube": "None", "website": "None", "summary": "None", "logo": "None", "latitude": 45.43865236329285, "longitude": -73.69382282904371}, "119014934RR0001": {"name": "LES CHANSONNIERS D'OTTAWA INC.", "designationCode": "C", "categoryCode": "22", "address": "2339, CHEMIN OGILVIE          C.P. 46023, RPO BEACON HILL", "city": "OTTAWA", "province": "ON", "country": "CA", "postalCode": "K1J9M7", "twitter": "None", "instagram": "None", "facebook": "None", "youtube": "None", "website": "None", "summary": "None", "logo": "None", "latitude": 45.45211383845013, "longitude": -75.59683716691598}, "120267927RR0001": {"name": "LES CHANTEURS D'ORPHEE DE MONTREAL INC", "designationCode": "C", "categoryCode": "22", "address": "16 - 5890 AV DE MONKLAND", "city": "MONTREAL", "province": "QC", "country": "CA", "postalCode": "H4A1G2", "twitter": "None", "instagram": "None", "facebook": "None", "youtube": "None", "website": "None", "summary": "None", "logo": "None", "latitude": 45.47235710101572, "longitude": -73.62573769092292}, "888960192RR0001": {"name": "LES CHARIT\u00c9S DU CLUB ROTARY DE DIEPPE INC./DIEPPE ROTARY CLUB CHARITIES INC.", "designationCode": "A", "categoryCode": "63", "address": "C.P. 4217", "city": "DIEPPE", "province": "NB", "country": "CA", "postalCode": "E1A6E8", "twitter": "None", "instagram": "None", "facebook": "None", "youtube": "None", "website": "None", "summary": "None", "logo": "None", "latitude": 46.095558000000054, "longitude": -64.74806449999993}, "119014967RR0001": {"name": "LES CHARITES BON-PASTEUR INC.", "designationCode": "C", "categoryCode": "46", "address": "2550 RUE MARIE-FITZBACH", "city": "SAINTE-FOY", "province": "QC", "country": "CA", "postalCode": "G1V2J2", "twitter": "None", "instagram": "None", "facebook": "None", "youtube": "None", "website": "None", "summary": "None", "logo": "None", "latitude": 46.77763576464306, "longitude": -71.28555412046276}, "898464680RR0001": {"name": "LES CHOUETTES DE LORETTE INC.", "designationCode": "C", "categoryCode": "01", "address": "CP 373", "city": "LORETTE", "province": "MB", "country": "CA", "postalCode": "R0A0Y0", "twitter": "None", "instagram": "None", "facebook": "None", "youtube": "None", "website": "None", "summary": "None", "logo": "None", "latitude": 49.74549000000006, "longitude": -96.88203799999994}, "106975436RR0001": {"name": "LES CIMETI\u00c8RES CATHOLIQUES DE JONQUI\u00c8RE INC.", "designationCode": "C", "categoryCode": "59", "address": "2551 SAINT DOMINIQUE", "city": "JONQUIERE", "province": "QC", "country": "CA", "postalCode": "G7X6J6", "twitter": "None", "instagram": "None", "facebook": "None", "youtube": "None", "website": "None", "summary": "None", "logo": "None", "latitude": 48.408797927385095, "longitude": -71.25755866584996}, "135042992RR0001": {"name": "LES CIMETI\u00c8RES CATHOLIQUES ROMAINS DE L'ARCHDIOC\u00c8SE DE GATINEAU-HULL", "designationCode": "C", "categoryCode": "59", "address": "75 BOUL FOURNIER", "city": "HULL", "province": "QC", "country": "CA", "postalCode": "J8X3P5", "twitter": "None", "instagram": "None", "facebook": "None", "youtube": "None", "website": "None", "summary": "None", "logo": "None", "latitude": 45.44749012046277, "longitude": -75.7126098864039}, "119015030RR0001": {"name": "LES CLERCS DE SAINT-VIATEUR DU MANITOBA", "designationCode": "C", "categoryCode": "46", "address": "231, RUE GOULET BUR 503", "city": "SAINT-BONIFACE", "province": "MB", "country": "CA", "postalCode": "R2H0S1", "twitter": "None", "instagram": "None", "facebook": "None", "youtube": "None", "website": "None", "summary": "None", "logo": "None", "latitude": 49.88259600000005, "longitude": -97.11789199999994}, "119015063RR0001": {"name": "LES CLUBS 4-H DU QUEBEC INC.", "designationCode": "C", "categoryCode": "29", "address": "6500, BOUL. ARTHUR-SAUV\u00c9      BUREAU 202", "city": "LAVAL", "province": "QC", "country": "CA", "postalCode": "H7R3X7", "twitter": "None", "instagram": "None", "facebook": "None", "youtube": "None", "website": "None", "summary": "None", "logo": "None", "latitude": 45.547311657770315, "longitude": -73.86429384987574}, "119015071RR0001": {"name": "LES COCCINELLES D'OAKVILLE INC.", "designationCode": "C", "categoryCode": "20", "address": "1257 SEDGEWICK CRES", "city": "OAKVILLE", "province": "ON", "country": "CA", "postalCode": "L6L1X5", "twitter": "None", "instagram": "None", "facebook": "None", "youtube": "None", "website": "None", "summary": "None", "logo": "None", "latitude": 43.41627617069649, "longitude": -79.69578144852552}, "865674592RR0001": {"name": "LES COMMUNAUTES DE BASE JUSTICE SOLIDARITE", "designationCode": "C", "categoryCode": "09", "address": "1690 RUE DE MALAPART", "city": "TROIS-RIVIERES", "province": "QC", "country": "CA", "postalCode": "G8Y4V7", "twitter": "None", "instagram": "None", "facebook": "None", "youtube": "None", "website": "None", "summary": "None", "logo": "None", "latitude": 46.353243636130244, "longitude": -72.58479574219493}, "107615528RR0001": {"name": "LES COMPAGNONS DES FRANCS LOISIRS", "designationCode": "C", "categoryCode": "56", "address": "327 RUE DUDLEY", "city": "NORTH BAY", "province": "ON", "country": "CA", "postalCode": "P1B7A4", "twitter": "None", "instagram": "None", "facebook": "None", "youtube": "None", "website": "None", "summary": "None", "logo": "None", "latitude": 46.32717053231589, "longitude": -79.45841305536962}, "132748328RR0001": {"name": "LES CONCERTS LACHINE INC", "designationCode": "C", "categoryCode": "22", "address": "2901 BOUL. ST-JOSEPH", "city": "LACHINE", "province": "QC", "country": "CA", "postalCode": "H8S4B7", "twitter": "None", "instagram": "None", "facebook": "None", "youtube": "None", "website": "None", "summary": "None", "logo": "None", "latitude": 45.43354570716732, "longitude": -73.68965918858565}, "118969245RR0001": {"name": "LES CONCERTS PONTICELLO", "designationCode": "C", "categoryCode": "22", "address": "432 ALEXANDRE-TACHE", "city": "HULL", "province": "QC", "country": "CA", "postalCode": "J9A1M7", "twitter": "None", "instagram": "None", "facebook": "None", "youtube": "None", "website": "None", "summary": "None", "logo": "None", "latitude": 45.42116122848935, "longitude": -75.74853845992247}, "857065700RR0001": {"name": "LES CORRESPONDANCES D'EASTMAN", "designationCode": "C", "categoryCode": "22", "address": "C.P 37", "city": "EASTMAN", "province": "QC", "country": "CA", "postalCode": "J0E1P0", "twitter": "None", "instagram": "None", "facebook": "None", "youtube": "None", "website": "None", "summary": "None", "logo": "None", "latitude": 45.06036930375452, "longitude": -72.50216973988292}, "866573025RR0001": {"name": "LES CUISINES COLLECTIVES DE MATHA", "designationCode": "C", "categoryCode": "09", "address": "2 PRINCIPALE", "city": "ST JEAN DE MATHA", "province": "QC", "country": "CA", "postalCode": "J0K2S0", "twitter": "None", "instagram": "None", "facebook": "None", "youtube": "None", "website": "None", "summary": "None", "logo": "None", "latitude": 46.22984413321605, "longitude": -73.53433374522469}, "894770650RR0001": {"name": "LES CUISINES COLLECTIVES DES BOIS-FRANCS", "designationCode": "C", "categoryCode": "09", "address": "18 RUE PERREAULT", "city": "VICTORIAVILLE", "province": "QC", "country": "CA", "postalCode": "G6P5C7", "twitter": "None", "instagram": "None", "facebook": "None", "youtube": "None", "website": "None", "summary": "None", "logo": "None", "latitude": 46.05787828227245, "longitude": -71.95537171576566}, "883235038RR0001": {"name": "LES CUISINES COLLECTIVES DU HAUT SAINT-FRANCOIS", "designationCode": "C", "categoryCode": "09", "address": "17 RUE ANGUS SUD", "city": "EAST ANGUS", "province": "QC", "country": "CA", "postalCode": "J0B1R0", "twitter": "None", "instagram": "None", "facebook": "None", "youtube": "None", "website": "None", "summary": "None", "logo": "None", "latitude": 45.48056966833056, "longitude": -71.6643150736628}, "867029688RR0001": {"name": "LES DAMES PATRONESSES DE LA COLONIE DE LA JEUNESSE ACADIENNE", "designationCode": "C", "categoryCode": "56", "address": "PO BOX 97", "city": "CHURCH POINT", "province": "NS", "country": "CA", "postalCode": "B0W1M0", "twitter": "None", "instagram": "None", "facebook": "None", "youtube": "None", "website": "None", "summary": "None", "logo": "None", "latitude": 43.4177000034202, "longitude": -65.62247285511256}, "129248720RR0001": {"name": "LES DANSEURS DE STE-MARIE INC", "designationCode": "C", "categoryCode": "22", "address": "C.P. 774", "city": "SAINTE-MARIE", "province": "QC", "country": "CA", "postalCode": "G6E3B9", "twitter": "None", "instagram": "None", "facebook": "None", "youtube": "None", "website": "None", "summary": "None", "logo": "None", "latitude": 46.46906700000005, "longitude": -71.03760199999994}, "858324841RR0001": {"name": "LES DEJEUNERS DU BONHEUR", "designationCode": "C", "categoryCode": "09", "address": "CASIER POSTAL 70022           SUCC. QU\u00c9BEC CENTRE", "city": "QU\u00c9BEC", "province": "QC", "country": "CA", "postalCode": "G2J0A1", "twitter": "None", "instagram": "None", "facebook": "None", "youtube": "None", "website": "None", "summary": "None", "logo": "None", "latitude": 46.84017300000005, "longitude": -71.27767249999994}, "891110397RR0001": {"name": "LES DEMUNIES DE SAINT-CLAUDE", "designationCode": "C", "categoryCode": "09", "address": "C.P. 278", "city": "SAINT-CLAUDE", "province": "MB", "country": "CA", "postalCode": "R0G1Z0", "twitter": "None", "instagram": "None", "facebook": "None", "youtube": "None", "website": "None", "summary": "None", "logo": "None", "latitude": 49.65375240493102, "longitude": -98.34234710777315}, "119214070RR0001": {"name": "LES DEUX MONDES, COMPAGNIE DE THEATRE", "designationCode": "C", "categoryCode": "22", "address": "7285 RUE CHABOT", "city": "MONTREAL", "province": "QC", "country": "CA", "postalCode": "H2E2K7", "twitter": "None", "instagram": "None", "facebook": "None", "youtube": "None", "website": "None", "summary": "None", "logo": "None", "latitude": 45.54995223925208, "longitude": -73.60782011933757}, "885690487RR0001": {"name": "LES DIABETIQUES DE BAIE COMEAU INC.", "designationCode": "C", "categoryCode": "11", "address": "1866 RUE POTTIER", "city": "BAIE-COMEAU", "province": "QC", "country": "CA", "postalCode": "G5C2V9", "twitter": "None", "instagram": "None", "facebook": "None", "youtube": "None", "website": "None", "summary": "None", "logo": "None", "latitude": 49.18890984650021, "longitude": -68.27709653133495}, "137284659RR0001": {"name": "LES DIABETIQUES DE L'OUTAOUAIS INC", "designationCode": "C", "categoryCode": "11", "address": "331 BOUL DE LA CITE-DES-JEUNESAPP 111", "city": "GATINEAU", "province": "QC", "country": "CA", "postalCode": "J8Y6T3", "twitter": "None", "instagram": "None", "facebook": "None", "youtube": "None", "website": "None", "summary": "None", "logo": "None", "latitude": 45.45790048153392, "longitude": -75.76677589266497}, "890789944RR0001": {"name": "LES DIABETIQUES DE LA BAIE DES CHALEURS", "designationCode": "C", "categoryCode": "19", "address": "115 RUE DIEPPE", "city": "BONAVENTURE", "province": "QC", "country": "CA", "postalCode": "G0C1E0", "twitter": "None", "instagram": "None", "facebook": "None", "youtube": "None", "website": "None", "summary": "None", "logo": "None", "latitude": 48.054266453257384, "longitude": -65.48320505551384}, "119015154RR0001": {"name": "LES DIABETIQUES DE QUEBEC", "designationCode": "C", "categoryCode": "11", "address": "180 - 979 AV DE BOURGOGNE", "city": "QUEBEC", "province": "QC", "country": "CA", "postalCode": "G1W2L4", "twitter": "None", "instagram": "None", "facebook": "None", "youtube": "None", "website": "None", "summary": "None", "logo": "None", "latitude": 46.76588260173686, "longitude": -71.31054394246694}, "889235750RR0001": {"name": "LES DIABETIQUES DU NORD DE MONTREAL INC", "designationCode": "C", "categoryCode": "01", "address": "11800, AV DU BOIS-DE-BOULOGNE", "city": "MONTR\u00c9AL", "province": "QC", "country": "CA", "postalCode": "H3M2X6", "twitter": "None", "instagram": "None", "facebook": "None", "youtube": "None", "website": "None", "summary": "None", "logo": "None", "latitude": 45.54080012236735, "longitude": -73.68802177312584}, "889544375RR0001": {"name": "LES DIABETIQUES SOREL-TRACY", "designationCode": "C", "categoryCode": "11", "address": "71 DE RAMESAY                 LOCAL 111", "city": "SOREL-TRACY", "province": "QC", "country": "CA", "postalCode": "J3P3Z1", "twitter": "None", "instagram": "None", "facebook": "None", "youtube": "None", "website": "None", "summary": "None", "logo": "None", "latitude": 46.044942202060085, "longitude": -73.10901753771158}, "138988159RR0001": {"name": "LES DIABETIQUES-AMIS DU K R T B", "designationCode": "C", "categoryCode": "19", "address": "C.P. 1463", "city": "RIVIERE-DU-LOUP", "province": "QC", "country": "CA", "postalCode": "G5R4M1", "twitter": "None", "instagram": "None", "facebook": "None", "youtube": "None", "website": "None", "summary": "None", "logo": "None", "latitude": 47.835060000000055, "longitude": -69.53702299999993}, "119015162RR0001": {"name": "LES DISCIPLES DE MASSENET", "designationCode": "C", "categoryCode": "22", "address": "3 - 10050 RUE SAINT-URBAIN", "city": "MONTREAL", "province": "QC", "country": "CA", "postalCode": "H3L2T4", "twitter": "None", "instagram": "None", "facebook": "None", "youtube": "None", "website": "None", "summary": "None", "logo": "None", "latitude": 45.54585712626248, "longitude": -73.66217159437927}, "107615767RR0001": {"name": "LES DOMINICAINES DE LA TRINITE", "designationCode": "C", "categoryCode": "46", "address": "2710 AV LAFLECHE", "city": "SHAWINIGAN", "province": "QC", "country": "CA", "postalCode": "G9N6H5", "twitter": "None", "instagram": "None", "facebook": "None", "youtube": "None", "website": "None", "summary": "None", "logo": "None", "latitude": 46.572404131859706, "longitude": -72.7580946350633}, "119015188RR0001": {"name": "LES DOMINICAINES DE SAINTE-CATHERINE DE SIENNE (MONTREAL)", "designationCode": "C", "categoryCode": "46", "address": "1950, RUE PROVOST", "city": "LACHINE", "province": "QC", "country": "CA", "postalCode": "H8S1P7", "twitter": "None", "instagram": "None", "facebook": "None", "youtube": "None", "website": "None", "summary": "None", "logo": "None", "latitude": 45.44193150937682, "longitude": -73.68186260505507}, "118886639RR0001": {"name": "LES DOMINICAINES DES SAINTS ANGES GARDIENS", "designationCode": "C", "categoryCode": "46", "address": "507-4950, RUE DE LA SAVANE", "city": "MONTREAL", "province": "QC", "country": "CA", "postalCode": "H4P1T7", "twitter": "None", "instagram": "None", "facebook": "None", "youtube": "None", "website": "None", "summary": "None", "logo": "None", "latitude": 45.50017762277138, "longitude": -73.65293742893424}, "119015196RR0001": {"name": "LES DOMINICAINES MISSIONNAIRES ADORATRICES", "designationCode": "C", "categoryCode": "46", "address": "131, RUE DES DOMINICAINES", "city": "BEAUPORT", "province": "QC", "country": "CA", "postalCode": "G1E6S8", "twitter": "None", "instagram": "None", "facebook": "None", "youtube": "None", "website": "None", "summary": "None", "logo": "None", "latitude": 46.8736601909516, "longitude": -71.18897178420568}, "132349267RR0001": {"name": "LES DOMINICAINS DE SAINT-ALBERT-LE-GRAND-MONTREAL", "designationCode": "C", "categoryCode": "46", "address": "2715 CH COTE-SAINTE-CATHERINE BUREAU APD", "city": "MONTREAL", "province": "QC", "country": "CA", "postalCode": "H3T1B6", "twitter": "None", "instagram": "None", "facebook": "None", "youtube": "None", "website": "None", "summary": "None", "logo": "None", "latitude": 45.50668659703366, "longitude": -73.62023772932606}, "132090879RR0001": {"name": "LES DOMINICAINS OU FRERES PRECHEURS DE LA CITE DE QUEBEC", "designationCode": "C", "categoryCode": "46", "address": "1049 RTE DE L'EGLISE", "city": "QUEBEC", "province": "QC", "country": "CA", "postalCode": "G1V3W1", "twitter": "None", "instagram": "None", "facebook": "None", "youtube": "None", "website": "None", "summary": "None", "logo": "None", "latitude": 46.771593745513144, "longitude": -71.29512560834463}}