{"802305516RR0001": {"name": "Christ Intimacy Church International", "designationCode": "C", "categoryCode": "39", "address": "5054 FAIRWIND DRIVE,", "city": "MISSISSAUGA", "province": "ON", "country": "CA", "postalCode": "L5R2N4", "twitter": "None", "instagram": "None", "facebook": "None", "youtube": "None", "website": "None", "summary": "None", "logo": "None", "latitude": 43.604182761296194, "longitude": -79.65999198892015}, "826608135RR0001": {"name": "Christ Life Church Int'l God's Embassy", "designationCode": "C", "categoryCode": "39", "address": "103 - 8721 156 ST NW", "city": "EDMONTON", "province": "AB", "country": "CA", "postalCode": "T5R1Y5", "twitter": "None", "instagram": "None", "facebook": "None", "youtube": "None", "website": "None", "summary": "None", "logo": "None", "latitude": 53.520254664723865, "longitude": -113.59028426348922}, "771353091RR0001": {"name": "Christ Our Cornerstone Ministries (COCM)", "designationCode": "C", "categoryCode": "39", "address": "1265 WELLER CROSSING", "city": "MILTON", "province": "ON", "country": "CA", "postalCode": "L9T6J9", "twitter": "None", "instagram": "None", "facebook": "None", "youtube": "None", "website": "None", "summary": "None", "logo": "None", "latitude": 43.531845560386564, "longitude": -79.85699554674747}, "806085882RR0001": {"name": "Christ Our Wisdom and Power (Pentecostal) Missions of Edmonton", "designationCode": "C", "categoryCode": "39", "address": "6921 STROM LANE", "city": "EDMONTON", "province": "AB", "country": "CA", "postalCode": "T6R0G3", "twitter": "None", "instagram": "None", "facebook": "None", "youtube": "None", "website": "None", "summary": "None", "logo": "None", "latitude": 53.442360785734905, "longitude": -113.56784794944915}, "818133910RR0001": {"name": "Christ Restoration Chapel", "designationCode": "C", "categoryCode": "39", "address": "7471 SAINT BARBARA BOULEVARD", "city": "MISSISSAUGA", "province": "ON", "country": "CA", "postalCode": "L5W0G3", "twitter": "None", "instagram": "None", "facebook": "None", "youtube": "None", "website": "None", "summary": "None", "logo": "None", "latitude": 43.644060827370275, "longitude": -79.72462491923939}, "820784692RR0001": {"name": "Christ Supreme Ministry", "designationCode": "C", "categoryCode": "39", "address": "141 WILLOW PARK DR", "city": "BRAMPTON", "province": "ON", "country": "CA", "postalCode": "L6R2N1", "twitter": "None", "instagram": "None", "facebook": "None", "youtube": "None", "website": "None", "summary": "None", "logo": "None", "latitude": 43.749331670263786, "longitude": -79.75147825188978}, "835627530RR0001": {"name": "Christ The King Anglican Church, Toronto (ANIC)", "designationCode": "C", "categoryCode": "39", "address": "53 GOTHIC AVE", "city": "TORONTO", "province": "ON", "country": "CA", "postalCode": "M6P2V8", "twitter": "None", "instagram": "None", "facebook": "None", "youtube": "None", "website": "None", "summary": "None", "logo": "None", "latitude": 43.65429235971484, "longitude": -79.46876010684409}, "802518001RR0001": {"name": "Christ, The Living Stone Fellowship - Emmanuel Calgary", "designationCode": "C", "categoryCode": "39", "address": "11245 30 ST SW                CEDARBRAC PLAZA", "city": "CALGARY", "province": "AB", "country": "CA", "postalCode": "T2W4N5", "twitter": "None", "instagram": "None", "facebook": "None", "youtube": "None", "website": "None", "summary": "None", "logo": "None", "latitude": 50.953203, "longitude": -114.12959764201592}, "816310221RR0001": {"name": "Christ's Church Oceanside", "designationCode": "C", "categoryCode": "39", "address": "P.O. BOX 295", "city": "NANOOSE BAY", "province": "BC", "country": "CA", "postalCode": "V9P9J9", "twitter": "None", "instagram": "None", "facebook": "None", "youtube": "None", "website": "None", "summary": "None", "logo": "None", "latitude": 49.27547910292093, "longitude": -124.19736433832817}, "814804613RR0001": {"name": "Christ's Family Pentecostal Church of God Inc.", "designationCode": "C", "categoryCode": "39", "address": "236 WALLASEY STREET", "city": "WINNIPEG", "province": "MB", "country": "CA", "postalCode": "R3J3C1", "twitter": "None", "instagram": "None", "facebook": "None", "youtube": "None", "website": "None", "summary": "None", "logo": "None", "latitude": 49.87777724202203, "longitude": -97.26529311105635}, "826451098RR0001": {"name": "Christ's Forgiveness Ministries", "designationCode": "C", "categoryCode": "39", "address": "410 - 9140 LESLIE ST", "city": "RICHMOND HILL", "province": "ON", "country": "CA", "postalCode": "L4B0A9", "twitter": "None", "instagram": "None", "facebook": "None", "youtube": "None", "website": "None", "summary": "None", "logo": "None", "latitude": 43.85735113682272, "longitude": -79.38568660609336}, "819928060RR0001": {"name": "Christ's Voice of Restoration Ministries", "designationCode": "C", "categoryCode": "47", "address": "200 SANFORD AVE N", "city": "HAMILTON", "province": "ON", "country": "CA", "postalCode": "L8L5Z8", "twitter": "None", "instagram": "None", "facebook": "None", "youtube": "None", "website": "None", "summary": "None", "logo": "None", "latitude": 43.258206049397, "longitude": -79.84352050649221}, "816211213RR0001": {"name": "Christadelphian Caring Network of Canada", "designationCode": "C", "categoryCode": "39", "address": "187 NORFOLK STREET", "city": "GUELPH", "province": "ON", "country": "CA", "postalCode": "N1H4K1", "twitter": "None", "instagram": "None", "facebook": "None", "youtube": "None", "website": "None", "summary": "None", "logo": "None", "latitude": 43.547975234260406, "longitude": -80.25462769245215}, "836858035RR0001": {"name": "Christadelphian Heritage College Hamilton", "designationCode": "C", "categoryCode": "20", "address": "522 BOOK ROAD EAST", "city": "ANCASTER", "province": "ON", "country": "CA", "postalCode": "L9G3L1", "twitter": "None", "instagram": "None", "facebook": "None", "youtube": "None", "website": "None", "summary": "None", "logo": "None", "latitude": 43.188540685527244, "longitude": -79.95273784609617}, "844898734RR0001": {"name": "Christadelphian Meal-A-Day Fund of Canada", "designationCode": "C", "categoryCode": "09", "address": "16 BOWES GARDEN COURT", "city": "TORONTO", "province": "ON", "country": "CA", "postalCode": "M1C4L5", "twitter": "None", "instagram": "None", "facebook": "None", "youtube": "None", "website": "None", "summary": "None", "logo": "None", "latitude": 43.79202148819901, "longitude": -79.12925434029644}, "809902323RR0001": {"name": "Christenson Charity Foundation", "designationCode": "B", "categoryCode": "03", "address": "5410 97 ST NW", "city": "EDMONTON", "province": "AB", "country": "CA", "postalCode": "T6E5C1", "twitter": "None", "instagram": "None", "facebook": "None", "youtube": "None", "website": "None", "summary": "None", "logo": "None", "latitude": 53.49010449708581, "longitude": -113.47943963826502}, "846528115RR0001": {"name": "Christian hope Ministry International", "designationCode": "C", "categoryCode": "39", "address": "45 KNOWLES DRIVE,", "city": "TORONTO", "province": "ON", "country": "CA", "postalCode": "M1X1J9", "twitter": "None", "instagram": "None", "facebook": "None", "youtube": "None", "website": "None", "summary": "None", "logo": "None", "latitude": 43.82320339771487, "longitude": -79.21639937411288}, "834791378RR0001": {"name": "Christian Aboriginal Fellowship of Canada", "designationCode": "C", "categoryCode": "39", "address": "66 JOSEPHINE STREET           POST OFFICE BOX 24026", "city": "NORTH BAY", "province": "ON", "country": "CA", "postalCode": "P1B0C7", "twitter": "None", "instagram": "None", "facebook": "None", "youtube": "None", "website": "None", "summary": "None", "logo": "None", "latitude": 46.33350485977308, "longitude": -79.46892966322332}, "824824494RR0001": {"name": "Christian Agape International Assembly", "designationCode": "C", "categoryCode": "39", "address": "6760 RUE LEGARE", "city": "MONTREAL", "province": "QC", "country": "CA", "postalCode": "H3S1Y4", "twitter": "None", "instagram": "None", "facebook": "None", "youtube": "None", "website": "None", "summary": "None", "logo": "None", "latitude": 45.500689782388015, "longitude": -73.63927538455756}, "861253268RR0001": {"name": "Christian Arabic Church of Edmonton", "designationCode": "C", "categoryCode": "39", "address": "8819 99 AVE NW", "city": "EDMONTON", "province": "AB", "country": "CA", "postalCode": "T5H4N5", "twitter": "None", "instagram": "None", "facebook": "None", "youtube": "None", "website": "None", "summary": "None", "logo": "None", "latitude": 53.54108948845882, "longitude": -113.46695861212422}, "823371547RR0001": {"name": "Christian Arabic Church of Kitchener", "designationCode": "C", "categoryCode": "39", "address": "77 CROSBY DRIVE", "city": "KITCHENER", "province": "ON", "country": "CA", "postalCode": "N2B2L1", "twitter": "None", "instagram": "None", "facebook": "None", "youtube": "None", "website": "None", "summary": "None", "logo": "None", "latitude": 43.451557743811044, "longitude": -80.44805520788847}, "822617825RR0001": {"name": "Christian Assembly Work in Ukraine Fund", "designationCode": "C", "categoryCode": "49", "address": "210 ALFRED AVENUE", "city": "PORTAGE LA PAIRIE", "province": "MB", "country": "CA", "postalCode": "R1N0H3", "twitter": "None", "instagram": "None", "facebook": "None", "youtube": "None", "website": "None", "summary": "None", "logo": "None", "latitude": 49.97568366318178, "longitude": -98.28715426881689}, "118852987RR0001": {"name": "Christian Auto Ministries Inc.", "designationCode": "C", "categoryCode": "47", "address": "1500 - 10180 101 ST NW", "city": "EDMONTON", "province": "AB", "country": "CA", "postalCode": "T5J4K1", "twitter": "None", "instagram": "None", "facebook": "None", "youtube": "None", "website": "None", "summary": "None", "logo": "None", "latitude": 53.54247641909515, "longitude": -113.49376771934274}, "123782435RR0001": {"name": "Christian Benefit Shop of the Brethren in Christ Church Inc.", "designationCode": "C", "categoryCode": "09", "address": "59 SOUTHWORTH STREET", "city": "WELLAND", "province": "ON", "country": "CA", "postalCode": "L3B1Y3", "twitter": "None", "instagram": "None", "facebook": "None", "youtube": "None", "website": "None", "summary": "None", "logo": "None", "latitude": 42.981299528449426, "longitude": -79.23600494402481}, "832776371RR0001": {"name": "Christian Church My Beloved Jesus Christ", "designationCode": "C", "categoryCode": "39", "address": "17-135 ANDOVER DR", "city": "LONDON", "province": "ON", "country": "CA", "postalCode": "N6J4C2", "twitter": "None", "instagram": "None", "facebook": "None", "youtube": "None", "website": "None", "summary": "None", "logo": "None", "latitude": 42.94705624646544, "longitude": -81.27459068246881}, "879735405RR0001": {"name": "Christian City Church North Calgary", "designationCode": "C", "categoryCode": "39", "address": "3812 MARBANK DRIVE N.E.", "city": "CALGARY", "province": "AB", "country": "CA", "postalCode": "T2A3Z7", "twitter": "None", "instagram": "None", "facebook": "None", "youtube": "None", "website": "None", "summary": "None", "logo": "None", "latitude": 51.06266746378896, "longitude": -113.98083252844941}, "898237557RR0001": {"name": "Christian Community Church of Elk Point", "designationCode": "C", "categoryCode": "39", "address": "PO BOX 189", "city": "ELK POINT", "province": "AB", "country": "CA", "postalCode": "T0A1A0", "twitter": "None", "instagram": "None", "facebook": "None", "youtube": "None", "website": "None", "summary": "None", "logo": "None", "latitude": 54.815265, "longitude": -111.92067675}, "119234367RR0001": {"name": "Christian Community Church of Minto Incorporated", "designationCode": "C", "categoryCode": "36", "address": "819 PLEASANT DR", "city": "MINTO", "province": "NB", "country": "CA", "postalCode": "E4B2V3", "twitter": "None", "instagram": "None", "facebook": "None", "youtube": "None", "website": "None", "summary": "None", "logo": "None", "latitude": 46.08369345077162, "longitude": -66.05167259246717}, "806851325RR0001": {"name": "Christian Creative Communication Centre of Canada", "designationCode": "C", "categoryCode": "39", "address": "5892 RIVERSIDE PLACE", "city": "MISSISSAUGA", "province": "ON", "country": "CA", "postalCode": "L5M4X3", "twitter": "None", "instagram": "None", "facebook": "None", "youtube": "None", "website": "None", "summary": "None", "logo": "None", "latitude": 43.58560134222969, "longitude": -79.71061166100162}, "822873592RR0001": {"name": "Christian Faith International", "designationCode": "B", "categoryCode": "39", "address": "35190 DELAIR RD", "city": "ABBOTSFORD", "province": "BC", "country": "CA", "postalCode": "V3G2E2", "twitter": "None", "instagram": "None", "facebook": "None", "youtube": "None", "website": "None", "summary": "None", "logo": "None", "latitude": 49.03511496583778, "longitude": -122.24932333192925}, "130783723RR0001": {"name": "Christian Fellowship Church (Mennonite) of Steinbach Manitoba", "designationCode": "C", "categoryCode": "34", "address": "417 HANOVER ST.", "city": "STEINBACH", "province": "MB", "country": "CA", "postalCode": "R5G0G9", "twitter": "None", "instagram": "None", "facebook": "None", "youtube": "None", "website": "None", "summary": "None", "logo": "None", "latitude": 49.52571480340328, "longitude": -96.67722355579205}, "857019913RR0001": {"name": "Christian Fellowship Learning Centre", "designationCode": "C", "categoryCode": "49", "address": "3038 ROCHESTER TOWNLINE RD", "city": "STAPLES", "province": "ON", "country": "CA", "postalCode": "N0P2J0", "twitter": "None", "instagram": "None", "facebook": "None", "youtube": "None", "website": "None", "summary": "None", "logo": "None", "latitude": 42.1769295, "longitude": -82.60057125}, "837771252RR0001": {"name": "Christian Foundation Ministries International", "designationCode": "C", "categoryCode": "39", "address": "7 - 425 EDDYSTONE AVE", "city": "NORTH YORK", "province": "ON", "country": "CA", "postalCode": "M3N1H8", "twitter": "None", "instagram": "None", "facebook": "None", "youtube": "None", "website": "None", "summary": "None", "logo": "None", "latitude": 43.74700682315801, "longitude": -79.52494554105846}, "803270263RR0001": {"name": "Christian Healing Associates", "designationCode": "C", "categoryCode": "47", "address": "805 - 9 DEER PARK CRES", "city": "TORONTO", "province": "ON", "country": "CA", "postalCode": "M4V2C4", "twitter": "None", "instagram": "None", "facebook": "None", "youtube": "None", "website": "None", "summary": "None", "logo": "None", "latitude": 43.68790480296023, "longitude": -79.39858501520612}, "814294815RR0001": {"name": "Christian Higher Education Canada Inc.", "designationCode": "C", "categoryCode": "59", "address": "79 ROBINHOOD DRIVE", "city": "DUNDAS", "province": "ON", "country": "CA", "postalCode": "L9H4G2", "twitter": "None", "instagram": "None", "facebook": "None", "youtube": "None", "website": "None", "summary": "None", "logo": "None", "latitude": 43.25561992919406, "longitude": -79.95401669565479}, "857298863RR0001": {"name": "Christian Historical Society of Canada, Inc.", "designationCode": "C", "categoryCode": "29", "address": "P.O. BOX 20037                BRUNSWICK SQUARE", "city": "SAINT JOHN", "province": "NB", "country": "CA", "postalCode": "E2L5B2", "twitter": "None", "instagram": "None", "facebook": "None", "youtube": "None", "website": "None", "summary": "None", "logo": "None", "latitude": 45.27306008050087, "longitude": -66.06129006939226}, "805831955RR0001": {"name": "Christian Holy Spirit Fellowship", "designationCode": "C", "categoryCode": "39", "address": "9120 177 ST", "city": "EDMONTON", "province": "AB", "country": "CA", "postalCode": "T5T3L2", "twitter": "None", "instagram": "None", "facebook": "None", "youtube": "None", "website": "None", "summary": "None", "logo": "None", "latitude": 53.526016477927236, "longitude": -113.62893007386437}, "812350916RR0001": {"name": "Christian Horizons International", "designationCode": "C", "categoryCode": "49", "address": "4278 KING ST E", "city": "KITCHENER", "province": "ON", "country": "CA", "postalCode": "N2P2G5", "twitter": "None", "instagram": "None", "facebook": "None", "youtube": "None", "website": "None", "summary": "None", "logo": "None", "latitude": 43.4096658632258, "longitude": -80.3985101221191}, "830832267RR0001": {"name": "Christian Immigrant Support Services Incorporated", "designationCode": "C", "categoryCode": "09", "address": "2101 MILLBOURNE ROAD WEST NW", "city": "EDMONTON", "province": "AB", "country": "CA", "postalCode": "T6K0Y3", "twitter": "None", "instagram": "None", "facebook": "None", "youtube": "None", "website": "None", "summary": "None", "logo": "None", "latitude": 53.48107332524698, "longitude": -113.454918526671}, "118856673RR0001": {"name": "Christian Island United Church", "designationCode": "C", "categoryCode": "44", "address": "146 MKADE KEGWIN MIIKAN", "city": "CHRISTIAN ISLAND", "province": "ON", "country": "CA", "postalCode": "L9M0A9", "twitter": "None", "instagram": "None", "facebook": "None", "youtube": "None", "website": "None", "summary": "None", "logo": "None", "latitude": 44.821989219545245, "longitude": -80.17486868956661}, "106949670RR0001": {"name": "Christian Mennonite Conference", "designationCode": "C", "categoryCode": "34", "address": "478 HENRY ST", "city": "STEINBACH", "province": "MB", "country": "CA", "postalCode": "R5G0J1", "twitter": "None", "instagram": "None", "facebook": "None", "youtube": "None", "website": "None", "summary": "None", "logo": "None", "latitude": 49.52478923630461, "longitude": -96.67386533245325}, "851230466RR0001": {"name": "Christian Ministry to Israel", "designationCode": "C", "categoryCode": "47", "address": "8 WENEIL DR", "city": "FREELTON", "province": "ON", "country": "CA", "postalCode": "L8B0Z6", "twitter": "None", "instagram": "None", "facebook": "None", "youtube": "None", "website": "None", "summary": "None", "logo": "None", "latitude": 43.39662027889691, "longitude": -80.04068109628385}, "822896304RR0001": {"name": "Christian Mission Outreach to Asia", "designationCode": "C", "categoryCode": "47", "address": "189 PATRICIA ROAD", "city": "WINDSOR", "province": "ON", "country": "CA", "postalCode": "N9B3B8", "twitter": "None", "instagram": "None", "facebook": "None", "youtube": "None", "website": "None", "summary": "None", "logo": "None", "latitude": 42.30956962003008, "longitude": -83.06924081268374}, "831752118RR0001": {"name": "Christian Mission Schools of Canada", "designationCode": "C", "categoryCode": "20", "address": "3220 CONCESSION ROAD 7", "city": "ORONO", "province": "ON", "country": "CA", "postalCode": "L0B1M0", "twitter": "None", "instagram": "None", "facebook": "None", "youtube": "None", "website": "None", "summary": "None", "logo": "None", "latitude": 44.00189003246089, "longitude": -78.65842468164517}, "812531598RR0001": {"name": "Christian Missionary Fellowship International Corp.", "designationCode": "C", "categoryCode": "47", "address": "55 ICELAND PL", "city": "ST. JOHN'S", "province": "NL", "country": "CA", "postalCode": "A1B0E9", "twitter": "None", "instagram": "None", "facebook": "None", "youtube": "None", "website": "None", "summary": "None", "logo": "None", "latitude": 47.54657147876396, "longitude": -52.79695767236992}, "844540534RR0001": {"name": "Christian Missionary Fellowship International Ottawa-Gatineau", "designationCode": "C", "categoryCode": "39", "address": "58 TYBALT CRESCENT", "city": "OTTAWA", "province": "ON", "country": "CA", "postalCode": "K2H8J5", "twitter": "None", "instagram": "None", "facebook": "None", "youtube": "None", "website": "None", "summary": "None", "logo": "None", "latitude": 45.31810302080336, "longitude": -75.83320096378895}, "806588083RR0001": {"name": "Christian Online Media Society", "designationCode": "C", "categoryCode": "49", "address": "22987 76A AVE", "city": "LANGLEY", "province": "BC", "country": "CA", "postalCode": "V1M2J5", "twitter": "None", "instagram": "None", "facebook": "None", "youtube": "None", "website": "None", "summary": "None", "logo": "None", "latitude": 49.14167552928613, "longitude": -122.58751050000001}, "837825306RR0001": {"name": "Christian Outreach Ministries", "designationCode": "C", "categoryCode": "49", "address": "121 THE FAIRWAYS", "city": "MARKHAM", "province": "ON", "country": "CA", "postalCode": "L6C2A7", "twitter": "None", "instagram": "None", "facebook": "None", "youtube": "None", "website": "None", "summary": "None", "logo": "None", "latitude": 43.893972525102534, "longitude": -79.31894843727278}, "857700025RR0001": {"name": "Christian Performance and Print Ministries of Canada Inc.", "designationCode": "C", "categoryCode": "47", "address": "62062 ROAD 27 WEST", "city": "NEWTON", "province": "MB", "country": "CA", "postalCode": "R0H0X0", "twitter": "None", "instagram": "None", "facebook": "None", "youtube": "None", "website": "None", "summary": "None", "logo": "None", "latitude": 49.92813600000005, "longitude": -98.07868249999993}, "118812643RR0001": {"name": "Christian Reformed World Missions of Canada", "designationCode": "C", "categoryCode": "47", "address": "PO BOX 5070 3475 MAINWAY", "city": "BURLINGTON", "province": "ON", "country": "CA", "postalCode": "L7R3Y8", "twitter": "None", "instagram": "None", "facebook": "None", "youtube": "None", "website": "None", "summary": "None", "logo": "None", "latitude": 43.37043221262034, "longitude": -79.79729227869441}, "872708367RR0001": {"name": "Christian School Foundation (Canada) Inc.", "designationCode": "A", "categoryCode": "23", "address": "235 QUEEN ST S", "city": "HAMILTON", "province": "ON", "country": "CA", "postalCode": "L8P3T1", "twitter": "None", "instagram": "None", "facebook": "None", "youtube": "None", "website": "None", "summary": "None", "logo": "None", "latitude": 43.251803067718875, "longitude": -79.88176994489018}, "843987900RR0001": {"name": "Christian Science National Benevolence Fund", "designationCode": "C", "categoryCode": "49", "address": "808-35 CHURCH STREET", "city": "TORONTO", "province": "ON", "country": "CA", "postalCode": "M5E1T3", "twitter": "None", "instagram": "None", "facebook": "None", "youtube": "None", "website": "None", "summary": "None", "logo": "None", "latitude": 43.64921411824106, "longitude": -79.37405835717601}, "816799332RR0001": {"name": "Christian Science Society, London", "designationCode": "C", "categoryCode": "39", "address": "354 WELLINGTON ST", "city": "LONDON", "province": "ON", "country": "CA", "postalCode": "N6A3N8", "twitter": "None", "instagram": "None", "facebook": "None", "youtube": "None", "website": "None", "summary": "None", "logo": "None", "latitude": 42.983331621155244, "longitude": -81.24441061876065}, "131376535RR0001": {"name": "Christian Science Society, Scarborough", "designationCode": "C", "categoryCode": "39", "address": "3154 KINGSTON ROAD", "city": "SCARBOROUGH", "province": "ON", "country": "CA", "postalCode": "M1M1P4", "twitter": "None", "instagram": "None", "facebook": "None", "youtube": "None", "website": "None", "summary": "None", "logo": "None", "latitude": 43.72870134222969, "longitude": -79.2285206465749}, "119144061RR0001": {"name": "Christian Science Society, Thunder Bay, Ontario, Canada", "designationCode": "C", "categoryCode": "39", "address": "505 LUCI COURT", "city": "THUNDER BAY", "province": "ON", "country": "CA", "postalCode": "P7E1H2", "twitter": "None", "instagram": "None", "facebook": "None", "youtube": "None", "website": "None", "summary": "None", "logo": "None", "latitude": 48.37752552440354, "longitude": -89.24959897335242}, "801850835RR0001": {"name": "Christian Talking Book Publications", "designationCode": "C", "categoryCode": "49", "address": "PO BOX 700                    3844 STOUFFVILLE ROAD", "city": "STOUFFVILLE", "province": "ON", "country": "CA", "postalCode": "L4A7Z9", "twitter": "None", "instagram": "None", "facebook": "None", "youtube": "None", "website": "None", "summary": "None", "logo": "None", "latitude": 43.95416914308286, "longitude": -79.32530987627634}, "841397532RR0001": {"name": "Christians Against Poverty Canada", "designationCode": "C", "categoryCode": "09", "address": "201 - 627 MAIN ST E", "city": "HAMILTON", "province": "ON", "country": "CA", "postalCode": "L8M1J5", "twitter": "None", "instagram": "None", "facebook": "None", "youtube": "None", "website": "None", "summary": "None", "logo": "None", "latitude": 43.24916603416224, "longitude": -79.84545463015762}, "839679560RR0001": {"name": "Christina Lake Arts and Artisans Society", "designationCode": "C", "categoryCode": "22", "address": "1675 HIGHWAY 3", "city": "CHRISTINA LAKE", "province": "BC", "country": "CA", "postalCode": "V0H1E2", "twitter": "None", "instagram": "None", "facebook": "None", "youtube": "None", "website": "None", "summary": "None", "logo": "None", "latitude": 49.024908674480876, "longitude": -118.21965584420262}, "864925425RR0001": {"name": "Christine A. Sethi-Van Impe Foundation", "designationCode": "B", "categoryCode": "03", "address": "1636 65TH AVENUE WEST", "city": "VANCOUVER", "province": "BC", "country": "CA", "postalCode": "V6P2R3", "twitter": "None", "instagram": "None", "facebook": "None", "youtube": "None", "website": "None", "summary": "None", "logo": "None", "latitude": 49.212326495672166, "longitude": -123.14434380544174}, "793280322RR0001": {"name": "Christine's Place", "designationCode": "C", "categoryCode": "09", "address": "34 HIGH ST", "city": "HUNTSVILLE", "province": "ON", "country": "CA", "postalCode": "P1H1N9", "twitter": "None", "instagram": "None", "facebook": "None", "youtube": "None", "website": "None", "summary": "None", "logo": "None", "latitude": 45.326540458722064, "longitude": -79.21590563439146}, "850799883RR0001": {"name": "Christmas for Kids (All Year Round)", "designationCode": "C", "categoryCode": "09", "address": "219 BAYSHORE ROAD", "city": "CHURCHILL", "province": "ON", "country": "CA", "postalCode": "L0L1K0", "twitter": "None", "instagram": "None", "facebook": "None", "youtube": "None", "website": "None", "summary": "None", "logo": "None", "latitude": 44.23718631917598, "longitude": -79.53129199549927}, "831860556RR0001": {"name": "Christmas Spirit Community Dinner Society", "designationCode": "C", "categoryCode": "09", "address": "111 - 2220 SOOKE RD", "city": "VICTORIA", "province": "BC", "country": "CA", "postalCode": "V9B0G9", "twitter": "None", "instagram": "None", "facebook": "None", "youtube": "None", "website": "None", "summary": "None", "logo": "None", "latitude": 48.4350856439205, "longitude": -123.49076182474454}, "816537732RR0001": {"name": "Christophe Ulysse Ministry International", "designationCode": "C", "categoryCode": "47", "address": "10 MUIRHEAD CRES", "city": "BRANTFORD", "province": "ON", "country": "CA", "postalCode": "N3R7S5", "twitter": "None", "instagram": "None", "facebook": "None", "youtube": "None", "website": "None", "summary": "None", "logo": "None", "latitude": 43.179947285619335, "longitude": -80.25988533986376}, "846287415RR0001": {"name": "Christopher Leadership Courses of Canada Ottawa Area", "designationCode": "C", "categoryCode": "20", "address": "1759 AINSLEY DR", "city": "OTTAWA", "province": "ON", "country": "CA", "postalCode": "K2C0T3", "twitter": "None", "instagram": "None", "facebook": "None", "youtube": "None", "website": "None", "summary": "None", "logo": "None", "latitude": 45.357343239252074, "longitude": -75.7534417640948}, "808843403RR0001": {"name": "Christopher Tadres Scholarship Foundation", "designationCode": "B", "categoryCode": "21", "address": "103 CARTMEL DRIVE", "city": "MARKHAM", "province": "ON", "country": "CA", "postalCode": "L3S1L2", "twitter": "None", "instagram": "None", "facebook": "None", "youtube": "None", "website": "None", "summary": "None", "logo": "None", "latitude": 43.838203127676124, "longitude": -79.28814609114795}, "817052566RR0001": {"name": "ChrisCanTV Corporation", "designationCode": "C", "categoryCode": "47", "address": "5 MCINTOSH DRIVE, SUITE 208", "city": "MARKHAM", "province": "ON", "country": "CA", "postalCode": "L3R8C7", "twitter": "None", "instagram": "None", "facebook": "None", "youtube": "None", "website": "None", "summary": "None", "logo": "None", "latitude": 43.854106969156, "longitude": -79.35844436759201}, "820730281RR0001": {"name": "Chronic Cerebral Spinal Venous Insufficiency (CCSVI) Societyof Grande Prairie and District", "designationCode": "C", "categoryCode": "11", "address": "721046 RANGE ROAD 62", "city": "CLAIRMONT", "province": "AB", "country": "CA", "postalCode": "T8X4L8", "twitter": "None", "instagram": "None", "facebook": "None", "youtube": "None", "website": "None", "summary": "None", "logo": "None", "latitude": 55.22237172300768, "longitude": -118.82061915828524}, "820201788RR0001": {"name": "Chronos Music Society of Alberta", "designationCode": "C", "categoryCode": "22", "address": "10615 137 ST NW", "city": "EDMONTON", "province": "AB", "country": "CA", "postalCode": "T5N2H5", "twitter": "None", "instagram": "None", "facebook": "None", "youtube": "None", "website": "None", "summary": "None", "logo": "None", "latitude": 53.549946000000006, "longitude": -113.55795526738436}, "840450209RR0001": {"name": "Chu Lee Lai Chun Foundation", "designationCode": "B", "categoryCode": "05", "address": "44 - 145 ROYAL CREST CRT", "city": "MARKHAM", "province": "ON", "country": "CA", "postalCode": "L3R9Z4", "twitter": "None", "instagram": "None", "facebook": "None", "youtube": "None", "website": "None", "summary": "None", "logo": "None", "latitude": 43.84116291750863, "longitude": -79.32536487382443}, "107412470RR0001": {"name": "Church at the Falls", "designationCode": "C", "categoryCode": "31", "address": "P.O. BOX 28064", "city": "ST. CATHARINES", "province": "ON", "country": "CA", "postalCode": "L2N7P8", "twitter": "None", "instagram": "None", "facebook": "None", "youtube": "None", "website": "None", "summary": "None", "logo": "None", "latitude": 43.15634700000005, "longitude": -79.24869349999993}, "835857202RR0001": {"name": "Church at South Edmonton Fellowship", "designationCode": "C", "categoryCode": "39", "address": "9908 67TH AVENUE NW", "city": "EDMONTON", "province": "AB", "country": "CA", "postalCode": "T6E0P5", "twitter": "None", "instagram": "None", "facebook": "None", "youtube": "None", "website": "None", "summary": "None", "logo": "None", "latitude": 53.50358649379625, "longitude": -113.487201}, "118818491RR0075": {"name": "Church in the Valley, A Seventh-day Adventist Church", "designationCode": "C", "categoryCode": "41", "address": "PO 1000", "city": "ABBOTSFORD", "province": "BC", "country": "CA", "postalCode": "V2S4P5", "twitter": "None", "instagram": "None", "facebook": "None", "youtube": "None", "website": "None", "summary": "None", "logo": "None", "latitude": 49.03851300000005, "longitude": -122.29441549999993}, "800868820RR0001": {"name": "Church of our Lord", "designationCode": "C", "categoryCode": "30", "address": "626 BLANSHARD STREET", "city": "VICTORIA", "province": "BC", "country": "CA", "postalCode": "V8W3G6", "twitter": "None", "instagram": "None", "facebook": "None", "youtube": "None", "website": "None", "summary": "None", "logo": "None", "latitude": 48.420385123521186, "longitude": -123.36406285140495}, "107020323RR0016": {"name": "Church of the Apostles", "designationCode": "C", "categoryCode": "30", "address": "POST OFFICE BOX 124", "city": "MOOSONEE", "province": "ON", "country": "CA", "postalCode": "P0L1Y0", "twitter": "None", "instagram": "None", "facebook": "None", "youtube": "None", "website": "None", "summary": "None", "logo": "None", "latitude": 51.273540000000025, "longitude": -80.64088999999996}, "108009820RR0002": {"name": "Church of the Ascension", "designationCode": "C", "categoryCode": "30", "address": "2060 DUNDAS ST", "city": "LONDON", "province": "ON", "country": "CA", "postalCode": "N5V1R2", "twitter": "None", "instagram": "None", "facebook": "None", "youtube": "None", "website": "None", "summary": "None", "logo": "None", "latitude": 43.00808493981161, "longitude": -81.1639778766517}, "805194370RR0001": {"name": "Church of the City", "designationCode": "C", "categoryCode": "39", "address": "80 ALICE STREET", "city": "GUELPH", "province": "ON", "country": "CA", "postalCode": "N1E2Z8", "twitter": "None", "instagram": "None", "facebook": "None", "youtube": "None", "website": "None", "summary": "None", "logo": "None", "latitude": 43.54693923870382, "longitude": -80.23700987956589}, "892502048RR0002": {"name": "Church of the Epiphany", "designationCode": "C", "categoryCode": "30", "address": "4322 WELLINGTON ST", "city": "VERDUN", "province": "QC", "country": "CA", "postalCode": "H4G1W4", "twitter": "None", "instagram": "None", "facebook": "None", "youtube": "None", "website": "None", "summary": "None", "logo": "None", "latitude": 45.46073381487679, "longitude": -73.567164600179}, "841054406RR0001": {"name": "Church of the Epiphany in Hamilton", "designationCode": "C", "categoryCode": "30", "address": "1390 IAN RD", "city": "BURLINGTON", "province": "ON", "country": "CA", "postalCode": "L7P1L7", "twitter": "None", "instagram": "None", "facebook": "None", "youtube": "None", "website": "None", "summary": "None", "logo": "None", "latitude": 43.345484812366635, "longitude": -79.83376805441732}, "814281119RR0001": {"name": "Church of the Eternal Word", "designationCode": "C", "categoryCode": "39", "address": "502-175 HILDA AVENUE", "city": "NORTH YORK", "province": "ON", "country": "CA", "postalCode": "M2M1V8", "twitter": "None", "instagram": "None", "facebook": "None", "youtube": "None", "website": "None", "summary": "None", "logo": "None", "latitude": 43.794075055282704, "longitude": -79.4281227505344}, "814544201RR0001": {"name": "Church of the Good Samaritan Corp.", "designationCode": "C", "categoryCode": "30", "address": "58 FERRYLAND STREET WEST", "city": "ST. JOHN'S", "province": "NL", "country": "CA", "postalCode": "A1E2L7", "twitter": "None", "instagram": "None", "facebook": "None", "youtube": "None", "website": "None", "summary": "None", "logo": "None", "latitude": 47.528013896762594, "longitude": -52.764956684719166}, "108084658RR0132": {"name": "Church of the Good Shepherd with Holy Trinity Church", "designationCode": "C", "categoryCode": "30", "address": "PO BOX 504", "city": "LAPECHE", "province": "QC", "country": "CA", "postalCode": "J0X3G0", "twitter": "None", "instagram": "None", "facebook": "None", "youtube": "None", "website": "None", "summary": "None", "logo": "None", "latitude": 45.65596200000006, "longitude": -75.92116399999993}, "846009553RR0001": {"name": "Church of the Lamb of God, Toronto Region", "designationCode": "C", "categoryCode": "39", "address": "101-8 KINGSBRIDGE CRT", "city": "NORTH YORK", "province": "ON", "country": "CA", "postalCode": "M2R1L5", "twitter": "None", "instagram": "None", "facebook": "None", "youtube": "None", "website": "None", "summary": "None", "logo": "None", "latitude": 43.77188634779828, "longitude": -79.44404980515327}, "832364095RR0001": {"name": "Church of the Nations Edmonton", "designationCode": "C", "categoryCode": "39", "address": "1111-23 AVENUE NORTH WEST", "city": "EDMONTON", "province": "AB", "country": "CA", "postalCode": "T6T1J1", "twitter": "None", "instagram": "None", "facebook": "None", "youtube": "None", "website": "None", "summary": "None", "logo": "None", "latitude": 53.45400300000006, "longitude": -113.35743349999993}, "848623575RR0014": {"name": "Church of the Purification of the Blessed Virgin Mary (St. Mary's Church)", "designationCode": "C", "categoryCode": "38", "address": "40 RUSSELL ST E", "city": "LINDSAY", "province": "ON", "country": "CA", "postalCode": "K9V2A4", "twitter": "None", "instagram": "None", "facebook": "None", "youtube": "None", "website": "None", "summary": "None", "logo": "None", "latitude": 44.35529947260091, "longitude": -78.72993775585347}, "108099771RR0070": {"name": "Church of the Resurrection", "designationCode": "C", "categoryCode": "30", "address": "435 MOHAWK RD W", "city": "HAMILTON", "province": "ON", "country": "CA", "postalCode": "L9C1X1", "twitter": "None", "instagram": "None", "facebook": "None", "youtube": "None", "website": "None", "summary": "None", "logo": "None", "latitude": 43.231061749870584, "longitude": -79.90060575272649}, "132194168RR0001": {"name": "Church of the Resurrection", "designationCode": "C", "categoryCode": "38", "address": "10555 50A ST NW", "city": "EDMONTON", "province": "AB", "country": "CA", "postalCode": "T6A2C8", "twitter": "None", "instagram": "None", "facebook": "None", "youtube": "None", "website": "None", "summary": "None", "logo": "None", "latitude": 53.55079302527544, "longitude": -113.42009462663785}, "135814655RR0001": {"name": "Church of the Resurrection", "designationCode": "C", "categoryCode": "39", "address": "45 INGLEWOOD DRIVE SUITE 205", "city": "ST ALBERT", "province": "AB", "country": "CA", "postalCode": "T8N0B6", "twitter": "None", "instagram": "None", "facebook": "None", "youtube": "None", "website": "None", "summary": "None", "logo": "None", "latitude": 53.65218086485074, "longitude": -113.62636780688402}, "816827984RR0001": {"name": "Church of the Resurrection (Anglican Network In Canada). Halifax", "designationCode": "B", "categoryCode": "30", "address": "40 DOROTHY CRESCENT", "city": "TIMBERLEA", "province": "NS", "country": "CA", "postalCode": "B3T1E2", "twitter": "None", "instagram": "None", "facebook": "None", "youtube": "None", "website": "None", "summary": "None", "logo": "None", "latitude": 44.64910960502642, "longitude": -63.73661576992318}, "848170064RR0001": {"name": "Church of the Resurrection Brandon Inc.", "designationCode": "C", "categoryCode": "30", "address": "#1-411 LORNE AVENUE", "city": "BRANDON", "province": "MB", "country": "CA", "postalCode": "R7A0S9", "twitter": "None", "instagram": "None", "facebook": "None", "youtube": "None", "website": "None", "summary": "None", "logo": "None", "latitude": 49.8453664899011, "longitude": -99.94367097016561}, "759436728RR0001": {"name": "Church of the Risen Son of Kenora", "designationCode": "C", "categoryCode": "39", "address": "701 FIRST ST S", "city": "KENORA", "province": "ON", "country": "CA", "postalCode": "P9N1E3", "twitter": "None", "instagram": "None", "facebook": "None", "youtube": "None", "website": "None", "summary": "None", "logo": "None", "latitude": 49.76633151067582, "longitude": -94.47980319317328}, "802770313RR0001": {"name": "Church of the Rock Calgary", "designationCode": "C", "categoryCode": "39", "address": "153 DOUGLAS GLEN CRT SE", "city": "CALGARY", "province": "AB", "country": "CA", "postalCode": "T2Z2M8", "twitter": "None", "instagram": "None", "facebook": "None", "youtube": "None", "website": "None", "summary": "None", "logo": "None", "latitude": 50.950018079375646, "longitude": -114.00510668356533}, "781047725RR0001": {"name": "Church of Christ \"Emanuel\"", "designationCode": "C", "categoryCode": "39", "address": "48 - 10 THE COUNTRY WAY", "city": "KITCHENER", "province": "ON", "country": "CA", "postalCode": "N2E2T8", "twitter": "None", "instagram": "None", "facebook": "None", "youtube": "None", "website": "None", "summary": "None", "logo": "None", "latitude": 43.41067429283269, "longitude": -80.48148292610604}, "848372058RR0001": {"name": "Church of Christ Bethesda Society", "designationCode": "C", "categoryCode": "39", "address": "20 - 9272 121 ST", "city": "SURREY", "province": "BC", "country": "CA", "postalCode": "V3V7K8", "twitter": "None", "instagram": "None", "facebook": "None", "youtube": "None", "website": "None", "summary": "None", "logo": "None", "latitude": 49.1717144074384, "longitude": -122.8874495205149}, "825698285RR0001": {"name": "Church of Evangelical Faith of MacDowall Inc.", "designationCode": "C", "categoryCode": "39", "address": "SITE 8, COMP 28               RURAL ROUTE 2", "city": "PRINCE ALBERT", "province": "SK", "country": "CA", "postalCode": "S6V5P9", "twitter": "None", "instagram": "None", "facebook": "None", "youtube": "None", "website": "None", "summary": "None", "logo": "None", "latitude": 53.199456000000055, "longitude": -105.74863099999993}, "819274796RR0001": {"name": "Church of God and Saints of Christ Tabernacle No. 2", "designationCode": "B", "categoryCode": "39", "address": "70 HOLLOWGROVE BLVD", "city": "BRAMPTON", "province": "ON", "country": "CA", "postalCode": "L6P1A9", "twitter": "None", "instagram": "None", "facebook": "None", "youtube": "None", "website": "None", "summary": "None", "logo": "None", "latitude": 43.77041747735031, "longitude": -79.72893266625309}, "829396910RR0001": {"name": "Church of God in Christ Mennonite (Living Water)", "designationCode": "C", "categoryCode": "34", "address": "18-7001 EDEN DRIVE", "city": "CHILLIWACK", "province": "BC", "country": "CA", "postalCode": "V2R1E7", "twitter": "None", "instagram": "None", "facebook": "None", "youtube": "None", "website": "None", "summary": "None", "logo": "None", "latitude": 49.1289719053593, "longitude": -121.96190575085318}, "758329494RR0001": {"name": "Church of God in Christ Mennonite Kenora", "designationCode": "C", "categoryCode": "34", "address": "SITE 6B BOX 19 RR 1", "city": "KEEWATIN", "province": "ON", "country": "CA", "postalCode": "P0X1C0", "twitter": "None", "instagram": "None", "facebook": "None", "youtube": "None", "website": "None", "summary": "None", "logo": "None", "latitude": 49.75863000000005, "longitude": -94.54708249999993}, "804181170RR0001": {"name": "Church of God in Christ Mennonite-Endeavour Congregation Inc.", "designationCode": "C", "categoryCode": "34", "address": "PO BOX 151", "city": "ENDEAVOUR", "province": "SK", "country": "CA", "postalCode": "S0A0W0", "twitter": "None", "instagram": "None", "facebook": "None", "youtube": "None", "website": "None", "summary": "None", "logo": "None", "latitude": 52.16668000000004, "longitude": -102.65094999999997}, "832062913RR0001": {"name": "Church of God in Christ, Mennonite, Pembina Valley Congregation", "designationCode": "A", "categoryCode": "43", "address": "RR 1                          1525 TWP 592", "city": "WESTLOCK", "province": "AB", "country": "CA", "postalCode": "T7P2N9", "twitter": "None", "instagram": "None", "facebook": "None", "youtube": "None", "website": "None", "summary": "None", "logo": "None", "latitude": 54.15543600000005, "longitude": -113.86003399999993}, "822263216RR0001": {"name": "Church of God East Indian Christian Fellowship", "designationCode": "C", "categoryCode": "39", "address": "34 MARTINRIDGE WAY NE", "city": "CALGARY", "province": "AB", "country": "CA", "postalCode": "T3J3C8", "twitter": "None", "instagram": "None", "facebook": "None", "youtube": "None", "website": "None", "summary": "None", "logo": "None", "latitude": 51.113883195395, "longitude": -113.96269648043739}}