{"885214916RR0001": {"name": "RIVENDELL SOCIETY", "designationCode": "C", "categoryCode": "49", "address": "1480 INGLEWOOD AVENUE", "city": "WEST VANCOUVER", "province": "BC", "country": "CA", "postalCode": "V7T1Z1", "twitter": "None", "instagram": "None", "facebook": "None", "youtube": "None", "website": "None", "summary": "None", "logo": "None", "latitude": 49.33449751399405, "longitude": -123.15629152553522}, "875168189RR0001": {"name": "RIVER AND LAKESIDE PASTORAL CHARGE OF THE UNITED CHURCH", "designationCode": "C", "categoryCode": "44", "address": "P.O. BOX 9", "city": "ORANGEDALE", "province": "NS", "country": "CA", "postalCode": "B0E2K0", "twitter": "None", "instagram": "None", "facebook": "None", "youtube": "None", "website": "None", "summary": "None", "logo": "None", "latitude": 45.91304001747367, "longitude": -61.10575774204485}, "104541511RR0001": {"name": "RIVER AVENUE COOPERATIVE DAY NURSERY INC.", "designationCode": "C", "categoryCode": "01", "address": "127 BELL AVE.", "city": "WINNIPEG", "province": "MB", "country": "CA", "postalCode": "R3L0C4", "twitter": "None", "instagram": "None", "facebook": "None", "youtube": "None", "website": "None", "summary": "None", "logo": "None", "latitude": 49.882741782705125, "longitude": -97.13355282887083}, "872126891RR0001": {"name": "RIVER BEND CHARITABLE TRUST", "designationCode": "B", "categoryCode": "39", "address": "PO BOX 37", "city": "MOSSLEIGH", "province": "AB", "country": "CA", "postalCode": "T0L1P0", "twitter": "None", "instagram": "None", "facebook": "None", "youtube": "None", "website": "None", "summary": "None", "logo": "None", "latitude": 50.717910000000074, "longitude": -113.32639999999998}, "107957268RR0001": {"name": "RIVER BEND PRESBYTERY, UNITED CHURCH OF CANADA", "designationCode": "A", "categoryCode": "49", "address": "3318 MERRITT ST", "city": "SASKATOON", "province": "SK", "country": "CA", "postalCode": "S7M3P6", "twitter": "None", "instagram": "None", "facebook": "None", "youtube": "None", "website": "None", "summary": "None", "logo": "None", "latitude": 52.111850529863055, "longitude": -106.7315625}, "888136884RR0001": {"name": "RIVER BOURGEOIS COMMUNITY SERVICES SOCIETY", "designationCode": "C", "categoryCode": "59", "address": "PO BOX 56", "city": "RIVER BOURGEOIS", "province": "NS", "country": "CA", "postalCode": "B0E2X0", "twitter": "None", "instagram": "None", "facebook": "None", "youtube": "None", "website": "None", "summary": "None", "logo": "None", "latitude": 45.631980000000055, "longitude": -60.93779999999998}, "861861821RR0001": {"name": "RIVER CITY CHRISTIAN REFORMED CHURCH", "designationCode": "C", "categoryCode": "39", "address": "PO BOX 29025, RPO HESPELER", "city": "CAMBRIDGE", "province": "ON", "country": "CA", "postalCode": "N3C0E6", "twitter": "None", "instagram": "None", "facebook": "None", "youtube": "None", "website": "None", "summary": "None", "logo": "None", "latitude": 43.43562517571174, "longitude": -80.32717996677682}, "881928824RR0001": {"name": "RIVER CITY FORMATION ASSOCIATION, INC.", "designationCode": "C", "categoryCode": "49", "address": "423 NESSLIN PLACE", "city": "SASKATOON", "province": "SK", "country": "CA", "postalCode": "S7J4V8", "twitter": "None", "instagram": "None", "facebook": "None", "youtube": "None", "website": "None", "summary": "None", "logo": "None", "latitude": 52.09568814680604, "longitude": -106.58340821665969}, "132585613RR0001": {"name": "RIVER CITY VINEYARD CHRISTIAN FELLOWSHIP OF SARNIA", "designationCode": "C", "categoryCode": "39", "address": "BOX 696", "city": "SARNIA", "province": "ON", "country": "CA", "postalCode": "N7T7J7", "twitter": "None", "instagram": "None", "facebook": "None", "youtube": "None", "website": "None", "summary": "None", "logo": "None", "latitude": 42.97877700000005, "longitude": -82.40368399999993}, "119120285RR0001": {"name": "RIVER COMMUNITY CENTRE ASSOCIATION", "designationCode": "C", "categoryCode": "56", "address": "36 PARLEE RD", "city": "MOSER RIVER", "province": "NS", "country": "CA", "postalCode": "B0J2K0", "twitter": "None", "instagram": "None", "facebook": "None", "youtube": "None", "website": "None", "summary": "None", "logo": "None", "latitude": 44.9695329034277, "longitude": -62.25984917681332}, "119120392RR0001": {"name": "RIVER DENYS CEMETERY COMPANY", "designationCode": "C", "categoryCode": "59", "address": "RR1 RIVER DENYS", "city": "INV CO", "province": "NS", "country": "CA", "postalCode": "B0E2Y0", "twitter": "None", "instagram": "None", "facebook": "None", "youtube": "None", "website": "None", "summary": "None", "logo": "None", "latitude": 45.861219000000006, "longitude": -61.36836643541265}, "119120400RR0001": {"name": "RIVER DENYS PRESBYTERIAN CHURCH", "designationCode": "C", "categoryCode": "37", "address": "12 GLENORA ROAD               RR 1 WEST BAY ROAD", "city": "RIVER DENYS", "province": "NS", "country": "CA", "postalCode": "B0E3L0", "twitter": "None", "instagram": "None", "facebook": "None", "youtube": "None", "website": "None", "summary": "None", "logo": "None", "latitude": 45.82323600000005, "longitude": -61.31296699999993}, "119288918RR0152": {"name": "RIVER EAST CONGREGATION OF JEHOVAH'S WITNESSES", "designationCode": "C", "categoryCode": "61", "address": "201-5 VALHALA DR", "city": "WINNIPEG", "province": "MB", "country": "CA", "postalCode": "R2G0X6", "twitter": "None", "instagram": "None", "facebook": "None", "youtube": "None", "website": "None", "summary": "None", "logo": "None", "latitude": 49.9491388482023, "longitude": -97.08347402065912}, "107897811RR0001": {"name": "RIVER EAST MENNONITE BRETHREN CHURCH", "designationCode": "C", "categoryCode": "34", "address": "755 MCLEOD AVE", "city": "WINNIPEG", "province": "MB", "country": "CA", "postalCode": "R2K0B8", "twitter": "None", "instagram": "None", "facebook": "None", "youtube": "None", "website": "None", "summary": "None", "logo": "None", "latitude": 49.92964889205938, "longitude": -97.07168328224378}, "140925660RR0001": {"name": "RIVER EAST MENNONITE CHURCH INC.", "designationCode": "C", "categoryCode": "34", "address": "825 PANET ROAD", "city": "WINNIPEG", "province": "MB", "country": "CA", "postalCode": "R2K4C9", "twitter": "None", "instagram": "None", "facebook": "None", "youtube": "None", "website": "None", "summary": "None", "logo": "None", "latitude": 49.907972600034775, "longitude": -97.06545464285358}, "119120459RR0001": {"name": "RIVER GLADE UNITED BAPTIST CHURCH", "designationCode": "C", "categoryCode": "31", "address": "28 RIVER GLADE ROAD", "city": "RIVER GLADE", "province": "NB", "country": "CA", "postalCode": "E4Z3J8", "twitter": "None", "instagram": "None", "facebook": "None", "youtube": "None", "website": "None", "summary": "None", "logo": "None", "latitude": 45.98797341063498, "longitude": -65.1202149815332}, "882452311RR0001": {"name": "RIVER HEBERT CEMETERY COMPANY", "designationCode": "C", "categoryCode": "59", "address": "22 GLADSTONE AVE. APT. 2", "city": "AMHERST", "province": "NS", "country": "CA", "postalCode": "B4H1L3", "twitter": "None", "instagram": "None", "facebook": "None", "youtube": "None", "website": "None", "summary": "None", "logo": "None", "latitude": 45.82340856480469, "longitude": -64.19357444226445}, "132386947RR0001": {"name": "RIVER HEBERT UNITED BAPTIST CHURCH,", "designationCode": "C", "categoryCode": "31", "address": "PO BOX 171", "city": "RIVER HEBERT", "province": "NS", "country": "CA", "postalCode": "B0L1G0", "twitter": "None", "instagram": "None", "facebook": "None", "youtube": "None", "website": "None", "summary": "None", "logo": "None", "latitude": 45.690330000000074, "longitude": -64.37867999999997}, "894695782RR0001": {"name": "RIVER HEBERT VOLUNTEER FIRE DEPARTMENT", "designationCode": "C", "categoryCode": "59", "address": "GENERAL DELIVERY", "city": "RIVER HEBERT EAST", "province": "NS", "country": "CA", "postalCode": "B0L1H0", "twitter": "None", "instagram": "None", "facebook": "None", "youtube": "None", "website": "None", "summary": "None", "logo": "None", "latitude": 45.700638000000055, "longitude": -64.35983149999993}, "135792489RR0001": {"name": "RIVER HEIGHTS CHURCH SOCIETY", "designationCode": "C", "categoryCode": "47", "address": "P.O. BOX 3541", "city": "COURTENAY", "province": "BC", "country": "CA", "postalCode": "V9N6Z8", "twitter": "None", "instagram": "None", "facebook": "None", "youtube": "None", "website": "None", "summary": "None", "logo": "None", "latitude": 49.68669300000006, "longitude": -124.99317349999993}, "892123167RR0001": {"name": "RIVER HEIGHTS LODGE AUXILIARY", "designationCode": "C", "categoryCode": "19", "address": "11218 CENTENNIAL CRES", "city": "NORTH BATTLEFORD", "province": "SK", "country": "CA", "postalCode": "S9A3J4", "twitter": "None", "instagram": "None", "facebook": "None", "youtube": "None", "website": "None", "summary": "None", "logo": "None", "latitude": 52.784621580904854, "longitude": -108.28150706893096}, "890421332RR0001": {"name": "RIVER JOHN VOLUNTARY FIRE DEPARTMENT (1996)", "designationCode": "C", "categoryCode": "59", "address": "BOX 99                        32 SCHOOL STREET", "city": "RIVER JOHN", "province": "NS", "country": "CA", "postalCode": "B0K1N0", "twitter": "None", "instagram": "None", "facebook": "None", "youtube": "None", "website": "None", "summary": "None", "logo": "None", "latitude": 45.75058798306311, "longitude": -63.059316602256466}, "119120533RR0001": {"name": "RIVER JOHN-WEST BRANCH PASTORAL CHARGE", "designationCode": "C", "categoryCode": "44", "address": "RR 2", "city": "RIVER JOHN", "province": "NS", "country": "CA", "postalCode": "B0K1N0", "twitter": "None", "instagram": "None", "facebook": "None", "youtube": "None", "website": "None", "summary": "None", "logo": "None", "latitude": 45.71633084188482, "longitude": -62.89386615532279}, "830748877RR0001": {"name": "RIVER JORDAN MINISTRIES", "designationCode": "C", "categoryCode": "39", "address": "36 BENTLEY AVENUE", "city": "OTTAWA", "province": "ON", "country": "CA", "postalCode": "K2E6T8", "twitter": "None", "instagram": "None", "facebook": "None", "youtube": "None", "website": "None", "summary": "None", "logo": "None", "latitude": 45.333011654134985, "longitude": -75.71900064331494}, "836537274RR0001": {"name": "RIVER OAKS COMMUNITY CHURCH", "designationCode": "C", "categoryCode": "36", "address": "2435 MUNN'S AVE EAST", "city": "OAKVILLE", "province": "ON", "country": "CA", "postalCode": "L6H6W1", "twitter": "None", "instagram": "None", "facebook": "None", "youtube": "None", "website": "None", "summary": "None", "logo": "None", "latitude": 43.47422248600597, "longitude": -79.72334352997862}, "869772293RR0001": {"name": "RIVER OF GOD MINISTRIES", "designationCode": "C", "categoryCode": "47", "address": "2302 SIXTH AVENUE", "city": "TRAIL", "province": "BC", "country": "CA", "postalCode": "V1R4N3", "twitter": "None", "instagram": "None", "facebook": "None", "youtube": "None", "website": "None", "summary": "None", "logo": "None", "latitude": 49.09831564702361, "longitude": -117.68824536743642}, "119120640RR0001": {"name": "RIVER OF HOPE DEVON BAPTIST CHURCH", "designationCode": "C", "categoryCode": "31", "address": "2 SASKATCHEWAN AVE W", "city": "DEVON", "province": "AB", "country": "CA", "postalCode": "T9G1B1", "twitter": "None", "instagram": "None", "facebook": "None", "youtube": "None", "website": "None", "summary": "None", "logo": "None", "latitude": 53.366884500432704, "longitude": -113.735232}, "877026229RR0001": {"name": "RIVER OF LIFE ALLIANCE CHURCH OF THE CHRISTIAN AND MISSIONARY ALLIANCE", "designationCode": "C", "categoryCode": "39", "address": "14910 BANNISTER RD SE", "city": "CALGARY", "province": "AB", "country": "CA", "postalCode": "T2X1Z5", "twitter": "None", "instagram": "None", "facebook": "None", "youtube": "None", "website": "None", "summary": "None", "logo": "None", "latitude": 50.918798294477455, "longitude": -114.06841334733691}, "869790907RR0001": {"name": "RIVER OF LIFE CHRISTIAN CENTRE INC.", "designationCode": "C", "categoryCode": "39", "address": "1501 BROADWAY AVENUE          BOX 1304", "city": "MOOSOMIN", "province": "SK", "country": "CA", "postalCode": "S0G3N0", "twitter": "None", "instagram": "None", "facebook": "None", "youtube": "None", "website": "None", "summary": "None", "logo": "None", "latitude": 50.14154060323253, "longitude": -101.66093732826661}, "866484538RR0001": {"name": "RIVER OF LIFE CHRISTIAN FELLOWSHIP", "designationCode": "C", "categoryCode": "39", "address": "415-417 DUNDAS ST", "city": "WOODSTOCK", "province": "ON", "country": "CA", "postalCode": "N4S1B8", "twitter": "None", "instagram": "None", "facebook": "None", "youtube": "None", "website": "None", "summary": "None", "logo": "None", "latitude": 43.12975237996995, "longitude": -80.75930493228114}, "814529673RR0001": {"name": "RIVER OF LIFE CHURCH OF THE NAZARENE INC.", "designationCode": "C", "categoryCode": "39", "address": "11 AVALON RD", "city": "WINNIPEG", "province": "MB", "country": "CA", "postalCode": "R2M2L2", "twitter": "None", "instagram": "None", "facebook": "None", "youtube": "None", "website": "None", "summary": "None", "logo": "None", "latitude": 49.8290107460614, "longitude": -97.11564015419228}, "872926365RR0001": {"name": "RIVER OF LIFE COMMUNITY CHURCH", "designationCode": "C", "categoryCode": "39", "address": "BOX 189", "city": "SORRENTO", "province": "BC", "country": "CA", "postalCode": "V0E2W0", "twitter": "None", "instagram": "None", "facebook": "None", "youtube": "None", "website": "None", "summary": "None", "logo": "None", "latitude": 50.876960000000054, "longitude": -119.46544999999998}, "735516528RR0001": {"name": "RIVER OF LIFE FELLOWSHIP", "designationCode": "C", "categoryCode": "34", "address": "110 FERGUS AVENUE", "city": "KITCHENER", "province": "ON", "country": "CA", "postalCode": "N2A2H2", "twitter": "None", "instagram": "None", "facebook": "None", "youtube": "None", "website": "None", "summary": "None", "logo": "None", "latitude": 43.434737306711156, "longitude": -80.4406673221188}, "891568446RR0001": {"name": "RIVER OF LIFE FELLOWSHIP OF MILK RIVER", "designationCode": "C", "categoryCode": "39", "address": "BOX 476", "city": "MILK RIVER", "province": "AB", "country": "CA", "postalCode": "T0K1M0", "twitter": "None", "instagram": "None", "facebook": "None", "youtube": "None", "website": "None", "summary": "None", "logo": "None", "latitude": 49.14831000000004, "longitude": -112.08642999999995}, "134302652RR0001": {"name": "RIVER OF LIFE MENNONITE BRETHREN CHURCH", "designationCode": "C", "categoryCode": "39", "address": "BOX 7372", "city": "RIVERVIEW", "province": "NB", "country": "CA", "postalCode": "E1B4T9", "twitter": "None", "instagram": "None", "facebook": "None", "youtube": "None", "website": "None", "summary": "None", "logo": "None", "latitude": 46.05759600000006, "longitude": -64.80031399999993}, "107898033RR0001": {"name": "RIVER OF LIFE MINISTRIES", "designationCode": "C", "categoryCode": "39", "address": "210 WITNEY AVE S", "city": "SASKATOON", "province": "SK", "country": "CA", "postalCode": "S7M3K3", "twitter": "None", "instagram": "None", "facebook": "None", "youtube": "None", "website": "None", "summary": "None", "logo": "None", "latitude": 52.12723486372553, "longitude": -106.71029779776703}, "881766224RR0001": {"name": "RIVER OF LIFE MINISTRIES INC.", "designationCode": "C", "categoryCode": "49", "address": "168 WALLACE AVENUE", "city": "FREDERICTON", "province": "NB", "country": "CA", "postalCode": "E3A2K2", "twitter": "None", "instagram": "None", "facebook": "None", "youtube": "None", "website": "None", "summary": "None", "logo": "None", "latitude": 45.97865486649552, "longitude": -66.64477469718399}, "803462274RR0001": {"name": "RIVER OF LIFE RESTORATION MINISTRIES INC.", "designationCode": "C", "categoryCode": "39", "address": "180 WILKINSON ROAD            SUITE 28", "city": "BRAMPTON", "province": "ON", "country": "CA", "postalCode": "L6T4W8", "twitter": "None", "instagram": "None", "facebook": "None", "youtube": "None", "website": "None", "summary": "None", "logo": "None", "latitude": 43.691284305354834, "longitude": -79.6992052064175}, "891173924RR0001": {"name": "RIVER OF LIFE REVIVAL CENTRE", "designationCode": "C", "categoryCode": "39", "address": "# 3 SEVERIN STREET", "city": "BRAMPTON", "province": "ON", "country": "CA", "postalCode": "L6R0R1", "twitter": "None", "instagram": "None", "facebook": "None", "youtube": "None", "website": "None", "summary": "None", "logo": "None", "latitude": 43.762916974753246, "longitude": -79.75846791508445}, "106718968RR0001": {"name": "RIVER OF LIFE-EAGLEVIEW MINISTRIES", "designationCode": "C", "categoryCode": "39", "address": "201 MEADOWBROOK ROAD", "city": "VICTORIA", "province": "BC", "country": "CA", "postalCode": "V9E1J5", "twitter": "None", "instagram": "None", "facebook": "None", "youtube": "None", "website": "None", "summary": "None", "logo": "None", "latitude": 48.52121328960505, "longitude": -123.44870098792086}, "131452393RR0001": {"name": "RIVER PARK CHRISTIAN REFORMED CHURCH OF CALGARY", "designationCode": "C", "categoryCode": "39", "address": "3818 14A STREET S.W.", "city": "CALGARY", "province": "AB", "country": "CA", "postalCode": "T2T3Y2", "twitter": "None", "instagram": "None", "facebook": "None", "youtube": "None", "website": "None", "summary": "None", "logo": "None", "latitude": 51.020648161809675, "longitude": -114.096127380778}, "119288918RR0088": {"name": "RIVER PARK CONGREGATION OF JEHOVAH'S WITNESSES, WINNIPEG, MB", "designationCode": "C", "categoryCode": "61", "address": "301 - 805 ST ANNE'S RD", "city": "WINNIPEG", "province": "MB", "country": "CA", "postalCode": "R2N3X5", "twitter": "None", "instagram": "None", "facebook": "None", "youtube": "None", "website": "None", "summary": "None", "logo": "None", "latitude": 49.81690039751744, "longitude": -97.07937283096899}, "888043866RR0001": {"name": "RIVER PHILIP PASTORAL CHARGE,", "designationCode": "C", "categoryCode": "44", "address": "PO BOX 31", "city": "COLLINGWOOD", "province": "NS", "country": "CA", "postalCode": "B0M1E0", "twitter": "None", "instagram": "None", "facebook": "None", "youtube": "None", "website": "None", "summary": "None", "logo": "None", "latitude": 44.662347251390074, "longitude": -63.5014812525663}, "888452091RR0001": {"name": "RIVER ROAD CHARITABLE TRUST", "designationCode": "B", "categoryCode": "39", "address": "3425 2 AVE S", "city": "LETHBRIDGE", "province": "AB", "country": "CA", "postalCode": "T1J4V1", "twitter": "None", "instagram": "None", "facebook": "None", "youtube": "None", "website": "None", "summary": "None", "logo": "None", "latitude": 49.696839530439966, "longitude": -112.78914308381903}, "855562732RR0001": {"name": "RIVER VALLEY CHRISTIAN ACADEMY INC.", "designationCode": "C", "categoryCode": "20", "address": "38 OTIS DR", "city": "NACKAWIC", "province": "NB", "country": "CA", "postalCode": "E6G1G9", "twitter": "None", "instagram": "None", "facebook": "None", "youtube": "None", "website": "None", "summary": "None", "logo": "None"}, "896358058RR0001": {"name": "RIVER VALLEY COMMUNITY CENTRE FOUNDATION INC.", "designationCode": "C", "categoryCode": "56", "address": "749 RIVER VALLEY DRIVE        SUITE 1", "city": "GRAND BAY WESTFIELD", "province": "NB", "country": "CA", "postalCode": "E5K1B6", "twitter": "None", "instagram": "None", "facebook": "None", "youtube": "None", "website": "None", "summary": "None", "logo": "None", "latitude": 45.32203776045948, "longitude": -66.19675479716051}, "118945690RR0001": {"name": "RIVER VALLEY COMMUNITY CHURCH", "designationCode": "C", "categoryCode": "36", "address": "2826 75TH AVENUE", "city": "GRAND FORKS", "province": "BC", "country": "CA", "postalCode": "V0H1H2", "twitter": "None", "instagram": "None", "facebook": "None", "youtube": "None", "website": "None", "summary": "None", "logo": "None", "latitude": 49.02387425705364, "longitude": -118.47389499919879}, "866765175RR0001": {"name": "RIVER VALLEY FOOD BANK INC.", "designationCode": "C", "categoryCode": "09", "address": "3540 WESTFIELD RD", "city": "SAINT JOHN", "province": "NB", "country": "CA", "postalCode": "E2M7C7", "twitter": "None", "instagram": "None", "facebook": "None", "youtube": "None", "website": "None", "summary": "None", "logo": "None", "latitude": 45.29309064723873, "longitude": -66.19565222395997}, "119121002RR0001": {"name": "RIVER VALLEY GROUND SEARCH & RESCUE TEAM INC.", "designationCode": "C", "categoryCode": "59", "address": "PO BOX 32 STN MAIN", "city": "SAINT JOHN", "province": "NB", "country": "CA", "postalCode": "E2L3X1", "twitter": "None", "instagram": "None", "facebook": "None", "youtube": "None", "website": "None", "summary": "None", "logo": "None", "latitude": 45.274774384642015, "longitude": -66.0653109102771}, "119121010RR0001": {"name": "RIVER VALLEY HISTORICAL SOCIETY INC.", "designationCode": "C", "categoryCode": "50", "address": "PO BOX 2643", "city": "VIRDEN", "province": "MB", "country": "CA", "postalCode": "R0M2C0", "twitter": "None", "instagram": "None", "facebook": "None", "youtube": "None", "website": "None", "summary": "None", "logo": "None", "latitude": 49.85688000000005, "longitude": -100.92262999999997}, "890454796RR0001": {"name": "RIVER VALLEY LIFELINE INC.", "designationCode": "C", "categoryCode": "59", "address": "38B RIVERSIDE DR", "city": "PLASTER ROCK", "province": "NB", "country": "CA", "postalCode": "E7G2P8", "twitter": "None", "instagram": "None", "facebook": "None", "youtube": "None", "website": "None", "summary": "None", "logo": "None", "latitude": 46.90392341572672, "longitude": -67.39518130223637}, "130167406RR0001": {"name": "RIVER VALLEY SCHOOL SOCIETY", "designationCode": "C", "categoryCode": "20", "address": "3127 BOWWOOD DRIVE NW", "city": "CALGARY", "province": "AB", "country": "CA", "postalCode": "T3B2E7", "twitter": "None", "instagram": "None", "facebook": "None", "youtube": "None", "website": "None", "summary": "None", "logo": "None", "latitude": 51.08014062447346, "longitude": -114.17393872773954}, "834676967RR0001": {"name": "RIVER VALLEY TRACK ASSOCIATION INC.", "designationCode": "C", "categoryCode": "56", "address": "15 ROSEMERE DRIVE", "city": "GRAND BAY-WESTFIELD", "province": "NB", "country": "CA", "postalCode": "E5K1Y3", "twitter": "None", "instagram": "None", "facebook": "None", "youtube": "None", "website": "None", "summary": "None", "logo": "None", "latitude": 45.32352045406546, "longitude": -66.20881323117334}, "119277887RR0001": {"name": "RIVER VALLEY UNITED PENTECOSTAL CHURCH", "designationCode": "C", "categoryCode": "36", "address": "PO BOX 145", "city": "SAINT JOHN", "province": "NB", "country": "CA", "postalCode": "E2L3X8", "twitter": "None", "instagram": "None", "facebook": "None", "youtube": "None", "website": "None", "summary": "None", "logo": "None", "latitude": 45.27342600000006, "longitude": -66.06407149999993}, "872174560RR0001": {"name": "RIVER VIEW CHARITABLE TRUST", "designationCode": "B", "categoryCode": "03", "address": "3425 2ND AVENUE SOUTH", "city": "LETHBRIDGE", "province": "AB", "country": "CA", "postalCode": "T1J4V1", "twitter": "None", "instagram": "None", "facebook": "None", "youtube": "None", "website": "None", "summary": "None", "logo": "None", "latitude": 49.696839530439966, "longitude": -112.78914308381903}, "119157725RR0001": {"name": "RIVER VIEW CHRISTIAN CHURCH OF CALGARY", "designationCode": "C", "categoryCode": "39", "address": "1911-76 AVE SE", "city": "CALGARY", "province": "AB", "country": "CA", "postalCode": "T2C0G8", "twitter": "None", "instagram": "None", "facebook": "None", "youtube": "None", "website": "None", "summary": "None", "logo": "None", "latitude": 50.98501553952925, "longitude": -114.0135435}, "107406712RR0001": {"name": "RIVER VIEW COMMUNITY CHURCH", "designationCode": "C", "categoryCode": "36", "address": "BOX 9", "city": "FRENCHMEN BUTTE", "province": "SK", "country": "CA", "postalCode": "S0M0W0", "twitter": "None", "instagram": "None", "facebook": "None", "youtube": "None", "website": "None", "summary": "None", "logo": "None", "latitude": 53.592910000000074, "longitude": -109.63340999999997}, "896143013RR0001": {"name": "RIVER VIEW HAVEN CEMETERY ASSOCIATION", "designationCode": "C", "categoryCode": "59", "address": "8651 HIGHWAY 14", "city": "NEWPORT", "province": "NS", "country": "CA", "postalCode": "B0N2A0", "twitter": "None", "instagram": "None", "facebook": "None", "youtube": "None", "website": "None", "summary": "None", "logo": "None", "latitude": 45.01788215067831, "longitude": -63.966882720475674}, "107898736RR0001": {"name": "RIVER VIEW MANOR INC.", "designationCode": "C", "categoryCode": "09", "address": "96 HOSPITAL ST", "city": "BATH", "province": "NB", "country": "CA", "postalCode": "E7J1B9", "twitter": "None", "instagram": "None", "facebook": "None", "youtube": "None", "website": "None", "summary": "None", "logo": "None", "latitude": 46.510031706590404, "longitude": -67.58307562779169}, "108199043RR0001": {"name": "RIVER WEST CHRISTIAN CHURCH", "designationCode": "C", "categoryCode": "34", "address": "19815 - 45 AVENUE", "city": "EDMONTON", "province": "AB", "country": "CA", "postalCode": "T6M0M4", "twitter": "None", "instagram": "None", "facebook": "None", "youtube": "None", "website": "None", "summary": "None", "logo": "None", "latitude": 53.48309554833008, "longitude": -113.66294319317329}, "898173018RR0001": {"name": "RIVER WEST PARK KIDS INC.", "designationCode": "C", "categoryCode": "01", "address": "30 STACK ST.", "city": "WINNIPEG", "province": "MB", "country": "CA", "postalCode": "R3R2H3", "twitter": "None", "instagram": "None", "facebook": "None", "youtube": "None", "website": "None", "summary": "None", "logo": "None", "latitude": 49.86586793782106, "longitude": -97.31658119978013}, "131764318RR0001": {"name": "RIVER-OAK PARENT CHILD CENTRE INC.", "designationCode": "C", "categoryCode": "09", "address": "1117 GERRARD STREET EAST", "city": "TORONTO", "province": "ON", "country": "CA", "postalCode": "M4M1Z9", "twitter": "None", "instagram": "None", "facebook": "None", "youtube": "None", "website": "None", "summary": "None", "logo": "None", "latitude": 43.669651842056815, "longitude": -79.33353679349652}, "856533443RR0001": {"name": "RIVER'S EDGE COMMUNITY CHURCH INC. / EGLISE COMMUNAUTAIRE DE LA RIVE INC.", "designationCode": "C", "categoryCode": "39", "address": "5567, CHEMIN COTE ST. ANTOINE", "city": "MONTREAL", "province": "QC", "country": "CA", "postalCode": "H4A1R4", "twitter": "None", "instagram": "None", "facebook": "None", "youtube": "None", "website": "None", "summary": "None", "logo": "None", "latitude": 45.47308858203004, "longitude": -73.61618632309977}, "868483694RR0001": {"name": "RIVERBEND (SASKATCHEWAN) CHARITABLE TRUST", "designationCode": "B", "categoryCode": "39", "address": "3425 2ND AVENUE SOUTH", "city": "LETHBRIDGE", "province": "AB", "country": "CA", "postalCode": "T1J4V1", "twitter": "None", "instagram": "None", "facebook": "None", "youtube": "None", "website": "None", "summary": "None", "logo": "None", "latitude": 49.696839530439966, "longitude": -112.78914308381903}, "818712010RR0001": {"name": "RIVERBEND BIBLE CHURCH, A RELIGIOUS SOCIETY, IN THE NORTHERNAFFAIRS COMMUNITY OF DALLAS/RED ROSE", "designationCode": "C", "categoryCode": "39", "address": "PO BOX 102", "city": "DALLAS", "province": "MB", "country": "CA", "postalCode": "R0C0S0", "twitter": "None", "instagram": "None", "facebook": "None", "youtube": "None", "website": "None", "summary": "None", "logo": "None", "latitude": 51.39703000000003, "longitude": -97.48576999999995}, "889843595RR0001": {"name": "RIVERBEND CHARITABLE TRUST", "designationCode": "B", "categoryCode": "39", "address": "1401 PRINCESS AVE", "city": "BRANDON", "province": "MB", "country": "CA", "postalCode": "R7A7L7", "twitter": "None", "instagram": "None", "facebook": "None", "youtube": "None", "website": "None", "summary": "None", "logo": "None", "latitude": 49.84694947489748, "longitude": -99.957294}, "119120269RR0001": {"name": "RIVERBEND CHURCH OF GOD INC.", "designationCode": "C", "categoryCode": "39", "address": "306 SAGUENAY DRIVE", "city": "SASKATOON", "province": "SK", "country": "CA", "postalCode": "S7K6R6", "twitter": "None", "instagram": "None", "facebook": "None", "youtube": "None", "website": "None", "summary": "None", "logo": "None", "latitude": 52.1665382514571, "longitude": -106.61749681548237}, "119288918RR1366": {"name": "RIVERBEND CONGREGATION OF JEHOVAH'S WITNESSES, EDMONTON, ALBERTA", "designationCode": "C", "categoryCode": "61", "address": "2593 HANNA CRESENT N.W.", "city": "EDMONTON", "province": "AB", "country": "CA", "postalCode": "T6R3M5", "twitter": "None", "instagram": "None", "facebook": "None", "youtube": "None", "website": "None", "summary": "None", "logo": "None", "latitude": 53.449974776559635, "longitude": -113.59551861838528}, "897146866RR0001": {"name": "RIVERBEND ELEMENTARY PARENTS' SOCIETY OF CALGARY", "designationCode": "C", "categoryCode": "21", "address": "65 RIVERVALLEY DRIVE SOUTHEAST", "city": "CALGARY", "province": "AB", "country": "CA", "postalCode": "T2C3Z7", "twitter": "None", "instagram": "None", "facebook": "None", "youtube": "None", "website": "None", "summary": "None", "logo": "None", "latitude": 50.97272247071386, "longitude": -114.01840316472388}, "119038172RR0001": {"name": "RIVERBEND FELLOWSHIP (MB)", "designationCode": "C", "categoryCode": "34", "address": "PO BOX 221", "city": "BORDEN", "province": "SK", "country": "CA", "postalCode": "S0K0N0", "twitter": "None", "instagram": "None", "facebook": "None", "youtube": "None", "website": "None", "summary": "None", "logo": "None", "latitude": 52.37279920269652, "longitude": -107.14668130840676}, "107897555RR0001": {"name": "RIVERBEND LUTHERAN CHURCH", "designationCode": "C", "categoryCode": "32", "address": "495 RHATIGAN ROAD EAST", "city": "EDMONTON", "province": "AB", "country": "CA", "postalCode": "T6R1J2", "twitter": "None", "instagram": "None", "facebook": "None", "youtube": "None", "website": "None", "summary": "None", "logo": "None", "latitude": 53.475885743002976, "longitude": -113.58442923379907}, "107897571RR0001": {"name": "RIVERBEND UNITED CHURCH", "designationCode": "C", "categoryCode": "44", "address": "14907 45 AVE", "city": "EDMONTON", "province": "AB", "country": "CA", "postalCode": "T6H5K8", "twitter": "None", "instagram": "None", "facebook": "None", "youtube": "None", "website": "None", "summary": "None", "logo": "None", "latitude": 53.48379461945316, "longitude": -113.57993820886941}, "129123568RR0001": {"name": "RIVERCITY PLAYERS SOCIETY", "designationCode": "C", "categoryCode": "22", "address": "1080 HEMLOCK ST", "city": "CAMPBELL RIVER", "province": "BC", "country": "CA", "postalCode": "V9W3E4", "twitter": "None", "instagram": "None", "facebook": "None", "youtube": "None", "website": "None", "summary": "None", "logo": "None", "latitude": 50.025834, "longitude": -125.25369623832844}, "890535248RR0001": {"name": "RIVERCREST WOMEN'S AUXILIARY", "designationCode": "C", "categoryCode": "19", "address": "10104-101 AVE", "city": "FORT SASKATCHEWAN", "province": "AB", "country": "CA", "postalCode": "T8L2A5", "twitter": "None", "instagram": "None", "facebook": "None", "youtube": "None", "website": "None", "summary": "None", "logo": "None", "latitude": 53.7134519509201, "longitude": -113.21488952086068}, "131494726RR0001": {"name": "RIVERDALE BAPTIST CHURCH", "designationCode": "C", "categoryCode": "31", "address": "15 DUKE RD", "city": "WHITEHORSE", "province": "YT", "country": "CA", "postalCode": "Y1A5N3", "twitter": "None", "instagram": "None", "facebook": "None", "youtube": "None", "website": "None", "summary": "None", "logo": "None", "latitude": 60.70144919303375, "longitude": -135.02822714075404}, "889846994RR0001": {"name": "RIVERDALE CHARITABLE TRUST", "designationCode": "B", "categoryCode": "39", "address": "1401 PRINCESS AVE", "city": "BRANDON", "province": "MB", "country": "CA", "postalCode": "R7A7L7", "twitter": "None", "instagram": "None", "facebook": "None", "youtube": "None", "website": "None", "summary": "None", "logo": "None", "latitude": 49.84694947489748, "longitude": -99.957294}, "119120335RR0001": {"name": "RIVERDALE CONGREGATION OF JEHOVAH'S WITNESSES", "designationCode": "C", "categoryCode": "61", "address": "62 VALLEYVIEW DR SW", "city": "MEDICINE HAT", "province": "AB", "country": "CA", "postalCode": "T1A8E4", "twitter": "None", "instagram": "None", "facebook": "None", "youtube": "None", "website": "None", "summary": "None", "logo": "None", "latitude": 50.03665369747245, "longitude": -110.70907246531817}, "119120350RR0001": {"name": "RIVERDALE DISTRICT HEALTH AUXILIARY", "designationCode": "C", "categoryCode": "19", "address": "PO BOX 360", "city": "RIVERS", "province": "MB", "country": "CA", "postalCode": "R0K1X0", "twitter": "None", "instagram": "None", "facebook": "None", "youtube": "None", "website": "None", "summary": "None", "logo": "None", "latitude": 49.55658299999999, "longitude": -99.0937665}, "889560561RR0001": {"name": "RIVERDALE HEALTH SERVICES DISTRICT FOUNDATION INC.", "designationCode": "A", "categoryCode": "15", "address": "BOX 7                         512 QUEBEC STREET", "city": "RIVERS", "province": "MB", "country": "CA", "postalCode": "R0K1X0", "twitter": "None", "instagram": "None", "facebook": "None", "youtube": "None", "website": "None", "summary": "None", "logo": "None", "latitude": 50.03042131684968, "longitude": -100.24334117039018}, "897737722RR0001": {"name": "RIVERDALE HOUSING ANIMATION PROGRAMS", "designationCode": "C", "categoryCode": "09", "address": "357 COXWELL AVE", "city": "TORONTO", "province": "ON", "country": "CA", "postalCode": "M4L1C6", "twitter": "None", "instagram": "None", "facebook": "None", "youtube": "None", "website": "None", "summary": "None", "logo": "None", "latitude": 43.67573101027178, "longitude": -79.32038952288083}, "107897688RR0001": {"name": "RIVERDALE IMMIGRANT WOMEN'S CENTRE", "designationCode": "C", "categoryCode": "09", "address": "1326 GERARD STREET EAST", "city": "TORONTO", "province": "ON", "country": "CA", "postalCode": "M4L1Z1", "twitter": "None", "instagram": "None", "facebook": "None", "youtube": "None", "website": "None", "summary": "None", "logo": "None", "latitude": 43.6715272018003, "longitude": -79.32535514239129}, "131376444RR0001": {"name": "RIVERDALE MENNONITE CHURCH", "designationCode": "C", "categoryCode": "34", "address": "PO BOX 195", "city": "MILLBANK", "province": "ON", "country": "CA", "postalCode": "N0K1L0", "twitter": "None", "instagram": "None", "facebook": "None", "youtube": "None", "website": "None", "summary": "None", "logo": "None", "latitude": 43.57110000000006, "longitude": -80.84019999999998}, "107897720RR0001": {"name": "RIVERDALE PLACE HOMES INC.", "designationCode": "C", "categoryCode": "09", "address": "PO BOX 968", "city": "ARBORG", "province": "MB", "country": "CA", "postalCode": "R0C0A0", "twitter": "None", "instagram": "None", "facebook": "None", "youtube": "None", "website": "None", "summary": "None", "logo": "None", "latitude": 50.91022850109325, "longitude": -97.2043884534773}, "132460486RR0001": {"name": "RIVERDALE PLACE WORKSHOP INC", "designationCode": "C", "categoryCode": "09", "address": "BOX 609", "city": "ARBORG", "province": "MB", "country": "CA", "postalCode": "R0C0A0", "twitter": "None", "instagram": "None", "facebook": "None", "youtube": "None", "website": "None", "summary": "None", "logo": "None", "latitude": 50.91022850109325, "longitude": -97.2043884534773}, "119120376RR0001": {"name": "RIVERDALE PRESBYTERIAN CHURCH", "designationCode": "C", "categoryCode": "37", "address": "662 PAPE AVENUE", "city": "TORONTO", "province": "ON", "country": "CA", "postalCode": "M4K3S5", "twitter": "None", "instagram": "None", "facebook": "None", "youtube": "None", "website": "None", "summary": "None", "logo": "None", "latitude": 43.67784857784643, "longitude": -79.3444747295572}, "890457575RR0001": {"name": "RIVERDRIVE PARK BIBLE CHAPEL", "designationCode": "C", "categoryCode": "39", "address": "BOX 13004", "city": "BRADFORD", "province": "ON", "country": "CA", "postalCode": "L3Z2Y5", "twitter": "None", "instagram": "None", "facebook": "None", "youtube": "None", "website": "None", "summary": "None", "logo": "None", "latitude": 44.11482000000005, "longitude": -79.56249199999993}, "890448996RR0001": {"name": "RIVERFIELD PRESBYTERIAN CHURCH", "designationCode": "C", "categoryCode": "37", "address": "51B LAMBTON STREET", "city": "HOWICK", "province": "QC", "country": "CA", "postalCode": "J0S1G0", "twitter": "None", "instagram": "None", "facebook": "None", "youtube": "None", "website": "None", "summary": "None", "logo": "None", "latitude": 45.18723238825149, "longitude": -73.847952}, "119120491RR0001": {"name": "RIVERHURST AND DISTRICT DONORS CHOICE", "designationCode": "C", "categoryCode": "05", "address": "#307, 205 FAIRFORD ST E", "city": "MOOSE JAW", "province": "SK", "country": "CA", "postalCode": "S6H0E1", "twitter": "None", "instagram": "None", "facebook": "None", "youtube": "None", "website": "None", "summary": "None", "logo": "None", "latitude": 50.392548000000005, "longitude": -105.51992311315317}, "131715179RR0001": {"name": "RIVERHURST COMMUNITY HALL", "designationCode": "C", "categoryCode": "56", "address": "BOX 1052", "city": "COLD LAKE", "province": "AB", "country": "CA", "postalCode": "T9M1P3", "twitter": "None", "instagram": "None", "facebook": "None", "youtube": "None", "website": "None", "summary": "None", "logo": "None", "latitude": 54.46502700000005, "longitude": -110.17379149999994}, "867915985RR0001": {"name": "RIVERLAND RECREATIONAL TRAIL SOCIETY", "designationCode": "C", "categoryCode": "56", "address": "BOX 874", "city": "ST. PAUL", "province": "AB", "country": "CA", "postalCode": "T0A3A0", "twitter": "None", "instagram": "None", "facebook": "None", "youtube": "None", "website": "None", "summary": "None", "logo": "None", "latitude": 53.99207006217902, "longitude": -111.26834992613558}, "892082645RR0001": {"name": "RIVERPORT COMMUNITY CENTRE INC", "designationCode": "C", "categoryCode": "56", "address": "P.O. BOX 87", "city": "RIVERPORT", "province": "NS", "country": "CA", "postalCode": "B0J2W0", "twitter": "None", "instagram": "None", "facebook": "None", "youtube": "None", "website": "None", "summary": "None", "logo": "None", "latitude": 44.295003882788244, "longitude": -64.32601862831221}, "119120608RR0001": {"name": "RIVERPORT DISTRICT FIRE PROTECTION COMMISSION", "designationCode": "C", "categoryCode": "59", "address": "3802 RIVERPORT ROAD           BOX 10", "city": "RIVERPORT", "province": "NS", "country": "CA", "postalCode": "B0J2W0", "twitter": "None", "instagram": "None", "facebook": "None", "youtube": "None", "website": "None", "summary": "None", "logo": "None", "latitude": 44.29490738367312, "longitude": -64.32437064625995}, "889542197RR0001": {"name": "RIVERS AND LAKES CONSERVATION FOUNDATION OF CANADA/FONDATION POUR LA PROTECTION DES FLEUVES, RIVIERES ET LACS DU CANADA", "designationCode": "C", "categoryCode": "59", "address": "116 WELLINGTON", "city": "COATICOOK", "province": "QC", "country": "CA", "postalCode": "J1A2H7", "twitter": "None", "instagram": "None", "facebook": "None", "youtube": "None", "website": "None", "summary": "None", "logo": "None", "latitude": 45.13392393031923, "longitude": -71.80359739344436}, "107898090RR0001": {"name": "RIVERS BAPTIST CHURCH", "designationCode": "C", "categoryCode": "31", "address": "PO BOX 572", "city": "RIVERS", "province": "MB", "country": "CA", "postalCode": "R0K1X0", "twitter": "None", "instagram": "None", "facebook": "None", "youtube": "None", "website": "None", "summary": "None", "logo": "None", "latitude": 49.55658299999999, "longitude": -99.0937665}, "867892093RR0001": {"name": "RIVERS EDGE CAMPING ASSOCIATION", "designationCode": "C", "categoryCode": "56", "address": "BOX 39", "city": "CREMONA", "province": "AB", "country": "CA", "postalCode": "T0M0R0", "twitter": "None", "instagram": "None", "facebook": "None", "youtube": "None", "website": "None", "summary": "None", "logo": "None", "latitude": 51.55010000000004, "longitude": -114.48530999999997}, "880757489RR0001": {"name": "RIVERS IN THE DESERT INTERNATIONAL OF CANADA", "designationCode": "C", "categoryCode": "47", "address": "1315 MAZURETTE, SUITE 7", "city": "MONTR\u00c9AL", "province": "QC", "country": "CA", "postalCode": "H4N1G8", "twitter": "None", "instagram": "None", "facebook": "None", "youtube": "None", "website": "None", "summary": "None", "logo": "None", "latitude": 45.53291090120598, "longitude": -73.65953027523196}, "107898520RR0001": {"name": "RIVERS KIDS CLUB INC.", "designationCode": "C", "categoryCode": "20", "address": "BOX 512", "city": "RIVERS", "province": "MB", "country": "CA", "postalCode": "R0K1X0", "twitter": "None", "instagram": "None", "facebook": "None", "youtube": "None", "website": "None", "summary": "None", "logo": "None", "latitude": 49.55658299999999, "longitude": -99.0937665}, "868908369RR0001": {"name": "RIVERS OF LIFE FELLOWSHIP ASSOCIATION INC", "designationCode": "C", "categoryCode": "39", "address": "21 HIGHBRIDGE RD", "city": "RICHMOND HILL", "province": "ON", "country": "CA", "postalCode": "L4B1Y3", "twitter": "None", "instagram": "None", "facebook": "None", "youtube": "None", "website": "None", "summary": "None", "logo": "None", "latitude": 43.851002353598, "longitude": -79.40691670771558}, "898708607RR0001": {"name": "RIVERS OF LIFE INTERNATIONAL MINISTRIES", "designationCode": "C", "categoryCode": "39", "address": "116 ARGENTO CRES", "city": "WOODBRIDGE", "province": "ON", "country": "CA", "postalCode": "L4H0B6", "twitter": "None", "instagram": "None", "facebook": "None", "youtube": "None", "website": "None", "summary": "None", "logo": "None", "latitude": 43.85298679819971, "longitude": -79.55372777087548}, "893467886RR0001": {"name": "RIVERS OF LIVING WATER CHURCH", "designationCode": "C", "categoryCode": "49", "address": "1003 - 945 MIDLAND AVE", "city": "SCARBOROUGH", "province": "ON", "country": "CA", "postalCode": "M1K4G5", "twitter": "None", "instagram": "None", "facebook": "None", "youtube": "None", "website": "None", "summary": "None", "logo": "None", "latitude": 43.73690368471918, "longitude": -79.25908901742783}}