{"132998451RR0001": {"name": "MARYLAND PARISH", "designationCode": "C", "categoryCode": "38", "address": "BOX 28", "city": "LAMPMAN", "province": "SK", "country": "CA", "postalCode": "S0C1N0", "twitter": "None", "instagram": "None", "facebook": "None", "youtube": "None", "website": "None", "summary": "None", "logo": "None", "latitude": 49.37730000000005, "longitude": -102.76413999999994}, "107676017RR0001": {"name": "MARYMOUND INC.", "designationCode": "C", "categoryCode": "01", "address": "442 SCOTIA ST", "city": "WINNIPEG", "province": "MB", "country": "CA", "postalCode": "R2V1X4", "twitter": "None", "instagram": "None", "facebook": "None", "youtube": "None", "website": "None", "summary": "None", "logo": "None", "latitude": 49.939596521812966, "longitude": -97.1096735165911}, "868935156RR0001": {"name": "MARYSTOWN HERITAGE-MUSEUM CORPORATION", "designationCode": "C", "categoryCode": "50", "address": "PO BOX 808", "city": "MARYSTOWN", "province": "NL", "country": "CA", "postalCode": "A0E2M0", "twitter": "None", "instagram": "None", "facebook": "None", "youtube": "None", "website": "None", "summary": "None", "logo": "None", "latitude": 47.17724000000004, "longitude": -55.15096999999997}, "119034445RR0001": {"name": "MARYSVILLE BAPTIST CHURCH INC.", "designationCode": "C", "categoryCode": "39", "address": "150 COWPERTHWAITE STREET", "city": "FREDERICTON", "province": "NB", "country": "CA", "postalCode": "E3A9Y5", "twitter": "None", "instagram": "None", "facebook": "None", "youtube": "None", "website": "None", "summary": "None", "logo": "None", "latitude": 45.99087643603205, "longitude": -66.59073728547509}, "131159089RR0001": {"name": "MARYSVILLE LIONS HOUSING SOCIETY", "designationCode": "C", "categoryCode": "01", "address": "916-307TH AVE", "city": "MARYSVILLE", "province": "BC", "country": "CA", "postalCode": "V1A3K6", "twitter": "None", "instagram": "None", "facebook": "None", "youtube": "None", "website": "None", "summary": "None", "logo": "None", "latitude": 49.63094134505497, "longitude": -115.95403542136538}, "119034437RR0001": {"name": "MARYSVILLE-PENNIAC PASTORAL CHARGE", "designationCode": "C", "categoryCode": "44", "address": "351 CANADA ST", "city": "FREDERICTON", "province": "NB", "country": "CA", "postalCode": "E3A4A3", "twitter": "None", "instagram": "None", "facebook": "None", "youtube": "None", "website": "None", "summary": "None", "logo": "None", "latitude": 45.98607701500363, "longitude": -66.59171870237721}, "107676652RR0001": {"name": "MARYVALE", "designationCode": "C", "categoryCode": "20", "address": "3640 WELLS STREET", "city": "WINDSOR", "province": "ON", "country": "CA", "postalCode": "N9C1T9", "twitter": "None", "instagram": "None", "facebook": "None", "youtube": "None", "website": "None", "summary": "None", "logo": "None", "latitude": 42.28923970803271, "longitude": -83.07303192301895}, "861025294RR0001": {"name": "MARYVALE ACADEMY OF OTTAWA", "designationCode": "C", "categoryCode": "20", "address": "2191 BENJAMIN AVE", "city": "OTTAWA", "province": "ON", "country": "CA", "postalCode": "K2A1P6", "twitter": "None", "instagram": "None", "facebook": "None", "youtube": "None", "website": "None", "summary": "None", "logo": "None", "latitude": 45.36314616322331, "longitude": -75.76803298338022}, "858239072RR0001": {"name": "MASALA MINISTRIES TRUST", "designationCode": "C", "categoryCode": "47", "address": "120 CLARENDON AVE", "city": "HAMILTON", "province": "ON", "country": "CA", "postalCode": "L9A3A5", "twitter": "None", "instagram": "None", "facebook": "None", "youtube": "None", "website": "None", "summary": "None", "logo": "None", "latitude": 43.23203559029698, "longitude": -79.87607501771366}, "891114845RR0001": {"name": "MASCOUCHE PASTORAL CHARGE", "designationCode": "C", "categoryCode": "44", "address": "5330 CHEMIN MARTIN", "city": "TERREBONNE", "province": "QC", "country": "CA", "postalCode": "J6X0B2", "twitter": "None", "instagram": "None", "facebook": "None", "youtube": "None", "website": "None", "summary": "None", "logo": "None", "latitude": 45.73974918494867, "longitude": -73.69297275756743}, "869163147RR0001": {"name": "MASJID BILAL MUSLIM ASSOCIATION", "designationCode": "C", "categoryCode": "60", "address": "1610-3380 EGLINTON AVE E", "city": "TORONTO", "province": "ON", "country": "CA", "postalCode": "M1J3L6", "twitter": "None", "instagram": "None", "facebook": "None", "youtube": "None", "website": "None", "summary": "None", "logo": "None", "latitude": 43.74420658405005, "longitude": -79.21438560561134}, "869981597RR0001": {"name": "MASJID-AL-NOOR (Mosque of Lights)", "designationCode": "C", "categoryCode": "39", "address": "13526 98A AVE", "city": "SURREY", "province": "BC", "country": "CA", "postalCode": "V3T1C8", "twitter": "None", "instagram": "None", "facebook": "None", "youtube": "None", "website": "None", "summary": "None", "logo": "None", "latitude": 49.18144647792723, "longitude": -122.84766386081135}, "119034478RR0001": {"name": "MASJID-E FAROOQ-E AZAM MISSISSAUGA", "designationCode": "C", "categoryCode": "39", "address": "4504 HEATHGATE CRESCENT", "city": "MISSISSAUGA", "province": "ON", "country": "CA", "postalCode": "L5R2C4", "twitter": "None", "instagram": "None", "facebook": "None", "youtube": "None", "website": "None", "summary": "None", "logo": "None", "latitude": 43.591196809308215, "longitude": -79.66317809602405}, "890403363RR0001": {"name": "MASJID-UT-TAQWA ISLAMIC ORGANIZATION", "designationCode": "C", "categoryCode": "60", "address": "14 LADYSMITH AVENUE", "city": "TORONTO", "province": "ON", "country": "CA", "postalCode": "M4J4H7", "twitter": "None", "instagram": "None", "facebook": "None", "youtube": "None", "website": "None", "summary": "None", "logo": "None", "latitude": 43.68097029946913, "longitude": -79.33106471414953}, "119034486RR0001": {"name": "MASKWACHEES CULTURAL COLLEGE FOUNDATION", "designationCode": "A", "categoryCode": "23", "address": "PO BOX 960", "city": "MASKWACIS", "province": "AB", "country": "CA", "postalCode": "T0C1N0", "twitter": "None", "instagram": "None", "facebook": "None", "youtube": "None", "website": "None", "summary": "None", "logo": "None", "latitude": 52.83422000000007, "longitude": -113.44605999999999}, "107676850RR0001": {"name": "MASKWATCHEES CULTURAL COLLEGE", "designationCode": "C", "categoryCode": "20", "address": "PO BOX 960", "city": "MASKWACIS", "province": "AB", "country": "CA", "postalCode": "T0C1N0", "twitter": "None", "instagram": "None", "facebook": "None", "youtube": "None", "website": "None", "summary": "None", "logo": "None", "latitude": 52.83422000000007, "longitude": -113.44605999999999}, "863467551RR0001": {"name": "MASOMO EDUCATION FOUNDATION", "designationCode": "C", "categoryCode": "20", "address": "222 QUEEN STREET              SUITE 1502", "city": "OTTAWA", "province": "ON", "country": "CA", "postalCode": "K1P5V9", "twitter": "None", "instagram": "None", "facebook": "None", "youtube": "None", "website": "None", "summary": "None", "logo": "None", "latitude": 45.42025661474995, "longitude": -75.70138994641938}, "119034502RR0001": {"name": "MASONIC FOUNDATION OF MANITOBA INC.", "designationCode": "C", "categoryCode": "53", "address": "420 CORYDON AVENUE", "city": "WINNIPEG", "province": "MB", "country": "CA", "postalCode": "R3L0N8", "twitter": "None", "instagram": "None", "facebook": "None", "youtube": "None", "website": "None", "summary": "None", "logo": "None", "latitude": 49.87512741288529, "longitude": -97.14033269509284}, "119034510RR0001": {"name": "MASONIC FOUNDATION OF NOVA SCOTIA", "designationCode": "A", "categoryCode": "63", "address": "167 CORONATION AVENUE", "city": "HALIFAX", "province": "NS", "country": "CA", "postalCode": "B3N2N2", "twitter": "None", "instagram": "None", "facebook": "None", "youtube": "None", "website": "None", "summary": "None", "logo": "None", "latitude": 44.651879192076784, "longitude": -63.64606433348711}, "107676892RR0001": {"name": "MASONIC FOUNDATION OF QUEBEC FONDATION MACONNIQUE DE QUEBEC", "designationCode": "C", "categoryCode": "23", "address": "2295 ST. MARK STREET", "city": "MONTREAL", "province": "QC", "country": "CA", "postalCode": "H3H2G9", "twitter": "None", "instagram": "None", "facebook": "None", "youtube": "None", "website": "None", "summary": "None", "logo": "None", "latitude": 45.49440300000006, "longitude": -73.58299549999994}, "129453882RR0001": {"name": "MASONIC PARK", "designationCode": "C", "categoryCode": "09", "address": "115 MT. CARSON AVENUE         BOX 13", "city": "MOUNT PEARL", "province": "NL", "country": "CA", "postalCode": "A1N3K6", "twitter": "None", "instagram": "None", "facebook": "None", "youtube": "None", "website": "None", "summary": "None", "logo": "None", "latitude": 47.53742083016429, "longitude": -52.80257442987475}, "140944422RR0001": {"name": "MASSAWIPPI VISION 2000 INC", "designationCode": "C", "categoryCode": "56", "address": "16, CHEMIN HODGSON", "city": "CANTON-DE-HATLEY", "province": "QC", "country": "CA", "postalCode": "J0B2C0", "twitter": "None", "instagram": "None", "facebook": "None", "youtube": "None", "website": "None", "summary": "None", "logo": "None", "latitude": 45.25990049509525, "longitude": -71.96961374715792}, "119288918RR0439": {"name": "MASSET CONGREGATION OF JEHOVAH'S WITNESSES", "designationCode": "C", "categoryCode": "61", "address": "BOX 420", "city": "PORT CLEMENTS", "province": "BC", "country": "CA", "postalCode": "V0T1R0", "twitter": "None", "instagram": "None", "facebook": "None", "youtube": "None", "website": "None", "summary": "None", "logo": "None", "latitude": 53.68667000000005, "longitude": -132.16904999999997}, "119034551RR0001": {"name": "MASSEY AGRICULTURAL SOCIETY", "designationCode": "C", "categoryCode": "56", "address": "PO BOX 728", "city": "MASSEY", "province": "ON", "country": "CA", "postalCode": "P0P1P0", "twitter": "None", "instagram": "None", "facebook": "None", "youtube": "None", "website": "None", "summary": "None", "logo": "None", "latitude": 46.21236000000006, "longitude": -82.07723599999993}, "107677114RR0001": {"name": "MASSEY AREA MUSEUM", "designationCode": "C", "categoryCode": "50", "address": "PO BOX 237", "city": "MASSEY", "province": "ON", "country": "CA", "postalCode": "P0P1P0", "twitter": "None", "instagram": "None", "facebook": "None", "youtube": "None", "website": "None", "summary": "None", "logo": "None", "latitude": 46.21236000000006, "longitude": -82.07723599999993}, "119034593RR0001": {"name": "MASSEY PASTORAL CHARGE", "designationCode": "C", "categoryCode": "44", "address": "PO BOX 729", "city": "MASSEY", "province": "ON", "country": "CA", "postalCode": "P0P1P0", "twitter": "None", "instagram": "None", "facebook": "None", "youtube": "None", "website": "None", "summary": "None", "logo": "None", "latitude": 46.21236000000006, "longitude": -82.07723599999993}, "119034601RR0001": {"name": "MASSEY PLACE COMMUNITY CHURCH", "designationCode": "C", "categoryCode": "39", "address": "930 NORTHUMBERLAND AVENUE", "city": "SASKATOON", "province": "SK", "country": "CA", "postalCode": "S7L3W6", "twitter": "None", "instagram": "None", "facebook": "None", "youtube": "None", "website": "None", "summary": "None", "logo": "None", "latitude": 52.1395045367593, "longitude": -106.71777723172158}, "130000078RR0001": {"name": "MASSEY THEATRE SOCIETY", "designationCode": "C", "categoryCode": "22", "address": "735 EIGHTH AVE", "city": "NEW WESTMINSTER", "province": "BC", "country": "CA", "postalCode": "V3M2R2", "twitter": "None", "instagram": "None", "facebook": "None", "youtube": "None", "website": "None", "summary": "None", "logo": "None", "latitude": 49.21476118752592, "longitude": -122.92647113776748}, "119034619RR0001": {"name": "MASSEY VANIER SCHOLARSHIP BURSARY FUND", "designationCode": "C", "categoryCode": "21", "address": "127 RUE PRINCIPALE            SUITE 105", "city": "COWANSVILLE", "province": "QC", "country": "CA", "postalCode": "J2K1J3", "twitter": "None", "instagram": "None", "facebook": "None", "youtube": "None", "website": "None", "summary": "None", "logo": "None", "latitude": 45.20770304527071, "longitude": -72.74698908133753}, "119034627RR0001": {"name": "MASSEY WALFORD HORTICULTURAL SOCIETY", "designationCode": "C", "categoryCode": "52", "address": "P.O.BOX 805", "city": "MASSEY", "province": "ON", "country": "CA", "postalCode": "P0P1P0", "twitter": "None", "instagram": "None", "facebook": "None", "youtube": "None", "website": "None", "summary": "None", "logo": "None", "latitude": 46.21236000000006, "longitude": -82.07723599999993}, "119034635RR0001": {"name": "MASSIE UNITED CHURCH", "designationCode": "C", "categoryCode": "44", "address": "496765 VETERANS RD. N.        RR#4", "city": "CHATSWORTH", "province": "ON", "country": "CA", "postalCode": "N0H1G0", "twitter": "None", "instagram": "None", "facebook": "None", "youtube": "None", "website": "None", "summary": "None", "logo": "None", "latitude": 44.46479204831414, "longitude": -80.79943510339659}, "119034643RR0001": {"name": "MASTER AND FELLOWS OF MASSEY COLLEGE", "designationCode": "C", "categoryCode": "21", "address": "4 DEVONSHIRE PLACE", "city": "TORONTO", "province": "ON", "country": "CA", "postalCode": "M5S2E1", "twitter": "None", "instagram": "None", "facebook": "None", "youtube": "None", "website": "None", "summary": "None", "logo": "None", "latitude": 43.664489738271136, "longitude": -79.3970538094811}, "856685482RR0001": {"name": "MASTER GARDENERS ASSOCIATION OF B.C.", "designationCode": "C", "categoryCode": "20", "address": "1255 NOOTKA ST", "city": "VANCOUVER", "province": "BC", "country": "CA", "postalCode": "V5K4E6", "twitter": "None", "instagram": "None", "facebook": "None", "youtube": "None", "website": "None", "summary": "None", "logo": "None", "latitude": 49.273775276992325, "longitude": -123.04142458552113}, "871150967RR0001": {"name": "MASTER GARDENERS OF ONTARIO INC", "designationCode": "C", "categoryCode": "56", "address": "PO BOX 6149", "city": "PICTON", "province": "ON", "country": "CA", "postalCode": "K0K2T0", "twitter": "None", "instagram": "None", "facebook": "None", "youtube": "None", "website": "None", "summary": "None", "logo": "None", "latitude": 44.19536494728186, "longitude": -77.59328555317504}, "875410870RR0001": {"name": "MASTER'S ACADEMY EDUCATIONAL SOCIETY", "designationCode": "C", "categoryCode": "20", "address": "4414 CROWCHILD TR SW", "city": "CALGARY", "province": "AB", "country": "CA", "postalCode": "T2T5J4", "twitter": "None", "instagram": "None", "facebook": "None", "youtube": "None", "website": "None", "summary": "None", "logo": "None", "latitude": 51.01455308194313, "longitude": -114.11603020329991}, "101546588RR0001": {"name": "MASTER'S COLLEGE AND SEMINARY", "designationCode": "C", "categoryCode": "20", "address": "780 ARGYLE STREET", "city": "PETERBOROUGH", "province": "ON", "country": "CA", "postalCode": "K9H5T2", "twitter": "None", "instagram": "None", "facebook": "None", "youtube": "None", "website": "None", "summary": "None", "logo": "None", "latitude": 44.32117722900896, "longitude": -78.32006911024922}, "893354639RR0001": {"name": "MASTER'S INTERNATIONAL MINISTRIES", "designationCode": "C", "categoryCode": "47", "address": "1214 HUTCHISON RD RR 2", "city": "WELLESLEY", "province": "ON", "country": "CA", "postalCode": "N0B2T0", "twitter": "None", "instagram": "None", "facebook": "None", "youtube": "None", "website": "None", "summary": "None", "logo": "None", "latitude": 43.472852491458035, "longitude": -80.78437036135773}, "894259472RR0001": {"name": "MATACHEWAN CHRISTIAN FELLOWSHIP CHURCH", "designationCode": "C", "categoryCode": "39", "address": "144 CALBECK AVE               PO BOX 70", "city": "MATACHEWAN", "province": "ON", "country": "CA", "postalCode": "P0K1M0", "twitter": "None", "instagram": "None", "facebook": "None", "youtube": "None", "website": "None", "summary": "None", "logo": "None", "latitude": 47.93504977756275, "longitude": -80.65090897360521}, "892421645RR0001": {"name": "MATAN BASETER", "designationCode": "C", "categoryCode": "09", "address": "72 MILLERSGROVE DRIVE", "city": "TORONTO", "province": "ON", "country": "CA", "postalCode": "M2R3R9", "twitter": "None", "instagram": "None", "facebook": "None", "youtube": "None", "website": "None", "summary": "None", "logo": "None", "latitude": 43.785960956979636, "longitude": -79.45884984681732}, "119034676RR0001": {"name": "MATAN BSAYSER FOUNDATION", "designationCode": "B", "categoryCode": "05", "address": "333  WILSON AVENUE, #200", "city": "TORONTO", "province": "ON", "country": "CA", "postalCode": "M3H1T2", "twitter": "None", "instagram": "None", "facebook": "None", "youtube": "None", "website": "None", "summary": "None", "logo": "None", "latitude": 43.737049856483516, "longitude": -79.43551650109652}, "874595200RR0001": {"name": "MATAN FOUNDATION", "designationCode": "A", "categoryCode": "03", "address": "3200 DUFFERIN STREET          SUITE 308", "city": "TORONTO", "province": "ON", "country": "CA", "postalCode": "M6A3B2", "twitter": "None", "instagram": "None", "facebook": "None", "youtube": "None", "website": "None", "summary": "None", "logo": "None", "latitude": 43.71839373466443, "longitude": -79.45566924314721}, "123037939RR0001": {"name": "MATCH-INTERNATIONAL CENTRE / MATCH CENTRE INTERNATIONAL", "designationCode": "C", "categoryCode": "59", "address": "600 - 123 SLATER ST", "city": "OTTAWA", "province": "ON", "country": "CA", "postalCode": "K1P5H2", "twitter": "None", "instagram": "None", "facebook": "None", "youtube": "None", "website": "None", "summary": "None", "logo": "None", "latitude": 45.42071141078527, "longitude": -75.69659091147776}, "868701962RR0001": {"name": "MATCHEDASH COMMUNITY HERITAGE CENTRE", "designationCode": "C", "categoryCode": "53", "address": "2095 NORTH RIVER DRIVE        RR 1", "city": "COLDWATER", "province": "ON", "country": "CA", "postalCode": "L0K1E0", "twitter": "None", "instagram": "None", "facebook": "None", "youtube": "None", "website": "None", "summary": "None", "logo": "None", "latitude": 44.76264279178118, "longitude": -79.63509642534663}, "864137336RR0001": {"name": "MATER DEI, SR. CARMELINA'S HOME FOR WOMEN", "designationCode": "C", "categoryCode": "57", "address": "PO BOX 12557                  RPO MARTINWAY PLAZA", "city": "ETOBICOKE", "province": "ON", "country": "CA", "postalCode": "M9R4C7", "twitter": "None", "instagram": "None", "facebook": "None", "youtube": "None", "website": "None", "summary": "None", "logo": "None", "latitude": 43.64439900000005, "longitude": -79.56714049999994}, "874266943RR0001": {"name": "MATERCARE INTERNATIONAL (CANADA) INCORPORATED", "designationCode": "C", "categoryCode": "10", "address": "8 RIVERVIEW AVENUE", "city": "ST JOHN'S", "province": "NL", "country": "CA", "postalCode": "A1C2S5", "twitter": "None", "instagram": "None", "facebook": "None", "youtube": "None", "website": "None", "summary": "None", "logo": "None", "latitude": 47.5715577305095, "longitude": -52.711679339603954}, "119462133RR0001": {"name": "MATERNAIDE DU QUEBEC", "designationCode": "C", "categoryCode": "11", "address": "707 RUE SAINTE-CATHERINE", "city": "TROIS-RIVIERES", "province": "QC", "country": "CA", "postalCode": "G9A3L4", "twitter": "None", "instagram": "None", "facebook": "None", "youtube": "None", "website": "None", "summary": "None", "logo": "None", "latitude": 46.35654041297832, "longitude": -72.55046948430387}, "866861685RR0001": {"name": "MATHEMATICS FOUNDATION OF CANADA / FONDATION AVENIR MATHEMATIQUES CANADA", "designationCode": "C", "categoryCode": "29", "address": "55 MERIDENE CRESCENT", "city": "LONDON", "province": "ON", "country": "CA", "postalCode": "N5X2M1", "twitter": "None", "instagram": "None", "facebook": "None", "youtube": "None", "website": "None", "summary": "None", "logo": "None", "latitude": 43.026206416873464, "longitude": -81.25937728991848}, "119034726RR0001": {"name": "MATHESON & DISTRICT AGRICULTURAL SOCIETY", "designationCode": "C", "categoryCode": "56", "address": "BOX 565", "city": "MATHESON", "province": "ON", "country": "CA", "postalCode": "P0K1N0", "twitter": "None", "instagram": "None", "facebook": "None", "youtube": "None", "website": "None", "summary": "None", "logo": "None", "latitude": 47.9392718793635, "longitude": -80.64669271189717}, "119034734RR0001": {"name": "MATHESON GOSPEL CHAPEL", "designationCode": "C", "categoryCode": "39", "address": "PO BOX 54 294 SECOND STREET", "city": "MATHESON", "province": "ON", "country": "CA", "postalCode": "P0K1N0", "twitter": "None", "instagram": "None", "facebook": "None", "youtube": "None", "website": "None", "summary": "None", "logo": "None", "latitude": 48.537957440733436, "longitude": -80.47225829144116}, "893207266RR0001": {"name": "MATHESON PASTORAL CHARGE", "designationCode": "C", "categoryCode": "44", "address": "PO BOX 59", "city": "MATHESON", "province": "ON", "country": "CA", "postalCode": "P0K1N0", "twitter": "None", "instagram": "None", "facebook": "None", "youtube": "None", "website": "None", "summary": "None", "logo": "None", "latitude": 47.9392718793635, "longitude": -80.64669271189717}, "802321877RR0001": {"name": "MATINEE FRIMOUSSES", "designationCode": "C", "categoryCode": "09", "address": "153 AVENUE DES SABLONNI\u00c8RES", "city": "QU\u00c9BEC", "province": "QC", "country": "CA", "postalCode": "G1B1B8", "twitter": "None", "instagram": "None", "facebook": "None", "youtube": "None", "website": "None", "summary": "None", "logo": "None", "latitude": 46.906760187989775, "longitude": -71.19785035074509}, "103562484RR0001": {"name": "MATINEES MERES-ENFANTS INC.", "designationCode": "C", "categoryCode": "09", "address": "100 RUE DU CENTRE-CIVIQUE", "city": "MONT-SAINT-HILAIRE", "province": "QC", "country": "CA", "postalCode": "J3H3M8", "twitter": "None", "instagram": "None", "facebook": "None", "youtube": "None", "website": "None", "summary": "None", "logo": "None", "latitude": 45.56451461451881, "longitude": -73.19090039555049}, "888961794RR0001": {"name": "MATNAS YAD FOUNDATION", "designationCode": "B", "categoryCode": "25", "address": "500 GLENCAIRN AVE SUITE 306", "city": "TORONTO NORTH YORK", "province": "ON", "country": "CA", "postalCode": "M6B1Z1", "twitter": "None", "instagram": "None", "facebook": "None", "youtube": "None", "website": "None", "summary": "None", "logo": "None", "latitude": 43.71252612239599, "longitude": -79.42820901722534}, "107678229RR0001": {"name": "MATSQUI LUTHERAN CHURCH", "designationCode": "C", "categoryCode": "32", "address": "5781 RIVERSIDE ROAD           PO BOX 15", "city": "ABBOTSFORD", "province": "BC", "country": "CA", "postalCode": "V4X3R2", "twitter": "None", "instagram": "None", "facebook": "None", "youtube": "None", "website": "None", "summary": "None", "logo": "None", "latitude": 49.10683577183396, "longitude": -122.29426105228232}, "129967014RR0001": {"name": "MATSQUI SUMAS ABBOTSFORD MUSEUM SOCIETY", "designationCode": "C", "categoryCode": "50", "address": "3303 FIRHILL DR", "city": "ABBOTSFORD", "province": "BC", "country": "CA", "postalCode": "V2T5L4", "twitter": "None", "instagram": "None", "facebook": "None", "youtube": "None", "website": "None", "summary": "None", "logo": "None", "latitude": 49.0621794096601, "longitude": -122.36587290386038}, "898633151RR0001": {"name": "MATSQUI-ABBOTSFORD IMPACT SOCIETY", "designationCode": "C", "categoryCode": "59", "address": "33228 WALSH AVE", "city": "ABBOTSFORD", "province": "BC", "country": "CA", "postalCode": "V2S1Z8", "twitter": "None", "instagram": "None", "facebook": "None", "youtube": "None", "website": "None", "summary": "None", "logo": "None", "latitude": 49.04946865609688, "longitude": -122.30373452720866}, "886536796RR0001": {"name": "MATTAWA AND AREA FOOD BANK", "designationCode": "C", "categoryCode": "09", "address": "PO BOX 1094", "city": "MATTAWA", "province": "ON", "country": "CA", "postalCode": "P0H1V0", "twitter": "None", "instagram": "None", "facebook": "None", "youtube": "None", "website": "None", "summary": "None", "logo": "None", "latitude": 46.352402765527096, "longitude": -78.81283329813716}, "107678351RR0001": {"name": "MATTAWA CHILD CARE CENTRE", "designationCode": "C", "categoryCode": "01", "address": "800 JOHN STREET               PO BOX 130", "city": "MATTAWA", "province": "ON", "country": "CA", "postalCode": "P0H1V0", "twitter": "None", "instagram": "None", "facebook": "None", "youtube": "None", "website": "None", "summary": "None", "logo": "None", "latitude": 46.30908359732212, "longitude": -78.71335102279392}, "119034833RR0001": {"name": "MATTAWA CHRISTIAN LIFE PENTECOSTAL CHURCH", "designationCode": "C", "categoryCode": "36", "address": "BOX 1220, 991 JAMES STREET", "city": "MATTAWA", "province": "ON", "country": "CA", "postalCode": "P0H1V0", "twitter": "None", "instagram": "None", "facebook": "None", "youtube": "None", "website": "None", "summary": "None", "logo": "None", "latitude": 46.309642099934685, "longitude": -78.7179866237431}, "107678385RR0001": {"name": "MATTAWA HISTORICAL SOCIETY-SOCIETE HISTORIQUE DE MATTAWA", "designationCode": "C", "categoryCode": "50", "address": "285 FIRST STREET, P.O.BOX 9", "city": "MATTAWA", "province": "ON", "country": "CA", "postalCode": "P0H1V0", "twitter": "None", "instagram": "None", "facebook": "None", "youtube": "None", "website": "None", "summary": "None", "logo": "None", "latitude": 46.32084154065138, "longitude": -78.7119770798736}, "108137613RR0001": {"name": "MATTAWA PASTORAL CHARGE", "designationCode": "C", "categoryCode": "44", "address": "BOX 409", "city": "MATTAWA", "province": "ON", "country": "CA", "postalCode": "P0H1V0", "twitter": "None", "instagram": "None", "facebook": "None", "youtube": "None", "website": "None", "summary": "None", "logo": "None", "latitude": 46.352402765527096, "longitude": -78.81283329813716}, "898506951RR0001": {"name": "MATTAWA WOMEN'S RESOURCE CENTRE", "designationCode": "C", "categoryCode": "01", "address": "385 PINE ST BOX 538", "city": "MATTAWA", "province": "ON", "country": "CA", "postalCode": "P0H1V0", "twitter": "None", "instagram": "None", "facebook": "None", "youtube": "None", "website": "None", "summary": "None", "logo": "None", "latitude": 46.31672124565738, "longitude": -78.7036254158925}, "868379512RR0001": {"name": "MATTHEW HOUSE REFUGEE MINISTRY OF FORT ERIE", "designationCode": "C", "categoryCode": "09", "address": "183 CENTRAL AVENUE", "city": "FORT ERIE", "province": "ON", "country": "CA", "postalCode": "L2A3S8", "twitter": "None", "instagram": "None", "facebook": "None", "youtube": "None", "website": "None", "summary": "None", "logo": "None", "latitude": 42.91378049125743, "longitude": -78.91882097547439}, "891152944RR0001": {"name": "MATTHEW HOUSE REFUGEE RECEPTION SERVICES (TORONTO)", "designationCode": "C", "categoryCode": "09", "address": "981 DUNDAS STREET WEST", "city": "TORONTO", "province": "ON", "country": "CA", "postalCode": "M6J1W4", "twitter": "None", "instagram": "None", "facebook": "None", "youtube": "None", "website": "None", "summary": "None", "logo": "None", "latitude": 43.650387860378665, "longitude": -79.41531623091353}, "868224965RR0001": {"name": "MATTHEW MCNAIR SENIOR SECONDARY SCHOOL TRUST FUND", "designationCode": "C", "categoryCode": "21", "address": "9500 NO. 4 RD", "city": "RICHMOND", "province": "BC", "country": "CA", "postalCode": "V7A2Y9", "twitter": "None", "instagram": "None", "facebook": "None", "youtube": "None", "website": "None", "summary": "None", "logo": "None", "latitude": 49.143019285892045, "longitude": -123.11413321327842}, "855930681RR0001": {"name": "MATTHEW SHEDDEN MEMORIAL TRUST FUND", "designationCode": "A", "categoryCode": "15", "address": "89 BARTLEY RD BOX 27", "city": "RENNIE", "province": "MB", "country": "CA", "postalCode": "R0E1R0", "twitter": "None", "instagram": "None", "facebook": "None", "youtube": "None", "website": "None", "summary": "None", "logo": "None", "latitude": 50.15110853848925, "longitude": -96.84380039492812}, "129849139RR0001": {"name": "MATTHEWS HALL", "designationCode": "C", "categoryCode": "20", "address": "1370 OXFORD STREET WEST", "city": "LONDON", "province": "ON", "country": "CA", "postalCode": "N6H1W2", "twitter": "None", "instagram": "None", "facebook": "None", "youtube": "None", "website": "None", "summary": "None", "logo": "None", "latitude": 42.970657100150326, "longitude": -81.33785562764746}, "873764831RR0001": {"name": "MATTHEWS MEMORIAL HOSPITAL ASSOCIATION", "designationCode": "C", "categoryCode": "10", "address": "PO BOX 171", "city": "RICHARDS LANDING", "province": "ON", "country": "CA", "postalCode": "P0R1J0", "twitter": "None", "instagram": "None", "facebook": "None", "youtube": "None", "website": "None", "summary": "None", "logo": "None", "latitude": 46.283998418832695, "longitude": -84.03190314670739}, "883479875RR0001": {"name": "MAUDE ABBOTT MEMORIAL SCHOLARSHIP LOAN FUND COMMITTEE", "designationCode": "C", "categoryCode": "19", "address": "774 ECHO DRIVE, SUITE 108", "city": "OTTAWA", "province": "ON", "country": "CA", "postalCode": "K1S5N8", "twitter": "None", "instagram": "None", "facebook": "None", "youtube": "None", "website": "None", "summary": "None", "logo": "None", "latitude": 45.39591652337177, "longitude": -75.68336042048013}, "108163221RR0001": {"name": "MAUGERVILLE UNITED BAPTIST CHURCH", "designationCode": "C", "categoryCode": "31", "address": "11 PETERS ROAD", "city": "MAUGERVILLE", "province": "NB", "country": "CA", "postalCode": "E3A8L4", "twitter": "None", "instagram": "None", "facebook": "None", "youtube": "None", "website": "None", "summary": "None", "logo": "None", "latitude": 45.89592851041602, "longitude": -66.53101669288483}, "119034908RR0001": {"name": "MAUNDERS MCNEIL FOUNDATION INC.", "designationCode": "A", "categoryCode": "03", "address": "4, 12110-40TH ST SE", "city": "CALGARY", "province": "AB", "country": "CA", "postalCode": "T2Z4K6", "twitter": "None", "instagram": "None", "facebook": "None", "youtube": "None", "website": "None", "summary": "None", "logo": "None", "latitude": 50.942327447140535, "longitude": -113.97508410444951}, "869381343RR0001": {"name": "MAUREEN DODD ELEMENTARY ARTS FOUNDATION", "designationCode": "C", "categoryCode": "21", "address": "142 OLD LAKESHORE RD          RR #3", "city": "PORT DOVER", "province": "ON", "country": "CA", "postalCode": "N0A1N3", "twitter": "None", "instagram": "None", "facebook": "None", "youtube": "None", "website": "None", "summary": "None", "logo": "None", "latitude": 42.79013758006813, "longitude": -80.12089579817011}, "119290344RR0001": {"name": "MAURICE JOSEPH WEISFIELD & LOUIS WEISFELD CHARITABLE FOUNDATION", "designationCode": "B", "categoryCode": "03", "address": "LEON BERNSTEIN,C.A.           150 HEATH ST #1004", "city": "TORONTO", "province": "ON", "country": "CA", "postalCode": "M4V2Y4", "twitter": "None", "instagram": "None", "facebook": "None", "youtube": "None", "website": "None", "summary": "None", "logo": "None", "latitude": 43.68870517294684, "longitude": -79.40241890611074}, "119102614RR0001": {"name": "MAURICE PRICE FOUNDATION", "designationCode": "B", "categoryCode": "23", "address": "1500-50 O'CONNOR ST", "city": "OTTAWA", "province": "ON", "country": "CA", "postalCode": "K1P6L2", "twitter": "None", "instagram": "None", "facebook": "None", "youtube": "None", "website": "None", "summary": "None", "logo": "None", "latitude": 45.42113389006883, "longitude": -75.69864072889338}, "851264838RR0001": {"name": "MAURICIE ENGLISH ELEMENTARY SCHOOL FOUNDATION", "designationCode": "C", "categoryCode": "21", "address": "1241 NICOLAS-PERROT", "city": "TROIS-RIVIERES", "province": "QC", "country": "CA", "postalCode": "G9A1C2", "twitter": "None", "instagram": "None", "facebook": "None", "youtube": "None", "website": "None", "summary": "None", "logo": "None", "latitude": 46.35641401607152, "longitude": -72.54375210038054}, "130828098RR0001": {"name": "MAVIS MCMULLEN HOUSING SOCIETY", "designationCode": "C", "categoryCode": "01", "address": "430 CORDOVA ST E", "city": "VANCOUVER", "province": "BC", "country": "CA", "postalCode": "V6A1L6", "twitter": "None", "instagram": "None", "facebook": "None", "youtube": "None", "website": "None", "summary": "None", "logo": "None", "latitude": 49.28216251399405, "longitude": -123.09446088634658}, "834332215RR0001": {"name": "MAW Charitable Trust", "designationCode": "B", "categoryCode": "05", "address": "3200 - 1021 HASTINGS ST W", "city": "VANCOUVER", "province": "BC", "country": "CA", "postalCode": "V6E0C3", "twitter": "None", "instagram": "None", "facebook": "None", "youtube": "None", "website": "None", "summary": "None", "logo": "None", "latitude": 49.28734898309179, "longitude": -123.1177059128341}, "898492012RR0001": {"name": "MAWI TA'MK SOCIETY", "designationCode": "C", "categoryCode": "56", "address": "33 SUBDIVISION ROAD           BOX 390", "city": "WHYCOCOMAGH", "province": "NS", "country": "CA", "postalCode": "B0E3M0", "twitter": "None", "instagram": "None", "facebook": "None", "youtube": "None", "website": "None", "summary": "None", "logo": "None", "latitude": 45.97112690700571, "longitude": -61.14088041191045}, "119034924RR0001": {"name": "MAX BELL FOUNDATION", "designationCode": "B", "categoryCode": "03", "address": "380-1201 5 STREET SW", "city": "CALGARY", "province": "AB", "country": "CA", "postalCode": "T2R0Y6", "twitter": "None", "instagram": "None", "facebook": "None", "youtube": "None", "website": "None", "summary": "None", "logo": "None", "latitude": 51.04138628864908, "longitude": -114.07426605761998}, "815400148RR0001": {"name": "MAX CANADA SHARE FUND, INC.", "designationCode": "C", "categoryCode": "02", "address": "860 - 50 QUEEN ST N", "city": "KITCHENER", "province": "ON", "country": "CA", "postalCode": "N2H6P4", "twitter": "None", "instagram": "None", "facebook": "None", "youtube": "None", "website": "None", "summary": "None", "logo": "None", "latitude": 43.45137, "longitude": -80.48795175}, "118986801RR0001": {"name": "MAXIMILIAN KOLBE FOUNDATION (MISSISSAUGA)", "designationCode": "C", "categoryCode": "56", "address": "4300 CAWTHRA ROAD", "city": "MISSISSAUGA", "province": "ON", "country": "CA", "postalCode": "L4Z1V8", "twitter": "None", "instagram": "None", "facebook": "None", "youtube": "None", "website": "None", "summary": "None", "logo": "None", "latitude": 43.614200781782436, "longitude": -79.62680100392379}, "865480693RR0001": {"name": "MAXIMUM IMPACT MINISTRIES", "designationCode": "C", "categoryCode": "20", "address": "273 ROSSMORE BLVD", "city": "BURLINGTON", "province": "ON", "country": "CA", "postalCode": "L7N1R5", "twitter": "None", "instagram": "None", "facebook": "None", "youtube": "None", "website": "None", "summary": "None", "logo": "None", "latitude": 43.337397508482766, "longitude": -79.77648688201874}, "130636855RR0001": {"name": "MAXVILLE MANOR", "designationCode": "C", "categoryCode": "01", "address": "80 MECHANIC ST. W.", "city": "MAXVILLE", "province": "ON", "country": "CA", "postalCode": "K0C1T0", "twitter": "None", "instagram": "None", "facebook": "None", "youtube": "None", "website": "None", "summary": "None", "logo": "None", "latitude": 45.28587270713167, "longitude": -74.86223760557199}, "866558448RR0001": {"name": "MAXVILLE MANOR FOUNDATION", "designationCode": "A", "categoryCode": "03", "address": "80 MECHANIC STREET WEST", "city": "MAXVILLE", "province": "ON", "country": "CA", "postalCode": "K0C1T0", "twitter": "None", "instagram": "None", "facebook": "None", "youtube": "None", "website": "None", "summary": "None", "logo": "None", "latitude": 45.28587270713167, "longitude": -74.86223760557199}, "108152372RR0001": {"name": "MAXVILLE UNITED CHURCH", "designationCode": "C", "categoryCode": "44", "address": "P.O. BOX 299", "city": "MAXVILLE", "province": "ON", "country": "CA", "postalCode": "K0C1T0", "twitter": "None", "instagram": "None", "facebook": "None", "youtube": "None", "website": "None", "summary": "None", "logo": "None", "latitude": 45.28898000000004, "longitude": -74.85593999999998}, "119035004RR0001": {"name": "MAXWELL CUMMINGS FAMILY FOUNDATION - FONDATION DE LA FAMILLE MAXWELL CUMMINGS", "designationCode": "B", "categoryCode": "03", "address": "600 - 4115 RUE SHERBROOKE O", "city": "WESTMOUNT", "province": "QC", "country": "CA", "postalCode": "H3Z1B1", "twitter": "None", "instagram": "None", "facebook": "None", "youtube": "None", "website": "None", "summary": "None", "logo": "None", "latitude": 45.488759122136194, "longitude": -73.59081987096755}, "864537097RR0001": {"name": "MAY COURT CLUB OF BARRIE", "designationCode": "A", "categoryCode": "03", "address": "54B MAPLE AVENUE", "city": "BARRIE", "province": "ON", "country": "CA", "postalCode": "L4N1R8", "twitter": "None", "instagram": "None", "facebook": "None", "youtube": "None", "website": "None", "summary": "None", "logo": "None", "latitude": 44.389374708829955, "longitude": -79.69189201434631}, "103574463RR0001": {"name": "MAY COURT CLUB OF BROCKVILLE INCORPORATED", "designationCode": "A", "categoryCode": "15", "address": "75 KING ST W", "city": "BROCKVILLE", "province": "ON", "country": "CA", "postalCode": "K6V3R1", "twitter": "None", "instagram": "None", "facebook": "None", "youtube": "None", "website": "None", "summary": "None", "logo": "None", "latitude": 44.58906081764677, "longitude": -75.68508490576495}, "131909459RR0001": {"name": "MAY COURT CLUB OF CHATHAM", "designationCode": "C", "categoryCode": "09", "address": "PO BOX 832", "city": "CHATHAM", "province": "ON", "country": "CA", "postalCode": "N7M5L1", "twitter": "None", "instagram": "None", "facebook": "None", "youtube": "None", "website": "None", "summary": "None", "logo": "None", "latitude": 42.404613000000055, "longitude": -82.18960099999994}, "107679854RR0001": {"name": "MAY COURT CLUB OF OTTAWA", "designationCode": "C", "categoryCode": "01", "address": "114 A CAMERON AVE", "city": "OTTAWA", "province": "ON", "country": "CA", "postalCode": "K1S0X1", "twitter": "None", "instagram": "None", "facebook": "None", "youtube": "None", "website": "None", "summary": "None", "logo": "None", "latitude": 45.39030555141715, "longitude": -75.68347941543117}, "107395543RR0001": {"name": "MAYBROOK CHILDREN'S CENTRE INC.", "designationCode": "C", "categoryCode": "01", "address": "115 RIVER AVE", "city": "WINNIPEG", "province": "MB", "country": "CA", "postalCode": "R3L0A8", "twitter": "None", "instagram": "None", "facebook": "None", "youtube": "None", "website": "None", "summary": "None", "logo": "None", "latitude": 49.88366583767072, "longitude": -97.13310091773884}, "119035053RR0001": {"name": "MAYERTHORPE BAPTIST CHURCH", "designationCode": "C", "categoryCode": "31", "address": "BOX 397", "city": "MAYERTHORPE", "province": "AB", "country": "CA", "postalCode": "T0E1N0", "twitter": "None", "instagram": "None", "facebook": "None", "youtube": "None", "website": "None", "summary": "None", "logo": "None", "latitude": 53.952450000000056, "longitude": -115.13884999999999}, "826140675RR0001": {"name": "MAYERTHORPE FALLEN FOUR MEMORIAL SOCIETY", "designationCode": "C", "categoryCode": "53", "address": "PO BOX 3700", "city": "MAYERTHORPE", "province": "AB", "country": "CA", "postalCode": "T0E1N0", "twitter": "None", "instagram": "None", "facebook": "None", "youtube": "None", "website": "None", "summary": "None", "logo": "None", "latitude": 53.952450000000056, "longitude": -115.13884999999999}, "890703549RR0001": {"name": "MAYERTHORPE GENERAL HOSPITAL AUXILIARY", "designationCode": "C", "categoryCode": "15", "address": "BOX 582", "city": "MAYERTHORPE", "province": "AB", "country": "CA", "postalCode": "T0E1N0", "twitter": "None", "instagram": "None", "facebook": "None", "youtube": "None", "website": "None", "summary": "None", "logo": "None", "latitude": 53.952450000000056, "longitude": -115.13884999999999}, "107679953RR0001": {"name": "MAYERTHORPE PENTECOSTAL ASSEMBLY", "designationCode": "C", "categoryCode": "36", "address": "BOX 797", "city": "MAYERTHORPE", "province": "AB", "country": "CA", "postalCode": "T0E1N0", "twitter": "None", "instagram": "None", "facebook": "None", "youtube": "None", "website": "None", "summary": "None", "logo": "None", "latitude": 53.952450000000056, "longitude": -115.13884999999999}, "889853198RR0001": {"name": "MAYFAIR CHARITABLE TRUST", "designationCode": "B", "categoryCode": "39", "address": "1401 PRINCESS AVE", "city": "BRANDON", "province": "MB", "country": "CA", "postalCode": "R7A7L7", "twitter": "None", "instagram": "None", "facebook": "None", "youtube": "None", "website": "None", "summary": "None", "logo": "None", "latitude": 49.84694947489748, "longitude": -99.957294}, "119035087RR0001": {"name": "MAYFAIR COMMUNITY RECREATION CENTRE INC.", "designationCode": "C", "categoryCode": "56", "address": "BOX 6 RR#1", "city": "MAYFAIR", "province": "SK", "country": "CA", "postalCode": "S0M1S0", "twitter": "None", "instagram": "None", "facebook": "None", "youtube": "None", "website": "None", "summary": "None", "logo": "None", "latitude": 52.98264816194606, "longitude": -107.59896866908304}, "107680043RR0001": {"name": "MAYFAIR UNITED CHURCH", "designationCode": "C", "categoryCode": "44", "address": "902-33RD STREET W.", "city": "SASKATOON", "province": "SK", "country": "CA", "postalCode": "S7L0W6", "twitter": "None", "instagram": "None", "facebook": "None", "youtube": "None", "website": "None", "summary": "None", "logo": "None", "latitude": 52.1438864643659, "longitude": -106.6827735}, "891410946RR0001": {"name": "MAYFIELD CHARITABLE TRUST", "designationCode": "B", "categoryCode": "39", "address": "3425 2ND AVE S", "city": "LETHBRIDGE", "province": "AB", "country": "CA", "postalCode": "T1J4V1", "twitter": "None", "instagram": "None", "facebook": "None", "youtube": "None", "website": "None", "summary": "None", "logo": "None", "latitude": 49.696839530439966, "longitude": -112.78914308381903}, "891239790RR0001": {"name": "MAYFIELD CONGREGATION OF JEHOVAH'S WITNESSES", "designationCode": "C", "categoryCode": "61", "address": "40 LEN GORYNIUK               #16, 9718-176ST", "city": "EDMONTON", "province": "AB", "country": "CA", "postalCode": "T5T6B8", "twitter": "None", "instagram": "None", "facebook": "None", "youtube": "None", "website": "None", "summary": "None", "logo": "None", "latitude": 53.53260900000005, "longitude": -113.62666399999993}}