{"892007048RR0001": {"name": "ADVENTIST FRONTIER MISSIONS SOCIETY", "designationCode": "C", "categoryCode": "20", "address": "PO BOX 816", "city": "ABBOTSFORD", "province": "BC", "country": "CA", "postalCode": "V2T7A2", "twitter": "None", "instagram": "None", "facebook": "None", "youtube": "None", "website": "None", "summary": "None", "logo": "None", "latitude": 49.05161700000005, "longitude": -122.32930399999994}, "107889453RR0001": {"name": "ADVENTIST HEALTH CARE HOME SOCIETY", "designationCode": "C", "categoryCode": "10", "address": "2281 MILLS ROAD", "city": "SIDNEY", "province": "BC", "country": "CA", "postalCode": "V8L2C3", "twitter": "None", "instagram": "None", "facebook": "None", "youtube": "None", "website": "None", "summary": "None", "logo": "None", "latitude": 48.65531452784385, "longitude": -123.40478216472387}, "118777861RR0001": {"name": "ADVENTIST LAYMEN'S FOUNDATION OF CANADA", "designationCode": "C", "categoryCode": "49", "address": "1526 HAULTAIN STREET", "city": "VICTORIA", "province": "BC", "country": "CA", "postalCode": "V8R2K4", "twitter": "None", "instagram": "None", "facebook": "None", "youtube": "None", "website": "None", "summary": "None", "logo": "None", "latitude": 48.43615748211084, "longitude": -123.33823183236194}, "107771065RR0001": {"name": "ADVENTIVE CROSS CULTURAL INITIATIVES", "designationCode": "C", "categoryCode": "47", "address": "89 AURIGA DRIVE", "city": "OTTAWA", "province": "ON", "country": "CA", "postalCode": "K2E7Z2", "twitter": "None", "instagram": "None", "facebook": "None", "youtube": "None", "website": "None", "summary": "None", "logo": "None", "latitude": 45.32790875685278, "longitude": -75.71363925033192}, "865359392RR0001": {"name": "ADVENTURE FREEDOM FOUNDATION", "designationCode": "C", "categoryCode": "09", "address": "33406 GEORGE FERGUSON WAY", "city": "ABBOTSFORD", "province": "BC", "country": "CA", "postalCode": "V2S2L8", "twitter": "None", "instagram": "None", "facebook": "None", "youtube": "None", "website": "None", "summary": "None", "logo": "None", "latitude": 49.051447995268155, "longitude": -122.29865920803269}, "869560292RR0001": {"name": "ADVENTURE IN MISSIONS INC", "designationCode": "C", "categoryCode": "47", "address": "PO BOX 7", "city": "TISDALE", "province": "SK", "country": "CA", "postalCode": "S0E1T0", "twitter": "None", "instagram": "None", "facebook": "None", "youtube": "None", "website": "None", "summary": "None", "logo": "None", "latitude": 52.84785000000005, "longitude": -104.04749999999996}, "106686652RR0001": {"name": "ADVENTURE PLACE", "designationCode": "C", "categoryCode": "29", "address": "155 MCNICOLL AVE", "city": "TORONTO", "province": "ON", "country": "CA", "postalCode": "M2H2C1", "twitter": "None", "instagram": "None", "facebook": "None", "youtube": "None", "website": "None", "summary": "None", "logo": "None", "latitude": 43.79927587812361, "longitude": -79.35818400109652}, "874070824RR0001": {"name": "ADVISORY BOARD TO \"NEW BEGINNINGS\"", "designationCode": "C", "categoryCode": "09", "address": "BOX 893", "city": "NEEPAWA", "province": "MB", "country": "CA", "postalCode": "R0J1H0", "twitter": "None", "instagram": "None", "facebook": "None", "youtube": "None", "website": "None", "summary": "None", "logo": "None", "latitude": 50.22581100000005, "longitude": -99.48963949999994}, "118778000RR0001": {"name": "ADVOCATE CEMETERY COMPANY", "designationCode": "C", "categoryCode": "59", "address": "70 SPENCERS ISLAND RD", "city": "PARRSBORO", "province": "NS", "country": "CA", "postalCode": "B0M1S0", "twitter": "None", "instagram": "None", "facebook": "None", "youtube": "None", "website": "None", "summary": "None", "logo": "None", "latitude": 45.356012235905204, "longitude": -64.71168766928285}, "106686777RR0001": {"name": "ADVOCATE UNITED BAPTIST CHURCH", "designationCode": "C", "categoryCode": "31", "address": "P.O. BOX 121", "city": "ADVOCATE HARBOUR", "province": "NS", "country": "CA", "postalCode": "B0M1A0", "twitter": "None", "instagram": "None", "facebook": "None", "youtube": "None", "website": "None", "summary": "None", "logo": "None", "latitude": 45.3470842121044, "longitude": -64.8172509909585}, "892519620RR0001": {"name": "AEC WEST SADDLE HILLS BURSARY FUND", "designationCode": "B", "categoryCode": "25", "address": "PO BOX 25", "city": "GROVEDALE", "province": "AB", "country": "CA", "postalCode": "T0H1X0", "twitter": "None", "instagram": "None", "facebook": "None", "youtube": "None", "website": "None", "summary": "None", "logo": "None", "latitude": 55.02513000000005, "longitude": -118.86218999999994}, "867050544RR0001": {"name": "AED (ASSISTANCE D'ENFANTS EN DIFFICULTE)", "designationCode": "A", "categoryCode": "11", "address": "1601, RUE AYLWIN", "city": "MONTREAL", "province": "QC", "country": "CA", "postalCode": "H1W3B9", "twitter": "None", "instagram": "None", "facebook": "None", "youtube": "None", "website": "None", "summary": "None", "logo": "None", "latitude": 45.54326590980433, "longitude": -73.54174271634258}, "106686959RR0001": {"name": "AENON BAPTIST CHURCH", "designationCode": "C", "categoryCode": "31", "address": "PO BOX 146", "city": "CHESTER BASIN", "province": "NS", "country": "CA", "postalCode": "B0J1K0", "twitter": "None", "instagram": "None", "facebook": "None", "youtube": "None", "website": "None", "summary": "None", "logo": "None", "latitude": 44.56600000000003, "longitude": -64.30903999999998}, "866178916RR0001": {"name": "AEOLIAN HALL MUSICAL ARTS ASSOCIATION", "designationCode": "C", "categoryCode": "22", "address": "795 DUNDAS ST E", "city": "LONDON", "province": "ON", "country": "CA", "postalCode": "N5W2Z6", "twitter": "None", "instagram": "None", "facebook": "None", "youtube": "None", "website": "None", "summary": "None", "logo": "None", "latitude": 42.9907301046224, "longitude": -81.22497316818632}, "118778091RR0001": {"name": "AERIC INC.", "designationCode": "C", "categoryCode": "29", "address": "255 SMYTH RD", "city": "OTTAWA", "province": "ON", "country": "CA", "postalCode": "K1H8M7", "twitter": "None", "instagram": "None", "facebook": "None", "youtube": "None", "website": "None", "summary": "None", "logo": "None", "latitude": 45.39855451933148, "longitude": -75.66021241479599}, "803246594RR0001": {"name": "AFAAGH Association", "designationCode": "C", "categoryCode": "09", "address": "211 - 2417 HOLLY LANE", "city": "OTTAWA", "province": "ON", "country": "CA", "postalCode": "K1V7P2", "twitter": "None", "instagram": "None", "facebook": "None", "youtube": "None", "website": "None", "summary": "None", "logo": "None", "latitude": 45.378291164031396, "longitude": -75.63934358087619}, "108093345RR0001": {"name": "AFFILIATED SERVICES FOR CHILDREN AND YOUTH INC.", "designationCode": "C", "categoryCode": "09", "address": "526 UPPER PARADISE RD         UNIT A", "city": "HAMILTON", "province": "ON", "country": "CA", "postalCode": "L9C5E3", "twitter": "None", "instagram": "None", "facebook": "None", "youtube": "None", "website": "None", "summary": "None", "logo": "None", "latitude": 43.23152037610346, "longitude": -79.91254429291867}, "819666470RR0001": {"name": "AFFINITY BAPTIST CHURCH", "designationCode": "C", "categoryCode": "31", "address": "PO BOX 82583 RITSON CENTRE", "city": "OSHAWA", "province": "ON", "country": "CA", "postalCode": "L1G7W7", "twitter": "None", "instagram": "None", "facebook": "None", "youtube": "None", "website": "None", "summary": "None", "logo": "None", "latitude": 43.91944270165751, "longitude": -78.86225267902786}, "118778125RR0001": {"name": "AFFORDABLE HOUSING CHARITABLE ASSOCIATION", "designationCode": "C", "categoryCode": "01", "address": "1-1001 ROYAL AVE", "city": "NEW WESTMINSTER", "province": "BC", "country": "CA", "postalCode": "V3M1K3", "twitter": "None", "instagram": "None", "facebook": "None", "youtube": "None", "website": "None", "summary": "None", "logo": "None", "latitude": 49.201962882335856, "longitude": -122.91765669152849}, "851587543RR0001": {"name": "AFFORDABLE HOUSING HALTON", "designationCode": "C", "categoryCode": "09", "address": "599 CHARTWELL RD", "city": "PAKVILLE", "province": "ON", "country": "CA", "postalCode": "L6J4A9", "twitter": "None", "instagram": "None", "facebook": "None", "youtube": "None", "website": "None", "summary": "None", "logo": "None", "latitude": 43.46660922038195, "longitude": -79.67601460600737}, "876539800RR0001": {"name": "AFGHAN BENEVOLENT ASSOCIATION OF BRITISH COLUMBIA", "designationCode": "C", "categoryCode": "49", "address": "202-6990 WALTHAM AVE", "city": "BURNABY", "province": "BC", "country": "CA", "postalCode": "V5J5A6", "twitter": "None", "instagram": "None", "facebook": "None", "youtube": "None", "website": "None", "summary": "None", "logo": "None", "latitude": 49.21979430336425, "longitude": -122.97581749679735}, "127653590RR0001": {"name": "AFGHAN SETTLEMENT AND DEVELOPMENT COMMITTEE OF ONTARIO", "designationCode": "C", "categoryCode": "09", "address": "202 - 130 BRIDGELAND AVE", "city": "NORTH YORK", "province": "ON", "country": "CA", "postalCode": "M6A1Z4", "twitter": "None", "instagram": "None", "facebook": "None", "youtube": "None", "website": "None", "summary": "None", "logo": "None", "latitude": 43.725637172369936, "longitude": -79.46322918096827}, "890186638RR0001": {"name": "AFGHAN WOMEN'S COUNSELLING & INTEGRATION COMMUNITY SUPPORT ORGANIZATION", "designationCode": "C", "categoryCode": "09", "address": "203 - 150 CONSUMERS RD", "city": "NORTH YORK", "province": "ON", "country": "CA", "postalCode": "M2J1P9", "twitter": "None", "instagram": "None", "facebook": "None", "youtube": "None", "website": "None", "summary": "None", "logo": "None", "latitude": 43.77349963529352, "longitude": -79.33205773931033}, "893333070RR0001": {"name": "AFMR Maria-Chapdelaine", "designationCode": "C", "categoryCode": "09", "address": "302-1230 BOULEVARD WALLBERG", "city": "DOLBEAU-MISTASSINI", "province": "QC", "country": "CA", "postalCode": "G8L1H2", "twitter": "None", "instagram": "None", "facebook": "None", "youtube": "None", "website": "None", "summary": "None", "logo": "None", "latitude": 48.877771494864106, "longitude": -72.22686960061168}, "869811596RR0001": {"name": "AFP FOUNDATION FOR PHILANTHROPY-CANADA/AFP FONDATION CANADIENNE POUR LA PHILANTHROPIE", "designationCode": "C", "categoryCode": "20", "address": "412-260 KING STREET EAST", "city": "TORONTO", "province": "ON", "country": "CA", "postalCode": "M5A4L5", "twitter": "None", "instagram": "None", "facebook": "None", "youtube": "None", "website": "None", "summary": "None", "logo": "None", "latitude": 43.651722183478434, "longitude": -79.36630598058161}, "874628522RR0001": {"name": "AFRETECH AID SOCIETY", "designationCode": "C", "categoryCode": "09", "address": "7693 GARFIELD DR", "city": "DELTA", "province": "BC", "country": "CA", "postalCode": "V4C4E6", "twitter": "None", "instagram": "None", "facebook": "None", "youtube": "None", "website": "None", "summary": "None", "logo": "None", "latitude": 49.14325831528083, "longitude": -122.92089390386037}, "132373077RR0001": {"name": "AFRICA COMMUNITY TECHNICAL SERVICE SOCIETY", "designationCode": "C", "categoryCode": "09", "address": "402 - 611 ALEXANDER ST", "city": "VANCOUVER", "province": "BC", "country": "CA", "postalCode": "V6A1E1", "twitter": "None", "instagram": "None", "facebook": "None", "youtube": "None", "website": "None", "summary": "None", "logo": "None", "latitude": 49.28402785620139, "longitude": -123.09100571537456}, "129539953RR0001": {"name": "AFRICA INLAND MISSION INTERNATIONAL (CANADA)", "designationCode": "C", "categoryCode": "47", "address": "1641 VICTORIA PARK AVE", "city": "SCARBOROUGH", "province": "ON", "country": "CA", "postalCode": "M1R1P8", "twitter": "None", "instagram": "None", "facebook": "None", "youtube": "None", "website": "None", "summary": "None", "logo": "None", "latitude": 43.73237133112119, "longitude": -79.30579668994199}, "890960586RR0001": {"name": "AFRICA INTER-MENNONITE MISSION CANADA INC", "designationCode": "C", "categoryCode": "47", "address": "440 MAIN ST", "city": "STEINBACH", "province": "MB", "country": "CA", "postalCode": "R5G1Z5", "twitter": "None", "instagram": "None", "facebook": "None", "youtube": "None", "website": "None", "summary": "None", "logo": "None", "latitude": 49.52292081272895, "longitude": -96.67953305439771}, "861862183RR0001": {"name": "AFRICAN AID INTERNATIONAL", "designationCode": "C", "categoryCode": "09", "address": "1355 WILSON AVENUE            UNIT 4", "city": "TORONTO", "province": "ON", "country": "CA", "postalCode": "M3M1H7", "twitter": "None", "instagram": "None", "facebook": "None", "youtube": "None", "website": "None", "summary": "None", "logo": "None", "latitude": 43.72317986037866, "longitude": -79.49742492838598}, "851586743RR0001": {"name": "AFRICAN CANADIAN ASSOCIATION OF WATERLOO REGION AND AREA", "designationCode": "C", "categoryCode": "59", "address": "480 CHARLES STREET EAST", "city": "KITCHENER", "province": "ON", "country": "CA", "postalCode": "N2G4K5", "twitter": "None", "instagram": "None", "facebook": "None", "youtube": "None", "website": "None", "summary": "None", "logo": "None", "latitude": 43.442491176841976, "longitude": -80.47548678530221}, "825945520RR0001": {"name": "AFRICAN CANADIAN COMMUNITY SUPPORT FOUNDATION", "designationCode": "C", "categoryCode": "09", "address": "34 SUGARCANE AVE", "city": "BRAMPTON", "province": "ON", "country": "CA", "postalCode": "L6R3C7", "twitter": "None", "instagram": "None", "facebook": "None", "youtube": "None", "website": "None", "summary": "None", "logo": "None", "latitude": 43.76402761197999, "longitude": -79.75433904760798}, "139831770RR0001": {"name": "AFRICAN CANADIAN CONTINUING EDUCATION SOCIETY", "designationCode": "C", "categoryCode": "23", "address": "PO BOX 44986 RPO OCEAN PARK", "city": "SURREY", "province": "BC", "country": "CA", "postalCode": "V4A9L1", "twitter": "None", "instagram": "None", "facebook": "None", "youtube": "None", "website": "None", "summary": "None", "logo": "None", "latitude": 49.03519090817018, "longitude": -122.87567092121638}, "886594670RR0001": {"name": "AFRICAN CANADIAN CONTINUING EDUCATION SOCIETY FOUNDATION (1997)", "designationCode": "A", "categoryCode": "23", "address": "2441 CHRISTOPHERSON ROAD", "city": "SURREY", "province": "BC", "country": "CA", "postalCode": "V4A3L2", "twitter": "None", "instagram": "None", "facebook": "None", "youtube": "None", "website": "None", "summary": "None", "logo": "None", "latitude": 49.04647900779029, "longitude": -122.88265241341101}, "892920562RR0001": {"name": "AFRICAN CHILDREN'S BOOK BOX SOCIETY", "designationCode": "C", "categoryCode": "50", "address": "265 CALDECOTE ROAD", "city": "VICTORIA", "province": "BC", "country": "CA", "postalCode": "V9E2H3", "twitter": "None", "instagram": "None", "facebook": "None", "youtube": "None", "website": "None", "summary": "None", "logo": "None", "latitude": 48.53553039007179, "longitude": -123.42795261335012}, "853651446RR0001": {"name": "AFRICAN CHRISTIAN MISSIONS CANADA", "designationCode": "C", "categoryCode": "47", "address": "3625 NABZIGER ROAD", "city": "WELLESLEY", "province": "ON", "country": "CA", "postalCode": "N0B2T0", "twitter": "None", "instagram": "None", "facebook": "None", "youtube": "None", "website": "None", "summary": "None", "logo": "None", "latitude": 43.47326907286176, "longitude": -80.76471807896814}, "890216344RR0001": {"name": "AFRICAN COMMUNITY SERVICES OF PEEL", "designationCode": "C", "categoryCode": "59", "address": "308 - 10 GILLINGHAM DR", "city": "BRAMPTON", "province": "ON", "country": "CA", "postalCode": "L6X5A5", "twitter": "None", "instagram": "None", "facebook": "None", "youtube": "None", "website": "None", "summary": "None", "logo": "None", "latitude": 43.702943727768215, "longitude": -79.7843275940039}, "118778224RR0001": {"name": "AFRICAN ENTERPRISE ASSOCIATION OF CANADA", "designationCode": "C", "categoryCode": "47", "address": "4509 11TH AVE W", "city": "VANCOUVER", "province": "BC", "country": "CA", "postalCode": "V6R2M5", "twitter": "None", "instagram": "None", "facebook": "None", "youtube": "None", "website": "None", "summary": "None", "logo": "None", "latitude": 49.26294351875456, "longitude": -123.2098599970858}, "860327667RR0001": {"name": "AFRICAN LEADERSHIP MISSION", "designationCode": "C", "categoryCode": "47", "address": "5228 SWIFTCURRENT TRAIL", "city": "MISSISSAUGA", "province": "ON", "country": "CA", "postalCode": "L5R2H7", "twitter": "None", "instagram": "None", "facebook": "None", "youtube": "None", "website": "None", "summary": "None", "logo": "None", "latitude": 43.607253759939866, "longitude": -79.66636601982242}, "890096191RR0001": {"name": "AFRICAN METHODIST EPISCOPAL CHURCH OF CANADA", "designationCode": "C", "categoryCode": "39", "address": "2029 GERRARD ST E", "city": "TORONTO", "province": "ON", "country": "CA", "postalCode": "M4E2B3", "twitter": "None", "instagram": "None", "facebook": "None", "youtube": "None", "website": "None", "summary": "None", "logo": "None", "latitude": 43.68183414319936, "longitude": -79.30853851858166}, "844705277RR0001": {"name": "AFRICAN MISSIONS NORTH AMERICA (CANADA CHAPTER) INC.", "designationCode": "C", "categoryCode": "09", "address": "1767 NORTHWAY AVE.", "city": "WINDSOR", "province": "ON", "country": "CA", "postalCode": "N9B3M1", "twitter": "None", "instagram": "None", "facebook": "None", "youtube": "None", "website": "None", "summary": "None", "logo": "None", "latitude": 42.285180920047445, "longitude": -83.05424952166875}, "858880149RR0001": {"name": "AFRICAN PRESCHOOLS SOCIETY", "designationCode": "C", "categoryCode": "21", "address": "UNIT 210-517 FORT STREET", "city": "VICTORIA", "province": "BC", "country": "CA", "postalCode": "V8W1E7", "twitter": "None", "instagram": "None", "facebook": "None", "youtube": "None", "website": "None", "summary": "None", "logo": "None", "latitude": 48.425009648883524, "longitude": -123.36892778296493}, "856312509RR0001": {"name": "AFRICAN STAGES ASSOCIATION", "designationCode": "C", "categoryCode": "22", "address": "39 - 10038 150 ST", "city": "SURREY", "province": "BC", "country": "CA", "postalCode": "V3R0M8", "twitter": "None", "instagram": "None", "facebook": "None", "youtube": "None", "website": "None", "summary": "None", "logo": "None", "latitude": 49.1845314970858, "longitude": -122.80641196554932}, "776267296RR0001": {"name": "AFRICAN WILDLIFE FOUNDATION OF CANADA", "designationCode": "C", "categoryCode": "54", "address": "390 BAY STREET                SUITE 1202", "city": "TORONTO", "province": "ON", "country": "CA", "postalCode": "M5H2Y2", "twitter": "None", "instagram": "None", "facebook": "None", "youtube": "None", "website": "None", "summary": "None", "logo": "None", "latitude": 43.65110410687275, "longitude": -79.38169965834723}, "893230078RR0001": {"name": "AFRICANS IN PARTNERSHIP AGAINST AIDS", "designationCode": "C", "categoryCode": "11", "address": "526 RICHMOND ST. EAST         2ND FLOOR", "city": "TORONTO", "province": "ON", "country": "CA", "postalCode": "M5A1R3", "twitter": "None", "instagram": "None", "facebook": "None", "youtube": "None", "website": "None", "summary": "None", "logo": "None"}, "860491190RR0001": {"name": "AFRICYCLE", "designationCode": "C", "categoryCode": "09", "address": "33 CURZON ST", "city": "TORONTO", "province": "ON", "country": "CA", "postalCode": "M4M3B3", "twitter": "None", "instagram": "None", "facebook": "None", "youtube": "None", "website": "None", "summary": "None", "logo": "None", "latitude": 43.663958318627714, "longitude": -79.33176856145779}, "892037649RR0001": {"name": "AFRO-CANADIAN CARIBBEAN ASSOCIATION OF HAMILTON & DISTRICT", "designationCode": "C", "categoryCode": "56", "address": "423 KING STREET EAST", "city": "HAMILTON", "province": "ON", "country": "CA", "postalCode": "L8N1C5", "twitter": "None", "instagram": "None", "facebook": "None", "youtube": "None", "website": "None", "summary": "None", "logo": "None", "latitude": 43.2531103183679, "longitude": -79.85642646266378}, "892518960RR0001": {"name": "AFS ABORIGINAL FAMILY SERVICE CENTRE", "designationCode": "C", "categoryCode": "09", "address": "1102 ANGUS ST", "city": "REGINA", "province": "SK", "country": "CA", "postalCode": "S4T1Y5", "twitter": "None", "instagram": "None", "facebook": "None", "youtube": "None", "website": "None", "summary": "None", "logo": "None", "latitude": 50.46122700000001, "longitude": -104.6196751823819}, "885125963RR0001": {"name": "AFTER-CARE MINISTRIES SOCIETY", "designationCode": "C", "categoryCode": "59", "address": "#609  105-150 CROWFOOT CRES NW", "city": "CALGARY", "province": "AB", "country": "CA", "postalCode": "T3G3T2", "twitter": "None", "instagram": "None", "facebook": "None", "youtube": "None", "website": "None", "summary": "None", "logo": "None", "latitude": 51.12866735109111, "longitude": -114.20363486817142}, "118778315RR0001": {"name": "AFTERNOON AUXILIARY TO THE ROYAL INLAND HOSPITAL", "designationCode": "C", "categoryCode": "19", "address": "311 COLUMBIA ST", "city": "KAMLOOPS", "province": "BC", "country": "CA", "postalCode": "V2C2T1", "twitter": "None", "instagram": "None", "facebook": "None", "youtube": "None", "website": "None", "summary": "None", "logo": "None", "latitude": 50.67138548845881, "longitude": -120.33365230252755}, "100072586RR0001": {"name": "AGA KHAN FOUNDATION CANADA/FONDATION AGA KHAN CANADA", "designationCode": "C", "categoryCode": "01", "address": "199 SUSSEX DRIVE", "city": "OTTAWA", "province": "ON", "country": "CA", "postalCode": "K1N1K6", "twitter": "None", "instagram": "None", "facebook": "None", "youtube": "None", "website": "None", "summary": "None", "logo": "None", "latitude": 45.435219477350316, "longitude": -75.6985033477992}, "869537522RR0001": {"name": "AGAPE BENEVOLENT AND CHARITABLE SOCIETY", "designationCode": "C", "categoryCode": "09", "address": "2733 WEST 41ST AVE", "city": "VANCOUVER", "province": "BC", "country": "CA", "postalCode": "V6N3C5", "twitter": "None", "instagram": "None", "facebook": "None", "youtube": "None", "website": "None", "summary": "None", "logo": "None", "latitude": 49.23477251990839, "longitude": -123.16667094601536}, "131521163RR0001": {"name": "AGAPE CENTRE (HELP TO THE NEEDY) CORNWALL INC CENTRE AGAPE (ASSISTANCE AUX DEMUNIS) CORNWALL INC", "designationCode": "C", "categoryCode": "09", "address": "40 FIFTH STREET WEST", "city": "CORNWALL", "province": "ON", "country": "CA", "postalCode": "K6J2T4", "twitter": "None", "instagram": "None", "facebook": "None", "youtube": "None", "website": "None", "summary": "None", "logo": "None", "latitude": 45.02245594419768, "longitude": -74.73226583873857}, "865470298RR0001": {"name": "AGAPE CHINESE CHRISTIAN CHURCH", "designationCode": "C", "categoryCode": "32", "address": "82 D'AVIGNON", "city": "DOLLARD DES ORMEAUX", "province": "QC", "country": "CA", "postalCode": "H9B2E8", "twitter": "None", "instagram": "None", "facebook": "None", "youtube": "None", "website": "None", "summary": "None", "logo": "None", "latitude": 45.489966893704164, "longitude": -73.79752075365013}, "892205048RR0001": {"name": "AGAPE CHRISTIAN CHURCH", "designationCode": "C", "categoryCode": "39", "address": "6932 HYCREST DR.", "city": "BURNABY", "province": "BC", "country": "CA", "postalCode": "V5B2X2", "twitter": "None", "instagram": "None", "facebook": "None", "youtube": "None", "website": "None", "summary": "None", "logo": "None", "latitude": 49.262897341603654, "longitude": -122.96054974527289}, "774558498RR0001": {"name": "AGAPE CHRISTIAN FELLOWSHIP INC.", "designationCode": "C", "categoryCode": "49", "address": "PO BOX 235 30 FERNWOOD DRIVE", "city": "BOTWOOD", "province": "NL", "country": "CA", "postalCode": "A0H1E0", "twitter": "None", "instagram": "None", "facebook": "None", "youtube": "None", "website": "None", "summary": "None", "logo": "None", "latitude": 49.142651436207196, "longitude": -55.35990890930868}, "888551066RR0001": {"name": "AGAPE CHRISTIAN TEAM OF CANADA", "designationCode": "C", "categoryCode": "47", "address": "POB #2041 VANCOUVER MAIN      495 WEST GEORGIA STREET", "city": "VANCOUVER", "province": "BC", "country": "CA", "postalCode": "V6B3R6", "twitter": "None", "instagram": "None", "facebook": "None", "youtube": "None", "website": "None", "summary": "None", "logo": "None", "latitude": 49.281234285569994, "longitude": -123.11601123187478}, "118778380RR0001": {"name": "AGAPE FELLOWSHIP", "designationCode": "C", "categoryCode": "39", "address": "1170 MELSANDRA AVE", "city": "LONDON", "province": "ON", "country": "CA", "postalCode": "N5Y4N9", "twitter": "None", "instagram": "None", "facebook": "None", "youtube": "None", "website": "None", "summary": "None", "logo": "None", "latitude": 43.01994520180028, "longitude": -81.22800553303703}, "817348477RR0001": {"name": "AGAPE FELLOWSHIP CENTRE", "designationCode": "C", "categoryCode": "39", "address": "98 WILLOWBENCH RD", "city": "AMHERSTBURG", "province": "ON", "country": "CA", "postalCode": "N9V2Y8", "twitter": "None", "instagram": "None", "facebook": "None", "youtube": "None", "website": "None", "summary": "None", "logo": "None", "latitude": 42.044883000000056, "longitude": -83.08650949999993}, "894200864RR0001": {"name": "AGAPE FELLOWSHIP SOCIETY", "designationCode": "C", "categoryCode": "39", "address": "12660 19A AVENUE", "city": "SURREY", "province": "BC", "country": "CA", "postalCode": "V4A9G6", "twitter": "None", "instagram": "None", "facebook": "None", "youtube": "None", "website": "None", "summary": "None", "logo": "None", "latitude": 49.03762853231591, "longitude": -122.87167788328816}, "870386109RR0001": {"name": "AGAPE GLOBAL CHRISTIAN MINISTRIES OF CALGARY", "designationCode": "C", "categoryCode": "39", "address": "217 - 1829 54 ST SE", "city": "CALGARY", "province": "AB", "country": "CA", "postalCode": "T2B1N5", "twitter": "None", "instagram": "None", "facebook": "None", "youtube": "None", "website": "None", "summary": "None", "logo": "None", "latitude": 51.03639613988114, "longitude": -113.95562671137958}, "853793941RR0001": {"name": "AGAPE GOSPEL CHURCH OF TORONTO", "designationCode": "C", "categoryCode": "39", "address": "2501 WARDEN AVENUE", "city": "TORONTO", "province": "ON", "country": "CA", "postalCode": "M1W2L6", "twitter": "None", "instagram": "None", "facebook": "None", "youtube": "None", "website": "None", "summary": "None", "logo": "None", "latitude": 43.79023827145241, "longitude": -79.31300092930961}, "809255078RR0001": {"name": "AGAPE INTERNATIONAL MINISTRY CANADA", "designationCode": "C", "categoryCode": "49", "address": "5737 ONTARIO ST.", "city": "VANCOUVER", "province": "BC", "country": "CA", "postalCode": "V5W2L5", "twitter": "None", "instagram": "None", "facebook": "None", "youtube": "None", "website": "None", "summary": "None", "logo": "None", "latitude": 49.23292561809683, "longitude": -123.10569298338024}, "868299744RR0001": {"name": "AGAPE LANGUAGE CENTRE SOCIETY", "designationCode": "C", "categoryCode": "20", "address": "16 BERMUDA DR NW", "city": "CALGARY", "province": "AB", "country": "CA", "postalCode": "T3K1H7", "twitter": "None", "instagram": "None", "facebook": "None", "youtube": "None", "website": "None", "summary": "None", "logo": "None", "latitude": 51.12774466305043, "longitude": -114.07675207311456}, "862985710RR0001": {"name": "AGAPE LIFE CENTER CHURCH AND MINISTRIES", "designationCode": "C", "categoryCode": "43", "address": "6438 VIVIAN ST", "city": "VANCOUVER", "province": "BC", "country": "CA", "postalCode": "V5S2T1", "twitter": "None", "instagram": "None", "facebook": "None", "youtube": "None", "website": "None", "summary": "None", "logo": "None", "latitude": 49.225508036279805, "longitude": -123.05021680403665}, "890565146RR0001": {"name": "AGAPE MINISTRIES", "designationCode": "C", "categoryCode": "36", "address": "1875 SHEPPARD AVE W", "city": "NORTH YORK", "province": "ON", "country": "CA", "postalCode": "M3L1Y6", "twitter": "None", "instagram": "None", "facebook": "None", "youtube": "None", "website": "None", "summary": "None", "logo": "None", "latitude": 43.74088984927016, "longitude": -79.50413654495361}, "856217906RR0001": {"name": "AGAPE MISSION OF CANADA", "designationCode": "C", "categoryCode": "39", "address": "360 OAKWOOD AVE", "city": "TORONTO", "province": "ON", "country": "CA", "postalCode": "M6E2W2", "twitter": "None", "instagram": "None", "facebook": "None", "youtube": "None", "website": "None", "summary": "None", "logo": "None", "latitude": 43.686922974277195, "longitude": -79.43867262176755}, "890144975RR0001": {"name": "AGAPE RESTORATION OUTREACH CENTRE, INC", "designationCode": "C", "categoryCode": "39", "address": "66 MOUNT JULIAN VIAMEDE RD    PO BOX 887", "city": "LAKEFIELD", "province": "ON", "country": "CA", "postalCode": "K0L2H0", "twitter": "None", "instagram": "None", "facebook": "None", "youtube": "None", "website": "None", "summary": "None", "logo": "None", "latitude": 44.585232412978314, "longitude": -78.15079583795918}, "855523171RR0001": {"name": "AGAPE SISTERS FELLOWSHIP", "designationCode": "C", "categoryCode": "39", "address": "6 LEADEN HALL DR", "city": "EAST GWILLIMBURY", "province": "ON", "country": "CA", "postalCode": "L9N0R5", "twitter": "None", "instagram": "None", "facebook": "None", "youtube": "None", "website": "None", "summary": "None", "logo": "None", "latitude": 44.11243846140267, "longitude": -79.46776549513841}, "863760856RR0001": {"name": "AGAPE STREET MINISTRY", "designationCode": "C", "categoryCode": "09", "address": "887 KEEFER STREET", "city": "VANCOUVER", "province": "BC", "country": "CA", "postalCode": "V6A1Y8", "twitter": "None", "instagram": "None", "facebook": "None", "youtube": "None", "website": "None", "summary": "None", "logo": "None", "latitude": 49.279242518754565, "longitude": -123.08539016472386}, "106687833RR0001": {"name": "AGAPE TABLE", "designationCode": "C", "categoryCode": "09", "address": "P.O BOX 26111, MARYLAND P.O", "city": "WINNIPEG", "province": "MB", "country": "CA", "postalCode": "R3G3R3", "twitter": "None", "instagram": "None", "facebook": "None", "youtube": "None", "website": "None", "summary": "None", "logo": "None", "latitude": 49.878383414298455, "longitude": -97.1620873191405}, "866350879RR0001": {"name": "AGAPE TEACHING MINISTRY OF CANADA INC", "designationCode": "C", "categoryCode": "39", "address": "98 ALDGATE RD", "city": "WINNIPEG", "province": "MB", "country": "CA", "postalCode": "R2N2Z5", "twitter": "None", "instagram": "None", "facebook": "None", "youtube": "None", "website": "None", "summary": "None", "logo": "None", "latitude": 49.799290014138265, "longitude": -97.11136169028775}, "107797383RR0077": {"name": "AGAPE TEMPLE SEVENTH-DAY ADVENTIST CHURCH", "designationCode": "C", "categoryCode": "41", "address": "1999 FAIRPORT ROAD", "city": "PICKERING", "province": "ON", "country": "CA", "postalCode": "L1V4M2", "twitter": "None", "instagram": "None", "facebook": "None", "youtube": "None", "website": "None", "summary": "None", "logo": "None", "latitude": 43.8408768923192, "longitude": -79.11419909461041}, "118778463RR0001": {"name": "AGAPE VISION INTERNATIONAL SOCIETY", "designationCode": "C", "categoryCode": "47", "address": "5896 BRAEMAR AVENUE", "city": "BURNABY", "province": "BC", "country": "CA", "postalCode": "V5E3L5", "twitter": "None", "instagram": "None", "facebook": "None", "youtube": "None", "website": "None", "summary": "None", "logo": "None", "latitude": 49.23272866501233, "longitude": -122.95975489159802}, "100072933RR0001": {"name": "AGASSIZ CHILD CARE CENTRE INC.", "designationCode": "C", "categoryCode": "99", "address": "131 LEACH ST", "city": "WINNIPEG", "province": "MB", "country": "CA", "postalCode": "R3T5W6", "twitter": "None", "instagram": "None", "facebook": "None", "youtube": "None", "website": "None", "summary": "None", "logo": "None", "latitude": 49.79945650900238, "longitude": -97.13417711232576}, "106687858RR0001": {"name": "AGASSIZ CHRISTIAN SCHOOL SOCIETY", "designationCode": "C", "categoryCode": "20", "address": "7571 MORROW ROAD", "city": "AGGASSIZ", "province": "BC", "country": "CA", "postalCode": "V0M1A2", "twitter": "None", "instagram": "None", "facebook": "None", "youtube": "None", "website": "None", "summary": "None", "logo": "None", "latitude": 49.23573150043269, "longitude": -121.75029955536962}, "880677141RR0001": {"name": "AGASSIZ LIBRARY SOCIETY", "designationCode": "A", "categoryCode": "53", "address": "6356 PIONEER AVE", "city": "AGASSIZ", "province": "BC", "country": "CA", "postalCode": "V0M1A3", "twitter": "None", "instagram": "None", "facebook": "None", "youtube": "None", "website": "None", "summary": "None", "logo": "None", "latitude": 49.24070857891428, "longitude": -121.78505449001669}, "872265400RR0001": {"name": "AGASSIZ MUSIC, INC.", "designationCode": "C", "categoryCode": "22", "address": "39 EXBURY PL", "city": "WINNIPEG", "province": "MB", "country": "CA", "postalCode": "R3Y1C3", "twitter": "None", "instagram": "None", "facebook": "None", "youtube": "None", "website": "None", "summary": "None", "logo": "None", "latitude": 49.812084001096515, "longitude": -97.19959852718}, "118778497RR0001": {"name": "AGASSIZ-HARRISON COMMUNITY SERVICES SOCIETY", "designationCode": "C", "categoryCode": "09", "address": "5-7086 CHEAM AVENUE           PO BOX 564", "city": "AGASSIZ", "province": "BC", "country": "CA", "postalCode": "V0M1A0", "twitter": "None", "instagram": "None", "facebook": "None", "youtube": "None", "website": "None", "summary": "None", "logo": "None", "latitude": 49.23818467382557, "longitude": -121.76321712701815}, "106687882RR0001": {"name": "AGASSIZ-HARRISON HISTORICAL SOCIETY", "designationCode": "C", "categoryCode": "50", "address": "PO BOX 313", "city": "AGASSIZ", "province": "BC", "country": "CA", "postalCode": "V0M1A0", "twitter": "None", "instagram": "None", "facebook": "None", "youtube": "None", "website": "None", "summary": "None", "logo": "None", "latitude": 49.23862800000006, "longitude": -121.76060749999994}, "131110041RR0001": {"name": "AGASSIZ-HARRISON SENIOR CITIZENS' HOUSING SOCIETY", "designationCode": "C", "categoryCode": "09", "address": "#10  2008  MCCAFFREY ROAD", "city": "AGASSIZ", "province": "BC", "country": "CA", "postalCode": "V0M1A1", "twitter": "None", "instagram": "None", "facebook": "None", "youtube": "None", "website": "None", "summary": "None", "logo": "None", "latitude": 49.24134699971154, "longitude": -121.77293498124544}, "119288918RR0789": {"name": "AGASSIZ, BRITISH COLUMBIA, CONGREGATION OF JEHOVAH'S WITNESSES", "designationCode": "C", "categoryCode": "61", "address": "7087                          MCDONALD ROAD", "city": "AGASSIZ", "province": "BC", "country": "CA", "postalCode": "V0M1A3", "twitter": "None", "instagram": "None", "facebook": "None", "youtube": "None", "website": "None", "summary": "None", "logo": "None", "latitude": 49.2310970558023, "longitude": -121.76387662724343}, "739350924RR0001": {"name": "AGE ACTION SOCIETY OF BC", "designationCode": "C", "categoryCode": "09", "address": "4000 ROCKCRESS CRT", "city": "VERNON", "province": "BC", "country": "CA", "postalCode": "V1T9W4", "twitter": "None", "instagram": "None", "facebook": "None", "youtube": "None", "website": "None", "summary": "None", "logo": "None", "latitude": 50.27162556174627, "longitude": -119.2906489926424}, "892641952RR0001": {"name": "AGENCE GRANDS FR\u00c8RES GRANDES SOEURS DU DOMAINE-DU-ROY", "designationCode": "C", "categoryCode": "09", "address": "181, ST-ALPHONSE  C.P.182", "city": "ROBERVAL", "province": "QC", "country": "CA", "postalCode": "G8H2N6", "twitter": "None", "instagram": "None", "facebook": "None", "youtube": "None", "website": "None", "summary": "None", "logo": "None", "latitude": 48.51795963338894, "longitude": -72.22436046352915}, "118974443RR0001": {"name": "AGENCE OMETZ", "designationCode": "C", "categoryCode": "09", "address": "1 CARRE CUMMINGS SQUARE", "city": "MONTREAL", "province": "QC", "country": "CA", "postalCode": "H3W1M6", "twitter": "None", "instagram": "None", "facebook": "None", "youtube": "None", "website": "None", "summary": "None", "logo": "None", "latitude": 45.48925656614425, "longitude": -73.63588473115946}, "106688278RR0001": {"name": "AGENCE SOCIALE SPECIALISEE DE L'OUTAOUAIS INC.", "designationCode": "C", "categoryCode": "59", "address": "575 BOUL GREBER", "city": "GATINEAU", "province": "QC", "country": "CA", "postalCode": "J8T8G2", "twitter": "None", "instagram": "None", "facebook": "None", "youtube": "None", "website": "None", "summary": "None", "logo": "None", "latitude": 45.49157520122338, "longitude": -75.70290216760941}, "890993884RR0001": {"name": "AGENCE UNIVERSITAIRE DE LA FRANCOPHONIE", "designationCode": "C", "categoryCode": "21", "address": "CP 49714 CSP DU MUSEE", "city": "MONTREAL", "province": "QC", "country": "CA", "postalCode": "H3T2A5", "twitter": "None", "instagram": "None", "facebook": "None", "youtube": "None", "website": "None", "summary": "None", "logo": "None", "latitude": 45.50397900000006, "longitude": -73.61716849999993}, "118778588RR0001": {"name": "AGINCOURT BAPTIST CHURCH", "designationCode": "C", "categoryCode": "31", "address": "37 GLEN WATFORD DRIVE", "city": "SCARBOROUGH", "province": "ON", "country": "CA", "postalCode": "M1S2C2", "twitter": "None", "instagram": "None", "facebook": "None", "youtube": "None", "website": "None", "summary": "None", "logo": "None", "latitude": 43.79008811102771, "longitude": -79.2773093316408}, "893165167RR0001": {"name": "AGINCOURT CHURCH OF GOD", "designationCode": "C", "categoryCode": "39", "address": "95 NUGGET AVE", "city": "SCARBOROUGH", "province": "ON", "country": "CA", "postalCode": "M1S3B1", "twitter": "None", "instagram": "None", "facebook": "None", "youtube": "None", "website": "None", "summary": "None", "logo": "None", "latitude": 43.79307003716333, "longitude": -79.25638802481407}, "106688641RR0001": {"name": "AGINCOURT COMMUNITY SERVICES ASSOCIATION INC.", "designationCode": "C", "categoryCode": "09", "address": "100-4155 SHEPPARD AVE EAST", "city": "SCARBOROUGH", "province": "ON", "country": "CA", "postalCode": "M1S1T4", "twitter": "None", "instagram": "None", "facebook": "None", "youtube": "None", "website": "None", "summary": "None", "logo": "None", "latitude": 43.78850149296793, "longitude": -79.2641406862311}, "118778638RR0001": {"name": "AGINCOURT GARDEN CLUB", "designationCode": "C", "categoryCode": "52", "address": "89 SHROPSHIRE DRIVE", "city": "SCARBOROUGH", "province": "ON", "country": "CA", "postalCode": "M1P1Z3", "twitter": "None", "instagram": "None", "facebook": "None", "youtube": "None", "website": "None", "summary": "None", "logo": "None", "latitude": 43.75990167303375, "longitude": -79.28457141147776}, "820796605RR0001": {"name": "AGINCOURT PENTECOSTAL CHURCH", "designationCode": "C", "categoryCode": "36", "address": "2885 KENNEDY ROAD", "city": "TORONTO", "province": "ON", "country": "CA", "postalCode": "M1V1S8", "twitter": "None", "instagram": "None", "facebook": "None", "youtube": "None", "website": "None", "summary": "None", "logo": "None", "latitude": 43.80238212075123, "longitude": -79.29745061760683}, "811460740RR0001": {"name": "AGINCOURT SAI GROUP", "designationCode": "C", "categoryCode": "48", "address": "78 DRAGOON CRES", "city": "TORONTO", "province": "ON", "country": "CA", "postalCode": "M1V1N4", "twitter": "None", "instagram": "None", "facebook": "None", "youtube": "None", "website": "None", "summary": "None", "logo": "None", "latitude": 43.81311740218695, "longitude": -79.26672678005073}, "118778679RR0001": {"name": "AGION PANTON MONASTERY", "designationCode": "C", "categoryCode": "46", "address": "4520 HUTCHISON", "city": "MONTREAL", "province": "QC", "country": "CA", "postalCode": "H2V3Z9", "twitter": "None", "instagram": "None", "facebook": "None", "youtube": "None", "website": "None", "summary": "None", "logo": "None", "latitude": 45.516526523717545, "longitude": -73.59045425105306}, "119100634RR0001": {"name": "AGNES TOLMIE EVENING AUXILAIRY, WOMEN'S MISSIONARY SOCIETY", "designationCode": "C", "categoryCode": "47", "address": "245 WINDSOR BLVD", "city": "SOUTHAMPTON", "province": "ON", "country": "CA", "postalCode": "N0H2L0", "twitter": "None", "instagram": "None", "facebook": "None", "youtube": "None", "website": "None", "summary": "None", "logo": "None", "latitude": 44.47905954925278, "longitude": -81.38215300680932}, "808719769RR0001": {"name": "AGNUS DEI MINISTRIES", "designationCode": "C", "categoryCode": "49", "address": "1250-1500 WEST GEORGIA STREET 62", "city": "VANCOUVER", "province": "BC", "country": "CA", "postalCode": "V6G2Z6", "twitter": "None", "instagram": "None", "facebook": "None", "youtube": "None", "website": "None", "summary": "None", "logo": "None", "latitude": 49.290187500000016, "longitude": -123.130035}, "118778703RR0001": {"name": "AGORA FOUNDATION", "designationCode": "C", "categoryCode": "21", "address": "130 KING STREET WEST          20TH FLOOR", "city": "TORONTO", "province": "ON", "country": "CA", "postalCode": "M5X1K1", "twitter": "None", "instagram": "None", "facebook": "None", "youtube": "None", "website": "None", "summary": "None", "logo": "None", "latitude": 43.64798216515656, "longitude": -79.38336717805407}, "135773810RR0001": {"name": "AGRICOLA FINNISH LUTHERAN CONGREGATION", "designationCode": "C", "categoryCode": "32", "address": "25 OLD YORK MILLS ROAD", "city": "TORONTO", "province": "ON", "country": "CA", "postalCode": "M2P1B5", "twitter": "None", "instagram": "None", "facebook": "None", "youtube": "None", "website": "None", "summary": "None", "logo": "None", "latitude": 43.743695754342625, "longitude": -79.40437802524677}, "140953837RR0001": {"name": "AGRICULTURE IN THE CLASSROOM - MANITOBA INC.", "designationCode": "C", "categoryCode": "21", "address": "RR 3                          BOX 278 GROUP 327", "city": "SELKIRK", "province": "MB", "country": "CA", "postalCode": "R1A2A8", "twitter": "None", "instagram": "None", "facebook": "None", "youtube": "None", "website": "None", "summary": "None", "logo": "None", "latitude": 50.13406130752248, "longitude": -96.88566082790175}, "886874692RR0001": {"name": "AGRICULTURE IN THE CLASSROOM SASK. INC.", "designationCode": "C", "categoryCode": "29", "address": "RR4 SITE 412 BOX 278", "city": "SASKATOON", "province": "SK", "country": "CA", "postalCode": "S7K3J7", "twitter": "None", "instagram": "None", "facebook": "None", "youtube": "None", "website": "None", "summary": "None", "logo": "None", "latitude": 52.13049000000005, "longitude": -106.65926449999994}}