{"884959024RR0001": {"name": "BROOKS FOOD BANK FOUNDATION", "designationCode": "C", "categoryCode": "09", "address": "PO BOX 293", "city": "BROOKS", "province": "AB", "country": "CA", "postalCode": "T1R1B3", "twitter": "None", "instagram": "None", "facebook": "None", "youtube": "None", "website": "None", "summary": "None", "logo": "None", "latitude": 50.56584900000006, "longitude": -111.89848399999994}, "863679452RR0001": {"name": "BROOKS INTERNATIONAL GOSPEL CHURCH", "designationCode": "C", "categoryCode": "39", "address": "120 A 1ST AVENUE EAST", "city": "BROOKS", "province": "AB", "country": "CA", "postalCode": "T1R0S4", "twitter": "None", "instagram": "None", "facebook": "None", "youtube": "None", "website": "None", "summary": "None", "logo": "None", "latitude": 50.56381023454887, "longitude": -111.89636847126212}, "885435164RR0001": {"name": "BROOKS MUSIC FESTIVAL ASSOCIATION", "designationCode": "C", "categoryCode": "22", "address": "P.O. BOX 814", "city": "BROOKS", "province": "AB", "country": "CA", "postalCode": "T1R1B7", "twitter": "None", "instagram": "None", "facebook": "None", "youtube": "None", "website": "None", "summary": "None", "logo": "None", "latitude": 50.56584900000006, "longitude": -111.89848399999994}, "118820141RR0001": {"name": "BROOKS SOCIETY FOR CHRISTIAN EDUCATION", "designationCode": "C", "categoryCode": "20", "address": "PO BOX 2204", "city": "BROOKS", "province": "AB", "country": "CA", "postalCode": "T1R1C8", "twitter": "None", "instagram": "None", "facebook": "None", "youtube": "None", "website": "None", "summary": "None", "logo": "None", "latitude": 50.56584900000006, "longitude": -111.89848399999994}, "118820158RR0001": {"name": "BROOKS UNITED CHURCH", "designationCode": "C", "categoryCode": "44", "address": "507 THIRD AVE W", "city": "BROOKS", "province": "AB", "country": "CA", "postalCode": "T1R0B2", "twitter": "None", "instagram": "None", "facebook": "None", "youtube": "None", "website": "None", "summary": "None", "logo": "None", "latitude": 50.56819968163211, "longitude": -111.90246500028846}, "890489198RR0001": {"name": "BROOKSDALE PASTORAL CHARGE,", "designationCode": "C", "categoryCode": "44", "address": "RR#5 OXFORD RD 8", "city": "EMBRO", "province": "ON", "country": "CA", "postalCode": "N0J1J0", "twitter": "None", "instagram": "None", "facebook": "None", "youtube": "None", "website": "None", "summary": "None", "logo": "None", "latitude": 44.19313661059501, "longitude": -77.59274904783913}, "893965665RR0001": {"name": "BROOKSIDE CEMETERY COMPANY, SHUBENACADIE", "designationCode": "C", "categoryCode": "59", "address": "3490 INDIAN RD.", "city": "SHUBENACADIE", "province": "NS", "country": "CA", "postalCode": "B0N2H0", "twitter": "None", "instagram": "None", "facebook": "None", "youtube": "None", "website": "None", "summary": "None", "logo": "None", "latitude": 45.09381743316457, "longitude": -63.4089659883245}, "893961839RR0001": {"name": "BROOKSIDE CEMETERY CORPORATION", "designationCode": "C", "categoryCode": "59", "address": "58 KIRKWOOD CRT", "city": "BEDFORD", "province": "NS", "country": "CA", "postalCode": "B4A0A8", "twitter": "None", "instagram": "None", "facebook": "None", "youtube": "None", "website": "None", "summary": "None", "logo": "None", "latitude": 44.70687553150783, "longitude": -63.681505688614315}, "118820091RR0001": {"name": "BROOKSIDE CONSERVATIVE MENNONITE CHURCH", "designationCode": "C", "categoryCode": "34", "address": "7401 WELLINGTON RD 10         RR 1", "city": "MOOREFIELD", "province": "ON", "country": "CA", "postalCode": "N0G2K0", "twitter": "None", "instagram": "None", "facebook": "None", "youtube": "None", "website": "None", "summary": "None", "logo": "None", "latitude": 43.802845547002406, "longitude": -80.70977508552205}, "118820109RR0001": {"name": "BROOKSIDE SENIOR CITIZENS HOUSING SOCIETY", "designationCode": "C", "categoryCode": "09", "address": "1212 MOUNTAINVIEW STREET", "city": "KELOWNA", "province": "BC", "country": "CA", "postalCode": "V1Y4N1", "twitter": "None", "instagram": "None", "facebook": "None", "youtube": "None", "website": "None", "summary": "None", "logo": "None", "latitude": 49.893200878807505, "longitude": -119.45600517104889}, "106783483RR0001": {"name": "BROOKSWOOD BAPTIST CHURCH", "designationCode": "C", "categoryCode": "31", "address": "20581 36TH AVE", "city": "LANGLEY", "province": "BC", "country": "CA", "postalCode": "V3A4Y3", "twitter": "None", "instagram": "None", "facebook": "None", "youtube": "None", "website": "None", "summary": "None", "logo": "None", "latitude": 49.06746247936954, "longitude": -122.65359202553523}, "119288918RR0598": {"name": "BROOKSWOOD CONGREGATION OF JEHOVAH'S WITNESSES", "designationCode": "C", "categoryCode": "61", "address": "3850 201A STREET", "city": "LANGLEY", "province": "BC", "country": "CA", "postalCode": "V3A1R2", "twitter": "None", "instagram": "None", "facebook": "None", "youtube": "None", "website": "None", "summary": "None", "logo": "None", "latitude": 49.07207582653356, "longitude": -122.66545962655094}, "118820174RR0001": {"name": "BROOKSWOOD SENIOR CITIZENS ORGANIZATION AND BRITISH COLUMBIA OLD AGE PENSIONERS BRANCH NO. 132 C", "designationCode": "C", "categoryCode": "56", "address": "19899 36 AVE", "city": "LANGLEY", "province": "BC", "country": "CA", "postalCode": "V3A2R3", "twitter": "None", "instagram": "None", "facebook": "None", "youtube": "None", "website": "None", "summary": "None", "logo": "None", "latitude": 49.06746445268046, "longitude": -122.67243386081135}, "889204061RR0001": {"name": "BROOM TREE MINISTRIES EDUCATION SOCIETY", "designationCode": "C", "categoryCode": "23", "address": "213 RIVERSIDE CIRCLE SE", "city": "CALGARY", "province": "AB", "country": "CA", "postalCode": "T2C3Y3", "twitter": "None", "instagram": "None", "facebook": "None", "youtube": "None", "website": "None", "summary": "None", "logo": "None", "latitude": 50.9809444565756, "longitude": -114.0268765073576}, "863550661RR0001": {"name": "BROTHER ANDRE COUNCIL NO. 8339 CHARITABLE WELFARE TRUST", "designationCode": "A", "categoryCode": "65", "address": "855 JALNA BOULEVARD", "city": "LONDON", "province": "ON", "country": "CA", "postalCode": "N6E2S2", "twitter": "None", "instagram": "None", "facebook": "None", "youtube": "None", "website": "None", "summary": "None", "logo": "None", "latitude": 42.94123226447018, "longitude": -81.23769044367809}, "891106593RR0001": {"name": "BROTHERHOOD OF THE CROSS AND STAR WORLDWIDE", "designationCode": "C", "categoryCode": "47", "address": "PO BOX 275, 31 ADELAIDE STREETEAST", "city": "TORONTO", "province": "ON", "country": "CA", "postalCode": "M5C2J4", "twitter": "None", "instagram": "None", "facebook": "None", "youtube": "None", "website": "None", "summary": "None", "logo": "None", "latitude": 43.650717853165304, "longitude": -79.37698425644875}, "118820232RR0001": {"name": "BROTHERS OF OUR LADY OF LOURDES", "designationCode": "C", "categoryCode": "01", "address": "405 - 11012 MACLEOD TRAIL SE", "city": "CALGARY", "province": "AB", "country": "CA", "postalCode": "T2J6A5", "twitter": "None", "instagram": "None", "facebook": "None", "youtube": "None", "website": "None", "summary": "None", "logo": "None", "latitude": 50.955167378296494, "longitude": -114.07144921937234}, "128756681RR0001": {"name": "BROTT MUSIC FESTIVAL", "designationCode": "C", "categoryCode": "22", "address": "301 BAY ST SOUTH", "city": "HAMILTON", "province": "ON", "country": "CA", "postalCode": "L8P3J7", "twitter": "None", "instagram": "None", "facebook": "None", "youtube": "None", "website": "None", "summary": "None", "logo": "None", "latitude": 43.24881991895093, "longitude": -79.87769907046017}, "891890402RR0001": {"name": "BROUGHAM PIONEER CHRISTIAN CEMETERY BOARD", "designationCode": "C", "categoryCode": "59", "address": "6039 9TH LANE                 RR #1", "city": "EGBERT", "province": "ON", "country": "CA", "postalCode": "L0L1N0", "twitter": "None", "instagram": "None", "facebook": "None", "youtube": "None", "website": "None", "summary": "None", "logo": "None", "latitude": 44.226014915401564, "longitude": -79.75888468428928}, "890458417RR0001": {"name": "BROWN BAGGING FOR CALGARY STREET KIDS SOCIETY", "designationCode": "C", "categoryCode": "09", "address": "223 12TH AVE SW               SUITE 315", "city": "CALGARY", "province": "AB", "country": "CA", "postalCode": "T2R0G9", "twitter": "None", "instagram": "None", "facebook": "None", "youtube": "None", "website": "None", "summary": "None", "logo": "None", "latitude": 51.04147448845882, "longitude": -114.0671642216227}, "874980709RR0001": {"name": "BROWNFIELD BAPTIST FELLOWSHIP (SOCIETY)", "designationCode": "C", "categoryCode": "31", "address": "PO BOX 28", "city": "BROWNFIELD", "province": "AB", "country": "CA", "postalCode": "T0C0R0", "twitter": "None", "instagram": "None", "facebook": "None", "youtube": "None", "website": "None", "summary": "None", "logo": "None", "latitude": 52.317037544465016, "longitude": -111.43258834634084}, "863334777RR0001": {"name": "BROWNFIELD COMMUNITY SCHOOL FOUNDATION", "designationCode": "A", "categoryCode": "21", "address": "BOX 54 5001 MAIN STREET", "city": "BROWNFIELD", "province": "AB", "country": "CA", "postalCode": "T0C0R0", "twitter": "None", "instagram": "None", "facebook": "None", "youtube": "None", "website": "None", "summary": "None", "logo": "None", "latitude": 52.32609148765075, "longitude": -112.70521942876135}, "890547466RR0001": {"name": "BROWNHILL COMMUNITY CHURCH", "designationCode": "C", "categoryCode": "36", "address": "465 DAVIS DRIVE SUITE 220", "city": "NEWMARKET", "province": "ON", "country": "CA", "postalCode": "L3Y2P1", "twitter": "None", "instagram": "None", "facebook": "None", "youtube": "None", "website": "None", "summary": "None", "logo": "None", "latitude": 44.06052153759603, "longitude": -79.45925989027037}, "118820315RR0001": {"name": "BROWNSBURG REGULAR BAPTIST CHURCH", "designationCode": "C", "categoryCode": "31", "address": "288 WOODBINE                  BROWNSBURG", "city": "CHATHAM", "province": "QC", "country": "CA", "postalCode": "J8G2Z4", "twitter": "None", "instagram": "None", "facebook": "None", "youtube": "None", "website": "None", "summary": "None", "logo": "None", "latitude": 45.678084799613366, "longitude": -74.40063022773954}, "894392281RR0001": {"name": "BRUCE CHARITABLE TRUST", "designationCode": "B", "categoryCode": "39", "address": "3425 - 2 AVENUE SOUTH", "city": "LETHBRIDGE", "province": "AB", "country": "CA", "postalCode": "T1J4V1", "twitter": "None", "instagram": "None", "facebook": "None", "youtube": "None", "website": "None", "summary": "None", "logo": "None", "latitude": 49.696839530439966, "longitude": -112.78914308381903}, "862840014RR0001": {"name": "BRUCE COUNTY GENEALOGICAL SOCIETY", "designationCode": "C", "categoryCode": "50", "address": "P.O. BOX 1083", "city": "PORT ELGIN", "province": "ON", "country": "CA", "postalCode": "N0H2C0", "twitter": "None", "instagram": "None", "facebook": "None", "youtube": "None", "website": "None", "summary": "None", "logo": "None", "latitude": 44.43698400000005, "longitude": -81.38664349999993}, "899766455RR0001": {"name": "BRUCE COUNTY HERITAGE ASSOCIATION", "designationCode": "C", "categoryCode": "50", "address": "PO BOX 365", "city": "OWEN SOUND", "province": "ON", "country": "CA", "postalCode": "N4K5P5", "twitter": "None", "instagram": "None", "facebook": "None", "youtube": "None", "website": "None", "summary": "None", "logo": "None", "latitude": 44.56423500000005, "longitude": -80.94243049999993}, "121284665RR0001": {"name": "BRUCE DENNISTON BONE MARROW SOCIETY", "designationCode": "C", "categoryCode": "13", "address": "P O BOX 157", "city": "POWELL RIVER", "province": "BC", "country": "CA", "postalCode": "V8A4Z6", "twitter": "None", "instagram": "None", "facebook": "None", "youtube": "None", "website": "None", "summary": "None", "logo": "None", "latitude": 49.835904000000056, "longitude": -124.52381449999993}, "856732003RR0001": {"name": "BRUCE F. MURRAY FAMILY FOUNDATION", "designationCode": "B", "categoryCode": "55", "address": "P.O. BOX 1000                 BROWN'S POINT ROAD", "city": "PICTOU", "province": "NS", "country": "CA", "postalCode": "B0K1H0", "twitter": "None", "instagram": "None", "facebook": "None", "youtube": "None", "website": "None", "summary": "None", "logo": "None", "latitude": 45.670514023962596, "longitude": -62.73044335216097}, "134127166RR0001": {"name": "BRUCE HOUSE", "designationCode": "C", "categoryCode": "01", "address": "402-251 BANK ST.", "city": "OTTAWA", "province": "ON", "country": "CA", "postalCode": "K2P1X3", "twitter": "None", "instagram": "None", "facebook": "None", "youtube": "None", "website": "None", "summary": "None", "logo": "None", "latitude": 45.41620551263771, "longitude": -75.69703608976297}, "122861602RR0001": {"name": "BRUCE MINES AGRICULTURAL SOCIETY", "designationCode": "C", "categoryCode": "56", "address": "BOX 247", "city": "BRUCE MINES", "province": "ON", "country": "CA", "postalCode": "P0R1C0", "twitter": "None", "instagram": "None", "facebook": "None", "youtube": "None", "website": "None", "summary": "None", "logo": "None", "latitude": 46.300230000000056, "longitude": -83.79410999999999}, "106815350RR0001": {"name": "BRUCE MINES PASTORAL CHARGE", "designationCode": "C", "categoryCode": "44", "address": "BOX 127", "city": "BRUCE MINES", "province": "ON", "country": "CA", "postalCode": "P0R1C0", "twitter": "None", "instagram": "None", "facebook": "None", "youtube": "None", "website": "None", "summary": "None", "logo": "None", "latitude": 46.300230000000056, "longitude": -83.79410999999999}, "888310521RR0001": {"name": "BRUCE MORRISON CHARITABLE FOUNDATION", "designationCode": "B", "categoryCode": "03", "address": "1610-715 5 AVE SW", "city": "CALGARY", "province": "AB", "country": "CA", "postalCode": "T2P2X6", "twitter": "None", "instagram": "None", "facebook": "None", "youtube": "None", "website": "None", "summary": "None", "logo": "None", "latitude": 51.049102357620384, "longitude": -114.08736691042554}, "106962939RR0001": {"name": "BRUCE PENINSULA ASSOCIATION FOR COMMUNITY LIVING", "designationCode": "C", "categoryCode": "11", "address": "BOX 95", "city": "WIARTON", "province": "ON", "country": "CA", "postalCode": "N0H2T0", "twitter": "None", "instagram": "None", "facebook": "None", "youtube": "None", "website": "None", "summary": "None", "logo": "None", "latitude": 44.74013000000008, "longitude": -81.13977999999997}, "884545112RR0001": {"name": "BRUCE PENINSULA BIRD OBSERVATORY", "designationCode": "C", "categoryCode": "52", "address": "POST OFFICE BOX 273", "city": "LIONS HEAD", "province": "ON", "country": "CA", "postalCode": "N0H1W0", "twitter": "None", "instagram": "None", "facebook": "None", "youtube": "None", "website": "None", "summary": "None", "logo": "None", "latitude": 44.98728998889153, "longitude": -81.25250001889873}, "107628430RR0001": {"name": "BRUCE PENINSULA FAMILY CENTRES", "designationCode": "C", "categoryCode": "20", "address": "BOX 77", "city": "LIONS HEAD", "province": "ON", "country": "CA", "postalCode": "N0H1W0", "twitter": "None", "instagram": "None", "facebook": "None", "youtube": "None", "website": "None", "summary": "None", "logo": "None", "latitude": 44.98728998889153, "longitude": -81.25250001889873}, "889288049RR0001": {"name": "BRUCE PENINSULA HEALTH SERVICES FOUNDATION", "designationCode": "A", "categoryCode": "13", "address": "369 MARY ST", "city": "WIARTON", "province": "ON", "country": "CA", "postalCode": "N0H2T0", "twitter": "None", "instagram": "None", "facebook": "None", "youtube": "None", "website": "None", "summary": "None", "logo": "None", "latitude": 44.73826417004344, "longitude": -81.13868001684517}, "822449526RR0001": {"name": "BRUCE PENINSULA HOSPICE INCORPORATED", "designationCode": "C", "categoryCode": "01", "address": "369 MARY ST", "city": "WIARTON", "province": "ON", "country": "CA", "postalCode": "N0H2T0", "twitter": "None", "instagram": "None", "facebook": "None", "youtube": "None", "website": "None", "summary": "None", "logo": "None", "latitude": 44.73826417004344, "longitude": -81.13868001684517}, "128992286RR0001": {"name": "BRUCE PENINSULA LEARNING CENTRE", "designationCode": "C", "categoryCode": "21", "address": "BOX 1408", "city": "WIARTON", "province": "ON", "country": "CA", "postalCode": "N0H2T0", "twitter": "None", "instagram": "None", "facebook": "None", "youtube": "None", "website": "None", "summary": "None", "logo": "None", "latitude": 44.74013000000008, "longitude": -81.13977999999997}, "890459449RR0001": {"name": "BRUCE PENINSULA PENTECOSTAL ASSEMBLIES", "designationCode": "C", "categoryCode": "36", "address": "PO BOX 365", "city": "OWEN SOUND", "province": "ON", "country": "CA", "postalCode": "N4K5P5", "twitter": "None", "instagram": "None", "facebook": "None", "youtube": "None", "website": "None", "summary": "None", "logo": "None", "latitude": 44.56423500000005, "longitude": -80.94243049999993}, "889425195RR0001": {"name": "BRUCE PENINSULA SUPERBUS MINISTRIES", "designationCode": "C", "categoryCode": "47", "address": "BOX 251", "city": "LYONS HEAD", "province": "ON", "country": "CA", "postalCode": "N0H1W0", "twitter": "None", "instagram": "None", "facebook": "None", "youtube": "None", "website": "None", "summary": "None", "logo": "None", "latitude": 44.98728998889153, "longitude": -81.25250001889873}, "106815137RR0001": {"name": "BRUCE-GREY CATHOLIC DISTRICT SCHOOL BOARD CHARITABLE TRUST", "designationCode": "C", "categoryCode": "21", "address": "799 - 16TH AVENUE", "city": "HANOVER", "province": "ON", "country": "CA", "postalCode": "N4N3A1", "twitter": "None", "instagram": "None", "facebook": "None", "youtube": "None", "website": "None", "summary": "None", "logo": "None", "latitude": 44.15885403802871, "longitude": -81.01975736563011}, "131681504RR0001": {"name": "BRUDERHEIM AGRICULTURAL SOCIETY", "designationCode": "C", "categoryCode": "56", "address": "BOX 85", "city": "BRUDERHEIM", "province": "AB", "country": "CA", "postalCode": "T0B0S0", "twitter": "None", "instagram": "None", "facebook": "None", "youtube": "None", "website": "None", "summary": "None", "logo": "None", "latitude": 53.803450000000055, "longitude": -112.92708999999996}, "868896549RR0001": {"name": "BRULE COMMUNITY CENTRE ASSOCIATION", "designationCode": "C", "categoryCode": "56", "address": "3841 ROUTE 6 RR 1", "city": "TATAMAGOUCHE", "province": "NS", "country": "CA", "postalCode": "B0K1V0", "twitter": "None", "instagram": "None", "facebook": "None", "youtube": "None", "website": "None", "summary": "None", "logo": "None", "latitude": 45.7328601954093, "longitude": -63.199508558808894}, "118820539RR0001": {"name": "BRUNO SENIOR CITIZENS FRIENDSHIP CENTRE", "designationCode": "C", "categoryCode": "56", "address": "PO BOX 485", "city": "BRUNO", "province": "SK", "country": "CA", "postalCode": "S0K0S0", "twitter": "None", "instagram": "None", "facebook": "None", "youtube": "None", "website": "None", "summary": "None", "logo": "None", "latitude": 52.265360000000044, "longitude": -105.52711999999997}, "137976650RR0001": {"name": "BRUNSTAD CHRISTIAN CHURCH OTTAWA", "designationCode": "C", "categoryCode": "39", "address": "PO BOX 68 STN MAIN", "city": "MANOTICK", "province": "ON", "country": "CA", "postalCode": "K4M1A2", "twitter": "None", "instagram": "None", "facebook": "None", "youtube": "None", "website": "None", "summary": "None", "logo": "None", "latitude": 45.226293000000055, "longitude": -75.68602099999994}, "867003857RR0001": {"name": "BRUNSTAD CHRISTIAN CHURCH VANCOUVER", "designationCode": "C", "categoryCode": "39", "address": "6 - 8465 HARVARD PL", "city": "CHILLIWACK", "province": "BC", "country": "CA", "postalCode": "V2P7Z5", "twitter": "None", "instagram": "None", "facebook": "None", "youtube": "None", "website": "None", "summary": "None", "logo": "None", "latitude": 49.155597973720575, "longitude": -121.95753347443537}, "106816242RR0001": {"name": "BRUNSWICK STREET UNITED CHURCH", "designationCode": "C", "categoryCode": "44", "address": "250 BRUNSWICK STREET", "city": "TRURO", "province": "NS", "country": "CA", "postalCode": "B2N2J3", "twitter": "None", "instagram": "None", "facebook": "None", "youtube": "None", "website": "None", "summary": "None", "logo": "None", "latitude": 45.3633346122398, "longitude": -63.264068859137915}, "118820562RR0001": {"name": "BRUNSWICK STREET UNITED CHURCH", "designationCode": "C", "categoryCode": "44", "address": "2107 BRUNSWICK ST", "city": "HALIFAX", "province": "NS", "country": "CA", "postalCode": "B3K2Y4", "twitter": "None", "instagram": "None", "facebook": "None", "youtube": "None", "website": "None", "summary": "None", "logo": "None", "latitude": 44.652704541231365, "longitude": -63.58125264888351}, "868308750RR0001": {"name": "BRUSH WITH ART INC", "designationCode": "A", "categoryCode": "23", "address": "94 WINDRUSH TRAIL", "city": "KITCHENER", "province": "ON", "country": "CA", "postalCode": "N2P2B3", "twitter": "None", "instagram": "None", "facebook": "None", "youtube": "None", "website": "None", "summary": "None", "logo": "None", "latitude": 43.38353083902705, "longitude": -80.42016620578234}, "890263791RR0001": {"name": "BRUSSELS AGRICULTURAL SOCIETY", "designationCode": "C", "categoryCode": "56", "address": "86320 RAMSAY LINE             RR 2", "city": "BLUEVALE", "province": "ON", "country": "CA", "postalCode": "N0G1G0", "twitter": "None", "instagram": "None", "facebook": "None", "youtube": "None", "website": "None", "summary": "None", "logo": "None", "latitude": 43.81913281014494, "longitude": -81.22018460987385}, "131293839RR0001": {"name": "BRUSSELS MENNONITE FELLOWSHIP", "designationCode": "C", "categoryCode": "34", "address": "PO BOX 159", "city": "BRUSSELS", "province": "ON", "country": "CA", "postalCode": "N0G1H0", "twitter": "None", "instagram": "None", "facebook": "None", "youtube": "None", "website": "None", "summary": "None", "logo": "None", "latitude": 43.714084384656786, "longitude": -81.27334948961246}, "889160263RR0001": {"name": "BRUSSELS PASTORAL CHARGE,", "designationCode": "C", "categoryCode": "44", "address": "P.O. BOX 68", "city": "BRUSSELS", "province": "ON", "country": "CA", "postalCode": "N0G1H0", "twitter": "None", "instagram": "None", "facebook": "None", "youtube": "None", "website": "None", "summary": "None", "logo": "None", "latitude": 43.714084384656786, "longitude": -81.27334948961246}, "872740766RR0001": {"name": "BRUY\u00c8RE CONTINUING CARE INC.", "designationCode": "C", "categoryCode": "10", "address": "43 RUE BRUYERE", "city": "OTTAWA", "province": "ON", "country": "CA", "postalCode": "K1N5C8", "twitter": "None", "instagram": "None", "facebook": "None", "youtube": "None", "website": "None", "summary": "None", "logo": "None", "latitude": 45.43180409911897, "longitude": -75.69682699321322}, "888460441RR0001": {"name": "BRUY\u00c8RE FOUNDATION INC.", "designationCode": "A", "categoryCode": "13", "address": "43 BRUYERE ST", "city": "OTTAWA", "province": "ON", "country": "CA", "postalCode": "K1N5C8", "twitter": "None", "instagram": "None", "facebook": "None", "youtube": "None", "website": "None", "summary": "None", "logo": "None", "latitude": 45.43180409911897, "longitude": -75.69682699321322}, "868715244RR0001": {"name": "BRYANSTON UNITED CHURCH", "designationCode": "C", "categoryCode": "44", "address": "15445 ILDERTON RD", "city": "ILDERTON", "province": "ON", "country": "CA", "postalCode": "N0M2A0", "twitter": "None", "instagram": "None", "facebook": "None", "youtube": "None", "website": "None", "summary": "None", "logo": "None", "latitude": 43.11691707490544, "longitude": -81.2525157113232}, "139419527RR0001": {"name": "BRYANT DRIVE HOLDINGS INC", "designationCode": "C", "categoryCode": "01", "address": "11 BRYANT DRIVE", "city": "SUSSEX", "province": "NB", "country": "CA", "postalCode": "E4E2P3", "twitter": "None", "instagram": "None", "facebook": "None", "youtube": "None", "website": "None", "summary": "None", "logo": "None", "latitude": 45.7274388847887, "longitude": -65.48746227875174}, "118820596RR0001": {"name": "BRYDGES BUILDING TRUSTEESHIP", "designationCode": "C", "categoryCode": "39", "address": "100 HAMPTON CRES", "city": "LONDON", "province": "ON", "country": "CA", "postalCode": "N6H2N9", "twitter": "None", "instagram": "None", "facebook": "None", "youtube": "None", "website": "None", "summary": "None", "logo": "None", "latitude": 42.96255305355195, "longitude": -81.31748547792722}, "888463999RR0001": {"name": "BRYENTON SCHOLARSHIP FUND", "designationCode": "C", "categoryCode": "21", "address": "35 PATIENCE LANE, GOV HALL    APT 103", "city": "FREDEICTON", "province": "NB", "country": "CA", "postalCode": "E3B0K4", "twitter": "None", "instagram": "None", "facebook": "None", "youtube": "None", "website": "None", "summary": "None", "logo": "None", "latitude": 45.954491913512186, "longitude": -66.69646096602668}, "802797100RR0001": {"name": "BSF International (Canada) Limited", "designationCode": "C", "categoryCode": "49", "address": "107 MAPLE DRIVE", "city": "PORT MOODY", "province": "BC", "country": "CA", "postalCode": "V3H0A7", "twitter": "None", "instagram": "None", "facebook": "None", "youtube": "None", "website": "None", "summary": "None", "logo": "None", "latitude": 49.30405132889949, "longitude": -122.82421546073054}, "118817170RR0001": {"name": "BU Early Learning Centre Inc.", "designationCode": "C", "categoryCode": "01", "address": "BRANDON UNIVERSITY", "city": "BRANDON", "province": "MB", "country": "CA", "postalCode": "R7A6A9", "twitter": "None", "instagram": "None", "facebook": "None", "youtube": "None", "website": "None", "summary": "None", "logo": "None", "latitude": 49.84554000000003, "longitude": -99.96204999999998}, "100681238RR0001": {"name": "BUANDERIE CENTRALE DE MONTREAL INC.", "designationCode": "C", "categoryCode": "11", "address": "7250 RUE JOSEPH-DAOUST", "city": "MONTREAL", "province": "QC", "country": "CA", "postalCode": "H1N3N9", "twitter": "None", "instagram": "None", "facebook": "None", "youtube": "None", "website": "None", "summary": "None", "logo": "None", "latitude": 45.589885513445786, "longitude": -73.53642432745718}, "844475277RR0001": {"name": "BUCHANAN COMMUNITY CENTRE INC.", "designationCode": "C", "categoryCode": "56", "address": "323 2ND AVENUE EAST", "city": "BUCHANAN", "province": "SK", "country": "CA", "postalCode": "S0A0J0", "twitter": "None", "instagram": "None", "facebook": "None", "youtube": "None", "website": "None", "summary": "None", "logo": "None", "latitude": 50.926324549475275, "longitude": -102.80212191915787}, "893484360RR0001": {"name": "BUCHANAN MEMORIAL HOSPITAL CHARITABLE FOUNDATION", "designationCode": "A", "categoryCode": "13", "address": "PO BOX 113", "city": "NEIL'S HARBOUR", "province": "NS", "country": "CA", "postalCode": "B0C1N0", "twitter": "None", "instagram": "None", "facebook": "None", "youtube": "None", "website": "None", "summary": "None", "logo": "None", "latitude": 46.80842000000007, "longitude": -60.32177999999993}, "130004906RR0001": {"name": "BUCHANAN PARK FREE METHODIST CHURCH,", "designationCode": "C", "categoryCode": "39", "address": "111 DELMAR DRIVE", "city": "HAMILTON", "province": "ON", "country": "CA", "postalCode": "L9C1J8", "twitter": "None", "instagram": "None", "facebook": "None", "youtube": "None", "website": "None", "summary": "None", "logo": "None", "latitude": 43.23673898309178, "longitude": -79.8888162948815}, "890153992RR0001": {"name": "BUCHANS COMMUNITY CEMETERY COMMITTEE", "designationCode": "C", "categoryCode": "59", "address": "P.O. BOX 370", "city": "BUCHANS", "province": "NL", "country": "CA", "postalCode": "A0H1G0", "twitter": "None", "instagram": "None", "facebook": "None", "youtube": "None", "website": "None", "summary": "None", "logo": "None", "latitude": 48.85679101387903, "longitude": -56.2484015768264}, "859973265RR0001": {"name": "BUCHANS LIONS CLUB", "designationCode": "A", "categoryCode": "65", "address": "P.O. BOX 47", "city": "BUCHANS", "province": "NL", "country": "CA", "postalCode": "A0H1G0", "twitter": "None", "instagram": "None", "facebook": "None", "youtube": "None", "website": "None", "summary": "None", "logo": "None", "latitude": 48.85679101387903, "longitude": -56.2484015768264}, "118820679RR0001": {"name": "BUCHANS PASTORAL CHARGE", "designationCode": "C", "categoryCode": "44", "address": "P O BOX 144", "city": "BUCHANS", "province": "NL", "country": "CA", "postalCode": "A0H1G0", "twitter": "None", "instagram": "None", "facebook": "None", "youtube": "None", "website": "None", "summary": "None", "logo": "None", "latitude": 48.85679101387903, "longitude": -56.2484015768264}, "888901865RR0001": {"name": "BUCK LAKE SENIOR CITIZENS DROP-IN CENTRE", "designationCode": "C", "categoryCode": "09", "address": "BOX 112", "city": "BUCKLAKE", "province": "AB", "country": "CA", "postalCode": "T0C0T0", "twitter": "None", "instagram": "None", "facebook": "None", "youtube": "None", "website": "None", "summary": "None", "logo": "None", "latitude": 52.95318900000005, "longitude": -114.77557249999992}, "118820695RR0001": {"name": "BUCKHORN COMMUNITY CENTRE AND ATHLETIC ASSOCIATION", "designationCode": "C", "categoryCode": "56", "address": "1782 LAKEHURST RD             PO BOX 280", "city": "BUCKHORN", "province": "ON", "country": "CA", "postalCode": "K0L1J0", "twitter": "None", "instagram": "None", "facebook": "None", "youtube": "None", "website": "None", "summary": "None", "logo": "None", "latitude": 44.553189724651794, "longitude": -78.3638228054831}, "106816903RR0001": {"name": "BUCKHORN NURSERY SCHOOL", "designationCode": "C", "categoryCode": "20", "address": "PO BOX 139", "city": "BUCKHORN", "province": "ON", "country": "CA", "postalCode": "K0L1J0", "twitter": "None", "instagram": "None", "facebook": "None", "youtube": "None", "website": "None", "summary": "None", "logo": "None", "latitude": 44.48705137608182, "longitude": -78.32754554956726}, "888308947RR0001": {"name": "BUCKHORN PASTORAL CHARGE", "designationCode": "C", "categoryCode": "44", "address": "162 MELODY BAY RD", "city": "BUCKHORN", "province": "ON", "country": "CA", "postalCode": "K0L1J0", "twitter": "None", "instagram": "None", "facebook": "None", "youtube": "None", "website": "None", "summary": "None", "logo": "None", "latitude": 44.54232032983467, "longitude": -78.36051124755839}, "129997425RR0001": {"name": "BUCKINGHAM PASTORAL CHARGE", "designationCode": "C", "categoryCode": "44", "address": "570 AVENUE DE BUCKINGHAM", "city": "GATINEAU", "province": "QC", "country": "CA", "postalCode": "J8L2H3", "twitter": "None", "instagram": "None", "facebook": "None", "youtube": "None", "website": "None", "summary": "None", "logo": "None", "latitude": 45.58482764752719, "longitude": -75.41545821354396}, "877827741RR0001": {"name": "BUCKMASTER'S CIRCLE COMMUNITY CENTER INC.", "designationCode": "C", "categoryCode": "29", "address": "PO BOX 26028", "city": "ST JOHN'S", "province": "NL", "country": "CA", "postalCode": "A1E0A5", "twitter": "None", "instagram": "None", "facebook": "None", "youtube": "None", "website": "None", "summary": "None", "logo": "None", "latitude": 47.56082100000006, "longitude": -52.71219349999993}, "894911494RR0001": {"name": "BUDDHA'S LIGHT INTERNATIONAL ASSOCIATION (EDM)", "designationCode": "C", "categoryCode": "35", "address": "10232 103 ST NW", "city": "EDMONTON", "province": "AB", "country": "CA", "postalCode": "T5J0Y8", "twitter": "None", "instagram": "None", "facebook": "None", "youtube": "None", "website": "None", "summary": "None", "logo": "None", "latitude": 53.54371761226844, "longitude": -113.4974382292974}, "890072267RR0001": {"name": "BUDDHA'S LIGHT INTERNATIONAL ASSOCIATION - VANCOUVER", "designationCode": "C", "categoryCode": "35", "address": "6680-8181 CAMBIE RD", "city": "RICHMOND", "province": "BC", "country": "CA", "postalCode": "V6X3X9", "twitter": "None", "instagram": "None", "facebook": "None", "youtube": "None", "website": "None", "summary": "None", "logo": "None", "latitude": 49.18468949047802, "longitude": -123.13434357951986}, "862568193RR0001": {"name": "BUDDHA'S LIGHT INTERNATIONAL ASSOCIATION, OTTAWA", "designationCode": "C", "categoryCode": "35", "address": "1950 SCOTT STREET", "city": "OTTAWA", "province": "ON", "country": "CA", "postalCode": "K1G8L8", "twitter": "None", "instagram": "None", "facebook": "None", "youtube": "None", "website": "None", "summary": "None", "logo": "None", "latitude": 45.397246621963305, "longitude": -75.74965086981372}, "878169911RR0001": {"name": "BUDDHIST ASSOCIATION OF CANADA \"PHRAKEO BUDDHIST TEMPLE\"", "designationCode": "C", "categoryCode": "35", "address": "12 OLDMILL ROAD               RR 33", "city": "CAMBRIDGE", "province": "ON", "country": "CA", "postalCode": "N3H4R8", "twitter": "None", "instagram": "None", "facebook": "None", "youtube": "None", "website": "None", "summary": "None", "logo": "None", "latitude": 43.38344862228042, "longitude": -80.3867126214437}, "885171546RR0001": {"name": "BUDDHIST CONGRESS OF CANADA", "designationCode": "C", "categoryCode": "35", "address": "1481 HERON ROAD", "city": "OTTAWA", "province": "ON", "country": "CA", "postalCode": "K1V6A6", "twitter": "None", "instagram": "None", "facebook": "None", "youtube": "None", "website": "None", "summary": "None", "logo": "None", "latitude": 45.379615493219326, "longitude": -75.65385492062437}, "130025679RR0001": {"name": "BUDDHIST DHARMALAKSANA SOCIETY OF ONTARIO", "designationCode": "C", "categoryCode": "35", "address": "258 BILLINGS CRESCENT", "city": "NEWMARKET", "province": "ON", "country": "CA", "postalCode": "L3Y7Y7", "twitter": "None", "instagram": "None", "facebook": "None", "youtube": "None", "website": "None", "summary": "None", "logo": "None", "latitude": 44.071313783513204, "longitude": -79.47129025188978}, "869514810RR0001": {"name": "BUDDHIST EDUCATION FOUNDATION FOR CANADA", "designationCode": "A", "categoryCode": "23", "address": "PO BOX 64585 RPO UNIONVILLE", "city": "MARKHAM", "province": "ON", "country": "CA", "postalCode": "L3R0M9", "twitter": "None", "instagram": "None", "facebook": "None", "youtube": "None", "website": "None", "summary": "None", "logo": "None", "latitude": 43.85633046782344, "longitude": -79.30667650275377}, "875151227RR0001": {"name": "BUDDHIST MAHAYANA ZENGONG ASSOCIATION OF EDMONTON", "designationCode": "C", "categoryCode": "35", "address": "11218 109 AVE NW", "city": "EDMONTON", "province": "AB", "country": "CA", "postalCode": "T5H1E1", "twitter": "None", "instagram": "None", "facebook": "None", "youtube": "None", "website": "None", "summary": "None", "logo": "None", "latitude": 53.55480221727933, "longitude": -113.51418028819137}, "862342490RR0001": {"name": "BUDDHIST PRAJNA TEMPLE", "designationCode": "C", "categoryCode": "35", "address": "781 WARDEN AVE.", "city": "SCARBOROUGH", "province": "ON", "country": "CA", "postalCode": "M1L4C2", "twitter": "None", "instagram": "None", "facebook": "None", "youtube": "None", "website": "None", "summary": "None", "logo": "None", "latitude": 43.724907553724826, "longitude": -79.28639891802823}, "888434644RR0001": {"name": "BUDDHIST SOCIETY FOR COMPASSIONATE WISDOM", "designationCode": "C", "categoryCode": "35", "address": "86 VAUGHAN ROAD", "city": "TORONTO", "province": "ON", "country": "CA", "postalCode": "M6C2M1", "twitter": "None", "instagram": "None", "facebook": "None", "youtube": "None", "website": "None", "summary": "None", "logo": "None", "latitude": 43.68334440409153, "longitude": -79.42092014117921}, "892342775RR0001": {"name": "BUDDHIST VIHARA SOCIETY IN B.C.", "designationCode": "C", "categoryCode": "35", "address": "18941-80 AVE", "city": "SURREY", "province": "BC", "country": "CA", "postalCode": "V4N4J1", "twitter": "None", "instagram": "None", "facebook": "None", "youtube": "None", "website": "None", "summary": "None", "logo": "None", "latitude": 49.14812145657561, "longitude": -122.69770136081135}, "899155014RR0001": {"name": "BUDDHIST WOMEN'S SANGHA OF ONTARIO", "designationCode": "C", "categoryCode": "35", "address": "540 BOLIVAR ST., LOWER", "city": "PETERBOROUGH", "province": "ON", "country": "CA", "postalCode": "K9J4R8", "twitter": "None", "instagram": "None", "facebook": "None", "youtube": "None", "website": "None", "summary": "None", "logo": "None", "latitude": 44.29980608523268, "longitude": -78.3321803370938}, "118820778RR0001": {"name": "BUDDIES IN BAD TIMES THEATRE", "designationCode": "C", "categoryCode": "22", "address": "12 ALEXANDER STREET", "city": "TORONTO", "province": "ON", "country": "CA", "postalCode": "M4Y1B4", "twitter": "None", "instagram": "None", "facebook": "None", "youtube": "None", "website": "None", "summary": "None", "logo": "None", "latitude": 43.663069150729854, "longitude": -79.3829101737549}, "896930104RR0001": {"name": "BUDZ 'N BLOOM DAY CARE CENTER INC.", "designationCode": "C", "categoryCode": "01", "address": "PO BOX 2579", "city": "NEEPAWA", "province": "MB", "country": "CA", "postalCode": "R0J1H0", "twitter": "None", "instagram": "None", "facebook": "None", "youtube": "None", "website": "None", "summary": "None", "logo": "None", "latitude": 50.22581100000005, "longitude": -99.48963949999994}, "118820786RR0001": {"name": "BUELAH CHURCH OF JESUS CHRIST APOSTOLIC OF EDMONTON", "designationCode": "C", "categoryCode": "39", "address": "11901 - 50 STREET", "city": "EDMONTON", "province": "AB", "country": "CA", "postalCode": "T5W3C1", "twitter": "None", "instagram": "None", "facebook": "None", "youtube": "None", "website": "None", "summary": "None", "logo": "None", "latitude": 53.572058999999996, "longitude": -113.41836423074065}, "118820828RR0001": {"name": "BUFFALO AND DISTRICT AGRICULTURAL SOCIETY", "designationCode": "C", "categoryCode": "56", "address": "GENERAL DELIVERY", "city": "BUFFALO", "province": "AB", "country": "CA", "postalCode": "T0J0K0", "twitter": "None", "instagram": "None", "facebook": "None", "youtube": "None", "website": "None", "summary": "None", "logo": "None", "latitude": 50.77534722929815, "longitude": -112.85973401875997}, "897840823RR0001": {"name": "BUFFALO BERRY PRESS INC.", "designationCode": "C", "categoryCode": "22", "address": "PO BOX 7381", "city": "SASKATOON", "province": "SK", "country": "CA", "postalCode": "S7K4J3", "twitter": "None", "instagram": "None", "facebook": "None", "youtube": "None", "website": "None", "summary": "None", "logo": "None", "latitude": 52.13049000000005, "longitude": -106.65926449999994}, "118790344RR0001": {"name": "BUFFALO HILLS PASTORAL CHARGE", "designationCode": "C", "categoryCode": "44", "address": "PO BOX 112", "city": "ARROWWOOD", "province": "AB", "country": "CA", "postalCode": "T0L0B0", "twitter": "None", "instagram": "None", "facebook": "None", "youtube": "None", "website": "None", "summary": "None", "logo": "None", "latitude": 50.73787992339437, "longitude": -113.15090996667446}, "894563451RR0001": {"name": "BUFFALO LAKE EVANGELICAL CHURCH", "designationCode": "C", "categoryCode": "39", "address": "BOX 297", "city": "BOYLE", "province": "AB", "country": "CA", "postalCode": "T0A0M0", "twitter": "None", "instagram": "None", "facebook": "None", "youtube": "None", "website": "None", "summary": "None", "logo": "None", "latitude": 54.58728000000008, "longitude": -112.80483999999996}, "894205103RR0001": {"name": "BUFFALO NARROWS COMMUNITY FELLOWSHIP CHURCH INC.", "designationCode": "C", "categoryCode": "39", "address": "497 TOM STREET                BOX 418", "city": "BUFFALO NARROWS", "province": "SK", "country": "CA", "postalCode": "S0M0J0", "twitter": "None", "instagram": "None", "facebook": "None", "youtube": "None", "website": "None", "summary": "None", "logo": "None", "latitude": 55.863144197905164, "longitude": -108.49330649235394}, "132793258RR0001": {"name": "BUFFALO NATIONS CULTURAL SOCIETY", "designationCode": "C", "categoryCode": "22", "address": "PO BOX 850", "city": "BANFF", "province": "AB", "country": "CA", "postalCode": "T1L1A8", "twitter": "None", "instagram": "None", "facebook": "None", "youtube": "None", "website": "None", "summary": "None", "logo": "None", "latitude": 51.17577900000006, "longitude": -115.57274299999993}, "898840616RR0001": {"name": "BUFFALO PARENTS SPONSORING SOCIETY", "designationCode": "C", "categoryCode": "29", "address": "PO BOX 85193  APPO", "city": "CALGARY", "province": "AB", "country": "CA", "postalCode": "T2A7R7", "twitter": "None", "instagram": "None", "facebook": "None", "youtube": "None", "website": "None", "summary": "None", "logo": "None", "latitude": 51.04132800000005, "longitude": -113.94933649999993}, "106817430RR0001": {"name": "BUICK GOSPEL MISSION", "designationCode": "C", "categoryCode": "39", "address": "BOX 2933", "city": "BUICK", "province": "BC", "country": "CA", "postalCode": "V0C2R0", "twitter": "None", "instagram": "None", "facebook": "None", "youtube": "None", "website": "None", "summary": "None", "logo": "None"}, "866662448RR0001": {"name": "BUILDERS WITHOUT BORDERS FOUNDATION/FONDATION BATISSEURS SANS FRONTIERES", "designationCode": "C", "categoryCode": "09", "address": "2733 WEST 1ST AVENUE", "city": "VANCOUVER", "province": "BC", "country": "CA", "postalCode": "V6K1H2", "twitter": "None", "instagram": "None", "facebook": "None", "youtube": "None", "website": "None", "summary": "None", "logo": "None", "latitude": 49.2711156867761, "longitude": -123.16691793178215}, "896717352RR0001": {"name": "BUILDING A JEWISH TOMORROW", "designationCode": "C", "categoryCode": "49", "address": "4600 BATHURST ST", "city": "TORONTO", "province": "ON", "country": "CA", "postalCode": "M2R3V2", "twitter": "None", "instagram": "None", "facebook": "None", "youtube": "None", "website": "None", "summary": "None", "logo": "None", "latitude": 43.764549213428396, "longitude": -79.4407190577642}, "894979707RR0001": {"name": "BUILDING BRIDGES FOR YOUTH (HALDIMAND-BRANT)", "designationCode": "C", "categoryCode": "20", "address": "612 HALDIMAND #17             RR5", "city": "DUNNVILLE", "province": "ON", "country": "CA", "postalCode": "N1A2W4", "twitter": "None", "instagram": "None", "facebook": "None", "youtube": "None", "website": "None", "summary": "None", "logo": "None", "latitude": 42.93452400000005, "longitude": -79.67510899999994}}