{"856598644RR0001": {"name": "ROTARY CLUB OF VICTORIA-HARBOURSIDE FOUNDATION", "designationCode": "A", "categoryCode": "65", "address": "805 GORDON ST", "city": "VICTORIA", "province": "BC", "country": "CA", "postalCode": "V8W1Z6", "twitter": "None", "instagram": "None", "facebook": "None", "youtube": "None", "website": "None", "summary": "None", "logo": "None", "latitude": 48.42290329141905, "longitude": -123.36753128888023}, "896174976RR0001": {"name": "ROTARY CLUB OF VIEUX MONTREAL WELFARE FUND FONDS DE BIENFAISANCE DU CLUB ROTARY DE VIEUX MONTREAL", "designationCode": "A", "categoryCode": "05", "address": "500 - 205 VIGER AVENUE WEST", "city": "MONTREAL", "province": "QC", "country": "CA", "postalCode": "H2Z1G2", "twitter": "None", "instagram": "None", "facebook": "None", "youtube": "None", "website": "None", "summary": "None", "logo": "None", "latitude": 45.505049740781295, "longitude": -73.56100296451011}, "119125664RR0001": {"name": "ROTARY CLUB OF WALLACEBURG, ONTARIO CHARITABLE TRUST", "designationCode": "C", "categoryCode": "63", "address": "3092 DUFFERIN AVE", "city": "WALLACEBURG", "province": "ON", "country": "CA", "postalCode": "N8A4M7", "twitter": "None", "instagram": "None", "facebook": "None", "youtube": "None", "website": "None", "summary": "None", "logo": "None", "latitude": 42.593819508222964, "longitude": -82.43769249506472}, "892467564RR0001": {"name": "ROTARY CLUB OF WATERDOWN CHARITABLE TRUST", "designationCode": "A", "categoryCode": "65", "address": "PO BOX 578", "city": "WATERDOWN", "province": "ON", "country": "CA", "postalCode": "L0R2H0", "twitter": "None", "instagram": "None", "facebook": "None", "youtube": "None", "website": "None", "summary": "None", "logo": "None", "latitude": 43.329109500000015, "longitude": -79.8842655}, "119125672RR0001": {"name": "ROTARY CLUB OF WAWA CHARITABLE TRUST", "designationCode": "C", "categoryCode": "65", "address": "P.O. BOX 280", "city": "WAWA", "province": "ON", "country": "CA", "postalCode": "P0S1K0", "twitter": "None", "instagram": "None", "facebook": "None", "youtube": "None", "website": "None", "summary": "None", "logo": "None", "latitude": 47.99670182883135, "longitude": -84.76954309189294}, "119125680RR0001": {"name": "ROTARY CLUB OF WELLAND, CRIPPLED CHILDREN'S TRUST", "designationCode": "A", "categoryCode": "65", "address": "BOX 681", "city": "WELLAND", "province": "ON", "country": "CA", "postalCode": "L3B5R4", "twitter": "None", "instagram": "None", "facebook": "None", "youtube": "None", "website": "None", "summary": "None", "logo": "None", "latitude": 42.99349200000006, "longitude": -79.23902299999993}, "864086780RR0001": {"name": "ROTARY CLUB OF WEST VANCOUVER SUNRISE FOUNDATION", "designationCode": "A", "categoryCode": "63", "address": "401-545 CLYDE AVE.", "city": "WEST VANCOUVER", "province": "BC", "country": "CA", "postalCode": "V7T1C5", "twitter": "None", "instagram": "None", "facebook": "None", "youtube": "None", "website": "None", "summary": "None", "logo": "None", "latitude": 49.32829550432782, "longitude": -123.13158363918865}, "119125714RR0001": {"name": "ROTARY CLUB OF WEST WINNIPEG CHARITABLE TRUST", "designationCode": "A", "categoryCode": "65", "address": "201-1874 PORTAGE AVE", "city": "WINNIPEG", "province": "MB", "country": "CA", "postalCode": "R3J0H2", "twitter": "None", "instagram": "None", "facebook": "None", "youtube": "None", "website": "None", "summary": "None", "logo": "None", "latitude": 49.87853948845881, "longitude": -97.21876963627446}, "871324240RR0001": {"name": "ROTARY CLUB OF WINDSOR FOUNDATION FUND", "designationCode": "C", "categoryCode": "63", "address": "7911 FOREST GLADE DRIVE", "city": "WINDSOR", "province": "ON", "country": "CA", "postalCode": "N8T3R7", "twitter": "None", "instagram": "None", "facebook": "None", "youtube": "None", "website": "None", "summary": "None", "logo": "None", "latitude": 42.29731365995976, "longitude": -82.92734579232123}, "119125755RR0001": {"name": "ROTARY CLUB OF WOLFVILLE CHARITABLE TRUST", "designationCode": "A", "categoryCode": "65", "address": "PO BOX 101", "city": "PORT WILLIAMS", "province": "NS", "country": "CA", "postalCode": "B0P1T0", "twitter": "None", "instagram": "None", "facebook": "None", "youtube": "None", "website": "None", "summary": "None", "logo": "None", "latitude": 45.096850000000074, "longitude": -64.40921999999995}, "889161394RR0001": {"name": "ROTARY CLUB OF WOODSTOCK-OXFORD CHARITABLE BENEFIT TRUST", "designationCode": "C", "categoryCode": "65", "address": "PO BOX 20058 RPO WOODSTOCK CTR", "city": "WOODSTOCK", "province": "ON", "country": "CA", "postalCode": "N4S8X8", "twitter": "None", "instagram": "None", "facebook": "None", "youtube": "None", "website": "None", "summary": "None", "logo": "None", "latitude": 43.13010300000006, "longitude": -80.75657149999994}, "881265920RR0001": {"name": "ROTARY CLUBS OF PETERBOROUGH FOUNDATION INC.", "designationCode": "C", "categoryCode": "56", "address": "P.O. BOX 172 STN MAIN", "city": "PETERBOROUGH", "province": "ON", "country": "CA", "postalCode": "K9J6Y8", "twitter": "None", "instagram": "None", "facebook": "None", "youtube": "None", "website": "None", "summary": "None", "logo": "None", "latitude": 44.30591700000005, "longitude": -78.31950199999993}, "872722368RR0001": {"name": "ROTARY CLUBS OF THE LOWER MAINLAND OF BC WORLD HELP NETWORK", "designationCode": "C", "categoryCode": "09", "address": "88 - 20465 DOUGLAS CRES", "city": "LANGLEY", "province": "BC", "country": "CA", "postalCode": "V3A4B6", "twitter": "None", "instagram": "None", "facebook": "None", "youtube": "None", "website": "None", "summary": "None", "logo": "None", "latitude": 49.103436247074846, "longitude": -122.65502406527872}, "889886024RR0001": {"name": "ROTARY DISTRICT 5370 CHARITABLE FOUNDATION", "designationCode": "A", "categoryCode": "63", "address": "16030 104 AVE NW", "city": "EDMONTON", "province": "AB", "country": "CA", "postalCode": "T5P0S3", "twitter": "None", "instagram": "None", "facebook": "None", "youtube": "None", "website": "None", "summary": "None", "logo": "None", "latitude": 53.546429501009605, "longitude": -113.59886399999999}, "862018199RR0001": {"name": "ROTARY DISTRICT 7090 GIFT OF LIFE FOUNDATION", "designationCode": "C", "categoryCode": "11", "address": "27 PRIDEAUX STREET            PO BOX 1439", "city": "NIAGARA ON THE LAKE", "province": "ON", "country": "CA", "postalCode": "L0S1J0", "twitter": "None", "instagram": "None", "facebook": "None", "youtube": "None", "website": "None", "summary": "None", "logo": "None", "latitude": 43.256418820156924, "longitude": -79.07065800415494}, "107916272RR0001": {"name": "ROTEL FOUNDATION INC.", "designationCode": "C", "categoryCode": "09", "address": "411 SMYTH ROAD", "city": "OTTAWA", "province": "ON", "country": "CA", "postalCode": "K1H8M8", "twitter": "None", "instagram": "None", "facebook": "None", "youtube": "None", "website": "None", "summary": "None", "logo": "None", "latitude": 45.399139995319445, "longitude": -75.652251391232}, "803117258RR0001": {"name": "ROTH-REACHOUTTOHUMANITY FOR HEALTH", "designationCode": "C", "categoryCode": "09", "address": "100-806 DE GASP\u00c9", "city": "MONTR\u00c9AL", "province": "QC", "country": "CA", "postalCode": "H3E1E5", "twitter": "None", "instagram": "None", "facebook": "None", "youtube": "None", "website": "None", "summary": "None", "logo": "None", "latitude": 45.453610667025345, "longitude": -73.54704049784799}, "119125847RR0001": {"name": "ROTHESAY BAPTIST CHURCH, INC.", "designationCode": "C", "categoryCode": "31", "address": "30 VINCENT ROAD", "city": "QUISPAMSIS", "province": "NB", "country": "CA", "postalCode": "E2E1A2", "twitter": "None", "instagram": "None", "facebook": "None", "youtube": "None", "website": "None", "summary": "None", "logo": "None", "latitude": 45.41729632638932, "longitude": -65.99364947221441}, "119288918RR1134": {"name": "ROTHESAY CONGREGATION OF JEHOVAH'S WITNESSES", "designationCode": "C", "categoryCode": "61", "address": "262 MEADOW DRIVE", "city": "DARLING'S ISLAND", "province": "NB", "country": "CA", "postalCode": "E5N6P8", "twitter": "None", "instagram": "None", "facebook": "None", "youtube": "None", "website": "None", "summary": "None", "logo": "None", "latitude": 45.50831761481691, "longitude": -65.86529042565593}, "107916330RR0001": {"name": "ROTHESAY NETHERWOOD SCHOOL", "designationCode": "C", "categoryCode": "20", "address": "40 COLLEGE HILL RD", "city": "ROTHESAY", "province": "NB", "country": "CA", "postalCode": "E2E5H1", "twitter": "None", "instagram": "None", "facebook": "None", "youtube": "None", "website": "None", "summary": "None", "logo": "None", "latitude": 45.378988098213824, "longitude": -65.99140330169246}, "891469546RR0001": {"name": "ROTHMANS, BENSON & HEDGES INC EMPLOYEES' CHARITABLE FUND", "designationCode": "B", "categoryCode": "75", "address": "1500 DON MILLS RD             9TH FL TAX DEPT", "city": "NORTH YORK", "province": "ON", "country": "CA", "postalCode": "M3B3L1", "twitter": "None", "instagram": "None", "facebook": "None", "youtube": "None", "website": "None", "summary": "None", "logo": "None", "latitude": 43.75522623980035, "longitude": -79.34705194953513}, "119125912RR0001": {"name": "ROTHWELL UNITED CHURCH", "designationCode": "C", "categoryCode": "44", "address": "42 SUMAC ST", "city": "GLOUCESTER", "province": "ON", "country": "CA", "postalCode": "K1J6P7", "twitter": "None", "instagram": "None", "facebook": "None", "youtube": "None", "website": "None", "summary": "None", "logo": "None", "latitude": 45.44403794751592, "longitude": -75.6072366927406}, "119288918RR0655": {"name": "ROUGE HILLS CONGREGATION OF JEHOVAH'S WITNESSES", "designationCode": "C", "categoryCode": "61", "address": "1010 - 11753 SHEPPARD AVE E", "city": "SCARBOROUGH", "province": "ON", "country": "CA", "postalCode": "M1B5M3", "twitter": "None", "instagram": "None", "facebook": "None", "youtube": "None", "website": "None", "summary": "None", "logo": "None", "latitude": 43.80400838738221, "longitude": -79.19102065532284}, "864968250RR0001": {"name": "ROUGE RIVER COMMUNITY CHURCH", "designationCode": "C", "categoryCode": "39", "address": "79 COUPERTHWAITE CRESCENT", "city": "MARKHAM", "province": "ON", "country": "CA", "postalCode": "L3R6M7", "twitter": "None", "instagram": "None", "facebook": "None", "youtube": "None", "website": "None", "summary": "None", "logo": "None", "latitude": 43.86820480154659, "longitude": -79.29943031115454}, "894945633RR0061": {"name": "ROUGE VALLEY CHURCH OF THE CHRISTIAN & MISSIONARY ALLIANCE IN CANADA", "designationCode": "C", "categoryCode": "39", "address": "91 RYLANDER BLVD              PO BOX 83518  RPO ABBEY LANE", "city": "SCARBOROUGH", "province": "ON", "country": "CA", "postalCode": "M1B0B2", "twitter": "None", "instagram": "None", "facebook": "None", "youtube": "None", "website": "None", "summary": "None", "logo": "None", "latitude": 43.79784684595193, "longitude": -79.15259511434591}, "129814729RR0001": {"name": "ROUGE VALLEY FOUNDATION", "designationCode": "C", "categoryCode": "52", "address": "1749 MEADOWVALE ROAD", "city": "SCARBOROUGH", "province": "ON", "country": "CA", "postalCode": "M1B5W8", "twitter": "None", "instagram": "None", "facebook": "None", "youtube": "None", "website": "None", "summary": "None", "logo": "None", "latitude": 43.818968859570596, "longitude": -79.17115401635996}, "119125979RR0001": {"name": "ROUGE VALLEY MENNONITE CHURCH", "designationCode": "C", "categoryCode": "34", "address": "7452 REESOR ROAD", "city": "MARKHAM", "province": "ON", "country": "CA", "postalCode": "L6B1A8", "twitter": "None", "instagram": "None", "facebook": "None", "youtube": "None", "website": "None", "summary": "None", "logo": "None", "latitude": 43.8583315814531, "longitude": -79.20424926262291}, "119125920RR0001": {"name": "ROUGEBANK FOUNDATION", "designationCode": "B", "categoryCode": "01", "address": "1 THOMSON COURT", "city": "MARKHAM", "province": "ON", "country": "CA", "postalCode": "L3P1M5", "twitter": "None", "instagram": "None", "facebook": "None", "youtube": "None", "website": "None", "summary": "None", "logo": "None", "latitude": 43.8748447504475, "longitude": -79.2608266478443}, "134592021RR0001": {"name": "ROUGH ACRES BIBLE CAMP SOCIETY", "designationCode": "C", "categoryCode": "56", "address": "PO BOX 5241", "city": "SMITHERS", "province": "BC", "country": "CA", "postalCode": "V0J2N0", "twitter": "None", "instagram": "None", "facebook": "None", "youtube": "None", "website": "None", "summary": "None", "logo": "None", "latitude": 54.78312000000005, "longitude": -127.16847999999999}, "104638812RR0001": {"name": "ROULEAU & DISTRICT SENIOR'S ASSOCIATION INC.", "designationCode": "C", "categoryCode": "56", "address": "BOX 279", "city": "ROULEAU", "province": "SK", "country": "CA", "postalCode": "S0G4H0", "twitter": "None", "instagram": "None", "facebook": "None", "youtube": "None", "website": "None", "summary": "None", "logo": "None", "latitude": 49.730711113382405, "longitude": -104.01338147757869}, "873319222RR0001": {"name": "ROULEAU FIRST RESPONDERS", "designationCode": "C", "categoryCode": "59", "address": "POST OFFICE BOX 178", "city": "ROULEAU", "province": "SK", "country": "CA", "postalCode": "S0G4H0", "twitter": "None", "instagram": "None", "facebook": "None", "youtube": "None", "website": "None", "summary": "None", "logo": "None", "latitude": 49.730711113382405, "longitude": -104.01338147757869}, "119126019RR0001": {"name": "ROULEAU UNITED CHURCH", "designationCode": "C", "categoryCode": "44", "address": "BOX 161", "city": "ROULEAU", "province": "SK", "country": "CA", "postalCode": "S0G4H0", "twitter": "None", "instagram": "None", "facebook": "None", "youtube": "None", "website": "None", "summary": "None", "logo": "None", "latitude": 49.730711113382405, "longitude": -104.01338147757869}, "107387664RR0001": {"name": "ROUMANIAN FIRST BAPTIST CHURCH", "designationCode": "C", "categoryCode": "31", "address": "1696 CADILLAC AVENUE", "city": "WINDSOR", "province": "ON", "country": "CA", "postalCode": "N8Y2V5", "twitter": "None", "instagram": "None", "facebook": "None", "youtube": "None", "website": "None", "summary": "None", "logo": "None", "latitude": 42.308441999451745, "longitude": -82.99065490172559}, "852572742RR0001": {"name": "ROUTES JEWISH CENTRE", "designationCode": "C", "categoryCode": "49", "address": "10 DISERA DRIVE UNIT #250", "city": "THORNHILL", "province": "ON", "country": "CA", "postalCode": "L4J0A7", "twitter": "None", "instagram": "None", "facebook": "None", "youtube": "None", "website": "None", "summary": "None", "logo": "None", "latitude": 43.810724944486154, "longitude": -79.45401577202931}, "119126100RR0001": {"name": "ROWANDALE BAPTIST CHURCH", "designationCode": "C", "categoryCode": "31", "address": "162 ROWANDALE AVE", "city": "WINNIPEG", "province": "MB", "country": "CA", "postalCode": "R2K0A5", "twitter": "None", "instagram": "None", "facebook": "None", "youtube": "None", "website": "None", "summary": "None", "logo": "None", "latitude": 49.937381100727265, "longitude": -97.09514241814287}, "119126118RR0001": {"name": "ROWASIN FOUNDATION INC.", "designationCode": "A", "categoryCode": "63", "address": "755 TRENT CRESCENT", "city": "SASKATOON", "province": "SK", "country": "CA", "postalCode": "S7H4V4", "twitter": "None", "instagram": "None", "facebook": "None", "youtube": "None", "website": "None", "summary": "None", "logo": "None", "latitude": 52.117855994171634, "longitude": -106.57934517280262}, "862122199RR0001": {"name": "ROWBUST BREAST CANCER SURVIVOR DRAGON BOAT RACING SOCIETY INC.", "designationCode": "C", "categoryCode": "11", "address": "536 QUEENS AVE", "city": "LONDON", "province": "ON", "country": "CA", "postalCode": "N6B1Y8", "twitter": "None", "instagram": "None", "facebook": "None", "youtube": "None", "website": "None", "summary": "None", "logo": "None", "latitude": 42.98946389927275, "longitude": -81.23447081738695}, "119126126RR0001": {"name": "ROWENA FULL GOSPEL TABERNACLE", "designationCode": "C", "categoryCode": "39", "address": "BOX 32", "city": "BRINSTON", "province": "ON", "country": "CA", "postalCode": "K0E1C0", "twitter": "None", "instagram": "None", "facebook": "None", "youtube": "None", "website": "None", "summary": "None", "logo": "None", "latitude": 44.99633494511721, "longitude": -75.40545749830473}, "134291004RR0001": {"name": "ROWENA PENTECOSTAL CHURCH & CEMETARY INC", "designationCode": "C", "categoryCode": "39", "address": "569 ROUTE 390", "city": "ROWENA", "province": "NB", "country": "CA", "postalCode": "E7H4N2", "twitter": "None", "instagram": "None", "facebook": "None", "youtube": "None", "website": "None", "summary": "None", "logo": "None", "latitude": 46.78335793870026, "longitude": -67.61274734852661}, "119126134RR0001": {"name": "ROWNTREE MEMORIAL UNITED CHURCH", "designationCode": "C", "categoryCode": "44", "address": "156 ELLIOTT ST", "city": "LONDON", "province": "ON", "country": "CA", "postalCode": "N5Y2E9", "twitter": "None", "instagram": "None", "facebook": "None", "youtube": "None", "website": "None", "summary": "None", "logo": "None", "latitude": 43.007384503202644, "longitude": -81.23475043473397}, "119288918RR1305": {"name": "ROWNTREE MILLS CONGREGATION OF JEHOVAH'S WITNESSES", "designationCode": "C", "categoryCode": "61", "address": "33 NOCE WAY", "city": "WOODBRIDGE", "province": "ON", "country": "CA", "postalCode": "L4H0W9", "twitter": "None", "instagram": "None", "facebook": "None", "youtube": "None", "website": "None", "summary": "None", "logo": "None", "latitude": 43.83839275823777, "longitude": -79.5745475950431}, "119288918RR0728": {"name": "ROXBORO CONGREGATION OF JEHOVAH'S WITNESSES", "designationCode": "C", "categoryCode": "61", "address": "6, 3 AVENUE SOUTH", "city": "ROXBORO", "province": "QC", "country": "CA", "postalCode": "H8Y2L4", "twitter": "None", "instagram": "None", "facebook": "None", "youtube": "None", "website": "None", "summary": "None", "logo": "None", "latitude": 45.510511820964965, "longitude": -73.8086971675225}, "119126167RR0001": {"name": "ROXBORO UNITED CHURCH", "designationCode": "C", "categoryCode": "44", "address": "116 CARTIER AVE", "city": "ROXBORO", "province": "QC", "country": "CA", "postalCode": "H8Y1G8", "twitter": "None", "instagram": "None", "facebook": "None", "youtube": "None", "website": "None", "summary": "None", "logo": "None", "latitude": 45.50256472413286, "longitude": -73.81408645389256}, "119126142RR0001": {"name": "ROXBOROUGH AGRICULTURAL SOCIETY", "designationCode": "C", "categoryCode": "56", "address": "PO BOX 199                    16301 FAIRVIEW DRIVE", "city": "AVONMORE", "province": "ON", "country": "CA", "postalCode": "K0C1C0", "twitter": "None", "instagram": "None", "facebook": "None", "youtube": "None", "website": "None", "summary": "None", "logo": "None", "latitude": 45.17080349792254, "longitude": -74.97043293741702}, "107916959RR0001": {"name": "ROXBOROUGH PARK PRESBYTERIAN CHURCH", "designationCode": "C", "categoryCode": "37", "address": "1423 UPPER WELLINGTON ST.", "city": "HAMILTON", "province": "ON", "country": "CA", "postalCode": "L9A3S8", "twitter": "None", "instagram": "None", "facebook": "None", "youtube": "None", "website": "None", "summary": "None", "logo": "None", "latitude": 43.20960774686946, "longitude": -79.8789112468408}, "841633548RR0001": {"name": "ROY CAIRNS FAMILY FOUNDATION", "designationCode": "B", "categoryCode": "03", "address": "80 KING STREET, 6TH FLOOR     P.O. BOX 4100", "city": "ST. CATHARINES", "province": "ON", "country": "CA", "postalCode": "L2R7S3", "twitter": "None", "instagram": "None", "facebook": "None", "youtube": "None", "website": "None", "summary": "None", "logo": "None", "latitude": 43.15821145071858, "longitude": -79.24638998955533}, "872053905RR0001": {"name": "ROY G. HOBBS SENIORS' CLUB DES AINES", "designationCode": "C", "categoryCode": "56", "address": "109 LARCH CRESCENT", "city": "OTTAWA", "province": "ON", "country": "CA", "postalCode": "K1E1A2", "twitter": "None", "instagram": "None", "facebook": "None", "youtube": "None", "website": "None", "summary": "None", "logo": "None", "latitude": 45.48775871994927, "longitude": -75.51999914071692}, "898614771RR0001": {"name": "ROY YEOMAN RESCUE SOCIETY", "designationCode": "A", "categoryCode": "59", "address": "PO BOX 1167", "city": "ONOWAY", "province": "AB", "country": "CA", "postalCode": "T0E1V0", "twitter": "None", "instagram": "None", "facebook": "None", "youtube": "None", "website": "None", "summary": "None", "logo": "None", "latitude": 53.70302000000004, "longitude": -114.19152999999994}, "104642772RR0001": {"name": "ROYAL AGRICULTURAL WINTER FAIR ASSOCIATION OF CANADA", "designationCode": "C", "categoryCode": "56", "address": "39 MANITOBA DR", "city": "TORONTO", "province": "ON", "country": "CA", "postalCode": "M6K3C3", "twitter": "None", "instagram": "None", "facebook": "None", "youtube": "None", "website": "None", "summary": "None", "logo": "None", "latitude": 43.63637799469123, "longitude": -79.41464656506447}, "887327799RR0001": {"name": "ROYAL ALEXANDRA HOSPITAL EMPLOYEES CHARITABLE DONATION FUND", "designationCode": "C", "categoryCode": "75", "address": "1408 ROYAL ALEXANDRA HOSPITAL 10240 KINGSWAY", "city": "EDMONTON", "province": "AB", "country": "CA", "postalCode": "T5H3V9", "twitter": "None", "instagram": "None", "facebook": "None", "youtube": "None", "website": "None", "summary": "None", "logo": "None", "latitude": 53.55645000000004, "longitude": -113.49702999999994}, "893411785RR0001": {"name": "ROYAL ARCH MASONIC HOMES FUNDING SOCIETY", "designationCode": "A", "categoryCode": "03", "address": "7850 CHAMPLAIN CRES", "city": "VANCOUVER", "province": "BC", "country": "CA", "postalCode": "V5S4C7", "twitter": "None", "instagram": "None", "facebook": "None", "youtube": "None", "website": "None", "summary": "None", "logo": "None", "latitude": 49.21342168526745, "longitude": -123.02979233143924}, "130229248RR0001": {"name": "ROYAL ARCH MASONIC HOMES SOCIETY", "designationCode": "C", "categoryCode": "10", "address": "7850 CHAMPLAIN CRESCENT", "city": "VANCOUVER", "province": "BC", "country": "CA", "postalCode": "V5S4C7", "twitter": "None", "instagram": "None", "facebook": "None", "youtube": "None", "website": "None", "summary": "None", "logo": "None", "latitude": 49.21342168526745, "longitude": -123.02979233143924}, "891510141RR0001": {"name": "ROYAL ASTRONOMICAL SOCIETY OF CANADA WINDSOR CENTRE", "designationCode": "C", "categoryCode": "21", "address": "3375 ACADEMY DR", "city": "WINDSOR", "province": "ON", "country": "CA", "postalCode": "N9E2H7", "twitter": "None", "instagram": "None", "facebook": "None", "youtube": "None", "website": "None", "summary": "None", "logo": "None", "latitude": 42.262874822638416, "longitude": -83.0184366303305}, "892626243RR0001": {"name": "ROYAL ASTRONOMICAL SOCIETY OF CANADA-LONDON CENTRE", "designationCode": "C", "categoryCode": "21", "address": "363 OXFORD AVENUE", "city": "INGERSOLL", "province": "ON", "country": "CA", "postalCode": "N5C3H5", "twitter": "None", "instagram": "None", "facebook": "None", "youtube": "None", "website": "None", "summary": "None", "logo": "None", "latitude": 43.04539848237063, "longitude": -80.89932455747575}, "119126316RR0001": {"name": "ROYAL ASTRONOMICAL SOCIETY OF CANADA, CALGARY CENTRE", "designationCode": "C", "categoryCode": "21", "address": "# 250, 300-S AVENUE SW        PO BOX 20282", "city": "CALGARY", "province": "AB", "country": "CA", "postalCode": "T2P4J3", "twitter": "None", "instagram": "None", "facebook": "None", "youtube": "None", "website": "None", "summary": "None", "logo": "None", "latitude": 51.04531500000006, "longitude": -114.06301099999993}, "108199522RR0001": {"name": "ROYAL AVIATION MUSEUM OF WESTERN CANADA INC.", "designationCode": "C", "categoryCode": "50", "address": "HANGAR T-2 958 FERRY RD", "city": "WINNIPEG", "province": "MB", "country": "CA", "postalCode": "R3H0Y8", "twitter": "None", "instagram": "None", "facebook": "None", "youtube": "None", "website": "None", "summary": "None", "logo": "None", "latitude": 49.89559162505039, "longitude": -97.21743558638464}, "898194717RR0001": {"name": "ROYAL BLUES MUSIC PARENTS ASSOCIATION", "designationCode": "C", "categoryCode": "21", "address": "221 MERCY ST", "city": "SELKIRK", "province": "MB", "country": "CA", "postalCode": "R1A2C8", "twitter": "None", "instagram": "None", "facebook": "None", "youtube": "None", "website": "None", "summary": "None", "logo": "None", "latitude": 50.142432466564735, "longitude": -96.88786075712555}, "133500850RR0001": {"name": "ROYAL BOTANICAL GARDENS", "designationCode": "C", "categoryCode": "50", "address": "PO BOX 399 - STN A", "city": "HAMILTON", "province": "ON", "country": "CA", "postalCode": "L8N3H8", "twitter": "None", "instagram": "None", "facebook": "None", "youtube": "None", "website": "None", "summary": "None", "logo": "None", "latitude": 43.261962000000054, "longitude": -79.88800399999994}, "118933241RR0001": {"name": "ROYAL BRITISH COLUMBIA MUSEUM FOUNDATION", "designationCode": "C", "categoryCode": "53", "address": "P.O. BOX 9815 STN PROV GOVT", "city": "VICTORIA", "province": "BC", "country": "CA", "postalCode": "V8W9W2", "twitter": "None", "instagram": "None", "facebook": "None", "youtube": "None", "website": "None", "summary": "None", "logo": "None", "latitude": 48.42854700000005, "longitude": -123.36445249999994}, "119126399RR0001": {"name": "ROYAL CANADIAN ACADEMY OF ARTS ACADEMIE ROYALE DES ARTS DU CANADA", "designationCode": "C", "categoryCode": "22", "address": "375 - 401 RICHMOND ST WEST", "city": "TORONTO", "province": "ON", "country": "CA", "postalCode": "M4T1B4", "twitter": "None", "instagram": "None", "facebook": "None", "youtube": "None", "website": "None", "summary": "None", "logo": "None", "latitude": 43.64803297305114, "longitude": -79.39483379779568}, "872374202RR0001": {"name": "ROYAL CANADIAN ACADEMY OF ARTS FOUNDATION/FONDATION DE L'ACADEMIE ROYALE DES ARTS DU CANADA", "designationCode": "A", "categoryCode": "25", "address": "401 RICHMOND ST. W.           SUITE 375", "city": "TORONTO", "province": "ON", "country": "CA", "postalCode": "M5V3A8", "twitter": "None", "instagram": "None", "facebook": "None", "youtube": "None", "website": "None", "summary": "None", "logo": "None", "latitude": 43.64803297305114, "longitude": -79.39483379779568}, "866795255RR0004": {"name": "ROYAL CANADIAN AIR CADET #307 STONEYBROOK SQUADRON", "designationCode": "C", "categoryCode": "29", "address": "BOX 20233", "city": "STEINBACH", "province": "MB", "country": "CA", "postalCode": "R5G1R7", "twitter": "None", "instagram": "None", "facebook": "None", "youtube": "None", "website": "None", "summary": "None", "logo": "None", "latitude": 49.52572800000006, "longitude": -96.68393449999994}, "130387665RR0020": {"name": "ROYAL CANADIAN AIR CADETS #862 SQUADRON", "designationCode": "C", "categoryCode": "29", "address": "PO BOX 160 STN LAMBETH", "city": "LONDON", "province": "ON", "country": "CA", "postalCode": "N6P1P9", "twitter": "None", "instagram": "None", "facebook": "None", "youtube": "None", "website": "None", "summary": "None", "logo": "None", "latitude": 42.91244761023706, "longitude": -81.30148110402438}, "130387665RR0031": {"name": "ROYAL CANADIAN AIR CADETS 102 (BARRIE SILVER FOX) SQUADRON", "designationCode": "C", "categoryCode": "29", "address": "PO BOX 20141", "city": "BARRIE", "province": "ON", "country": "CA", "postalCode": "L4M6E9", "twitter": "None", "instagram": "None", "facebook": "None", "youtube": "None", "website": "None", "summary": "None", "logo": "None", "latitude": 44.38929300000005, "longitude": -79.68626449999994}, "130387665RR0037": {"name": "ROYAL CANADIAN AIR CADETS 132 SPITFIRE SQUADRON", "designationCode": "C", "categoryCode": "29", "address": "545, STEELES AVE WEST         PO BOX 38565 RPO BRAMPTON", "city": "BRAMPTON", "province": "ON", "country": "CA", "postalCode": "L6Y4W5", "twitter": "None", "instagram": "None", "facebook": "None", "youtube": "None", "website": "None", "summary": "None", "logo": "None", "latitude": 43.65560207960679, "longitude": -79.74457052461251}, "130387665RR0038": {"name": "ROYAL CANADIAN AIR CADETS 140 AURORA SQUADRON", "designationCode": "C", "categoryCode": "29", "address": "PO BOX 71586 RPO AURORA NORTH", "city": "AURORA", "province": "ON", "country": "CA", "postalCode": "L4G6S9", "twitter": "None", "instagram": "None", "facebook": "None", "youtube": "None", "website": "None", "summary": "None", "logo": "None", "latitude": 44.01344856199793, "longitude": -79.40786050804587}, "130387665RR0041": {"name": "ROYAL CANADIAN AIR CADETS 325 KIWANIS SQUADRON", "designationCode": "C", "categoryCode": "29", "address": "505 FOURTH STREET EAST", "city": "CORNWALL", "province": "ON", "country": "CA", "postalCode": "K6H2J7", "twitter": "None", "instagram": "None", "facebook": "None", "youtube": "None", "website": "None", "summary": "None", "logo": "None", "latitude": 45.02459603416224, "longitude": -74.71873989537761}, "130387665RR0043": {"name": "ROYAL CANADIAN AIR CADETS 530 KIWANIS SQUADRON", "designationCode": "C", "categoryCode": "29", "address": "316 MARSLAND DR", "city": "WATERLOO", "province": "ON", "country": "CA", "postalCode": "N2J3Z1", "twitter": "None", "instagram": "None", "facebook": "None", "youtube": "None", "website": "None", "summary": "None", "logo": "None", "latitude": 43.482529800190264, "longitude": -80.51751667909328}, "889099347RR0001": {"name": "ROYAL CANADIAN AIR CADETS 826 GRYPHON SQUADRON SPONSORING COMMITTEE", "designationCode": "C", "categoryCode": "29", "address": "200 JAMES STREET NORTH", "city": "HAMILTON", "province": "ON", "country": "CA", "postalCode": "L8R2L1", "twitter": "None", "instagram": "None", "facebook": "None", "youtube": "None", "website": "None", "summary": "None", "logo": "None", "latitude": 43.26175898528483, "longitude": -79.86680936300439}, "130387665RR0040": {"name": "ROYAL CANADIAN AIR CADETS 94 NEWMARKET SQUADRON", "designationCode": "C", "categoryCode": "29", "address": "P.O. BOX 4", "city": "NEWMARKET", "province": "ON", "country": "CA", "postalCode": "L3Y4W3", "twitter": "None", "instagram": "None", "facebook": "None", "youtube": "None", "website": "None", "summary": "None", "logo": "None", "latitude": 44.04015600000005, "longitude": -79.45853299999993}, "888169869RR0001": {"name": "ROYAL CANADIAN AIR FORCE ASSOCIATION #702 (CITY OF LETHBRIDGE) WING", "designationCode": "C", "categoryCode": "53", "address": "174 STUBB ROSS RD", "city": "LETHBRIDGE", "province": "AB", "country": "CA", "postalCode": "T1K7N3", "twitter": "None", "instagram": "None", "facebook": "None", "youtube": "None", "website": "None", "summary": "None", "logo": "None", "latitude": 49.633830000000046, "longitude": -112.78781999999995}, "887374999RR0001": {"name": "ROYAL CANADIAN AIR FORCE ASSOCIATION TRUST", "designationCode": "C", "categoryCode": "29", "address": "222 SOMERSET STREET WEST      SUITE 405", "city": "OTTAWA", "province": "ON", "country": "CA", "postalCode": "K2P2G3", "twitter": "None", "instagram": "None", "facebook": "None", "youtube": "None", "website": "None", "summary": "None", "logo": "None", "latitude": 45.417272596428084, "longitude": -75.69174283706514}, "107928657RR0001": {"name": "ROYAL CANADIAN ARTILLERY ASSOCIATION", "designationCode": "C", "categoryCode": "51", "address": "10 LANCEWOOD CRES", "city": "BRAMPTON", "province": "ON", "country": "CA", "postalCode": "L6S5Y6", "twitter": "None", "instagram": "None", "facebook": "None", "youtube": "None", "website": "None", "summary": "None", "logo": "None", "latitude": 43.70988307770219, "longitude": -79.73510365335557}, "127886257RR0001": {"name": "ROYAL CANADIAN COLLEGE SOCIETY", "designationCode": "C", "categoryCode": "20", "address": "8610 ASH STREET", "city": "VANCOUVER", "province": "BC", "country": "CA", "postalCode": "V6P3K2", "twitter": "None", "instagram": "None", "facebook": "None", "youtube": "None", "website": "None", "summary": "None", "logo": "None", "latitude": 49.207254087425724, "longitude": -123.11902261777972}, "855781902RR0001": {"name": "ROYAL CANADIAN HUMANE ASSOCIATION", "designationCode": "C", "categoryCode": "59", "address": "2250, 10104-103A AVENUE", "city": "EDMONTON", "province": "AB", "country": "CA", "postalCode": "T5J0H8", "twitter": "None", "instagram": "None", "facebook": "None", "youtube": "None", "website": "None", "summary": "None", "logo": "None", "latitude": 53.54624534533717, "longitude": -113.49358616680058}, "131635286RR0001": {"name": "ROYAL CANADIAN INSTITUTE", "designationCode": "C", "categoryCode": "21", "address": "6 QUEEN'S PARK CRESCENT       ROOM 9", "city": "TORONTO", "province": "ON", "country": "CA", "postalCode": "M5S3H2", "twitter": "None", "instagram": "None", "facebook": "None", "youtube": "None", "website": "None", "summary": "None", "logo": "None", "latitude": 43.66067614971012, "longitude": -79.39155049273289}, "894160183RR0001": {"name": "ROYAL CANADIAN LEGION (ASSINIBOIA BRANCH #17), POPPY FUND", "designationCode": "C", "categoryCode": "09", "address": "BOX 1960", "city": "ASSINIBOIA", "province": "SK", "country": "CA", "postalCode": "S0H0B0", "twitter": "None", "instagram": "None", "facebook": "None", "youtube": "None", "website": "None", "summary": "None", "logo": "None", "latitude": 49.63287300000006, "longitude": -105.99348049999993}, "107932337RR0001": {"name": "ROYAL CANADIAN LEGION (WIARTON) BRANCH 208 POPPY FUND", "designationCode": "C", "categoryCode": "09", "address": "330 BOYD STREET               BOX 809", "city": "WIARTON", "province": "ON", "country": "CA", "postalCode": "N0H2T0", "twitter": "None", "instagram": "None", "facebook": "None", "youtube": "None", "website": "None", "summary": "None", "logo": "None", "latitude": 44.745006456575595, "longitude": -81.14069180835592}, "119126803RR0001": {"name": "ROYAL CANADIAN LEGION - BRANCH 5 MEMORIAL SCHOLARSHIP FUND", "designationCode": "C", "categoryCode": "21", "address": "11 SECOND STREET              DONKIN", "city": "CAPE BRETON", "province": "NS", "country": "CA", "postalCode": "B1A6S5", "twitter": "None", "instagram": "None", "facebook": "None", "youtube": "None", "website": "None", "summary": "None", "logo": "None", "latitude": 46.185886593109856, "longitude": -59.87096162597401}, "894245869RR0001": {"name": "ROYAL CANADIAN LEGION -BR 32 (POPPY FUND TRUST ACCOUNT)", "designationCode": "C", "categoryCode": "09", "address": "P.O. BOX 217", "city": "CHETICAMP", "province": "NS", "country": "CA", "postalCode": "B0E1H0", "twitter": "None", "instagram": "None", "facebook": "None", "youtube": "None", "website": "None", "summary": "None", "logo": "None", "latitude": 46.60719600312706, "longitude": -61.03849596133188}, "855953931RR0001": {"name": "ROYAL CANADIAN LEGION #77 POPPY FUND CHARITY", "designationCode": "C", "categoryCode": "09", "address": "77, RUE LEWIS EST             P.O. BOX 628", "city": "WATERLOO", "province": "QC", "country": "CA", "postalCode": "J0E2N0", "twitter": "None", "instagram": "None", "facebook": "None", "youtube": "None", "website": "None", "summary": "None", "logo": "None", "latitude": 45.344903300046056, "longitude": -72.5120249819666}, "893179176RR0001": {"name": "ROYAL CANADIAN LEGION A V M SULLY- BRANCH 109 SCHOLARSHIP TRUST", "designationCode": "C", "categoryCode": "21", "address": "68 SOUTH ST", "city": "GODERICH", "province": "ON", "country": "CA", "postalCode": "N7A3L5", "twitter": "None", "instagram": "None", "facebook": "None", "youtube": "None", "website": "None", "summary": "None", "logo": "None", "latitude": 43.740810167638074, "longitude": -81.7112079928153}, "107929028RR0001": {"name": "ROYAL CANADIAN LEGION AMBASSADOR (ONT. NO. 143) POPPY FUND", "designationCode": "C", "categoryCode": "09", "address": "1570 MARENTETTE AVE", "city": "WINDSOR", "province": "ON", "country": "CA", "postalCode": "N8X4E5", "twitter": "None", "instagram": "None", "facebook": "None", "youtube": "None", "website": "None", "summary": "None", "logo": "None", "latitude": 42.30249094506307, "longitude": -83.01607389004016}, "887613594RR0001": {"name": "ROYAL CANADIAN LEGION ARRAS BRANCH 59 POPPY FUND", "designationCode": "C", "categoryCode": "09", "address": "PO BOX 1354", "city": "ANTIGONISH", "province": "NS", "country": "CA", "postalCode": "B2G2L7", "twitter": "None", "instagram": "None", "facebook": "None", "youtube": "None", "website": "None", "summary": "None", "logo": "None", "latitude": 45.62219400000005, "longitude": -61.99427149999994}, "886934397RR0001": {"name": "ROYAL CANADIAN LEGION BEAVER VALLEY (ONTARIO NO 281) BRANCH POPPY FUND", "designationCode": "C", "categoryCode": "09", "address": "PO BOX 268", "city": "CLARKSBURG", "province": "ON", "country": "CA", "postalCode": "N0H1J0", "twitter": "None", "instagram": "None", "facebook": "None", "youtube": "None", "website": "None", "summary": "None", "logo": "None", "latitude": 38.41646000000003, "longitude": -121.52724999999998}, "894087865RR0001": {"name": "ROYAL CANADIAN LEGION BELLE RIVER BRANCH 399 POPPY FUND", "designationCode": "C", "categoryCode": "09", "address": "504 NOTRE DAME PO BOX 9", "city": "BELLE RIVER", "province": "ON", "country": "CA", "postalCode": "N0R1A0", "twitter": "None", "instagram": "None", "facebook": "None", "youtube": "None", "website": "None", "summary": "None", "logo": "None", "latitude": 42.2930404962491, "longitude": -82.70623425437128}, "119128106RR0001": {"name": "ROYAL CANADIAN LEGION BELLEVILLE ONT. NO. 99 BRANCH POPPY FUND", "designationCode": "C", "categoryCode": "09", "address": "48 THORNECLIFFE STREET", "city": "BELLEVILLE", "province": "ON", "country": "CA", "postalCode": "K8P4L8", "twitter": "None", "instagram": "None", "facebook": "None", "youtube": "None", "website": "None", "summary": "None", "logo": "None", "latitude": 44.17503479211153, "longitude": -77.41090341398792}, "107929341RR0001": {"name": "ROYAL CANADIAN LEGION BEVERLY (ONTARIO NO. 500) BRANCH POPPY FUND", "designationCode": "C", "categoryCode": "09", "address": "P.O BOX 84", "city": "LYNDEN", "province": "ON", "country": "CA", "postalCode": "L0R1T0", "twitter": "None", "instagram": "None", "facebook": "None", "youtube": "None", "website": "None", "summary": "None", "logo": "None", "latitude": 43.24631837115676, "longitude": -80.15007912703803}, "876139510RR0002": {"name": "ROYAL CANADIAN LEGION BRANCH #498 - POPPY FUND", "designationCode": "C", "categoryCode": "09", "address": "P.O. BOX 429", "city": "GRAND BEND", "province": "ON", "country": "CA", "postalCode": "N0M1T0", "twitter": "None", "instagram": "None", "facebook": "None", "youtube": "None", "website": "None", "summary": "None", "logo": "None", "latitude": 43.235389489558244, "longitude": -81.68905893037018}, "890890668RR0001": {"name": "ROYAL CANADIAN LEGION BRANCH NO. 20 DIGBY POPPY FUND", "designationCode": "C", "categoryCode": "09", "address": "P. O. BOX 575", "city": "DIGBY", "province": "NS", "country": "CA", "postalCode": "B0V1A0", "twitter": "None", "instagram": "None", "facebook": "None", "youtube": "None", "website": "None", "summary": "None", "logo": "None", "latitude": 44.39616000000005, "longitude": -66.20374249999993}, "106830961RR0001": {"name": "ROYAL CANADIAN LEGION BRANCH POPPY FUND", "designationCode": "C", "categoryCode": "09", "address": "1-4539 6 STREET NE", "city": "CALGARY", "province": "AB", "country": "CA", "postalCode": "T2E3Z6", "twitter": "None", "instagram": "None", "facebook": "None", "youtube": "None", "website": "None", "summary": "None", "logo": "None", "latitude": 51.09265908964741, "longitude": -114.04829620693619}, "119127181RR0001": {"name": "ROYAL CANADIAN LEGION BRANCH 142 DUNNVILLE BRANCH POPPY FUND", "designationCode": "C", "categoryCode": "09", "address": "305 QUEEN STREET", "city": "DUNNVILLE", "province": "ON", "country": "CA", "postalCode": "N1A1J1", "twitter": "None", "instagram": "None", "facebook": "None", "youtube": "None", "website": "None", "summary": "None", "logo": "None", "latitude": 42.9023074899011, "longitude": -79.61483938911654}, "888662343RR0001": {"name": "ROYAL CANADIAN LEGION BRANCH 148, (NORTH BURNABY) POPPY FUND", "designationCode": "C", "categoryCode": "09", "address": "4356 HASTINGS STREET", "city": "BURNABY", "province": "BC", "country": "CA", "postalCode": "V5C2J9", "twitter": "None", "instagram": "None", "facebook": "None", "youtube": "None", "website": "None", "summary": "None", "logo": "None", "latitude": 49.28094714599822, "longitude": -123.00706038080385}, "832486161RR0001": {"name": "ROYAL CANADIAN LEGION BRANCH 18 POPPY TRUST FUND", "designationCode": "C", "categoryCode": "09", "address": "52 MARGARET AVE", "city": "WALLACEBURG", "province": "ON", "country": "CA", "postalCode": "N8A1Z9", "twitter": "None", "instagram": "None", "facebook": "None", "youtube": "None", "website": "None", "summary": "None", "logo": "None", "latitude": 42.595046897788485, "longitude": -82.38073369498063}, "889012241RR0001": {"name": "ROYAL CANADIAN LEGION BRANCH 212 KEMPTVILLE ONTARIO POPPY FUND", "designationCode": "C", "categoryCode": "09", "address": "BOX 458                       100 REUBEN CR.", "city": "KEMPTVILLE", "province": "ON", "country": "CA", "postalCode": "K0G1J0", "twitter": "None", "instagram": "None", "facebook": "None", "youtube": "None", "website": "None", "summary": "None", "logo": "None", "latitude": 45.013858616711865, "longitude": -75.6454604516995}, "890480742RR0001": {"name": "ROYAL CANADIAN LEGION BRANCH 232 POPPY FUND", "designationCode": "C", "categoryCode": "05", "address": "1-21 VETERANS HIGHWAY", "city": "HUNTSVILLE", "province": "ON", "country": "CA", "postalCode": "P1H1P3", "twitter": "None", "instagram": "None", "facebook": "None", "youtube": "None", "website": "None", "summary": "None", "logo": "None", "latitude": 45.32422825860162, "longitude": -79.21722042795865}, "121937247RR0001": {"name": "ROYAL CANADIAN LEGION BRANCH 26", "designationCode": "A", "categoryCode": "05", "address": "1380 BERTRAM ST", "city": "KELOWNA", "province": "BC", "country": "CA", "postalCode": "V1Y2G1", "twitter": "None", "instagram": "None", "facebook": "None", "youtube": "None", "website": "None", "summary": "None", "logo": "None", "latitude": 49.889538000000016, "longitude": -119.49027565782764}, "872612825RR0001": {"name": "ROYAL CANADIAN LEGION BRANCH 272 POPPY", "designationCode": "C", "categoryCode": "05", "address": "26 SCHOFIELD STREET", "city": "CAMBRIDGE", "province": "ON", "country": "CA", "postalCode": "N3C1Y3", "twitter": "None", "instagram": "None", "facebook": "None", "youtube": "None", "website": "None", "summary": "None", "logo": "None", "latitude": 43.427474257545285, "longitude": -80.31631322623899}, "886844620RR0001": {"name": "ROYAL CANADIAN LEGION BRANCH 288 POPPY FUND", "designationCode": "C", "categoryCode": "09", "address": "#6 2525 DOBBIN ROAD", "city": "WESTBANK", "province": "BC", "country": "CA", "postalCode": "V4T2G1", "twitter": "None", "instagram": "None", "facebook": "None", "youtube": "None", "website": "None", "summary": "None", "logo": "None", "latitude": 49.828419933925986, "longitude": -119.63155997446472}, "107930844RR0001": {"name": "ROYAL CANADIAN LEGION BRANCH 324", "designationCode": "C", "categoryCode": "09", "address": "P.O. BOX 729", "city": "WHEATLEY", "province": "ON", "country": "CA", "postalCode": "N0P2P0", "twitter": "None", "instagram": "None", "facebook": "None", "youtube": "None", "website": "None", "summary": "None", "logo": "None", "latitude": 42.1475991071054, "longitude": -82.45917754061918}}