{"118979491RR0001": {"name": "KENNETH COPELAND MINISTRIES", "designationCode": "C", "categoryCode": "47", "address": "20135 93A AVENUE", "city": "LANGLEY", "province": "BC", "country": "CA", "postalCode": "V1M4A9", "twitter": "None", "instagram": "None", "facebook": "None", "youtube": "None", "website": "None", "summary": "None", "logo": "None", "latitude": 49.17265669167275, "longitude": -122.6641500188988}, "889824462RR0001": {"name": "KENNETH GORDON SCHOOL BUILDING FOUNDATION FOR CHILDREN WITH SPECIFIC LEARNING DISABILITIES", "designationCode": "C", "categoryCode": "20", "address": "420 SEYMOUR RIVER PLACE", "city": "NORTH VANCOUVER", "province": "BC", "country": "CA", "postalCode": "V7H1S8", "twitter": "None", "instagram": "None", "facebook": "None", "youtube": "None", "website": "None", "summary": "None", "logo": "None", "latitude": 49.308768502914205, "longitude": -123.01749135172301}, "107563553RR0001": {"name": "KENNETH HAGIN MINISTRIES OF CANADA", "designationCode": "C", "categoryCode": "49", "address": "P.O.BOX 335                   STATION D", "city": "ETOBICOKE", "province": "ON", "country": "CA", "postalCode": "M9A4X3", "twitter": "None", "instagram": "None", "facebook": "None", "youtube": "None", "website": "None", "summary": "None", "logo": "None", "latitude": 43.64439900000005, "longitude": -79.56714049999994}, "118979525RR0001": {"name": "KENNETH M. MOLSON FOUNDATION", "designationCode": "B", "categoryCode": "53", "address": "BOX 50 1 FIRST CANADIAN PL", "city": "TORONTO", "province": "ON", "country": "CA", "postalCode": "M5X1B8", "twitter": "None", "instagram": "None", "facebook": "None", "youtube": "None", "website": "None", "summary": "None", "logo": "None", "latitude": 43.648682740967025, "longitude": -79.38032587056271}, "891112542RR0001": {"name": "KENOGAMI AND DISTRICT VOLUNTEER FIRE BRIGADE", "designationCode": "C", "categoryCode": "59", "address": "SITE 4 BOX 514                RR 2", "city": "SWASTIKA", "province": "ON", "country": "CA", "postalCode": "P0K1T0", "twitter": "None", "instagram": "None", "facebook": "None", "youtube": "None", "website": "None", "summary": "None", "logo": "None", "latitude": 48.10289100000006, "longitude": -80.10861649999994}, "872794904RR0001": {"name": "KENORA & LAKE OF THE WOODS REGIONAL COMMUNITY FOUNDATION", "designationCode": "A", "categoryCode": "03", "address": "PO BOX 441", "city": "KENORA", "province": "ON", "country": "CA", "postalCode": "P9N3X4", "twitter": "None", "instagram": "None", "facebook": "None", "youtube": "None", "website": "None", "summary": "None", "logo": "None", "latitude": 49.77125700000006, "longitude": -94.48912249999994}, "834050155RR0001": {"name": "KENORA ASSEMBLY OF RESOURCES", "designationCode": "C", "categoryCode": "01", "address": "216 S MATHESON ST", "city": "KENORA", "province": "ON", "country": "CA", "postalCode": "P9N1V2", "twitter": "None", "instagram": "None", "facebook": "None", "youtube": "None", "website": "None", "summary": "None", "logo": "None", "latitude": 49.76547152262103, "longitude": -94.48979045282469}, "118979541RR0001": {"name": "KENORA ASSOCIATION FOR COMMUNIY LIVING", "designationCode": "C", "categoryCode": "11", "address": "501 - 8TH. AVENUE SOUTH", "city": "KENORA", "province": "ON", "country": "CA", "postalCode": "P9N3Z9", "twitter": "None", "instagram": "None", "facebook": "None", "youtube": "None", "website": "None", "summary": "None", "logo": "None", "latitude": 49.75987813266778, "longitude": -94.47881941173756}, "118979558RR0001": {"name": "KENORA BIBLE CHURCH", "designationCode": "C", "categoryCode": "34", "address": "1455 VALLEY DR.", "city": "KENORA", "province": "ON", "country": "CA", "postalCode": "P9N4K6", "twitter": "None", "instagram": "None", "facebook": "None", "youtube": "None", "website": "None", "summary": "None", "logo": "None", "latitude": 49.78372034886612, "longitude": -94.45110349319067}, "128869088RR0001": {"name": "KENORA CATHOLIC DISTRICT SCHOOL BOARD", "designationCode": "C", "categoryCode": "20", "address": "1292 HEENAN PLACE", "city": "KENORA", "province": "ON", "country": "CA", "postalCode": "P9N2Y8", "twitter": "None", "instagram": "None", "facebook": "None", "youtube": "None", "website": "None", "summary": "None", "logo": "None", "latitude": 49.78111441271854, "longitude": -94.46017920745578}, "118979574RR0001": {"name": "KENORA CHURCH OF CHRIST", "designationCode": "C", "categoryCode": "39", "address": "PO BOX 2905, 101 NORMAN DRIVE", "city": "KENORA", "province": "ON", "country": "CA", "postalCode": "P9N3X8", "twitter": "None", "instagram": "None", "facebook": "None", "youtube": "None", "website": "None", "summary": "None", "logo": "None", "latitude": 49.76694661143174, "longitude": -94.52827497169481}, "118979590RR0001": {"name": "KENORA DISTRICT FESTIVAL OF THE ARTS", "designationCode": "C", "categoryCode": "22", "address": "PO BOX 817", "city": "KENORA", "province": "ON", "country": "CA", "postalCode": "P9N4B5", "twitter": "None", "instagram": "None", "facebook": "None", "youtube": "None", "website": "None", "summary": "None", "logo": "None", "latitude": 49.77125700000006, "longitude": -94.48912249999994}, "118979608RR0001": {"name": "KENORA DISTRICT NEW HORIZONS SENIORS CENTRE", "designationCode": "C", "categoryCode": "56", "address": "18 MIKE RICHARDS WAY", "city": "KENORA", "province": "ON", "country": "CA", "postalCode": "P9N1L2", "twitter": "None", "instagram": "None", "facebook": "None", "youtube": "None", "website": "None", "summary": "None", "logo": "None", "latitude": 49.760978396217595, "longitude": -94.48825314378027}, "118979616RR0001": {"name": "KENORA FELLOWSHIP CENTRE", "designationCode": "C", "categoryCode": "49", "address": "P O BOX 447", "city": "KENORA", "province": "ON", "country": "CA", "postalCode": "P9N3X4", "twitter": "None", "instagram": "None", "facebook": "None", "youtube": "None", "website": "None", "summary": "None", "logo": "None", "latitude": 49.77125700000006, "longitude": -94.48912249999994}, "118979632RR0001": {"name": "KENORA HANDI TRANSIT", "designationCode": "C", "categoryCode": "09", "address": "18 MIKE RICHARDS WAY", "city": "KENORA", "province": "ON", "country": "CA", "postalCode": "P9N3X2", "twitter": "None", "instagram": "None", "facebook": "None", "youtube": "None", "website": "None", "summary": "None", "logo": "None", "latitude": 49.760978396217595, "longitude": -94.48825314378027}, "119288918RR1143": {"name": "KENORA ONTARIO CONGREGATION OF JEHOVAH'S WITNESSES", "designationCode": "C", "categoryCode": "61", "address": "68 DONBROCK DR", "city": "KENORA", "province": "ON", "country": "CA", "postalCode": "P9N0A2", "twitter": "None", "instagram": "None", "facebook": "None", "youtube": "None", "website": "None", "summary": "None", "logo": "None", "latitude": 49.78318337607479, "longitude": -94.43861849125743}, "107564395RR0001": {"name": "KENORA PUBLIC LIBRARY", "designationCode": "C", "categoryCode": "50", "address": "1 MAIN ST SOUTH", "city": "KENORA", "province": "ON", "country": "CA", "postalCode": "P9N3X2", "twitter": "None", "instagram": "None", "facebook": "None", "youtube": "None", "website": "None", "summary": "None", "logo": "None", "latitude": 49.76877102331352, "longitude": -94.48936248346715}, "136030228RR0001": {"name": "KENORA SEXUAL ASSAULT CENTRE", "designationCode": "C", "categoryCode": "09", "address": "101 CHIPMAN ST", "city": "KENORA", "province": "ON", "country": "CA", "postalCode": "P9N1V7", "twitter": "None", "instagram": "None", "facebook": "None", "youtube": "None", "website": "None", "summary": "None", "logo": "None", "latitude": 49.766392613653444, "longitude": -94.48805139549317}, "890271646RR0001": {"name": "KENOSEE LAKE BOYS AND GIRLS CAMP", "designationCode": "C", "categoryCode": "56", "address": "PO BOX 1291", "city": "CARLYLE", "province": "SK", "country": "CA", "postalCode": "S0C0R0", "twitter": "None", "instagram": "None", "facebook": "None", "youtube": "None", "website": "None", "summary": "None", "logo": "None", "latitude": 49.628016, "longitude": -102.26315694795335}, "134127083RR0001": {"name": "KENSINGTON MEALS-ON-WHEELS", "designationCode": "C", "categoryCode": "09", "address": "P.O. BOX 870", "city": "KENSINGTON", "province": "PE", "country": "CA", "postalCode": "C0B1M0", "twitter": "None", "instagram": "None", "facebook": "None", "youtube": "None", "website": "None", "summary": "None", "logo": "None", "latitude": 46.53816900000005, "longitude": -63.71270899999993}, "118979707RR0001": {"name": "KENSINGTON PASTORAL CHARGE", "designationCode": "C", "categoryCode": "44", "address": "BOX 841", "city": "KENSINGTON", "province": "PE", "country": "CA", "postalCode": "C0B1M0", "twitter": "None", "instagram": "None", "facebook": "None", "youtube": "None", "website": "None", "summary": "None", "logo": "None", "latitude": 46.53816900000005, "longitude": -63.71270899999993}, "118979715RR0001": {"name": "KENSINGTON PEOPLE'S CEMETERY INC.", "designationCode": "C", "categoryCode": "59", "address": "POST OFFICE BOX 388", "city": "KENSINGTON", "province": "PE", "country": "CA", "postalCode": "C0B1M0", "twitter": "None", "instagram": "None", "facebook": "None", "youtube": "None", "website": "None", "summary": "None", "logo": "None", "latitude": 46.53816900000005, "longitude": -63.71270899999993}, "118979723RR0001": {"name": "KENSINGTON PRESBYTERIAN CHURCH", "designationCode": "C", "categoryCode": "37", "address": "PO BOX 213", "city": "KENSINGTON", "province": "PE", "country": "CA", "postalCode": "C0B1M0", "twitter": "None", "instagram": "None", "facebook": "None", "youtube": "None", "website": "None", "summary": "None", "logo": "None", "latitude": 46.53816900000005, "longitude": -63.71270899999993}, "131560054RR0001": {"name": "KENT AGRICULTURE IN THE CLASSROOM ACTION COMMITTEE", "designationCode": "C", "categoryCode": "21", "address": "120 MAIN STREET EAST", "city": "RIDGETOWN", "province": "ON", "country": "CA", "postalCode": "N0P2C0", "twitter": "None", "instagram": "None", "facebook": "None", "youtube": "None", "website": "None", "summary": "None", "logo": "None", "latitude": 42.44533763052366, "longitude": -81.8794141024083}, "891363848RR0001": {"name": "KENT COUNTY AGRICULTURAL HALL OF FAME ASSOCIATION", "designationCode": "C", "categoryCode": "50", "address": "15 ZIRCON PLACE", "city": "CHATHAM", "province": "ON", "country": "CA", "postalCode": "N7M5Y9", "twitter": "None", "instagram": "None", "facebook": "None", "youtube": "None", "website": "None", "summary": "None", "logo": "None", "latitude": 42.399899768538205, "longitude": -82.20177324949519}, "118979814RR0001": {"name": "KENT GOLDEN WEDDING SCHOLARSHIP & CHARITABLE FOUNDATION CHARLES CHAN", "designationCode": "A", "categoryCode": "23", "address": "608-1331 HOMER ST", "city": "VANCOUVER", "province": "BC", "country": "CA", "postalCode": "V6B5M5", "twitter": "None", "instagram": "None", "facebook": "None", "youtube": "None", "website": "None", "summary": "None", "logo": "None", "latitude": 49.273966892881035, "longitude": -123.12539034094935}, "890578941RR0001": {"name": "KENT HISTORICAL SOCIETY", "designationCode": "C", "categoryCode": "50", "address": "11768 BATES DRIVE", "city": "MORPETH", "province": "ON", "country": "CA", "postalCode": "N0P1X0", "twitter": "None", "instagram": "None", "facebook": "None", "youtube": "None", "website": "None", "summary": "None", "logo": "None", "latitude": 42.33827426588381, "longitude": -81.83990921394799}, "894489855RR0001": {"name": "KENT SIKH SOCIETY", "designationCode": "C", "categoryCode": "62", "address": "148 TECUMSEH RD.", "city": "CHATHAM", "province": "ON", "country": "CA", "postalCode": "N7M5Y8", "twitter": "None", "instagram": "None", "facebook": "None", "youtube": "None", "website": "None", "summary": "None", "logo": "None", "latitude": 42.39853949016091, "longitude": -82.20225999030514}, "118979822RR0001": {"name": "KENT-HARRISON ARTS COUNCIL", "designationCode": "C", "categoryCode": "22", "address": "P.O. BOX 502", "city": "AGASSIZ", "province": "BC", "country": "CA", "postalCode": "V0M1A0", "twitter": "None", "instagram": "None", "facebook": "None", "youtube": "None", "website": "None", "summary": "None", "logo": "None", "latitude": 49.23862800000006, "longitude": -121.76060749999994}, "889291449RR0001": {"name": "KENT-HARRISON FOUNDATION", "designationCode": "C", "categoryCode": "09", "address": "PO BOX 618", "city": "AGASSIZ", "province": "BC", "country": "CA", "postalCode": "V0M1A0", "twitter": "None", "instagram": "None", "facebook": "None", "youtube": "None", "website": "None", "summary": "None", "logo": "None", "latitude": 49.23862800000006, "longitude": -121.76060749999994}, "888243631RR0001": {"name": "KENT-HARRISON SEARCH AND RESCUE TEAM SOCIETY", "designationCode": "C", "categoryCode": "59", "address": "PO BOX 747", "city": "AGASSIZ", "province": "BC", "country": "CA", "postalCode": "V0M1A0", "twitter": "None", "instagram": "None", "facebook": "None", "youtube": "None", "website": "None", "summary": "None", "logo": "None", "latitude": 49.23862800000006, "longitude": -121.76060749999994}, "889910865RR0001": {"name": "KENT-HARRISON SENIOR SOCIAL CENTRE SOCIETY", "designationCode": "C", "categoryCode": "56", "address": "BOX 803", "city": "AGASSIZ", "province": "BC", "country": "CA", "postalCode": "V0M1A0", "twitter": "None", "instagram": "None", "facebook": "None", "youtube": "None", "website": "None", "summary": "None", "logo": "None", "latitude": 49.23862800000006, "longitude": -121.76060749999994}, "118979830RR0001": {"name": "KENTON COMMUNITY ENTERPRISES", "designationCode": "C", "categoryCode": "56", "address": "PO BOX 181", "city": "KENTON", "province": "MB", "country": "CA", "postalCode": "R0M0Z0", "twitter": "None", "instagram": "None", "facebook": "None", "youtube": "None", "website": "None", "summary": "None", "logo": "None", "latitude": 49.99002000000007, "longitude": -100.61247999999995}, "107564999RR0001": {"name": "KENTON-SHILOH UNITED CHURCH", "designationCode": "C", "categoryCode": "44", "address": "PO BOX 70", "city": "KENTON", "province": "MB", "country": "CA", "postalCode": "R0M0Z0", "twitter": "None", "instagram": "None", "facebook": "None", "youtube": "None", "website": "None", "summary": "None", "logo": "None", "latitude": 49.99002000000007, "longitude": -100.61247999999995}, "118979863RR0001": {"name": "KENTVILLE ROTARY CLUB CHARITABLE TRUST", "designationCode": "A", "categoryCode": "65", "address": "PO BOX 85", "city": "KENTVILLE", "province": "NS", "country": "CA", "postalCode": "B4N3V9", "twitter": "None", "instagram": "None", "facebook": "None", "youtube": "None", "website": "None", "summary": "None", "logo": "None", "latitude": 45.07663200000006, "longitude": -64.49369299999994}, "118979871RR0001": {"name": "KENTVILLE UNITED BAPTIST CHURCH", "designationCode": "C", "categoryCode": "31", "address": "503 MAIN STREET", "city": "KENTVILLE", "province": "NS", "country": "CA", "postalCode": "B4N1L4", "twitter": "None", "instagram": "None", "facebook": "None", "youtube": "None", "website": "None", "summary": "None", "logo": "None", "latitude": 45.07774242772217, "longitude": -64.50099985775293}, "118979889RR0001": {"name": "KENTVILLE VOLUNTEER FIRE DEPARTMENT", "designationCode": "C", "categoryCode": "59", "address": "463 MAIN STREET", "city": "KENTVILLE", "province": "NS", "country": "CA", "postalCode": "B4N1K9", "twitter": "None", "instagram": "None", "facebook": "None", "youtube": "None", "website": "None", "summary": "None", "logo": "None", "latitude": 45.07750141719057, "longitude": -64.49867683651686}, "129829180RR0001": {"name": "KENTWOOD ALLIANCE CHURCH", "designationCode": "C", "categoryCode": "39", "address": "4 KENNEDY DR", "city": "RED DEER", "province": "AB", "country": "CA", "postalCode": "T4P3M7", "twitter": "None", "instagram": "None", "facebook": "None", "youtube": "None", "website": "None", "summary": "None", "logo": "None", "latitude": 52.30648034165277, "longitude": -113.82713630298889}, "845413145RR0001": {"name": "KENYA EDUCATION ENDOWMENT FUND", "designationCode": "C", "categoryCode": "21", "address": "#904-2135 ARGYLE AVENUE", "city": "WEST VANCOUVER", "province": "BC", "country": "CA", "postalCode": "V7V1A5", "twitter": "None", "instagram": "None", "facebook": "None", "youtube": "None", "website": "None", "summary": "None", "logo": "None", "latitude": 49.32836259091682, "longitude": -123.1698671638585}, "839115201RR0001": {"name": "KENYA FOUNDATION TO AID CHILDREN THROUGH EDUCATION", "designationCode": "C", "categoryCode": "21", "address": "3642 11TH AVE W", "city": "VANCOUVER", "province": "BC", "country": "CA", "postalCode": "V6R2K5", "twitter": "None", "instagram": "None", "facebook": "None", "youtube": "None", "website": "None", "summary": "None", "logo": "None", "latitude": 49.26251754674263, "longitude": -123.18488282806277}, "118979913RR0001": {"name": "KENYON PRESBYTERIAN CHURCH", "designationCode": "C", "categoryCode": "37", "address": "1630 COUNTY RD 30             RR#1", "city": "DUNVEGAN", "province": "ON", "country": "CA", "postalCode": "K0C1J0", "twitter": "None", "instagram": "None", "facebook": "None", "youtube": "None", "website": "None", "summary": "None", "logo": "None", "latitude": 45.36228218310658, "longitude": -74.8190611944001}, "118979921RR0001": {"name": "KENZIEVILLE CEMETERY COMPANY", "designationCode": "C", "categoryCode": "59", "address": "2399 LAGGAN RD                RR 10", "city": "LAGGAN", "province": "NS", "country": "CA", "postalCode": "B0K1A0", "twitter": "None", "instagram": "None", "facebook": "None", "youtube": "None", "website": "None", "summary": "None", "logo": "None", "latitude": 45.544724876827765, "longitude": -62.32815004105741}, "831451273RR0001": {"name": "KEPHA FOUNDATION SOCIETY", "designationCode": "B", "categoryCode": "03", "address": "300 - 34334 FORREST TERR", "city": "ABBOTSFORD", "province": "BC", "country": "CA", "postalCode": "V2S1G7", "twitter": "None", "instagram": "None", "facebook": "None", "youtube": "None", "website": "None", "summary": "None", "logo": "None", "latitude": 49.034142798199724, "longitude": -122.27388580362407}, "130728520RR0001": {"name": "KER-TAPLEYTOWN PASTORAL CHARGE,", "designationCode": "C", "categoryCode": "44", "address": "413 MUD ST E", "city": "STONEY CREEK", "province": "ON", "country": "CA", "postalCode": "L8J3B5", "twitter": "None", "instagram": "None", "facebook": "None", "youtube": "None", "website": "None", "summary": "None", "logo": "None", "latitude": 43.181765846471535, "longitude": -79.73409459461227}, "889322244RR0001": {"name": "KERALA CHRISTIAN ASSEMBLY, TORONTO", "designationCode": "C", "categoryCode": "36", "address": "121 NORFINCH DR", "city": "NORTH YORK", "province": "ON", "country": "CA", "postalCode": "M3N1W8", "twitter": "None", "instagram": "None", "facebook": "None", "youtube": "None", "website": "None", "summary": "None", "logo": "None", "latitude": 43.7617665678631, "longitude": -79.52927731845482}, "847491214RR0001": {"name": "KERALA PENTECOSTAL CHURCH TORONTO", "designationCode": "C", "categoryCode": "39", "address": "750 OAKDALE RD, UNIT 63", "city": "TORONTO", "province": "ON", "country": "CA", "postalCode": "M3N2Z4", "twitter": "None", "instagram": "None", "facebook": "None", "youtube": "None", "website": "None", "summary": "None", "logo": "None", "latitude": 43.75193318399804, "longitude": -79.52640657839375}, "118979947RR0001": {"name": "KERBY ASSEMBLY", "designationCode": "C", "categoryCode": "09", "address": "1133 7 AVE SW", "city": "CALGARY", "province": "AB", "country": "CA", "postalCode": "T2P1B2", "twitter": "None", "instagram": "None", "facebook": "None", "youtube": "None", "website": "None", "summary": "None", "logo": "None", "latitude": 51.047159481245465, "longitude": -114.08767080544173}, "861277226RR0001": {"name": "KEREMEOS COMMUNITY CHURCH", "designationCode": "C", "categoryCode": "38", "address": "195 ASHNOLA ROAD", "city": "KEREMEOS", "province": "BC", "country": "CA", "postalCode": "V0X1N1", "twitter": "None", "instagram": "None", "facebook": "None", "youtube": "None", "website": "None", "summary": "None", "logo": "None", "latitude": 49.209690569772526, "longitude": -119.90723312410135}, "119288918RR0788": {"name": "KEREMEOS CONGREGATION OF JEHOVAH'S WITNESSES", "designationCode": "C", "categoryCode": "61", "address": "421 9TH AVE", "city": "KEREMEOS", "province": "BC", "country": "CA", "postalCode": "V0X1N3", "twitter": "None", "instagram": "None", "facebook": "None", "youtube": "None", "website": "None", "summary": "None", "logo": "None", "latitude": 49.20324053952927, "longitude": -119.82816}, "875213316RR0001": {"name": "KEREN ARYEH LEIB & CHANA EDUCATIONAL AND SCHOLARSHIP FUND - BNEH MENACHME CHAIM MOSHE/FONDS D'EDUCATION ET DE BOURSES D'ETUDES KEREN ARYEB LEIB & CHANA-BNEH MENACHEM CHAIM MOS", "designationCode": "C", "categoryCode": "23", "address": "4947 PLAMONDON", "city": "MONTREAL", "province": "QC", "country": "CA", "postalCode": "H3W1E9", "twitter": "None", "instagram": "None", "facebook": "None", "youtube": "None", "website": "None", "summary": "None", "logo": "None", "latitude": 45.493506512637715, "longitude": -73.64249741023701}, "892634569RR0001": {"name": "KEREN CHASDEI NUCHEM FREE LOAN", "designationCode": "C", "categoryCode": "09", "address": "2550 BATES ROAD, #403", "city": "MONTREAL", "province": "QC", "country": "CA", "postalCode": "H3S1A7", "twitter": "None", "instagram": "None", "facebook": "None", "youtube": "None", "website": "None", "summary": "None", "logo": "None", "latitude": 45.51378240354327, "longitude": -73.63086673186582}, "118979962RR0001": {"name": "KEREN HATORAH CHARITY FUND", "designationCode": "B", "categoryCode": "21", "address": "TRUSTEE                       50 BRISBANE ROAD", "city": "DOWNSVIEW", "province": "ON", "country": "CA", "postalCode": "M3J2K2", "twitter": "None", "instagram": "None", "facebook": "None", "youtube": "None", "website": "None", "summary": "None", "logo": "None", "latitude": 43.77196112245333, "longitude": -79.47367805386907}, "118979970RR0001": {"name": "KEREN HAYELED CHARITABLE ORGANIZATION", "designationCode": "C", "categoryCode": "09", "address": "561 GLENGROVE AVE. W.", "city": "TORONTO", "province": "ON", "country": "CA", "postalCode": "M6B2H5", "twitter": "None", "instagram": "None", "facebook": "None", "youtube": "None", "website": "None", "summary": "None", "logo": "None", "latitude": 43.713026823734936, "longitude": -79.43352441355523}, "842197923RR0001": {"name": "KEREN MENACHEM AVROHOM", "designationCode": "C", "categoryCode": "09", "address": "5331 HUTCHISON", "city": "MONTREAL", "province": "QC", "country": "CA", "postalCode": "H2V4B4", "twitter": "None", "instagram": "None", "facebook": "None", "youtube": "None", "website": "None", "summary": "None", "logo": "None", "latitude": 45.5204641737549, "longitude": -73.60035860101571}, "130602253RR0001": {"name": "KEROUL", "designationCode": "C", "categoryCode": "59", "address": "C.P. 1000, SUCC. M.", "city": "MONTREAL", "province": "QC", "country": "CA", "postalCode": "H1V3R2", "twitter": "None", "instagram": "None", "facebook": "None", "youtube": "None", "website": "None", "summary": "None", "logo": "None", "latitude": 45.55908600000005, "longitude": -73.54210849999993}, "897106845RR0001": {"name": "KERR STREET COMMUNITY SERVICES", "designationCode": "C", "categoryCode": "53", "address": "485 KERR STREET", "city": "OAKVILLE", "province": "ON", "country": "CA", "postalCode": "L6K3C6", "twitter": "None", "instagram": "None", "facebook": "None", "youtube": "None", "website": "None", "summary": "None", "logo": "None", "latitude": 43.44625847045407, "longitude": -79.6860970681229}, "118980010RR0001": {"name": "KERRISDALE PRESBYTERIAN CHURCH", "designationCode": "C", "categoryCode": "39", "address": "2733 W 41ST AVENUE", "city": "VANCOUVER", "province": "BC", "country": "CA", "postalCode": "V6N3C5", "twitter": "None", "instagram": "None", "facebook": "None", "youtube": "None", "website": "None", "summary": "None", "logo": "None", "latitude": 49.23477251990839, "longitude": -123.16667094601536}, "864972773RR0001": {"name": "KERRISDALE, OAKRIDGE, MARPOLE CRIME PREVENTION SOCIETY", "designationCode": "C", "categoryCode": "59", "address": "6070 EAST BVLD.", "city": "VANCOUVER", "province": "BC", "country": "CA", "postalCode": "V6M3V5", "twitter": "None", "instagram": "None", "facebook": "None", "youtube": "None", "website": "None", "summary": "None", "logo": "None", "latitude": 49.23106846531695, "longitude": -123.15501625941364}, "118980077RR0001": {"name": "KERROBERT UNITED CHURCH OF CANADA", "designationCode": "C", "categoryCode": "44", "address": "BOX 626", "city": "KERROBERT", "province": "SK", "country": "CA", "postalCode": "S0L1R0", "twitter": "None", "instagram": "None", "facebook": "None", "youtube": "None", "website": "None", "summary": "None", "logo": "None", "latitude": 51.920060000000035, "longitude": -109.13800999999995}, "107565665RR0001": {"name": "KERRY'S PLACE AUTISM SERVICES", "designationCode": "C", "categoryCode": "11", "address": "34 BERCZY STREET              SUITE 190", "city": "AURORA", "province": "ON", "country": "CA", "postalCode": "L4G1W9", "twitter": "None", "instagram": "None", "facebook": "None", "youtube": "None", "website": "None", "summary": "None", "logo": "None", "latitude": 44.000103751312864, "longitude": -79.46026670653215}, "883374670RR0001": {"name": "KERRY'S PLACE RESIDENTIAL SERVICES", "designationCode": "C", "categoryCode": "09", "address": "34 BERCZY STREET #190", "city": "AURORA", "province": "ON", "country": "CA", "postalCode": "L4G1W9", "twitter": "None", "instagram": "None", "facebook": "None", "youtube": "None", "website": "None", "summary": "None", "logo": "None", "latitude": 44.000103751312864, "longitude": -79.46026670653215}, "886225341RR0001": {"name": "KESHER EMPLOYMENT SERVICES", "designationCode": "C", "categoryCode": "09", "address": "3995 BATHURST STREET          SUITE 304", "city": "TORONTO", "province": "ON", "country": "CA", "postalCode": "M3H5V3", "twitter": "None", "instagram": "None", "facebook": "None", "youtube": "None", "website": "None", "summary": "None", "logo": "None", "latitude": 43.74409073550117, "longitude": -79.43563391670057}, "860397090RR0001": {"name": "KESHER OUTREACH ORGANIZATION", "designationCode": "C", "categoryCode": "49", "address": "208 CARMICHAEL AVENUE", "city": "TORONTO", "province": "ON", "country": "CA", "postalCode": "M5M2X3", "twitter": "None", "instagram": "None", "facebook": "None", "youtube": "None", "website": "None", "summary": "None", "logo": "None", "latitude": 43.73544213240798, "longitude": -79.43015762268445}, "889796488RR0001": {"name": "KESTON CANADA", "designationCode": "C", "categoryCode": "49", "address": "46 CALEDONIA ST", "city": "STRATFORD", "province": "ON", "country": "CA", "postalCode": "N5A5W5", "twitter": "None", "instagram": "None", "facebook": "None", "youtube": "None", "website": "None", "summary": "None", "logo": "None", "latitude": 43.37498007219092, "longitude": -80.98607930180638}, "868046095RR0001": {"name": "KESWICK CEMETERY ASSOCIATION INC.", "designationCode": "C", "categoryCode": "59", "address": "232 ROUTE 105", "city": "KESWICK RIDGE", "province": "NB", "country": "CA", "postalCode": "E6L1A5", "twitter": "None", "instagram": "None", "facebook": "None", "youtube": "None", "website": "None", "summary": "None", "logo": "None", "latitude": 45.974081495147765, "longitude": -66.8469641072669}, "107565749RR0001": {"name": "KESWICK CHRISTIAN CHURCH", "designationCode": "C", "categoryCode": "39", "address": "PO BOX 35", "city": "KESWICK", "province": "ON", "country": "CA", "postalCode": "L4P3E1", "twitter": "None", "instagram": "None", "facebook": "None", "youtube": "None", "website": "None", "summary": "None", "logo": "None", "latitude": 44.23899300000005, "longitude": -79.46528299999993}, "119288918RR1144": {"name": "KESWICK CONGREGATION OF JEHOVAH'S WITNESSES, ONTARIO", "designationCode": "C", "categoryCode": "61", "address": "37 HIGHCASTLE AVE", "city": "KESWICK", "province": "ON", "country": "CA", "postalCode": "L4P4B5", "twitter": "None", "instagram": "None", "facebook": "None", "youtube": "None", "website": "None", "summary": "None", "logo": "None", "latitude": 44.25195235359799, "longitude": -79.48090694904512}, "886759547RR0001": {"name": "KESWICK PRESBYTERIAN CHURCH", "designationCode": "C", "categoryCode": "37", "address": "23449 WOODBINE AVENUE", "city": "KESWICK", "province": "ON", "country": "CA", "postalCode": "L4P3E9", "twitter": "None", "instagram": "None", "facebook": "None", "youtube": "None", "website": "None", "summary": "None", "logo": "None", "latitude": 44.21174235498299, "longitude": -79.44302646113458}, "107565756RR0001": {"name": "KESWICK RIDGE PASTORAL CHARGE", "designationCode": "C", "categoryCode": "44", "address": "499 ROUTE 616", "city": "KESWICK RIDGE", "province": "NB", "country": "CA", "postalCode": "E6L1S4", "twitter": "None", "instagram": "None", "facebook": "None", "youtube": "None", "website": "None", "summary": "None", "logo": "None"}, "118980184RR0001": {"name": "KESWICK UNITED CHURCH", "designationCode": "C", "categoryCode": "44", "address": "3406 POLLOCK RD.              RR#2", "city": "KESWICK", "province": "ON", "country": "CA", "postalCode": "L4P3E9", "twitter": "None", "instagram": "None", "facebook": "None", "youtube": "None", "website": "None", "summary": "None", "logo": "None", "latitude": 44.24303717078246, "longitude": -79.411739408448}, "118980192RR0001": {"name": "KESWICK VALLEY REGIONAL COMPLEX INC.", "designationCode": "C", "categoryCode": "56", "address": "25 ROUTE 617", "city": "BURTTS CORNER", "province": "NB", "country": "CA", "postalCode": "E6L2X4", "twitter": "None", "instagram": "None", "facebook": "None", "youtube": "None", "website": "None", "summary": "None", "logo": "None", "latitude": 46.06515783847824, "longitude": -66.87661233738396}, "131934713RR0001": {"name": "KESWICK VALLEY SENIOR'S COMPLEX INC", "designationCode": "C", "categoryCode": "01", "address": "1037 ROUTE 104", "city": "BURTTS CORNER", "province": "NB", "country": "CA", "postalCode": "E6L2E6", "twitter": "None", "instagram": "None", "facebook": "None", "youtube": "None", "website": "None", "summary": "None", "logo": "None", "latitude": 46.05988371743269, "longitude": -66.87462873305913}, "889283883RR0001": {"name": "KETCHA STAR (EGANVILLE) DAYCARE", "designationCode": "C", "categoryCode": "20", "address": "P.O. BOX 842, 102 MAPLE ST.", "city": "EGANVILLE", "province": "ON", "country": "CA", "postalCode": "K0J1T0", "twitter": "None", "instagram": "None", "facebook": "None", "youtube": "None", "website": "None", "summary": "None", "logo": "None"}, "107565806RR0001": {"name": "KETTLE CREEK CONSERVATION AUTHORITY", "designationCode": "C", "categoryCode": "52", "address": "44015 FERGUSON LINE           RR8", "city": "ST THOMAS", "province": "ON", "country": "CA", "postalCode": "N5P3T3", "twitter": "None", "instagram": "None", "facebook": "None", "youtube": "None", "website": "None", "summary": "None", "logo": "None", "latitude": 42.835458991118614, "longitude": -81.14850973650988}, "118980242RR0001": {"name": "KETTLE RIVER MUSEUM", "designationCode": "C", "categoryCode": "50", "address": "BOX 149", "city": "MIDWAY", "province": "BC", "country": "CA", "postalCode": "V0H1M0", "twitter": "None", "instagram": "None", "facebook": "None", "youtube": "None", "website": "None", "summary": "None", "logo": "None", "latitude": 49.10113921679708, "longitude": -118.67616064840723}, "118980259RR0001": {"name": "KETTLE VALLEY BURSARY AND SCHOLARSHIP SOCIETY", "designationCode": "C", "categoryCode": "21", "address": "BOX 362", "city": "MIDWAY", "province": "BC", "country": "CA", "postalCode": "V0H1M0", "twitter": "None", "instagram": "None", "facebook": "None", "youtube": "None", "website": "None", "summary": "None", "logo": "None", "latitude": 49.10113921679708, "longitude": -118.67616064840723}, "888788346RR0001": {"name": "KETTLEBY CEMETERY COMPANY", "designationCode": "C", "categoryCode": "59", "address": "8 LAMAR STREET", "city": "MAPLE", "province": "ON", "country": "CA", "postalCode": "L6A1A4", "twitter": "None", "instagram": "None", "facebook": "None", "youtube": "None", "website": "None", "summary": "None", "logo": "None", "latitude": 43.85705344408212, "longitude": -79.51809073316389}, "839733672RR0001": {"name": "KEV'S KIDS SOCIETY", "designationCode": "A", "categoryCode": "03", "address": "#200 9835 101 AVENUE          SUN FM", "city": "GRANDE PRAIRIE", "province": "AB", "country": "CA", "postalCode": "T8V5V4", "twitter": "None", "instagram": "None", "facebook": "None", "youtube": "None", "website": "None", "summary": "None", "logo": "None", "latitude": 55.171585722652566, "longitude": -118.79547259559764}, "887378263RR0001": {"name": "KEVIN LAPA SCHOLARSHIP SOCIETY", "designationCode": "C", "categoryCode": "21", "address": "1837 MCKINLEY COURT", "city": "KAMLOOPS", "province": "BC", "country": "CA", "postalCode": "V2E2L9", "twitter": "None", "instagram": "None", "facebook": "None", "youtube": "None", "website": "None", "summary": "None", "logo": "None", "latitude": 50.65357302080338, "longitude": -120.35400243545512}, "118980275RR0001": {"name": "KEVIN MILLARD SCHOLARSHIP FUND", "designationCode": "B", "categoryCode": "21", "address": "RR#1", "city": "TATAMAGOUCHE", "province": "NS", "country": "CA", "postalCode": "B0K1V0", "twitter": "None", "instagram": "None", "facebook": "None", "youtube": "None", "website": "None", "summary": "None", "logo": "None", "latitude": 45.71288526208159, "longitude": -63.415849046616174}, "118980283RR0001": {"name": "KEW BEACH DAY CARE COOPERATIVE INC.", "designationCode": "C", "categoryCode": "09", "address": "101 KIPPENDAVIE AVENUE", "city": "TORONTO", "province": "ON", "country": "CA", "postalCode": "M4L3R3", "twitter": "None", "instagram": "None", "facebook": "None", "youtube": "None", "website": "None", "summary": "None", "logo": "None", "latitude": 43.66829253540299, "longitude": -79.30346691860515}, "132514829RR0001": {"name": "KEY CITY THEATRE SOCIEY", "designationCode": "C", "categoryCode": "22", "address": "20-14TH AVENUE NORTH", "city": "CRANBROOK", "province": "BC", "country": "CA", "postalCode": "V1C6H4", "twitter": "None", "instagram": "None", "facebook": "None", "youtube": "None", "website": "None", "summary": "None", "logo": "None", "latitude": 49.512308609080534, "longitude": -115.76196465809069}, "895334712RR0001": {"name": "KEY COMPANION SERVICE-DOGS", "designationCode": "C", "categoryCode": "59", "address": "5198 CHERRY ST", "city": "STOUFFVILLE", "province": "ON", "country": "CA", "postalCode": "L4A3K8", "twitter": "None", "instagram": "None", "facebook": "None", "youtube": "None", "website": "None", "summary": "None", "logo": "None", "latitude": 44.06682575848864, "longitude": -79.30721508853073}, "138691928RR0001": {"name": "KEY LIFE NETWORK OF CANADA INC.", "designationCode": "C", "categoryCode": "47", "address": "PO BOX 28060", "city": "WATERLOO", "province": "ON", "country": "CA", "postalCode": "N2L6J8", "twitter": "None", "instagram": "None", "facebook": "None", "youtube": "None", "website": "None", "summary": "None", "logo": "None", "latitude": 43.46338200000005, "longitude": -80.52075349999993}, "874599004RR0001": {"name": "KEY OF RESTORATION CHURCH: J. MICHEL ITOUA-MAMIC MINISTRIES", "designationCode": "C", "categoryCode": "39", "address": "4TH FLOOR, SUITE DR THOMAS    50 GERVAIS DRIVE", "city": "TORONTO", "province": "ON", "country": "CA", "postalCode": "M3C1Z3", "twitter": "None", "instagram": "None", "facebook": "None", "youtube": "None", "website": "None", "summary": "None", "logo": "None", "latitude": 43.72524896808814, "longitude": -79.33757831660755}, "873282909RR0001": {"name": "KEY TO LIFE EVANGELICAL CHURCH", "designationCode": "C", "categoryCode": "39", "address": "42 TANAGER CRES", "city": "WASAGA BEACH", "province": "ON", "country": "CA", "postalCode": "L9Z0B2", "twitter": "None", "instagram": "None", "facebook": "None", "youtube": "None", "website": "None", "summary": "None", "logo": "None", "latitude": 44.47083027197349, "longitude": -80.0666871360023}, "107566218RR0001": {"name": "KEYANO COLLEGE", "designationCode": "C", "categoryCode": "20", "address": "8115 FRANKLIN AVE", "city": "FORT MCMURRAY", "province": "AB", "country": "CA", "postalCode": "T9H2H7", "twitter": "None", "instagram": "None", "facebook": "None", "youtube": "None", "website": "None", "summary": "None", "logo": "None", "latitude": 56.714339089041836, "longitude": -111.34734336684127}, "876404328RR0001": {"name": "KEYS OF THE KINGDOM MINISTRIES - LIFE IN THE SPIRIT FELLOWSHIP, ONTARIO CHAPTER INC.", "designationCode": "C", "categoryCode": "39", "address": "94 KENHAR DRIVE               UNIT 24 & 25", "city": "NORTH YORK", "province": "ON", "country": "CA", "postalCode": "M9L1N2", "twitter": "None", "instagram": "None", "facebook": "None", "youtube": "None", "website": "None", "summary": "None", "logo": "None", "latitude": 43.760827808269006, "longitude": -79.54863849575815}, "118980325RR0001": {"name": "KEYSTONE AGRICULTURAL AND RECREATIONAL CENTRE INCORPORATED", "designationCode": "C", "categoryCode": "56", "address": "#1-1175 18TH STREET", "city": "BRANDON", "province": "MB", "country": "CA", "postalCode": "R7A7C5", "twitter": "None", "instagram": "None", "facebook": "None", "youtube": "None", "website": "None", "summary": "None", "logo": "None", "latitude": 49.84524960263114, "longitude": -99.9618615}, "892518580RR0001": {"name": "KEYSTONE BAPTIST CHURCH INC", "designationCode": "C", "categoryCode": "31", "address": "159 MADISON CRESCENT", "city": "BRANDON", "province": "MB", "country": "CA", "postalCode": "R7A2G9", "twitter": "None", "instagram": "None", "facebook": "None", "youtube": "None", "website": "None", "summary": "None", "logo": "None", "latitude": 49.83320530143103, "longitude": -99.9351186197416}, "863526422RR0001": {"name": "KEYSTONE CHARITABLE TRUST", "designationCode": "B", "categoryCode": "39", "address": "2500 - 201 PORTAGE AVE", "city": "WINNIPEG", "province": "MB", "country": "CA", "postalCode": "R3B3K6", "twitter": "None", "instagram": "None", "facebook": "None", "youtube": "None", "website": "None", "summary": "None", "logo": "None", "latitude": 49.895359615067065, "longitude": -97.13919299627776}, "106815129RR0001": {"name": "KEYSTONE CHILD, YOUTH & FAMILY SERVICES", "designationCode": "C", "categoryCode": "10", "address": "1793 3RD AVE W", "city": "OWEN SOUND", "province": "ON", "country": "CA", "postalCode": "N4K6Y2", "twitter": "None", "instagram": "None", "facebook": "None", "youtube": "None", "website": "None", "summary": "None", "logo": "None", "latitude": 44.57836208130888, "longitude": -80.94911556777711}, "118911551RR0001": {"name": "KEYSTONE MINISTRIES", "designationCode": "C", "categoryCode": "47", "address": "P.O. BOX 52", "city": "CHILLIWACK", "province": "BC", "country": "CA", "postalCode": "V2P6H7", "twitter": "None", "instagram": "None", "facebook": "None", "youtube": "None", "website": "None", "summary": "None", "logo": "None", "latitude": 49.15747500000006, "longitude": -121.95172249999993}, "118980341RR0001": {"name": "KEYSTONE OF LIFE FOUNDATION", "designationCode": "B", "categoryCode": "13", "address": "6470 CABELDU CRESCENT", "city": "DELTA", "province": "BC", "country": "CA", "postalCode": "V4E1R3", "twitter": "None", "instagram": "None", "facebook": "None", "youtube": "None", "website": "None", "summary": "None", "logo": "None", "latitude": 49.12064393202133, "longitude": -122.9056733516361}, "107566465RR0001": {"name": "KEYSTONE PIONEER MUSEUM INC.", "designationCode": "C", "categoryCode": "50", "address": "P.O. BOX 10", "city": "ROBLIN", "province": "MB", "country": "CA", "postalCode": "R0L1P0", "twitter": "None", "instagram": "None", "facebook": "None", "youtube": "None", "website": "None", "summary": "None", "logo": "None", "latitude": 51.22816000000006, "longitude": -101.35248999999999}, "136936986RR0001": {"name": "KEYSTONE VICTORIA CHRISTIAN MINISTRIES", "designationCode": "C", "categoryCode": "39", "address": "PO 2502", "city": "SIDNEY", "province": "BC", "country": "CA", "postalCode": "V8L3Z4", "twitter": "None", "instagram": "None", "facebook": "None", "youtube": "None", "website": "None", "summary": "None", "logo": "None", "latitude": 48.65020800000005, "longitude": -123.39842299999994}, "893439562RR0001": {"name": "KHALSA COMMUNITY SCHOOL", "designationCode": "C", "categoryCode": "20", "address": "69 MAITLAND ST", "city": "BRAMPTON", "province": "ON", "country": "CA", "postalCode": "L6S3B5", "twitter": "None", "instagram": "None", "facebook": "None", "youtube": "None", "website": "None", "summary": "None", "logo": "None", "latitude": 43.730509419672075, "longitude": -79.73936797882126}, "128643699RR0001": {"name": "KHALSA DARBAR SOCIETY", "designationCode": "C", "categoryCode": "62", "address": "18701 LOUGHEED HWY", "city": "PITT MEADOWS", "province": "BC", "country": "CA", "postalCode": "V3Y2J6", "twitter": "None", "instagram": "None", "facebook": "None", "youtube": "None", "website": "None", "summary": "None", "logo": "None", "latitude": 49.2366436384379, "longitude": -122.70353976845223}, "118980382RR0001": {"name": "KHALSA DIWAN SOCIETY", "designationCode": "C", "categoryCode": "62", "address": "8000 ROSS ST", "city": "VANCOUVER", "province": "BC", "country": "CA", "postalCode": "V5X4C5", "twitter": "None", "instagram": "None", "facebook": "None", "youtube": "None", "website": "None", "summary": "None", "logo": "None", "latitude": 49.2119704947907, "longitude": -123.08310629011716}, "128656824RR0001": {"name": "KHALSA DIWAN SOCIETY (MANITOBA) INC", "designationCode": "C", "categoryCode": "62", "address": "807 MCLEOD AVE", "city": "WINNIPEG", "province": "MB", "country": "CA", "postalCode": "R2G0Y4", "twitter": "None", "instagram": "None", "facebook": "None", "youtube": "None", "website": "None", "summary": "None", "logo": "None", "latitude": 49.928873895954524, "longitude": -97.0693447966705}}