{"871268579RR0001": {"name": "FONDATION DE L'\u00c9COLE JACQUES-OUELLETTE", "designationCode": "C", "categoryCode": "21", "address": "1240, BOULEVARD NOBERT", "city": "LONGUEUIL", "province": "QC", "country": "CA", "postalCode": "J4K2P4", "twitter": "None", "instagram": "None", "facebook": "None", "youtube": "None", "website": "None", "summary": "None", "logo": "None", "latitude": 45.51019499803811, "longitude": -73.48290457640411}, "870759602RR0001": {"name": "FONDATION DE L'\u00c9COLE JEAN-XXIII INC.", "designationCode": "C", "categoryCode": "21", "address": "185 RUE DU CURE-LONGPRE", "city": "REPENTIGNY", "province": "QC", "country": "CA", "postalCode": "J6A1V5", "twitter": "None", "instagram": "None", "facebook": "None", "youtube": "None", "website": "None", "summary": "None", "logo": "None", "latitude": 45.72154405940898, "longitude": -73.47066757594183}, "831489679RR0001": {"name": "FONDATION DE L'\u00c9COLE LA MENNAIS DE MONTR\u00c9AL", "designationCode": "C", "categoryCode": "21", "address": "6521, RUE SAINT-DENIS", "city": "MONTREAL", "province": "QC", "country": "CA", "postalCode": "H2S2S1", "twitter": "None", "instagram": "None", "facebook": "None", "youtube": "None", "website": "None", "summary": "None", "logo": "None", "latitude": 45.534453199867045, "longitude": -73.6059616004388}, "890315526RR0001": {"name": "FONDATION DE L'\u00c9COLE LES BOCAGES", "designationCode": "C", "categoryCode": "21", "address": "4832 RUE DES LANDES", "city": "SAINT-AUGUSTIN", "province": "QC", "country": "CA", "postalCode": "G3A2C2", "twitter": "None", "instagram": "None", "facebook": "None", "youtube": "None", "website": "None", "summary": "None", "logo": "None", "latitude": 46.740656479369534, "longitude": -71.37870443464705}, "881775019RR0001": {"name": "FONDATION DE L'\u00c9COLE LES SOURCES", "designationCode": "C", "categoryCode": "21", "address": "1181 ROBERT L. SEGUIN", "city": "STE-FOY", "province": "QC", "country": "CA", "postalCode": "G1X4P5", "twitter": "None", "instagram": "None", "facebook": "None", "youtube": "None", "website": "None", "summary": "None", "logo": "None", "latitude": 46.765368771625276, "longitude": -71.36139947273308}, "140563966RR0001": {"name": "FONDATION DE L'\u00c9COLE LES TERRASSES", "designationCode": "C", "categoryCode": "23", "address": "4675 COTE ROSEMONT", "city": "TROIS-RIVIERES", "province": "QC", "country": "CA", "postalCode": "G8Y6R7", "twitter": "None", "instagram": "None", "facebook": "None", "youtube": "None", "website": "None", "summary": "None", "logo": "None", "latitude": 46.35353170324353, "longitude": -72.60981850493341}, "841595168RR0001": {"name": "FONDATION DE L'\u00c9COLE PLAN\u00c9TAIRE DE ST-MATHIEU-DU-PARC", "designationCode": "C", "categoryCode": "21", "address": "1840 CH. PRINCIPAL", "city": "ST-MATHIEU-DU-PARC", "province": "QC", "country": "CA", "postalCode": "G0X1N0", "twitter": "None", "instagram": "None", "facebook": "None", "youtube": "None", "website": "None", "summary": "None", "logo": "None", "latitude": 46.573785743002986, "longitude": -72.92318731551197}, "845104272RR0001": {"name": "FONDATION DE L'\u00c9COLE POLYVALENTE ST-JOSEPH", "designationCode": "C", "categoryCode": "21", "address": "558 RUE DE LA MONTAGNE", "city": "MONT-LAURIER", "province": "QC", "country": "CA", "postalCode": "J9L2C9", "twitter": "None", "instagram": "None", "facebook": "None", "youtube": "None", "website": "None", "summary": "None", "logo": "None", "latitude": 46.55768256699771, "longitude": -75.49983903355665}, "858020324RR0001": {"name": "FONDATION DE L'\u00c9COLE PRIMAIRE D'AHUNTSIC", "designationCode": "C", "categoryCode": "21", "address": "10615 BOUL SAINT-LAURENT", "city": "MONTREAL", "province": "QC", "country": "CA", "postalCode": "H3L2P5", "twitter": "None", "instagram": "None", "facebook": "None", "youtube": "None", "website": "None", "summary": "None", "logo": "None", "latitude": 45.55007984098893, "longitude": -73.66999468691222}, "864781158RR0001": {"name": "FONDATION DE L'\u00c9COLE PRIMAIRE DE JOHNVILLE", "designationCode": "C", "categoryCode": "23", "address": "51 CH. JORDAN HILL", "city": "JOHNVILLE", "province": "QC", "country": "CA", "postalCode": "J0B2A0", "twitter": "None", "instagram": "None", "facebook": "None", "youtube": "None", "website": "None", "summary": "None", "logo": "None", "latitude": 45.331963478792595, "longitude": -71.75004236081135}, "857522940RR0001": {"name": "FONDATION DE L'\u00c9COLE PRIMAIRE MAISONNEUVE", "designationCode": "C", "categoryCode": "21", "address": "1680, AVENUE MORGAN", "city": "MONTREAL", "province": "QC", "country": "CA", "postalCode": "H1V2P9", "twitter": "None", "instagram": "None", "facebook": "None", "youtube": "None", "website": "None", "summary": "None", "logo": "None", "latitude": 45.552356184546284, "longitude": -73.53631873218293}, "869562165RR0001": {"name": "FONDATION DE L'\u00c9COLE SAINT-ANDR\u00c9-AP\u00d4TRE DE MONTR\u00c9AL", "designationCode": "C", "categoryCode": "21", "address": "215 RUE PRIEUR OUEST", "city": "MONTREAL", "province": "QC", "country": "CA", "postalCode": "H3L1R7", "twitter": "None", "instagram": "None", "facebook": "None", "youtube": "None", "website": "None", "summary": "None", "logo": "None", "latitude": 45.54629259146508, "longitude": -73.6698421216166}, "890994395RR0001": {"name": "FONDATION DE L'\u00c9COLE SAINT-JUDE", "designationCode": "C", "categoryCode": "21", "address": "3366 AUBRY", "city": "LONGUEUIL", "province": "QC", "country": "CA", "postalCode": "J4M2W4", "twitter": "None", "instagram": "None", "facebook": "None", "youtube": "None", "website": "None", "summary": "None", "logo": "None", "latitude": 45.53468900499167, "longitude": -73.44149953883675}, "841831944RR0001": {"name": "FONDATION DE L'\u00c9COLE SAINT-ROSAIRE DE GASP\u00c9", "designationCode": "C", "categoryCode": "21", "address": "151, RUE JACQUES CARTIER", "city": "GASPE", "province": "QC", "country": "CA", "postalCode": "G4X2P7", "twitter": "None", "instagram": "None", "facebook": "None", "youtube": "None", "website": "None", "summary": "None", "logo": "None", "latitude": 48.83095708182847, "longitude": -64.48600156976768}, "892190646RR0001": {"name": "FONDATION DE L'\u00c9COLE SECONDAIRE DE MORTAGNE", "designationCode": "C", "categoryCode": "21", "address": "955 MONTARVILLE", "city": "BOUCHERVILLE", "province": "QC", "country": "CA", "postalCode": "J4B1Z6", "twitter": "None", "instagram": "None", "facebook": "None", "youtube": "None", "website": "None", "summary": "None", "logo": "None", "latitude": 45.59270215214348, "longitude": -73.43814375887293}, "141521799RR0001": {"name": "FONDATION DE L'\u00c9COLE SECONDAIRE DU VERBE DIVIN", "designationCode": "C", "categoryCode": "21", "address": "1021 RUE COWIE", "city": "GRANBY", "province": "QC", "country": "CA", "postalCode": "J2G8W8", "twitter": "None", "instagram": "None", "facebook": "None", "youtube": "None", "website": "None", "summary": "None", "logo": "None", "latitude": 45.394696298122206, "longitude": -72.77278233686074}, "890808348RR0001": {"name": "FONDATION DE L'\u00c9COLE SECONDAIRE JACQUES-ROUSSEAU", "designationCode": "C", "categoryCode": "21", "address": "444 RUE GENTILLY EST", "city": "LONGUEUIL", "province": "QC", "country": "CA", "postalCode": "J5R6V3", "twitter": "None", "instagram": "None", "facebook": "None", "youtube": "None", "website": "None", "summary": "None", "logo": "None", "latitude": 45.53960050458043, "longitude": -73.49276160956742}, "884177007RR0001": {"name": "FONDATION DE L'\u00c9COLE SECONDAIRE PAUL-G\u00c9RIN-LAJOIE-D'OUTREMONT", "designationCode": "C", "categoryCode": "23", "address": "475, RUE BLOOMFIELD", "city": "OUTREMONT", "province": "QC", "country": "CA", "postalCode": "H2V3R9", "twitter": "None", "instagram": "None", "facebook": "None", "youtube": "None", "website": "None", "summary": "None", "logo": "None", "latitude": 45.51943236750512, "longitude": -73.60578278931291}, "873877625RR0001": {"name": "FONDATION DE L'\u00c9COLE SECONDAIRE SAINT-JOSEPH", "designationCode": "C", "categoryCode": "23", "address": "2875 RUE BOURDAGES NORD", "city": "SAINT-HYACINTHE", "province": "QC", "country": "CA", "postalCode": "J2S5S3", "twitter": "None", "instagram": "None", "facebook": "None", "youtube": "None", "website": "None", "summary": "None", "logo": "None", "latitude": 45.63355690319486, "longitude": -72.96340935410664}, "887837862RR0001": {"name": "FONDATION DE L'\u00c9COLE SECONDAIRE VAL-MAURICIE", "designationCode": "C", "categoryCode": "21", "address": "1200 RUE VAL-MAURICIE", "city": "SHAWINIGAN-SUD", "province": "QC", "country": "CA", "postalCode": "G9P2L9", "twitter": "None", "instagram": "None", "facebook": "None", "youtube": "None", "website": "None", "summary": "None", "logo": "None", "latitude": 46.52199257455686, "longitude": -72.75825190235982}, "860693845RR0001": {"name": "FONDATION DE L'\u00c9COLE ST-MICHEL", "designationCode": "C", "categoryCode": "23", "address": "1255 AVENUE DU CHANOINE-MOREL", "city": "SILLERY", "province": "QC", "country": "CA", "postalCode": "G1S4B1", "twitter": "None", "instagram": "None", "facebook": "None", "youtube": "None", "website": "None", "summary": "None", "logo": "None", "latitude": 46.784251457383675, "longitude": -71.24783265670244}, "862233566RR0001": {"name": "FONDATION DE L'\u00c9COLE-DES-COEURS-VAILLANTS", "designationCode": "C", "categoryCode": "21", "address": "3430 BOULEVARD NEILSON", "city": "QU\u00c9BEC", "province": "QC", "country": "CA", "postalCode": "G1W2W1", "twitter": "None", "instagram": "None", "facebook": "None", "youtube": "None", "website": "None", "summary": "None", "logo": "None", "latitude": 46.75640209968807, "longitude": -71.31092030648}, "876068339RR0001": {"name": "FONDATION DE L'\u00c9COMUS\u00c9E DE L'EST DU QU\u00c9BEC", "designationCode": "C", "categoryCode": "52", "address": "129A RUE DU PARC", "city": "SAINT-FABIEN", "province": "QC", "country": "CA", "postalCode": "G0L2Z0", "twitter": "None", "instagram": "None", "facebook": "None", "youtube": "None", "website": "None", "summary": "None", "logo": "None", "latitude": 48.297382003062815, "longitude": -68.86744336854008}, "808004873RR0001": {"name": "FONDATION DE L'\u00c9GLISE L'ANNONCIATION D'OKA", "designationCode": "A", "categoryCode": "43", "address": "183 RUE DES ANGES", "city": "OKA", "province": "QC", "country": "CA", "postalCode": "J0N1E0", "twitter": "None", "instagram": "None", "facebook": "None", "youtube": "None", "website": "None", "summary": "None", "logo": "None", "latitude": 45.45989346034179, "longitude": -74.09177458930856}, "873097760RR0001": {"name": "FONDATION DE L'ABB\u00c9 GUY POMERLEAU", "designationCode": "C", "categoryCode": "49", "address": "221 ROUTE 105", "city": "MESSINES", "province": "QC", "country": "CA", "postalCode": "J0X2J0", "twitter": "None", "instagram": "None", "facebook": "None", "youtube": "None", "website": "None", "summary": "None", "logo": "None", "latitude": 46.28925293366046, "longitude": -75.98224552887145}, "875741027RR0001": {"name": "FONDATION DE L'ACAD\u00c9MIE DE MUSIQUE MASSEY-VANIER", "designationCode": "A", "categoryCode": "03", "address": "170, RUE DE SHERBROOKE #201", "city": "COWANSVILLE", "province": "QC", "country": "CA", "postalCode": "J2K3Y9", "twitter": "None", "instagram": "None", "facebook": "None", "youtube": "None", "website": "None", "summary": "None", "logo": "None", "latitude": 45.19358922344036, "longitude": -72.75962510242934}, "894438084RR0001": {"name": "FONDATION DE L'ACAD\u00c9MIE POPULAIRE DE JOLIETTE", "designationCode": "C", "categoryCode": "56", "address": "200 DE SALABERRY", "city": "JOLIETTE", "province": "QC", "country": "CA", "postalCode": "J6E4G1", "twitter": "None", "instagram": "None", "facebook": "None", "youtube": "None", "website": "None", "summary": "None", "logo": "None", "latitude": 46.018426513762904, "longitude": -73.43291349685467}, "101835361RR0001": {"name": "FONDATION DE L'ACADEMIE ANTOINE-MANSEAU", "designationCode": "C", "categoryCode": "21", "address": "20, ST-CHARLES BORROMEE SUD   C.P. 410", "city": "JOLIETTE", "province": "QC", "country": "CA", "postalCode": "J6E3Z9", "twitter": "None", "instagram": "None", "facebook": "None", "youtube": "None", "website": "None", "summary": "None", "logo": "None", "latitude": 46.02611159006534, "longitude": -73.4378227121386}, "888003803RR0001": {"name": "FONDATION DE L'ACTIVIT\u00c9 PHYSIQUE DE L'\u00c9COLE SECONDAIRE DE L'ESCALE D'ASBESTOS", "designationCode": "C", "categoryCode": "21", "address": "430 5E AV", "city": "ASBESTOS", "province": "QC", "country": "CA", "postalCode": "J1T1X2", "twitter": "None", "instagram": "None", "facebook": "None", "youtube": "None", "website": "None", "summary": "None", "logo": "None", "latitude": 45.77374271241879, "longitude": -71.92924568474783}, "864740170RR0001": {"name": "FONDATION DE L'AIDE COMMUNAUTAIRE DE LENNOXVILLE ET DES ENVIRONS/LENNOXVILLE AND DISTRICT COMMUNITY AID FOUNDATION", "designationCode": "A", "categoryCode": "03", "address": "P O BOX 292", "city": "LENNOXVILLE", "province": "QC", "country": "CA", "postalCode": "J1M1Z5", "twitter": "None", "instagram": "None", "facebook": "None", "youtube": "None", "website": "None", "summary": "None", "logo": "None", "latitude": 45.36721000000006, "longitude": -71.81236999999999}, "858275670RR0001": {"name": "FONDATION DE L'AMIE", "designationCode": "A", "categoryCode": "03", "address": "840 RUE RAOUL-JOBIN           BUREAU 300", "city": "QU\u00c9BEC", "province": "QC", "country": "CA", "postalCode": "G1N1S7", "twitter": "None", "instagram": "None", "facebook": "None", "youtube": "None", "website": "None", "summary": "None", "logo": "None", "latitude": 46.80587583516055, "longitude": -71.24719586736087}, "874683212RR0001": {"name": "FONDATION DE L'ASSOCIATION DES ORTHOP\u00c9DAGOGUES DU QU\u00c9BEC", "designationCode": "B", "categoryCode": "21", "address": "117 RUE DES COURS D'EAU", "city": "STE-SOPHIE", "province": "QC", "country": "CA", "postalCode": "J5J0K5", "twitter": "None", "instagram": "None", "facebook": "None", "youtube": "None", "website": "None", "summary": "None", "logo": "None", "latitude": 45.82580741752187, "longitude": -73.88424438063547}, "864173125RR0001": {"name": "FONDATION DE L'ASSOCIATION DES RADIOLOGISTES DU QU\u00c9BEC", "designationCode": "B", "categoryCode": "03", "address": "2 COMPLEXE DESJARDINS         30 ETAGE", "city": "MONTREAL", "province": "QC", "country": "CA", "postalCode": "H5B1G8", "twitter": "None", "instagram": "None", "facebook": "None", "youtube": "None", "website": "None", "summary": "None", "logo": "None", "latitude": 45.50717000000003, "longitude": -73.56319999999994}, "866024342RR0001": {"name": "FONDATION DE L'ASSOCIATION DES UROLOGUES DU QUEBEC/QUEBEC UROLOGICAL ASSOCIATION FOUNDATION", "designationCode": "C", "categoryCode": "11", "address": "2 COMPLEXE DESJARDINS         TOUR DE L'EST - 32ND FLOOR", "city": "MONTREAL", "province": "QC", "country": "CA", "postalCode": "H5B1G8", "twitter": "None", "instagram": "None", "facebook": "None", "youtube": "None", "website": "None", "summary": "None", "logo": "None", "latitude": 45.51239400000006, "longitude": -73.55469049999994}, "868704115RR0001": {"name": "FONDATION DE L'ASSOCIATION QUEBECOISE POUR L'HYGIENE, LA SANTE ET LA SECURITE DU TRAVAIL", "designationCode": "C", "categoryCode": "21", "address": "7170 RUE CHAMPETRE", "city": "SAINT-HYACINTHE", "province": "QC", "country": "CA", "postalCode": "J2R1A5", "twitter": "None", "instagram": "None", "facebook": "None", "youtube": "None", "website": "None", "summary": "None", "logo": "None", "latitude": 45.65181246768411, "longitude": -72.99590019164407}, "118921394RR0001": {"name": "FONDATION DE L'ASSOMPTION MUTUELLE-VIE INC./ASSUMPTION MUTUAL LIFE FOUNDATION INC.", "designationCode": "C", "categoryCode": "21", "address": "770 RUE MAIN, COFFRET 6014", "city": "MONCTON", "province": "NB", "country": "CA", "postalCode": "E1C1E7", "twitter": "None", "instagram": "None", "facebook": "None", "youtube": "None", "website": "None", "summary": "None", "logo": "None", "latitude": 46.08851480094103, "longitude": -64.77733449720138}, "856980321RR0001": {"name": "FONDATION DE L'ATAXIE CHARLEVOIX-SAGUENAY", "designationCode": "A", "categoryCode": "13", "address": "2100 - 1000 RUE SHERBROOKE O", "city": "MONTREAL", "province": "QC", "country": "CA", "postalCode": "H3A3G4", "twitter": "None", "instagram": "None", "facebook": "None", "youtube": "None", "website": "None", "summary": "None", "logo": "None", "latitude": 45.50420051526984, "longitude": -73.57425178965626}, "118922749RR0001": {"name": "FONDATION DE L'ATHL\u00c8TE D'EXCELLENCE DU QU\u00c9BEC", "designationCode": "C", "categoryCode": "21", "address": "4545 AV PIERRE-DE-COUBERTIN   C.P. 1000, SUCCURSALE M", "city": "MONTREAL", "province": "QC", "country": "CA", "postalCode": "H1V3R2", "twitter": "None", "instagram": "None", "facebook": "None", "youtube": "None", "website": "None", "summary": "None", "logo": "None", "latitude": 45.555920590080106, "longitude": -73.55036240097485}, "859170177RR0001": {"name": "FONDATION DE L'ECOLE D'AGRICULTURE DE NICOLET", "designationCode": "C", "categoryCode": "21", "address": "575 RUE MGR BRUNAULT", "city": "NICOLET", "province": "QC", "country": "CA", "postalCode": "J3T1H8", "twitter": "None", "instagram": "None", "facebook": "None", "youtube": "None", "website": "None", "summary": "None", "logo": "None", "latitude": 46.233338098303065, "longitude": -72.61981861526955}, "883838526RR0001": {"name": "FONDATION DE L'ECOLE DE LA CLAIRIERE DE BOISBRIAND", "designationCode": "C", "categoryCode": "21", "address": "3599 RUE CHARLOTTE-BOISJOLI", "city": "BOISBRIAND", "province": "QC", "country": "CA", "postalCode": "J7H1R7", "twitter": "None", "instagram": "None", "facebook": "None", "youtube": "None", "website": "None", "summary": "None", "logo": "None", "latitude": 45.629583782359354, "longitude": -73.86913916394447}, "890927197RR0001": {"name": "FONDATION DE L'ECOLE DES ORMEAUX", "designationCode": "C", "categoryCode": "21", "address": "2825 RUE DOLLARD", "city": "LAVAL", "province": "QC", "country": "CA", "postalCode": "H7E1S8", "twitter": "None", "instagram": "None", "facebook": "None", "youtube": "None", "website": "None", "summary": "None", "logo": "None", "latitude": 45.59459461645205, "longitude": -73.67336610049611}, "804892743RR0001": {"name": "FONDATION DE L'ECOLE DES VIEUX-MOULINS", "designationCode": "C", "categoryCode": "21", "address": "300, BOUL.DE L'HOTEL DE VILLE", "city": "RIVIERE-DU-LOUP", "province": "QC", "country": "CA", "postalCode": "G5R5C6", "twitter": "None", "instagram": "None", "facebook": "None", "youtube": "None", "website": "None", "summary": "None", "logo": "None", "latitude": 47.82226050184634, "longitude": -69.55662958791572}, "890866197RR0001": {"name": "FONDATION DE L'ECOLE FERNAND-SEGUIN", "designationCode": "C", "categoryCode": "23", "address": "2590, BIENCOURT", "city": "QU\u00c9BEC", "province": "QC", "country": "CA", "postalCode": "G1V1H3", "twitter": "None", "instagram": "None", "facebook": "None", "youtube": "None", "website": "None", "summary": "None", "logo": "None", "latitude": 46.784704880402636, "longitude": -71.2949501912687}, "890963549RR0001": {"name": "FONDATION DE L'ECOLE FERNAND-SEGUIN DE MONTREAL", "designationCode": "C", "categoryCode": "21", "address": "10050 RUE DURHAM", "city": "MONTREAL", "province": "QC", "country": "CA", "postalCode": "H2C2G4", "twitter": "None", "instagram": "None", "facebook": "None", "youtube": "None", "website": "None", "summary": "None", "logo": "None", "latitude": 45.55456503912523, "longitude": -73.65730122245942}, "832354542RR0001": {"name": "FONDATION DE L'ECOLE GUY-DRUMMOND", "designationCode": "C", "categoryCode": "21", "address": "1475, AVENUE LAJOIE", "city": "MONTREAL", "province": "QC", "country": "CA", "postalCode": "H2V1P9", "twitter": "None", "instagram": "None", "facebook": "None", "youtube": "None", "website": "None", "summary": "None", "logo": "None", "latitude": 45.51817045103567, "longitude": -73.61305716616617}, "867000739RR0001": {"name": "FONDATION DE L'ECOLE INTERNATIONALE DE GREENFIELD PARK/GREENFIELD PARK INTERNATIONAL SCHOOL FOUNDATION", "designationCode": "A", "categoryCode": "03", "address": "776 CAMPBELL", "city": "GREENFIELD PARK", "province": "QC", "country": "CA", "postalCode": "J4V1Y7", "twitter": "None", "instagram": "None", "facebook": "None", "youtube": "None", "website": "None", "summary": "None", "logo": "None", "latitude": 45.482770140458065, "longitude": -73.47193131109722}, "891192346RR0001": {"name": "FONDATION DE L'ECOLE LACROIX", "designationCode": "C", "categoryCode": "21", "address": "11655 BOULEVARD LACROIX", "city": "VILLE DE SAINT-GEORGES", "province": "QC", "country": "CA", "postalCode": "G5Y1L4", "twitter": "None", "instagram": "None", "facebook": "None", "youtube": "None", "website": "None", "summary": "None", "logo": "None", "latitude": 46.12364174988389, "longitude": -70.67146174550835}, "889308060RR0001": {"name": "FONDATION DE L'ECOLE LE MISTRAL DE MONT-JOLI INC.", "designationCode": "C", "categoryCode": "21", "address": "254 AVE ROSS", "city": "MONT-JOLI", "province": "QC", "country": "CA", "postalCode": "G5H3M4", "twitter": "None", "instagram": "None", "facebook": "None", "youtube": "None", "website": "None", "summary": "None", "logo": "None", "latitude": 48.58332377491486, "longitude": -68.20008212476192}, "892450164RR0001": {"name": "FONDATION DE L'ECOLE LES MELEZES", "designationCode": "C", "categoryCode": "21", "address": "393 RUE DE LANAUDIERE", "city": "JOLIETTE", "province": "QC", "country": "CA", "postalCode": "J6E3L9", "twitter": "None", "instagram": "None", "facebook": "None", "youtube": "None", "website": "None", "summary": "None", "logo": "None", "latitude": 46.02331784811633, "longitude": -73.43641796055765}, "118921444RR0001": {"name": "FONDATION DE L'ECOLE MAIMONIDE", "designationCode": "A", "categoryCode": "23", "address": "5615 AVE PARKHAVEN", "city": "COTE-ST-LUC", "province": "QC", "country": "CA", "postalCode": "H4W1X3", "twitter": "None", "instagram": "None", "facebook": "None", "youtube": "None", "website": "None", "summary": "None", "logo": "None", "latitude": 45.46719954235653, "longitude": -73.66218994835263}, "880579875RR0001": {"name": "FONDATION DE L'ECOLE MARGUERITE-BOURGEOIS INC.", "designationCode": "C", "categoryCode": "21", "address": "6021 CH. WALTER DUPONT", "city": "TROIS-RIVIERES", "province": "QC", "country": "CA", "postalCode": "G8Z4C9", "twitter": "None", "instagram": "None", "facebook": "None", "youtube": "None", "website": "None", "summary": "None", "logo": "None", "latitude": 46.33211281178973, "longitude": -72.59743500799277}, "132856022RR0001": {"name": "FONDATION DE L'ECOLE MARIE-REINE", "designationCode": "C", "categoryCode": "09", "address": "976 CAEN", "city": "SHERBROOKE", "province": "QC", "country": "CA", "postalCode": "J1G2A4", "twitter": "None", "instagram": "None", "facebook": "None", "youtube": "None", "website": "None", "summary": "None", "logo": "None", "latitude": 45.39037148124546, "longitude": -71.86604386372554}, "892388950RR0001": {"name": "FONDATION DE L'ECOLE NATIONALE DE CIRQUE /THE NATIONAL CIRCUS SCHOOL FOUNDATION", "designationCode": "A", "categoryCode": "23", "address": "8181, 2E AVENUE", "city": "MONTREAL", "province": "QC", "country": "CA", "postalCode": "H1Z4N9", "twitter": "None", "instagram": "None", "facebook": "None", "youtube": "None", "website": "None", "summary": "None", "logo": "None", "latitude": 45.561455148796604, "longitude": -73.61396850940639}, "868426891RR0001": {"name": "FONDATION DE L'ECOLE NOTRE-DAME-DU-FOYER", "designationCode": "C", "categoryCode": "21", "address": "5955, 41E AVENUE", "city": "MONTREAL", "province": "QC", "country": "CA", "postalCode": "H1T2T7", "twitter": "None", "instagram": "None", "facebook": "None", "youtube": "None", "website": "None", "summary": "None", "logo": "None", "latitude": 45.57211685931082, "longitude": -73.56526444266848}, "888366531RR0001": {"name": "FONDATION DE L'ECOLE POLYVALENTE VEILLEUX INC.", "designationCode": "C", "categoryCode": "21", "address": "695, AVENUE ROBERT-CLICHE", "city": "ST-JOSEPH DE BEAUCE", "province": "QC", "country": "CA", "postalCode": "G0S2V0", "twitter": "None", "instagram": "None", "facebook": "None", "youtube": "None", "website": "None", "summary": "None", "logo": "None", "latitude": 46.314177622163484, "longitude": -70.88053242414574}, "877496471RR0001": {"name": "FONDATION DE L'ECOLE PRIMAIRE CHAMPLAIN", "designationCode": "C", "categoryCode": "21", "address": "2985, RUE GALT OUEST", "city": "SHERBROOKE", "province": "QC", "country": "CA", "postalCode": "J1K1M3", "twitter": "None", "instagram": "None", "facebook": "None", "youtube": "None", "website": "None", "summary": "None", "logo": "None", "latitude": 45.386982219856385, "longitude": -71.94629229389221}, "141652917RR0001": {"name": "FONDATION DE L'ECOLE PRIMAIRE LES TROIS SAISONS INC", "designationCode": "A", "categoryCode": "23", "address": "570 BOUL DE MORTAGNE", "city": "BOUCHERVILLE", "province": "QC", "country": "CA", "postalCode": "J4B5E4", "twitter": "None", "instagram": "None", "facebook": "None", "youtube": "None", "website": "None", "summary": "None", "logo": "None", "latitude": 45.5938994929022, "longitude": -73.43292587105447}, "846425478RR0001": {"name": "FONDATION DE L'ECOLE PRIMAIRE RIVERSIDE / RIVERSIDE ELEMENTARY SCHOOL FOUNDATION", "designationCode": "C", "categoryCode": "21", "address": "1782, RUE NEILSON", "city": "JONQUIERE", "province": "QC", "country": "CA", "postalCode": "G7S3A2", "twitter": "None", "instagram": "None", "facebook": "None", "youtube": "None", "website": "None", "summary": "None", "logo": "None", "latitude": 48.42931833057292, "longitude": -71.18457636173498}, "874439201RR0001": {"name": "FONDATION DE L'ECOLE PRIMAIRE SAINT-FRANCOIS D'ASSISE DE MONTREAL", "designationCode": "C", "categoryCode": "21", "address": "2150 RUE LIEBERT", "city": "MONTREAL", "province": "QC", "country": "CA", "postalCode": "H1L5R1", "twitter": "None", "instagram": "None", "facebook": "None", "youtube": "None", "website": "None", "summary": "None", "logo": "None", "latitude": 45.59447311789527, "longitude": -73.5181482226323}, "805727070RR0001": {"name": "FONDATION DE L'ECOLE SECONDAIRE DE SAINT-MARC-DES-CARRIERES", "designationCode": "C", "categoryCode": "21", "address": "1600, BOUL. DUSSAULT", "city": "SAINT-MARC-DES-CARRIERES", "province": "QC", "country": "CA", "postalCode": "G0A4B0", "twitter": "None", "instagram": "None", "facebook": "None", "youtube": "None", "website": "None", "summary": "None", "logo": "None", "latitude": 46.68706124290904, "longitude": -72.06015357054531}, "817481070RR0001": {"name": "FONDATION DE L'ECOLE SECONDAIRE DU MONT-BRUNO", "designationCode": "C", "categoryCode": "21", "address": "221, BOULEVARD CLAIREVUE EST", "city": "SAINT-BRUNO-DE-MONTARVILLE", "province": "QC", "country": "CA", "postalCode": "J3V5J3", "twitter": "None", "instagram": "None", "facebook": "None", "youtube": "None", "website": "None", "summary": "None", "logo": "None", "latitude": 45.533320925961824, "longitude": -73.34009171971812}, "888814399RR0001": {"name": "FONDATION DE L'ECOLE SECONDAIRE JEAN-NICOLET", "designationCode": "C", "categoryCode": "21", "address": "497, MGR BRUNEAULT", "city": "NICOLET", "province": "QC", "country": "CA", "postalCode": "J3T1Y6", "twitter": "None", "instagram": "None", "facebook": "None", "youtube": "None", "website": "None", "summary": "None", "logo": "None", "latitude": 46.23325117043669, "longitude": -72.61964012695496}, "879963817RR0001": {"name": "FONDATION DE L'ECOLE SECONDAIRE POLYVALENTE DE L'ANCIENNE-LORETTE", "designationCode": "C", "categoryCode": "21", "address": "1801 RUE NOTRE-DAME", "city": "ANC-LORETTE", "province": "QC", "country": "CA", "postalCode": "G2E3C6", "twitter": "None", "instagram": "None", "facebook": "None", "youtube": "None", "website": "None", "summary": "None", "logo": "None", "latitude": 46.807105693317524, "longitude": -71.36620730278734}, "893568055RR0001": {"name": "FONDATION DE L'ECOLE SECONDAIRE PRIVEE DE BAIE-COMEAU INC", "designationCode": "A", "categoryCode": "23", "address": "3075 CH DES QUATRE-BOURGEOIS  BUREAU 200", "city": "QUEBEC", "province": "QC", "country": "CA", "postalCode": "G1W5C4", "twitter": "None", "instagram": "None", "facebook": "None", "youtube": "None", "website": "None", "summary": "None", "logo": "None", "latitude": 46.77017295527754, "longitude": -71.30573554088558}, "899604938RR0001": {"name": "FONDATION DE L'ECOLE SECONDAIRE ST-PATRICK/ST-PATRICK'S HIGH SCHOOL FOUNDATION", "designationCode": "C", "categoryCode": "21", "address": "75 MAISONNEUVE", "city": "QUEBEC", "province": "QC", "country": "CA", "postalCode": "G1R2C4", "twitter": "None", "instagram": "None", "facebook": "None", "youtube": "None", "website": "None", "summary": "None", "logo": "None", "latitude": 46.804948346904226, "longitude": -71.22414906754598}, "861497188RR0001": {"name": "FONDATION DE L'ENSEMBLE ARION", "designationCode": "A", "categoryCode": "23", "address": "3950, RUE ST-DENIS", "city": "MONTR\u00c9AL", "province": "QC", "country": "CA", "postalCode": "H2W2M2", "twitter": "None", "instagram": "None", "facebook": "None", "youtube": "None", "website": "None", "summary": "None", "logo": "None", "latitude": 45.52015184788518, "longitude": -73.57461548669845}, "118923408RR0001": {"name": "FONDATION DE L'ENTREPRENEURSHIP", "designationCode": "C", "categoryCode": "59", "address": "65 RUE SAINTE-ANNE            10E \u00c9TAGE", "city": "QU\u00c9BEC", "province": "QC", "country": "CA", "postalCode": "G1R3X5", "twitter": "None", "instagram": "None", "facebook": "None", "youtube": "None", "website": "None", "summary": "None", "logo": "None", "latitude": 46.81310655785113, "longitude": -71.2080937245369}, "118921477RR0001": {"name": "FONDATION DE L'ERMITAGE INC.", "designationCode": "C", "categoryCode": "01", "address": "61 AVE DE L'ERMITAGE", "city": "VICTORIAVILLE", "province": "QC", "country": "CA", "postalCode": "G6P6X4", "twitter": "None", "instagram": "None", "facebook": "None", "youtube": "None", "website": "None", "summary": "None", "logo": "None", "latitude": 46.060326532636424, "longitude": -71.96195703816079}, "892164377RR0001": {"name": "FONDATION DE L'ESPOIR VAUDREUIL-DORION", "designationCode": "C", "categoryCode": "09", "address": "636 DE LOTBINIERE", "city": "VAUDREUIL DORION", "province": "QC", "country": "CA", "postalCode": "J7V8P2", "twitter": "None", "instagram": "None", "facebook": "None", "youtube": "None", "website": "None", "summary": "None", "logo": "None", "latitude": 45.356750781551305, "longitude": -73.9996124375899}, "895831204RR0001": {"name": "FONDATION DE L'EST/EAST FOUNDATION", "designationCode": "C", "categoryCode": "09", "address": "12550, BOUL. LACORDAIRE", "city": "MONTREAL-NORD", "province": "QC", "country": "CA", "postalCode": "H1G4L8", "twitter": "None", "instagram": "None", "facebook": "None", "youtube": "None", "website": "None", "summary": "None", "logo": "None", "latitude": 45.61645509518735, "longitude": -73.63040233738225}, "888721461RR0001": {"name": "FONDATION DE L'EXTERNAT SACR\u00c9-COEUR INC.", "designationCode": "C", "categoryCode": "21", "address": "535, RUE LEFRAN\u00c7OIS", "city": "ROSEM\u00c8RE", "province": "QC", "country": "CA", "postalCode": "J7A4R5", "twitter": "None", "instagram": "None", "facebook": "None", "youtube": "None", "website": "None", "summary": "None", "logo": "None", "latitude": 45.65224734407867, "longitude": -73.78672564516259}, "895198653RR0001": {"name": "FONDATION DE L'H\u00c9RITAGE CULTUREL AUTOCHTONE (F.H.C.A.)", "designationCode": "A", "categoryCode": "53", "address": "1787 RUE AMISHK", "city": "MASHTEUIATSH", "province": "QC", "country": "CA", "postalCode": "G0W2H0", "twitter": "None", "instagram": "None", "facebook": "None", "youtube": "None", "website": "None", "summary": "None", "logo": "None", "latitude": 48.58065284341311, "longitude": -72.23325726888491}, "136980604RR0001": {"name": "FONDATION DE L'HOPITAL COMMUNAUTAIRE DU PONTIAC INC./THE PONTIAC COMMUNITY HOSPITAL FOUNDATION INC.", "designationCode": "A", "categoryCode": "13", "address": "200 RUE ARGUE", "city": "SHAWVILLE", "province": "QC", "country": "CA", "postalCode": "J0X2Y0", "twitter": "None", "instagram": "None", "facebook": "None", "youtube": "None", "website": "None", "summary": "None", "logo": "None", "latitude": 45.606335114428916, "longitude": -76.48318586578864}, "889886040RR0001": {"name": "FONDATION DE L'HOPITAL DE DOLBEAU INC", "designationCode": "A", "categoryCode": "13", "address": "2000, BOUL. SACRE-COEUR", "city": "DOLBEAU-MISTASSINI", "province": "QC", "country": "CA", "postalCode": "G8L2R5", "twitter": "None", "instagram": "None", "facebook": "None", "youtube": "None", "website": "None", "summary": "None", "logo": "None", "latitude": 48.884868734223915, "longitude": -72.23609448792435}, "140747882RR0002": {"name": "FONDATION DE L'HOPITAL DE LA BAIE DES HA! HA!", "designationCode": "A", "categoryCode": "13", "address": "1000, RUE DR DESGAGNE", "city": "VILLE DE LA BAIE", "province": "QC", "country": "CA", "postalCode": "G7B3P9", "twitter": "None", "instagram": "None", "facebook": "None", "youtube": "None", "website": "None", "summary": "None", "logo": "None", "latitude": 48.28750800000006, "longitude": -70.92716299999994}, "118921600RR0001": {"name": "FONDATION DE L'HOPITAL DE LA REGION DE THETFORD", "designationCode": "C", "categoryCode": "19", "address": "1717 RUE NOTRE-DAME EST", "city": "THETFORD MINES", "province": "QC", "country": "CA", "postalCode": "G6G2V4", "twitter": "None", "instagram": "None", "facebook": "None", "youtube": "None", "website": "None", "summary": "None", "logo": "None", "latitude": 46.10854671046267, "longitude": -71.27710756412293}, "118921535RR0001": {"name": "FONDATION DE L'HOPITAL DE MATANE INC.", "designationCode": "A", "categoryCode": "13", "address": "333 RUE THIBAULT              CP 334", "city": "MATANE", "province": "QC", "country": "CA", "postalCode": "G4W3N2", "twitter": "None", "instagram": "None", "facebook": "None", "youtube": "None", "website": "None", "summary": "None", "logo": "None", "latitude": 48.84410667554392, "longitude": -67.52403731334758}, "118921550RR0001": {"name": "FONDATION DE L'HOPITAL DE NOTRE-DAME-DE-FATIMA INC.", "designationCode": "A", "categoryCode": "13", "address": "1201 6E AVENUE CP 460", "city": "LA POCATIERE", "province": "QC", "country": "CA", "postalCode": "G0R1Z0", "twitter": "None", "instagram": "None", "facebook": "None", "youtube": "None", "website": "None", "summary": "None", "logo": "None", "latitude": 47.37197403647723, "longitude": -70.02813194336014}, "118921592RR0001": {"name": "FONDATION DE L'HOPITAL GENERAL DE HAWKESBURY AND DISTRICT GENERAL HOSPITAL FOUNDATION", "designationCode": "A", "categoryCode": "13", "address": "101-175 MAIN OUEST", "city": "HAWKESBURY", "province": "ON", "country": "CA", "postalCode": "K6A2H3", "twitter": "None", "instagram": "None", "facebook": "None", "youtube": "None", "website": "None", "summary": "None", "logo": "None", "latitude": 45.609953132407995, "longitude": -74.61679395822038}, "123920563RR0001": {"name": "FONDATION DE L'HOPITAL JEAN-TALON", "designationCode": "A", "categoryCode": "11", "address": "1385 RUE JEAN-TALON EST", "city": "MONTREAL", "province": "QC", "country": "CA", "postalCode": "H2E1S6", "twitter": "None", "instagram": "None", "facebook": "None", "youtube": "None", "website": "None", "summary": "None", "logo": "None", "latitude": 45.54576205219563, "longitude": -73.6091355615151}, "118921642RR0001": {"name": "FONDATION DE L'HOPITAL MONTFORT", "designationCode": "A", "categoryCode": "13", "address": "713 CH MONTREAL", "city": "OTTAWA", "province": "ON", "country": "CA", "postalCode": "K1K0T2", "twitter": "None", "instagram": "None", "facebook": "None", "youtube": "None", "website": "None", "summary": "None", "logo": "None", "latitude": 45.44415542940227, "longitude": -75.63802910941673}, "889042479RR0001": {"name": "FONDATION DE L'HOPITAL NOTRE-DAME HOSPITAL, HEARST, ONTARIO", "designationCode": "A", "categoryCode": "13", "address": "S.P. 8000", "city": "HEARST", "province": "ON", "country": "CA", "postalCode": "P0L1N0", "twitter": "None", "instagram": "None", "facebook": "None", "youtube": "None", "website": "None", "summary": "None", "logo": "None", "latitude": 49.68503700000005, "longitude": -83.65433749999994}, "892608332RR0001": {"name": "FONDATION DE L'HOPITAL SAINTE-ANNE-DE-BEAUPRE INC.", "designationCode": "A", "categoryCode": "13", "address": "11000, RUE DES MONTAGNARDS", "city": "BEAUPR\u00c9", "province": "QC", "country": "CA", "postalCode": "G0A1E0", "twitter": "None", "instagram": "None", "facebook": "None", "youtube": "None", "website": "None", "summary": "None", "logo": "None", "latitude": 47.04196842377779, "longitude": -70.89954576633522}, "119189108RR0001": {"name": "FONDATION DE L'HOPITAL ST. MARY'S / ST. MARY'S HOSPITAL FOU NDATION", "designationCode": "A", "categoryCode": "13", "address": "3830 AVE LACOMBE", "city": "MONTREAL", "province": "QC", "country": "CA", "postalCode": "H3T1M5", "twitter": "None", "instagram": "None", "facebook": "None", "youtube": "None", "website": "None", "summary": "None", "logo": "None", "latitude": 45.49535567332221, "longitude": -73.62466873284677}, "870409562RR0001": {"name": "FONDATION DE L'HOTEL-DIEU DE ST-HYACINTHE", "designationCode": "A", "categoryCode": "03", "address": "1800 DESSAULLES", "city": "ST-HYACINTHE", "province": "QC", "country": "CA", "postalCode": "J2S2T2", "twitter": "None", "instagram": "None", "facebook": "None", "youtube": "None", "website": "None", "summary": "None", "logo": "None", "latitude": 45.62536457269854, "longitude": -72.94960190490643}, "118921493RR0001": {"name": "FONDATION DE L'H\u00d4PITAL CHINOIS DE MONTR\u00c9AL (1972)", "designationCode": "A", "categoryCode": "13", "address": "189 AVE VIGER EST", "city": "MONTREAL", "province": "QC", "country": "CA", "postalCode": "H2X3Y9", "twitter": "None", "instagram": "None", "facebook": "None", "youtube": "None", "website": "None", "summary": "None", "logo": "None", "latitude": 45.50921999890348, "longitude": -73.55748344399521}, "860175736RR0001": {"name": "FONDATION DE L'H\u00d4PITAL D'ARGENTEUIL", "designationCode": "A", "categoryCode": "13", "address": "145 AVENUE DE LA PROVIDENCE", "city": "LACHUTE", "province": "QC", "country": "CA", "postalCode": "J8H4C7", "twitter": "None", "instagram": "None", "facebook": "None", "youtube": "None", "website": "None", "summary": "None", "logo": "None", "latitude": 45.662432771545035, "longitude": -74.3510467127379}, "119001477RR0001": {"name": "FONDATION DE L'H\u00d4PITAL DE LACHINE / LACHINE HOSPITAL FOUNDATION", "designationCode": "A", "categoryCode": "13", "address": "650, 16E AVENUE", "city": "LACHINE", "province": "QC", "country": "CA", "postalCode": "H8S3N5", "twitter": "None", "instagram": "None", "facebook": "None", "youtube": "None", "website": "None", "summary": "None", "logo": "None", "latitude": 45.44088928325719, "longitude": -73.67796202849648}, "118923291RR0001": {"name": "FONDATION DE L'H\u00d4PITAL DE VERDUN", "designationCode": "A", "categoryCode": "13", "address": "4000 BOUL LASALLE", "city": "VERDUN", "province": "QC", "country": "CA", "postalCode": "H4G2A2", "twitter": "None", "instagram": "None", "facebook": "None", "youtube": "None", "website": "None", "summary": "None", "logo": "None", "latitude": 45.46395360312186, "longitude": -73.5644055572742}, "118921584RR0001": {"name": "FONDATION DE L'H\u00d4PITAL DU SACR\u00c9-COEUR DE MONTR\u00c9AL / MONTR\u00c9AL SACR\u00c9-COEUR HOSPITAL FOUNDATION", "designationCode": "A", "categoryCode": "13", "address": "5400 BOUL GOUIN OUEST", "city": "MONTREAL", "province": "QC", "country": "CA", "postalCode": "H4J1C5", "twitter": "None", "instagram": "None", "facebook": "None", "youtube": "None", "website": "None", "summary": "None", "logo": "None", "latitude": 45.53401666106287, "longitude": -73.7161646987599}, "132927757RR0001": {"name": "FONDATION DE L'H\u00d4PITAL DU SURO\u00ceT", "designationCode": "A", "categoryCode": "13", "address": "150 RUE SAINT-THOMAS", "city": "SALABERRY-DE-VALLEYFIELD", "province": "QC", "country": "CA", "postalCode": "J6T6C1", "twitter": "None", "instagram": "None", "facebook": "None", "youtube": "None", "website": "None", "summary": "None", "logo": "None", "latitude": 45.24976341268987, "longitude": -74.12919790902492}, "118921634RR0001": {"name": "FONDATION DE L'H\u00d4PITAL LASALLE", "designationCode": "A", "categoryCode": "19", "address": "8585 TERRASSE CHAMPLAIN", "city": "LASALLE", "province": "QC", "country": "CA", "postalCode": "H8P1C1", "twitter": "None", "instagram": "None", "facebook": "None", "youtube": "None", "website": "None", "summary": "None", "logo": "None", "latitude": 45.42174353067113, "longitude": -73.62193233778629}, "107391757RR0001": {"name": "FONDATION DE L'H\u00d4PITAL MAISONNEUVE-ROSEMONT", "designationCode": "A", "categoryCode": "13", "address": "270-5345 BOUL DE L'ASSOMPTION", "city": "MONTREAL", "province": "QC", "country": "CA", "postalCode": "H1T4B3", "twitter": "None", "instagram": "None", "facebook": "None", "youtube": "None", "website": "None", "summary": "None", "logo": "None", "latitude": 45.57286877217355, "longitude": -73.55796504521341}, "891850166RR0001": {"name": "FONDATION DE L'H\u00d4PITAL MARIE-CLARAC", "designationCode": "A", "categoryCode": "03", "address": "3530 BOUL. GOUIN EST", "city": "MONTREAL-NORD", "province": "QC", "country": "CA", "postalCode": "H1H1B7", "twitter": "None", "instagram": "None", "facebook": "None", "youtube": "None", "website": "None", "summary": "None", "logo": "None", "latitude": 45.591237086012065, "longitude": -73.64970919366422}, "118921659RR0001": {"name": "FONDATION DE L'H\u00d4PITAL ROYAL VICTORIA/ROYAL VICTORIA HOSPITAL FOUNDATION", "designationCode": "A", "categoryCode": "13", "address": "5100 BOUL DE MAISONNEUVE O    APP 700", "city": "MONTREAL", "province": "QC", "country": "CA", "postalCode": "H4A3T2", "twitter": "None", "instagram": "None", "facebook": "None", "youtube": "None", "website": "None", "summary": "None", "logo": "None", "latitude": 45.475014595591375, "longitude": -73.60313088657772}, "101835445RR0001": {"name": "FONDATION DE L'H\u00d4PITAL ST-EUSTACHE", "designationCode": "A", "categoryCode": "13", "address": "520 BOUL ARTHUR-SAUVE", "city": "ST-EUSTACHE", "province": "QC", "country": "CA", "postalCode": "J7R5B1", "twitter": "None", "instagram": "None", "facebook": "None", "youtube": "None", "website": "None", "summary": "None", "logo": "None", "latitude": 45.572075455998686, "longitude": -73.91253606621832}, "891610883RR0001": {"name": "FONDATION DE L'H\u00d4PITAL ST-LAMBERT", "designationCode": "A", "categoryCode": "13", "address": "831 AV NOTRE-DAME", "city": "SAINT-LAMBERT", "province": "QC", "country": "CA", "postalCode": "J4R1S1", "twitter": "None", "instagram": "None", "facebook": "None", "youtube": "None", "website": "None", "summary": "None", "logo": "None", "latitude": 45.49841917317798, "longitude": -73.50339066530078}, "118921691RR0001": {"name": "FONDATION DE L'H\u00d4TEL-DIEU D'ALMA INC.", "designationCode": "A", "categoryCode": "13", "address": "300 BOUL CHAMPLAIN S", "city": "ALMA", "province": "QC", "country": "CA", "postalCode": "G8B5W3", "twitter": "None", "instagram": "None", "facebook": "None", "youtube": "None", "website": "None", "summary": "None", "logo": "None", "latitude": 48.55057936525477, "longitude": -71.6647800780193}, "118921717RR0001": {"name": "FONDATION DE L'H\u00d4TEL-DIEU DE MONTMAGNY", "designationCode": "A", "categoryCode": "03", "address": "350, BOUL. TACHE OUEST", "city": "MONTMAGNY", "province": "QC", "country": "CA", "postalCode": "G5V3R8", "twitter": "None", "instagram": "None", "facebook": "None", "youtube": "None", "website": "None", "summary": "None", "logo": "None", "latitude": 46.97791817700394, "longitude": -70.59607032960959}, "823116140RR0001": {"name": "FONDATION DE L'INSTITUT CANADIEN FRANCAIS D'OTTAWA", "designationCode": "A", "categoryCode": "03", "address": "316 RUE DALHOUSIE             CASIER POSTAL 52073", "city": "OTTAWA", "province": "ON", "country": "CA", "postalCode": "K1N1B4", "twitter": "None", "instagram": "None", "facebook": "None", "youtube": "None", "website": "None", "summary": "None", "logo": "None", "latitude": 45.42915133804608, "longitude": -75.69142818041999}}