{"130523020RR0001": {"name": "Theatre Saskatchewan Inc.", "designationCode": "C", "categoryCode": "22", "address": "402 BROAD ST", "city": "REGINA", "province": "SK", "country": "CA", "postalCode": "S4R1X3", "twitter": "None", "instagram": "None", "facebook": "None", "youtube": "None", "website": "None", "summary": "None", "logo": "None", "latitude": 50.47232501707205, "longitude": -104.60659873469953}, "843051459RR0001": {"name": "Their Opportunity Minor Sports Corporation", "designationCode": "C", "categoryCode": "09", "address": "50 SIMCOE ST N", "city": "OSHAWA", "province": "ON", "country": "CA", "postalCode": "L1G4S1", "twitter": "None", "instagram": "None", "facebook": "None", "youtube": "None", "website": "None", "summary": "None", "logo": "None", "latitude": 43.89891376519132, "longitude": -78.86429467557258}, "840139315RR0001": {"name": "Theocracy Apostolic Fellowship", "designationCode": "C", "categoryCode": "39", "address": "27 REGATTA CRESCENT", "city": "NORTH YORK", "province": "ON", "country": "CA", "postalCode": "M2R2X7", "twitter": "None", "instagram": "None", "facebook": "None", "youtube": "None", "website": "None", "summary": "None", "logo": "None", "latitude": 43.789978540106176, "longitude": -79.44293609100373}, "899021620RR0001": {"name": "Therapy Alternatives for Special Children Corporation", "designationCode": "C", "categoryCode": "09", "address": "820 RIDGE ROAD", "city": "RIDGEWAY", "province": "ON", "country": "CA", "postalCode": "L0S1N0", "twitter": "None", "instagram": "None", "facebook": "None", "youtube": "None", "website": "None", "summary": "None", "logo": "None", "latitude": 42.89710095669119, "longitude": -79.04877212805148}, "820737260RR0001": {"name": "Therapy Tails Ontario", "designationCode": "C", "categoryCode": "11", "address": "81 BALD ST", "city": "WELLAND", "province": "ON", "country": "CA", "postalCode": "L3C5C1", "twitter": "None", "instagram": "None", "facebook": "None", "youtube": "None", "website": "None", "summary": "None", "logo": "None", "latitude": 42.99045968552724, "longitude": -79.25504862600268}, "813811817RR0001": {"name": "Thessalon Food Bank Association", "designationCode": "C", "categoryCode": "09", "address": "P.O. BOX 6                    254 WATER STREET", "city": "THESSALON", "province": "ON", "country": "CA", "postalCode": "P0R1L0", "twitter": "None", "instagram": "None", "facebook": "None", "youtube": "None", "website": "None", "summary": "None", "logo": "None", "latitude": 46.259868214293775, "longitude": -83.55741299780695}, "828372615RR0001": {"name": "TheCry Canada", "designationCode": "C", "categoryCode": "47", "address": "4, 15 MATCHEDASH STREET NORTH", "city": "ORILLIA", "province": "ON", "country": "CA", "postalCode": "L3V4T4", "twitter": "None", "instagram": "None", "facebook": "None", "youtube": "None", "website": "None", "summary": "None", "logo": "None", "latitude": 44.610484500000005, "longitude": -79.41619349999999}, "854200755RR0001": {"name": "Thinking In Pictures Educational Services (TIPES)", "designationCode": "C", "categoryCode": "20", "address": "31 NADOLNY SACHS PVT", "city": "OTTAWA", "province": "ON", "country": "CA", "postalCode": "K2A1R9", "twitter": "None", "instagram": "None", "facebook": "None", "youtube": "None", "website": "None", "summary": "None", "logo": "None", "latitude": 45.37610551650419, "longitude": -75.75253331672313}, "832690705RR0001": {"name": "Third Day Worship Centre of Lethbridge", "designationCode": "C", "categoryCode": "39", "address": "90-550 WT HILL BLVD S", "city": "LETHBRIDGE", "province": "AB", "country": "CA", "postalCode": "T1J4Z9", "twitter": "None", "instagram": "None", "facebook": "None", "youtube": "None", "website": "None", "summary": "None", "logo": "None", "latitude": 49.69308862331963, "longitude": -112.78629881037514}, "839602919RR0001": {"name": "Third Day Worship Centre Guelph", "designationCode": "C", "categoryCode": "39", "address": "206 VICTORIA RD N", "city": "GUELPH", "province": "ON", "country": "CA", "postalCode": "N1E5H8", "twitter": "None", "instagram": "None", "facebook": "None", "youtube": "None", "website": "None", "summary": "None", "logo": "None", "latitude": 43.56655338548119, "longitude": -80.24441749088206}, "830890109RR0001": {"name": "Third Space Life Charity Foundation", "designationCode": "B", "categoryCode": "03", "address": "1700 - 1631 DICKSON AVE", "city": "KELOWNA", "province": "BC", "country": "CA", "postalCode": "V1Y0B5", "twitter": "None", "instagram": "None", "facebook": "None", "youtube": "None", "website": "None", "summary": "None", "logo": "None", "latitude": 49.88064051067581, "longitude": -119.46192316763806}, "132389321RR0001": {"name": "Thistleoaks Child Care Centre", "designationCode": "C", "categoryCode": "01", "address": "53 BOND STREET", "city": "OAKVILLE", "province": "ON", "country": "CA", "postalCode": "L6K1L8", "twitter": "None", "instagram": "None", "facebook": "None", "youtube": "None", "website": "None", "summary": "None", "logo": "None", "latitude": 43.44200280772076, "longitude": -79.67740115788588}, "749993929RR0001": {"name": "Thomas George Simmons Private Foundation", "designationCode": "B", "categoryCode": "05", "address": "1400 - 350 7 AVE SW", "city": "CALGARY", "province": "AB", "country": "CA", "postalCode": "T2P3N9", "twitter": "None", "instagram": "None", "facebook": "None", "youtube": "None", "website": "None", "summary": "None", "logo": "None"}, "106702632RR0001": {"name": "Thomas Tutyko Global Projects Society", "designationCode": "C", "categoryCode": "39", "address": "301 - 2955 GLADWIN RD", "city": "ABBOTSFORD", "province": "BC", "country": "CA", "postalCode": "V2T5T4", "twitter": "None", "instagram": "None", "facebook": "None", "youtube": "None", "website": "None", "summary": "None", "logo": "None", "latitude": 49.05562194087947, "longitude": -122.31536203292146}, "843655531RR0001": {"name": "Thomasburg Cemetery", "designationCode": "C", "categoryCode": "59", "address": "121 CLARE STREET", "city": "THOMASBURG", "province": "ON", "country": "CA", "postalCode": "K0K3H0", "twitter": "None", "instagram": "None", "facebook": "None", "youtube": "None", "website": "None", "summary": "None", "logo": "None", "latitude": 44.39094358782976, "longitude": -77.34687486017619}, "107445595RR0001": {"name": "Thornbury Pastoral Charge", "designationCode": "C", "categoryCode": "44", "address": "140 BRUCE STREET SOUTH        POST OFFICE BOX 219", "city": "THORNBURY", "province": "ON", "country": "CA", "postalCode": "N0H2P0", "twitter": "None", "instagram": "None", "facebook": "None", "youtube": "None", "website": "None", "summary": "None", "logo": "None", "latitude": 44.5559547377671, "longitude": -80.45930605423273}, "795213321RR0001": {"name": "Thorndale Lions Community Fund", "designationCode": "A", "categoryCode": "03", "address": "265 QUEEN ST                  PO BOX 67", "city": "THORNDALE", "province": "ON", "country": "CA", "postalCode": "N0M2P0", "twitter": "None", "instagram": "None", "facebook": "None", "youtube": "None", "website": "None", "summary": "None", "logo": "None", "latitude": 43.13930319789299, "longitude": -81.53616741057319}, "805375201RR0001": {"name": "Thornhill African Caribbean Canadian Association", "designationCode": "C", "categoryCode": "59", "address": "59 PILKINGTON CRESCENT", "city": "THORNHILL", "province": "ON", "country": "CA", "postalCode": "L4J7J5", "twitter": "None", "instagram": "None", "facebook": "None", "youtube": "None", "website": "None", "summary": "None", "logo": "None", "latitude": 43.80062312072258, "longitude": -79.46572142420239}, "807880752RR0001": {"name": "Thornhill Heritage Foundation", "designationCode": "C", "categoryCode": "50", "address": "7780 YONGE ST", "city": "THORNHILL", "province": "ON", "country": "CA", "postalCode": "L4J1W3", "twitter": "None", "instagram": "None", "facebook": "None", "youtube": "None", "website": "None", "summary": "None", "logo": "None", "latitude": 43.817135574239735, "longitude": -79.42471880200794}, "118858778RR0001": {"name": "Thornhill Lutheran Church", "designationCode": "C", "categoryCode": "32", "address": "149 BAY THORN DRIVE", "city": "THORNHILL", "province": "ON", "country": "CA", "postalCode": "L3T3V2", "twitter": "None", "instagram": "None", "facebook": "None", "youtube": "None", "website": "None", "summary": "None", "logo": "None", "latitude": 43.82457286317729, "longitude": -79.41719748162082}, "824357008RR0001": {"name": "Thornhill Presbyterian Church", "designationCode": "C", "categoryCode": "37", "address": "271 CENTRE STREET", "city": "THORNHILL", "province": "ON", "country": "CA", "postalCode": "L4J1G5", "twitter": "None", "instagram": "None", "facebook": "None", "youtube": "None", "website": "None", "summary": "None", "logo": "None"}, "857698492RR0001": {"name": "Thornhill Torah Educational Centre", "designationCode": "C", "categoryCode": "42", "address": "45 FRONTENAC AVENUE", "city": "TORONTO", "province": "ON", "country": "CA", "postalCode": "M5N1Z6", "twitter": "None", "instagram": "None", "facebook": "None", "youtube": "None", "website": "None", "summary": "None", "logo": "None", "latitude": 43.71785283484344, "longitude": -79.42415528919734}, "779600923RR0001": {"name": "Thornhill Woods Shul", "designationCode": "C", "categoryCode": "42", "address": "10 NOAM COURT", "city": "THORNHILL", "province": "ON", "country": "CA", "postalCode": "L4J9K6", "twitter": "None", "instagram": "None", "facebook": "None", "youtube": "None", "website": "None", "summary": "None", "logo": "None", "latitude": 43.840499216227, "longitude": -79.46478631724273}, "119263861RR0001": {"name": "Thorold South-Allanburg United Church", "designationCode": "C", "categoryCode": "44", "address": "118 CLARA STREET", "city": "THOROLD", "province": "ON", "country": "CA", "postalCode": "L2V1K1", "twitter": "None", "instagram": "None", "facebook": "None", "youtube": "None", "website": "None", "summary": "None", "logo": "None", "latitude": 43.100688532315885, "longitude": -79.19822208090484}, "854640059RR0001": {"name": "Thousand Islands Christian Education", "designationCode": "C", "categoryCode": "20", "address": "216 MOWAT AVE", "city": "KINGSTON", "province": "ON", "country": "CA", "postalCode": "K7M1K8", "twitter": "None", "instagram": "None", "facebook": "None", "youtube": "None", "website": "None", "summary": "None", "logo": "None", "latitude": 44.22417978934158, "longitude": -76.52048005831246}, "827574682RR0001": {"name": "Thousand Islands Ground Search and Rescue", "designationCode": "C", "categoryCode": "59", "address": "216 1000 ISLANDS PARKWAY", "city": "GANANOQUE", "province": "ON", "country": "CA", "postalCode": "K7G2V4", "twitter": "None", "instagram": "None", "facebook": "None", "youtube": "None", "website": "None", "summary": "None", "logo": "None", "latitude": 44.3472874091366, "longitude": -76.10016756326922}, "824410526RR0001": {"name": "Thousand Islands Watershed Land Trust", "designationCode": "C", "categoryCode": "59", "address": "19 REYNOLDS ROAD", "city": "LANSDOWNE", "province": "ON", "country": "CA", "postalCode": "K0E1L0", "twitter": "None", "instagram": "None", "facebook": "None", "youtube": "None", "website": "None", "summary": "None", "logo": "None", "latitude": 44.370283323437924, "longitude": -75.98558879685031}, "805824513RR0001": {"name": "Three to Be", "designationCode": "B", "categoryCode": "03", "address": "700 - 505 CONSUMERS RD", "city": "NORTH YORK", "province": "ON", "country": "CA", "postalCode": "M2J4V8", "twitter": "None", "instagram": "None", "facebook": "None", "youtube": "None", "website": "None", "summary": "None", "logo": "None", "latitude": 43.77121033498767, "longitude": -79.3243361956548}, "824454607RR0001": {"name": "Three Angels Children's Relief, Incorporated", "designationCode": "C", "categoryCode": "09", "address": "670 MAIN ST", "city": "WOODSTOCK", "province": "NB", "country": "CA", "postalCode": "E7M2C8", "twitter": "None", "instagram": "None", "facebook": "None", "youtube": "None", "website": "None", "summary": "None", "logo": "None", "latitude": 46.150854610998216, "longitude": -67.57308835205946}, "844722843RR0001": {"name": "Three Bridges Christian Fellowship", "designationCode": "C", "categoryCode": "39", "address": "318 - 650 41ST AVE W", "city": "VANCOUVER", "province": "BC", "country": "CA", "postalCode": "V5Z2M9", "twitter": "None", "instagram": "None", "facebook": "None", "youtube": "None", "website": "None", "summary": "None", "logo": "None", "latitude": 49.233542548906996, "longitude": -123.11711287483404}, "727846123RR0001": {"name": "Three Fathers Memorial Fund", "designationCode": "C", "categoryCode": "21", "address": "32 BALFOUR CRT", "city": "MONCTON", "province": "NB", "country": "CA", "postalCode": "E1G5Y1", "twitter": "None", "instagram": "None", "facebook": "None", "youtube": "None", "website": "None", "summary": "None", "logo": "None", "latitude": 46.15094400000005, "longitude": -64.94273899999993}, "798688727RR0001": {"name": "Three Sisters Charitable Foundation", "designationCode": "B", "categoryCode": "03", "address": "210 MORNING VISTA RISE", "city": "CALGARY", "province": "AB", "country": "CA", "postalCode": "T3Z0B2", "twitter": "None", "instagram": "None", "facebook": "None", "youtube": "None", "website": "None", "summary": "None", "logo": "None", "latitude": 51.058075643055126, "longitude": -114.32358039814851}, "130399801RR0001": {"name": "Thresholds Homes and Supports Inc.", "designationCode": "C", "categoryCode": "11", "address": "236 VICTORIA ST N", "city": "KITCHENER", "province": "ON", "country": "CA", "postalCode": "N2H5C8", "twitter": "None", "instagram": "None", "facebook": "None", "youtube": "None", "website": "None", "summary": "None", "logo": "None", "latitude": 43.45669261174884, "longitude": -80.48825165808744}, "825519267RR0001": {"name": "Thrive Alive Foundation", "designationCode": "C", "categoryCode": "13", "address": "2782 TRINITY STREET", "city": "VANCOUVER", "province": "BC", "country": "CA", "postalCode": "V5K1E7", "twitter": "None", "instagram": "None", "facebook": "None", "youtube": "None", "website": "None", "summary": "None", "logo": "None", "latitude": 49.28966447013696, "longitude": -123.04734194171618}, "107916033RR0001": {"name": "Thrive Child Development Centre / Centre de d\u00e9veloppement de l'enfant", "designationCode": "C", "categoryCode": "11", "address": "74 JOHNSON AVENUE", "city": "SAULT STE MARIE", "province": "ON", "country": "CA", "postalCode": "P6C2V5", "twitter": "None", "instagram": "None", "facebook": "None", "youtube": "None", "website": "None", "summary": "None", "logo": "None", "latitude": 46.541361497114465, "longitude": -84.35417288926077}, "139414544RR0001": {"name": "Thrive Child Development Centre Foundation / Fondation du centre de d\u00e9veloppement de l'enfant", "designationCode": "A", "categoryCode": "11", "address": "74 JOHNSON AVENUE", "city": "SAULT STE MARIE", "province": "ON", "country": "CA", "postalCode": "P6C2V5", "twitter": "None", "instagram": "None", "facebook": "None", "youtube": "None", "website": "None", "summary": "None", "logo": "None", "latitude": 46.541361497114465, "longitude": -84.35417288926077}, "814541819RR0001": {"name": "Thrive Church", "designationCode": "C", "categoryCode": "39", "address": "5751 CEDARBRIDGE WAY          125", "city": "RICHMOND", "province": "BC", "country": "CA", "postalCode": "V6X2A8", "twitter": "None", "instagram": "None", "facebook": "None", "youtube": "None", "website": "None", "summary": "None", "logo": "None", "latitude": 49.17345367055225, "longitude": -123.14231300891547}, "106989742RR0001": {"name": "Thrive Community Church", "designationCode": "C", "categoryCode": "31", "address": "169 KINGHAM RD", "city": "ACTON", "province": "ON", "country": "CA", "postalCode": "L7J2P3", "twitter": "None", "instagram": "None", "facebook": "None", "youtube": "None", "website": "None", "summary": "None", "logo": "None", "latitude": 43.622485551686864, "longitude": -80.03847430832738}, "119098200RR0001": {"name": "Thrive Community Support Circle Inc.", "designationCode": "C", "categoryCode": "09", "address": "555 SPENCE STREET", "city": "WINNIPEG", "province": "MB", "country": "CA", "postalCode": "R3B2R9", "twitter": "None", "instagram": "None", "facebook": "None", "youtube": "None", "website": "None", "summary": "None", "logo": "None", "latitude": 49.896726286427395, "longitude": -97.1535301996655}, "107462384RR0001": {"name": "Thrive Counselling Services Halton Inc.", "designationCode": "C", "categoryCode": "09", "address": "235 LAKESHORE RD E", "city": "OAKVILLE", "province": "ON", "country": "CA", "postalCode": "L6J1H7", "twitter": "None", "instagram": "None", "facebook": "None", "youtube": "None", "website": "None", "summary": "None", "logo": "None", "latitude": 43.44638780267176, "longitude": -79.66759374675388}, "833233430RR0001": {"name": "Thrive Group Support Services", "designationCode": "C", "categoryCode": "59", "address": "125 REDFERN AVE", "city": "HAMILTON", "province": "ON", "country": "CA", "postalCode": "L9C7W9", "twitter": "None", "instagram": "None", "facebook": "None", "youtube": "None", "website": "None", "summary": "None", "logo": "None", "latitude": 43.24085920422751, "longitude": -79.91953122013263}, "845590686RR0001": {"name": "Thrive Malawi", "designationCode": "C", "categoryCode": "09", "address": "2485 FOLKESTONE WAY", "city": "WEST VANCOUVER", "province": "BC", "country": "CA", "postalCode": "V7S3J1", "twitter": "None", "instagram": "None", "facebook": "None", "youtube": "None", "website": "None", "summary": "None", "logo": "None", "latitude": 49.346902236193664, "longitude": -123.17938918734491}, "864712419RR0001": {"name": "Thrive, CYN St. John's, Inc.", "designationCode": "C", "categoryCode": "09", "address": "108 LEMARCHANT ROAD           P.O. BOX 26067", "city": "ST. JOHN'S", "province": "NL", "country": "CA", "postalCode": "A1E0A5", "twitter": "None", "instagram": "None", "facebook": "None", "youtube": "None", "website": "None", "summary": "None", "logo": "None", "latitude": 47.559791713024346, "longitude": -52.71857897143501}, "828817551RR0001": {"name": "Through the Roof Ministry Centre", "designationCode": "C", "categoryCode": "39", "address": "3662 FLINTON ROAD             PO BOX 15", "city": "FLINTON", "province": "ON", "country": "CA", "postalCode": "K0H1P0", "twitter": "None", "instagram": "None", "facebook": "None", "youtube": "None", "website": "None", "summary": "None", "logo": "None", "latitude": 44.69123558718475, "longitude": -77.20818613086702}, "864676762RR0001": {"name": "Through the Years Day Care & Community Centre", "designationCode": "C", "categoryCode": "01", "address": "20 PTE RICHARD GREEN LANE     RR2", "city": "HUBBARDS", "province": "NS", "country": "CA", "postalCode": "B0J1T0", "twitter": "None", "instagram": "None", "facebook": "None", "youtube": "None", "website": "None", "summary": "None", "logo": "None", "latitude": 44.63558021056452, "longitude": -64.07148657899192}, "835718180RR0001": {"name": "Thunder Bay District Veterans' Fund", "designationCode": "C", "categoryCode": "09", "address": "229 VAN NORMAN STREET", "city": "THUNDER BAY", "province": "ON", "country": "CA", "postalCode": "P7A4B6", "twitter": "None", "instagram": "None", "facebook": "None", "youtube": "None", "website": "None", "summary": "None", "logo": "None", "latitude": 48.4363937679613, "longitude": -89.2200144857175}, "855819645RR0001": {"name": "Thunder Bay Military History Society", "designationCode": "C", "categoryCode": "53", "address": "125 N ALGOMA ST", "city": "THUNDER BAY", "province": "ON", "country": "CA", "postalCode": "P7A4Z5", "twitter": "None", "instagram": "None", "facebook": "None", "youtube": "None", "website": "None", "summary": "None", "logo": "None", "latitude": 48.4403616577703, "longitude": -89.22052862597403}, "890131998RR0001": {"name": "Thunder Bay Police Association Charity Foundation", "designationCode": "A", "categoryCode": "05", "address": "PO BOX 29035                  RPO MCINTYRE CENTRE", "city": "THUNDER BAY", "province": "ON", "country": "CA", "postalCode": "P7B6P9", "twitter": "None", "instagram": "None", "facebook": "None", "youtube": "None", "website": "None", "summary": "None", "logo": "None", "latitude": 48.38168400000005, "longitude": -89.24550199999993}, "797212925RR0001": {"name": "Thunder Bay Railway Historical Society", "designationCode": "C", "categoryCode": "50", "address": "151 TOIVO ST", "city": "THUNDER BAY", "province": "ON", "country": "CA", "postalCode": "P7B6K9", "twitter": "None", "instagram": "None", "facebook": "None", "youtube": "None", "website": "None", "summary": "None", "logo": "None", "latitude": 48.456213633071826, "longitude": -89.26766060822906}, "119264422RR0001": {"name": "Thyroid Foundation of Canada / La Fondation canadienne de la Thyro\u00efde", "designationCode": "C", "categoryCode": "11", "address": "POST OFFICE BOX 298", "city": "BATH", "province": "ON", "country": "CA", "postalCode": "K0H1G0", "twitter": "None", "instagram": "None", "facebook": "None", "youtube": "None", "website": "None", "summary": "None", "logo": "None", "latitude": 44.18406342158485, "longitude": -76.75999103456495}, "869400846RR0001": {"name": "Tian-Pao Maitreya Buddha Missionary Institute", "designationCode": "C", "categoryCode": "35", "address": "6380 WILLIAMS ROAD", "city": "RICHMOND", "province": "BC", "country": "CA", "postalCode": "V7E1K5", "twitter": "None", "instagram": "None", "facebook": "None", "youtube": "None", "website": "None", "summary": "None", "logo": "None", "latitude": 49.14095251399405, "longitude": -123.153813}, "824646525RR0001": {"name": "Tibetan canadian Cultural Centre", "designationCode": "C", "categoryCode": "35", "address": "40 TITAN ROAD", "city": "TORONTO", "province": "ON", "country": "CA", "postalCode": "M8Z2J8", "twitter": "None", "instagram": "None", "facebook": "None", "youtube": "None", "website": "None", "summary": "None", "logo": "None", "latitude": 43.630071144670325, "longitude": -79.52160871137957}, "856613039RR0001": {"name": "Tibetan Ngagyur Dzogchen Thupten Samdup Gatseling Calgary Buddhist Meditation Temple", "designationCode": "C", "categoryCode": "35", "address": "816 COACH BLUFF CRESCENT      SOUTH WEST", "city": "CALGARY", "province": "AB", "country": "CA", "postalCode": "T3H1A8", "twitter": "None", "instagram": "None", "facebook": "None", "youtube": "None", "website": "None", "summary": "None", "logo": "None", "latitude": 51.05745600000006, "longitude": -114.18385849999993}, "780807897RR0001": {"name": "Tickets for Troops Canada / Billets pour les troupes du Canada", "designationCode": "C", "categoryCode": "09", "address": "2510 EASTFIELD CLOSE          RR 1", "city": "BRIGHT'S GROVE", "province": "ON", "country": "CA", "postalCode": "N0N1C0", "twitter": "None", "instagram": "None", "facebook": "None", "youtube": "None", "website": "None", "summary": "None", "logo": "None", "latitude": 43.03122000000006, "longitude": -82.25350549999993}, "829695865RR0001": {"name": "Tidal Wave Drama Company", "designationCode": "C", "categoryCode": "47", "address": "POST OFFICE BOX 20088", "city": "BURLINGTON", "province": "ON", "country": "CA", "postalCode": "L7P0A4", "twitter": "None", "instagram": "None", "facebook": "None", "youtube": "None", "website": "None", "summary": "None", "logo": "None", "latitude": 43.326195000000055, "longitude": -79.79863399999994}, "853476414RR0001": {"name": "Tidings of Grace Ministries Inc.", "designationCode": "C", "categoryCode": "47", "address": "156 LINCOLN ROAD", "city": "GRAND FALLS-WINDSOR", "province": "NL", "country": "CA", "postalCode": "A2A1P5", "twitter": "None", "instagram": "None", "facebook": "None", "youtube": "None", "website": "None", "summary": "None", "logo": "None", "latitude": 48.93327197756175, "longitude": -55.65311194648232}, "847948296RR0001": {"name": "Tien De Religion Canada", "designationCode": "C", "categoryCode": "39", "address": "44 - 145 ROYAL CREST CRT", "city": "MARKHAM", "province": "ON", "country": "CA", "postalCode": "L3R9Z4", "twitter": "None", "instagram": "None", "facebook": "None", "youtube": "None", "website": "None", "summary": "None", "logo": "None", "latitude": 43.84116291750863, "longitude": -79.32536487382443}, "838335255RR0001": {"name": "Tien Tao Sheng Xiu Temple", "designationCode": "C", "categoryCode": "35", "address": "842 DUNDAS ST WEST,", "city": "TORONTO", "province": "ON", "country": "CA", "postalCode": "M6J1V5", "twitter": "None", "instagram": "None", "facebook": "None", "youtube": "None", "website": "None", "summary": "None", "logo": "None", "latitude": 43.651520223440365, "longitude": -79.41000806869982}, "804352656RR0001": {"name": "Tiger Jeet Singh Foundation", "designationCode": "B", "categoryCode": "03", "address": "612 - 420 MAIN ST E", "city": "MILTON", "province": "ON", "country": "CA", "postalCode": "L9T5G3", "twitter": "None", "instagram": "None", "facebook": "None", "youtube": "None", "website": "None", "summary": "None", "logo": "None", "latitude": 43.51784021896831, "longitude": -79.87805026377768}, "845671338RR0001": {"name": "Tigra Charitable Foundation", "designationCode": "A", "categoryCode": "03", "address": "16303 59 AVE", "city": "SURREY", "province": "BC", "country": "CA", "postalCode": "V3S7A5", "twitter": "None", "instagram": "None", "facebook": "None", "youtube": "None", "website": "None", "summary": "None", "logo": "None", "latitude": 49.1098194893242, "longitude": -122.77076302553522}, "119288918RR1715": {"name": "Tigrinya North Congregation of Jehovah's Witnesses, Edmonton, Alberta", "designationCode": "C", "categoryCode": "61", "address": "5003 162 AVE NW", "city": "EDMONTON", "province": "AB", "country": "CA", "postalCode": "T5Y3K2", "twitter": "None", "instagram": "None", "facebook": "None", "youtube": "None", "website": "None", "summary": "None", "logo": "None", "latitude": 53.62226947928356, "longitude": -113.41482220987903}, "823775739RR0001": {"name": "Tikkun Olam of Canada Inc.", "designationCode": "B", "categoryCode": "03", "address": "1801 - 1 YONGE ST", "city": "TORONTO", "province": "ON", "country": "CA", "postalCode": "M5E1W7", "twitter": "None", "instagram": "None", "facebook": "None", "youtube": "None", "website": "None", "summary": "None", "logo": "None", "latitude": 43.64545122998886, "longitude": -79.37634527541341}, "810735316RR0001": {"name": "Tikkun 18 Foundation", "designationCode": "B", "categoryCode": "03", "address": "241 WALMER RD", "city": "TORONTO", "province": "ON", "country": "CA", "postalCode": "M5R3P7", "twitter": "None", "instagram": "None", "facebook": "None", "youtube": "None", "website": "None", "summary": "None", "logo": "None", "latitude": 43.67656500305843, "longitude": -79.40899950066382}, "809599178RR0001": {"name": "Tikvah L'Chaim/Tzohar", "designationCode": "C", "categoryCode": "21", "address": "5353, RUE JEANNE-MANCE", "city": "MONTR\u00c9AL", "province": "QC", "country": "CA", "postalCode": "H2V4K5", "twitter": "None", "instagram": "None", "facebook": "None", "youtube": "None", "website": "None", "summary": "None", "logo": "None", "latitude": 45.52210119929012, "longitude": -73.5997078823072}, "837135896RR0001": {"name": "Tilbury and District Historical Society", "designationCode": "C", "categoryCode": "50", "address": "20 CANAL ST                   PO BOX 2135", "city": "TILBURY", "province": "ON", "country": "CA", "postalCode": "N0P2L0", "twitter": "None", "instagram": "None", "facebook": "None", "youtube": "None", "website": "None", "summary": "None", "logo": "None", "latitude": 42.25853540689015, "longitude": -82.4342433208494}, "822521670RR0001": {"name": "Tilbury District Family Health Team", "designationCode": "C", "categoryCode": "11", "address": "22 MILL STREET WEST           BOX 760", "city": "TILBURY", "province": "ON", "country": "CA", "postalCode": "N0P2L0", "twitter": "None", "instagram": "None", "facebook": "None", "youtube": "None", "website": "None", "summary": "None", "logo": "None", "latitude": 42.263020486005956, "longitude": -82.43689208303962}, "820653012RR0001": {"name": "Tilbury District Family Health Team Charitable Trust", "designationCode": "A", "categoryCode": "15", "address": "22 MILL STREET WEST           BOX 760", "city": "TILBURY", "province": "ON", "country": "CA", "postalCode": "N0P2L0", "twitter": "None", "instagram": "None", "facebook": "None", "youtube": "None", "website": "None", "summary": "None", "logo": "None", "latitude": 42.263020486005956, "longitude": -82.43689208303962}, "846086767RR0001": {"name": "Tilbury Tots Early Learning Centre", "designationCode": "C", "categoryCode": "01", "address": "PO BOX 607                    43 ST CLAIR STREET", "city": "TILBURY", "province": "ON", "country": "CA", "postalCode": "N0P2L0", "twitter": "None", "instagram": "None", "facebook": "None", "youtube": "None", "website": "None", "summary": "None", "logo": "None", "latitude": 42.25969049956733, "longitude": -82.43873105943764}, "828414771RR0001": {"name": "Tim's Tribute", "designationCode": "C", "categoryCode": "09", "address": "21 - 601 CONKLIN RD", "city": "BRANTFORD", "province": "ON", "country": "CA", "postalCode": "N3T0C1", "twitter": "None", "instagram": "None", "facebook": "None", "youtube": "None", "website": "None", "summary": "None", "logo": "None", "latitude": 43.12299628977587, "longitude": -80.29998885228734}, "888524436RR0001": {"name": "Timberkids Charitable Foundation", "designationCode": "A", "categoryCode": "03", "address": "SUITE 705                     1601 AIRPORT ROAD NORTHEAST", "city": "CALGARY", "province": "AB", "country": "CA", "postalCode": "T2E6Z8", "twitter": "None", "instagram": "None", "facebook": "None", "youtube": "None", "website": "None", "summary": "None", "logo": "None", "latitude": 51.13393790710987, "longitude": -114.01094097345995}, "807291034RR0001": {"name": "Timberlea Community Bible Chapel Association", "designationCode": "C", "categoryCode": "39", "address": "3284 ST. MARGARET'S BAY ROAD", "city": "TIMBERLEA", "province": "NS", "country": "CA", "postalCode": "B3T1J1", "twitter": "None", "instagram": "None", "facebook": "None", "youtube": "None", "website": "None", "summary": "None", "logo": "None", "latitude": 44.6730210254779, "longitude": -63.782065289398886}, "855929535RR0001": {"name": "Timbers Community Church of The Christian and Missionary Alliance in Canada", "designationCode": "C", "categoryCode": "39", "address": "BOX 404", "city": "DRYDEN", "province": "ON", "country": "CA", "postalCode": "P8N2Z1", "twitter": "None", "instagram": "None", "facebook": "None", "youtube": "None", "website": "None", "summary": "None", "logo": "None", "latitude": 49.782039000000054, "longitude": -92.83759099999993}, "802574970RR0001": {"name": "Times Colonist Christmas Fund Society", "designationCode": "A", "categoryCode": "09", "address": "2621 DOUGLAS STREET", "city": "VICTORIA", "province": "BC", "country": "CA", "postalCode": "V8T4M2", "twitter": "None", "instagram": "None", "facebook": "None", "youtube": "None", "website": "None", "summary": "None", "logo": "None", "latitude": 48.43682435111649, "longitude": -123.3660584094299}, "140435892RR0001": {"name": "Timiskaming Home Support / Soutien a domicile", "designationCode": "C", "categoryCode": "09", "address": "367 SUTHERLAND WAY, UNIT 101  POST OFFICE BOX 428", "city": "HAILEYBURY", "province": "ON", "country": "CA", "postalCode": "P0J1K0", "twitter": "None", "instagram": "None", "facebook": "None", "youtube": "None", "website": "None", "summary": "None", "logo": "None", "latitude": 47.44629807799066, "longitude": -79.63337942048013}, "858563430RR0001": {"name": "Timmins Food Bank, a division of St. Martin de Porres Charities", "designationCode": "C", "categoryCode": "09", "address": "P.O. BOX 891 STN MAIN", "city": "TIMMINS", "province": "ON", "country": "CA", "postalCode": "P4N7G7", "twitter": "None", "instagram": "None", "facebook": "None", "youtube": "None", "website": "None", "summary": "None", "logo": "None", "latitude": 48.47611200000006, "longitude": -81.32891299999993}, "752083725RR0001": {"name": "Timotheos Foundation Canada", "designationCode": "C", "categoryCode": "09", "address": "POST OFFICE BOX 609           5 STOVER STREET SOUTH", "city": "NORWICH", "province": "ON", "country": "CA", "postalCode": "N0J1P0", "twitter": "None", "instagram": "None", "facebook": "None", "youtube": "None", "website": "None", "summary": "None", "logo": "None", "latitude": 42.98702835530355, "longitude": -80.59720974454822}, "130839038RR0001": {"name": "Timothy Christian School Society (Owen Sound) Inc.", "designationCode": "C", "categoryCode": "20", "address": "1735 4TH AVENUE WEST", "city": "OWEN SOUND", "province": "ON", "country": "CA", "postalCode": "N4K4X7", "twitter": "None", "instagram": "None", "facebook": "None", "youtube": "None", "website": "None", "summary": "None", "logo": "None", "latitude": 44.57808088092224, "longitude": -80.9507557248836}, "832200463RR0001": {"name": "Timothy Foundation", "designationCode": "A", "categoryCode": "03", "address": "1250- 1500 WEST GEORGIA ST    BOX 62", "city": "VANCOUVER", "province": "BC", "country": "CA", "postalCode": "V6G2Z6", "twitter": "None", "instagram": "None", "facebook": "None", "youtube": "None", "website": "None", "summary": "None", "logo": "None", "latitude": 49.29013479542975, "longitude": -123.1300069287031}, "775811292RR0001": {"name": "Tiny Hands International Foundation", "designationCode": "A", "categoryCode": "03", "address": "1250-1500 GEORGIA W ST        PO BOX 62", "city": "VANCOUVER", "province": "BC", "country": "CA", "postalCode": "V6G2Z6", "twitter": "None", "instagram": "None", "facebook": "None", "youtube": "None", "website": "None", "summary": "None", "logo": "None", "latitude": 49.29013479542975, "longitude": -123.1300069287031}, "810335703RR0001": {"name": "Tiny Tales Pony Rescue Society", "designationCode": "C", "categoryCode": "54", "address": "4409 66TH ST", "city": "DELTA", "province": "BC", "country": "CA", "postalCode": "V4K4Y8", "twitter": "None", "instagram": "None", "facebook": "None", "youtube": "None", "website": "None", "summary": "None", "logo": "None", "latitude": 49.08307500000001, "longitude": -123.040484457845}, "828856955RR0001": {"name": "Tisdale Tiny Tornadoes Daycare Inc.", "designationCode": "C", "categoryCode": "01", "address": "610 - 100A STREET             P.O. BOX 1625", "city": "TISDALE", "province": "SK", "country": "CA", "postalCode": "S0E1T0", "twitter": "None", "instagram": "None", "facebook": "None", "youtube": "None", "website": "None", "summary": "None", "logo": "None", "latitude": 52.8437321148314, "longitude": -104.04752700000357}, "768101891RR0001": {"name": "Tisonnier de Qu\u00e9bec", "designationCode": "C", "categoryCode": "47", "address": "1438 RUE DES BRETONS", "city": "QUEBEC", "province": "QC", "country": "CA", "postalCode": "G1G2C5", "twitter": "None", "instagram": "None", "facebook": "None", "youtube": "None", "website": "None", "summary": "None", "logo": "None", "latitude": 46.8755366658204, "longitude": -71.27368177586713}, "811808310RR0001": {"name": "To the Stan and Back", "designationCode": "A", "categoryCode": "05", "address": "3-105 RUE D'AUGUSTA", "city": "GATINEAU", "province": "QC", "country": "CA", "postalCode": "J9H0C1", "twitter": "None", "instagram": "None", "facebook": "None", "youtube": "None", "website": "None", "summary": "None", "logo": "None", "latitude": 45.40996048874726, "longitude": -75.77155148759343}, "809441462RR0001": {"name": "To All Nations Outreach Ministries", "designationCode": "C", "categoryCode": "47", "address": "36 LORAINE DRIVE", "city": "ST-CATHARINES", "province": "ON", "country": "CA", "postalCode": "L2P3N8", "twitter": "None", "instagram": "None", "facebook": "None", "youtube": "None", "website": "None", "summary": "None", "logo": "None", "latitude": 43.152202897022384, "longitude": -79.21835306705503}, "835120692RR0001": {"name": "To Infinity and Beyond Foundation", "designationCode": "B", "categoryCode": "03", "address": "PO BOX 75160 RPO WESTHILLS", "city": "CALGARY", "province": "AB", "country": "CA", "postalCode": "T3H3M1", "twitter": "None", "instagram": "None", "facebook": "None", "youtube": "None", "website": "None", "summary": "None", "logo": "None", "latitude": 51.04672800000006, "longitude": -114.19906399999994}, "832717292RR0001": {"name": "Toburn Operating Authority", "designationCode": "C", "categoryCode": "50", "address": "52 RIVERSIDE DRIVE,           P O BOX 148", "city": "SWASTIKA", "province": "ON", "country": "CA", "postalCode": "P0K1T0", "twitter": "None", "instagram": "None", "facebook": "None", "youtube": "None", "website": "None", "summary": "None", "logo": "None", "latitude": 48.111054894252426, "longitude": -80.10355053978905}, "812510089RR0001": {"name": "Today Church", "designationCode": "C", "categoryCode": "39", "address": "1580 DANSEY AVENUE", "city": "COQUITLAM", "province": "BC", "country": "CA", "postalCode": "V3K3J2", "twitter": "None", "instagram": "None", "facebook": "None", "youtube": "None", "website": "None", "summary": "None", "logo": "None", "latitude": 49.24717951399404, "longitude": -122.84885177699232}, "818386500RR0001": {"name": "Today House Inc.", "designationCode": "C", "categoryCode": "01", "address": "BOX 784", "city": "STEINBACH", "province": "MB", "country": "CA", "postalCode": "R5G1M6", "twitter": "None", "instagram": "None", "facebook": "None", "youtube": "None", "website": "None", "summary": "None", "logo": "None", "latitude": 49.52572800000006, "longitude": -96.68393449999994}, "817794308RR0001": {"name": "Today's Church Inc.", "designationCode": "C", "categoryCode": "39", "address": "698 LANARK ST", "city": "WINNIPEG", "province": "MB", "country": "CA", "postalCode": "R3N1M3", "twitter": "None", "instagram": "None", "facebook": "None", "youtube": "None", "website": "None", "summary": "None", "logo": "None", "latitude": 49.856027867332216, "longitude": -97.19859038173028}, "808690051RR0001": {"name": "Tofield-Ryley and Area Food Bank Society", "designationCode": "C", "categoryCode": "09", "address": "PO BOX 4", "city": "TOFIELD", "province": "AB", "country": "CA", "postalCode": "T0B4J0", "twitter": "None", "instagram": "None", "facebook": "None", "youtube": "None", "website": "None", "summary": "None", "logo": "None", "latitude": 53.36988000000008, "longitude": -112.66557999999998}, "872390000RR0001": {"name": "Tofino-Clayoquot Heritage Society", "designationCode": "C", "categoryCode": "50", "address": "PO BOX 429", "city": "TOFINO", "province": "BC", "country": "CA", "postalCode": "V0R2Z0", "twitter": "None", "instagram": "None", "facebook": "None", "youtube": "None", "website": "None", "summary": "None", "logo": "None", "latitude": 49.15262000000007, "longitude": -125.90403999999995}, "815172838RR0001": {"name": "Together Building Africa", "designationCode": "C", "categoryCode": "45", "address": "PO BOX 2262", "city": "BEAUSEJOUR", "province": "MB", "country": "CA", "postalCode": "R0E0C0", "twitter": "None", "instagram": "None", "facebook": "None", "youtube": "None", "website": "None", "summary": "None", "logo": "None", "latitude": 50.061750000000075, "longitude": -96.50519999999995}, "819539966RR0001": {"name": "Together Education Works", "designationCode": "B", "categoryCode": "09", "address": "31 LADY BANK RD", "city": "ETOBICOKE", "province": "ON", "country": "CA", "postalCode": "M8Z4J7", "twitter": "None", "instagram": "None", "facebook": "None", "youtube": "None", "website": "None", "summary": "None", "logo": "None", "latitude": 43.6253737574297, "longitude": -79.51208758018369}, "833725112RR0001": {"name": "Together We Share Society", "designationCode": "C", "categoryCode": "09", "address": "410 MUNDY STREET", "city": "COQUITLAM", "province": "BC", "country": "CA", "postalCode": "V3K5N1", "twitter": "None", "instagram": "None", "facebook": "None", "youtube": "None", "website": "None", "summary": "None", "logo": "None", "latitude": 49.24500224562871, "longitude": -122.83430505609077}, "801039306RR0001": {"name": "Tolstoi Holy Trinity Church Historical Society Inc.", "designationCode": "C", "categoryCode": "50", "address": "PO BOX 123", "city": "TOLSTOI", "province": "MB", "country": "CA", "postalCode": "R0A2E0", "twitter": "None", "instagram": "None", "facebook": "None", "youtube": "None", "website": "None", "summary": "None", "logo": "None", "latitude": 49.08761000000004, "longitude": -96.80849999999998}, "736242520RR0001": {"name": "Tom And Cheryl Leavitt Foundation", "designationCode": "B", "categoryCode": "03", "address": "15647 36A AVE", "city": "SURREY", "province": "BC", "country": "CA", "postalCode": "V3Z0L4", "twitter": "None", "instagram": "None", "facebook": "None", "youtube": "None", "website": "None", "summary": "None", "logo": "None", "latitude": 49.06831415098965, "longitude": -122.78851291228582}, "833955826RR0001": {"name": "Tomoe Arts Society", "designationCode": "C", "categoryCode": "22", "address": "677 DAVIE ST", "city": "VANCOUVER", "province": "BC", "country": "CA", "postalCode": "V6B2G6", "twitter": "None", "instagram": "None", "facebook": "None", "youtube": "None", "website": "None", "summary": "None", "logo": "None", "latitude": 49.27699514960467, "longitude": -123.12586593698433}, "865511471RR0001": {"name": "Tomorrow Collective Arts Society", "designationCode": "C", "categoryCode": "22", "address": "3 ALEXANDER ST", "city": "VANCOUVER", "province": "BC", "country": "CA", "postalCode": "V6J3C1", "twitter": "None", "instagram": "None", "facebook": "None", "youtube": "None", "website": "None", "summary": "None", "logo": "None", "latitude": 49.283462551314535, "longitude": -123.10400180982892}, "119265486RR0001": {"name": "Tompkins Senior Corporation", "designationCode": "C", "categoryCode": "56", "address": "BOX 356", "city": "TOMPKINS", "province": "SK", "country": "CA", "postalCode": "S0N2S0", "twitter": "None", "instagram": "None", "facebook": "None", "youtube": "None", "website": "None", "summary": "None", "logo": "None", "latitude": 50.063720000000046, "longitude": -108.80139999999994}, "842167512RR0001": {"name": "Tonembee Association/Association Tonembee", "designationCode": "C", "categoryCode": "09", "address": "SUITE 3307                    8 PARK ROAD", "city": "TORONTO", "province": "ON", "country": "CA", "postalCode": "M4W3S5", "twitter": "None", "instagram": "None", "facebook": "None", "youtube": "None", "website": "None", "summary": "None", "logo": "None", "latitude": 43.67137141742173, "longitude": -79.3844855330657}}