{"863506655RR0001": {"name": "RURAL COMMUNITIES FOUNDATION OF NOVA SCOTIA", "designationCode": "A", "categoryCode": "03", "address": "PO BOX 1516 RPO PRINCE", "city": "TRURO", "province": "NS", "country": "CA", "postalCode": "B2N5V2", "twitter": "None", "instagram": "None", "facebook": "None", "youtube": "None", "website": "None", "summary": "None", "logo": "None", "latitude": 45.36524915901727, "longitude": -63.28200181927177}, "883759185RR0001": {"name": "RURAL EMERGENCY RESPONSE GROUP INC.", "designationCode": "C", "categoryCode": "09", "address": "69 LIMEKILN RD", "city": "STANLEY", "province": "NB", "country": "CA", "postalCode": "E6B1E9", "twitter": "None", "instagram": "None", "facebook": "None", "youtube": "None", "website": "None", "summary": "None", "logo": "None", "latitude": 46.276900681449874, "longitude": -66.75150049497414}, "103649331RR0001": {"name": "RURAL FAMILY CONNECTIONS INC.", "designationCode": "C", "categoryCode": "20", "address": "BOX 75                        8243 VICTORIA ST", "city": "METCALFE", "province": "ON", "country": "CA", "postalCode": "K0A2P0", "twitter": "None", "instagram": "None", "facebook": "None", "youtube": "None", "website": "None", "summary": "None", "logo": "None", "latitude": 45.23638929421766, "longitude": -75.47154438164337}, "891401846RR0001": {"name": "RURAL LEARNING ASSOCIATION", "designationCode": "C", "categoryCode": "21", "address": "P.O. BOX 1588, STN MAIN", "city": "GUELPH", "province": "ON", "country": "CA", "postalCode": "N1H6R7", "twitter": "None", "instagram": "None", "facebook": "None", "youtube": "None", "website": "None", "summary": "None", "logo": "None", "latitude": 43.54455300000005, "longitude": -80.24788249999993}, "119129757RR0001": {"name": "RURAL LIFE MISSION", "designationCode": "C", "categoryCode": "47", "address": "41 MAIN STREET N.             BOX 246", "city": "HAGERSVILLE", "province": "ON", "country": "CA", "postalCode": "N0A1H0", "twitter": "None", "instagram": "None", "facebook": "None", "youtube": "None", "website": "None", "summary": "None", "logo": "None", "latitude": 42.963397563708156, "longitude": -80.05053487166005}, "862752052RR0001": {"name": "RURAL ONTARIO INSTITUTE", "designationCode": "C", "categoryCode": "20", "address": "7382 WELLINGTON ROAD 30,RR#5", "city": "GUELPH", "province": "ON", "country": "CA", "postalCode": "N1H6J2", "twitter": "None", "instagram": "None", "facebook": "None", "youtube": "None", "website": "None", "summary": "None", "logo": "None", "latitude": 43.577475950809756, "longitude": -80.31106232125819}, "132232372RR0001": {"name": "RURAL RESPONSE FOR HEALTHY CHILDREN", "designationCode": "C", "categoryCode": "09", "address": "P.O. BOX 687                  58 MARY ST.", "city": "CLINTON", "province": "ON", "country": "CA", "postalCode": "N0M1L0", "twitter": "None", "instagram": "None", "facebook": "None", "youtube": "None", "website": "None", "summary": "None", "logo": "None", "latitude": 43.6170487790698, "longitude": -81.54204413641868}, "135599496RR0001": {"name": "RURAL ROOTS CHILDRENS CENTRE INC", "designationCode": "C", "categoryCode": "01", "address": "1946A MOUNTAIN RD", "city": "THUNDER BAY", "province": "ON", "country": "CA", "postalCode": "P7J1C8", "twitter": "None", "instagram": "None", "facebook": "None", "youtube": "None", "website": "None", "summary": "None", "logo": "None", "latitude": 48.316779409216, "longitude": -89.35350934128101}, "119129765RR0001": {"name": "RURAL 60 PLUS", "designationCode": "C", "categoryCode": "56", "address": "5 PINEVIEW RD.", "city": "KAKABEKA FALLS", "province": "ON", "country": "CA", "postalCode": "P7K0G8", "twitter": "None", "instagram": "None", "facebook": "None", "youtube": "None", "website": "None", "summary": "None", "logo": "None", "latitude": 48.38107103908239, "longitude": -89.58051471556749}, "812509644RR0001": {"name": "RUSAGONIS BAPTIST CHURCH INC.", "designationCode": "C", "categoryCode": "31", "address": "4 WHITTAKER RD", "city": "RUSAGONIS", "province": "NB", "country": "CA", "postalCode": "E3B7Y7", "twitter": "None", "instagram": "None", "facebook": "None", "youtube": "None", "website": "None", "summary": "None", "logo": "None", "latitude": 45.80144980713982, "longitude": -66.62397135983852}, "119129773RR0001": {"name": "RUSAGONIS RECREATION COUNCIL INC.", "designationCode": "C", "categoryCode": "56", "address": "993 ROUTE 655 HWY", "city": "WAASIS", "province": "NB", "country": "CA", "postalCode": "E3B9A5", "twitter": "None", "instagram": "None", "facebook": "None", "youtube": "None", "website": "None", "summary": "None", "logo": "None", "latitude": 45.82888417713731, "longitude": -66.578677395909}, "133981241RR0001": {"name": "RUSALKA UKRAINIAN DANCE ENSEMBLE INCORPORATED", "designationCode": "C", "categoryCode": "22", "address": "PO BOX 3059", "city": "WINNIPEG", "province": "MB", "country": "CA", "postalCode": "R3C4E5", "twitter": "None", "instagram": "None", "facebook": "None", "youtube": "None", "website": "None", "summary": "None", "logo": "None", "latitude": 49.899525000000054, "longitude": -97.14112999999993}, "865763502RR0001": {"name": "RUSHING MIGHTY WIND CHRISTIAN FELLOWSHIP", "designationCode": "C", "categoryCode": "49", "address": "P.O. BOX 807", "city": "WABASCA", "province": "AB", "country": "CA", "postalCode": "T0G2K0", "twitter": "None", "instagram": "None", "facebook": "None", "youtube": "None", "website": "None", "summary": "None", "logo": "None", "latitude": 55.987460000000056, "longitude": -113.91912999999994}, "862058518RR0001": {"name": "RUSKOKA ORTHODOX RETREAT", "designationCode": "C", "categoryCode": "39", "address": "18 FERNALROY BLVD", "city": "TORONTO", "province": "ON", "country": "CA", "postalCode": "M8Z3V8", "twitter": "None", "instagram": "None", "facebook": "None", "youtube": "None", "website": "None", "summary": "None", "logo": "None", "latitude": 43.63946037163141, "longitude": -79.51514269429846}, "875539801RR0001": {"name": "RUSSELL & AREA FOOD CONNECTIONS INC.", "designationCode": "C", "categoryCode": "09", "address": "BOX 118", "city": "RUSSELL", "province": "MB", "country": "CA", "postalCode": "R0J1W0", "twitter": "None", "instagram": "None", "facebook": "None", "youtube": "None", "website": "None", "summary": "None", "logo": "None", "latitude": 50.69676379161792, "longitude": -101.40612232134879}, "122699416RR0001": {"name": "RUSSELL AGRICULTURAL SOCIETY", "designationCode": "C", "categoryCode": "56", "address": "PO BOX 730  STN MAIN", "city": "RUSSELL", "province": "ON", "country": "CA", "postalCode": "K4R1E8", "twitter": "None", "instagram": "None", "facebook": "None", "youtube": "None", "website": "None", "summary": "None", "logo": "None", "latitude": 45.257618391264984, "longitude": -75.35962961167314}, "119129831RR0001": {"name": "RUSSELL ALLIANCE CHURCH", "designationCode": "C", "categoryCode": "39", "address": "BOX 1026", "city": "RUSSELL", "province": "MB", "country": "CA", "postalCode": "R0J1W0", "twitter": "None", "instagram": "None", "facebook": "None", "youtube": "None", "website": "None", "summary": "None", "logo": "None", "latitude": 50.69676379161792, "longitude": -101.40612232134879}, "107944340RR0001": {"name": "RUSSELL AND DISTRICT REGIONAL LIBRARY", "designationCode": "A", "categoryCode": "50", "address": "BOX 340", "city": "RUSSELL", "province": "MB", "country": "CA", "postalCode": "R0J1W0", "twitter": "None", "instagram": "None", "facebook": "None", "youtube": "None", "website": "None", "summary": "None", "logo": "None", "latitude": 50.69676379161792, "longitude": -101.40612232134879}, "890685753RR0001": {"name": "RUSSELL AREA HERITAGE AND ARTS CENTRE INC.", "designationCode": "C", "categoryCode": "50", "address": "BOX 910", "city": "RUSSELL", "province": "MB", "country": "CA", "postalCode": "R0J1W0", "twitter": "None", "instagram": "None", "facebook": "None", "youtube": "None", "website": "None", "summary": "None", "logo": "None", "latitude": 50.69676379161792, "longitude": -101.40612232134879}, "108005810RR0001": {"name": "RUSSELL PASTORAL CHARGE", "designationCode": "C", "categoryCode": "44", "address": "P.O. BOX 400", "city": "RUSSELL", "province": "ON", "country": "CA", "postalCode": "K4R1E2", "twitter": "None", "instagram": "None", "facebook": "None", "youtube": "None", "website": "None", "summary": "None", "logo": "None", "latitude": 45.25810800000005, "longitude": -75.35879449999993}, "119129922RR0001": {"name": "RUSSELL SWIMMING POOL INC.", "designationCode": "C", "categoryCode": "56", "address": "BOX 444", "city": "RUSSELL", "province": "MB", "country": "CA", "postalCode": "R0J1W0", "twitter": "None", "instagram": "None", "facebook": "None", "youtube": "None", "website": "None", "summary": "None", "logo": "None", "latitude": 50.69676379161792, "longitude": -101.40612232134879}, "894226463RR0001": {"name": "RUSSELTOWN FLATTS CHURCH AND CEMETERY FUND", "designationCode": "B", "categoryCode": "55", "address": "648 COWAN RD.", "city": "HAVELOCK", "province": "QC", "country": "CA", "postalCode": "J0S2C0", "twitter": "None", "instagram": "None", "facebook": "None", "youtube": "None", "website": "None", "summary": "None", "logo": "None", "latitude": 45.071814516158405, "longitude": -73.72938311365341}, "119288918RR1267": {"name": "RUSSIAN CONGREGATION OF JEHOVAH'S WITNESSES, MONTREAL, QUEBE", "designationCode": "C", "categoryCode": "61", "address": "3521 ROUVIERE", "city": "LONGUEUIL", "province": "QC", "country": "CA", "postalCode": "J4L4J9", "twitter": "None", "instagram": "None", "facebook": "None", "youtube": "None", "website": "None", "summary": "None", "logo": "None", "latitude": 45.509737995585276, "longitude": -73.44756805210965}, "119288918RR1291": {"name": "RUSSIAN CONGREGATION OF JEHOVAH'S WITNESSES, TORONTO, ONTARIO", "designationCode": "C", "categoryCode": "61", "address": "77 CHAMPAGNE DRIVE", "city": "TORONTO", "province": "ON", "country": "CA", "postalCode": "M3J2C6", "twitter": "None", "instagram": "None", "facebook": "None", "youtube": "None", "website": "None", "summary": "None", "logo": "None", "latitude": 43.76610834999131, "longitude": -79.4708426732649}, "873931000RR0001": {"name": "RUSSIAN FAMILY AND CHILDREN CLUB OF TORONTO", "designationCode": "C", "categoryCode": "22", "address": "33 BELWOOD BOULEVARD", "city": "VAUGHAN", "province": "ON", "country": "CA", "postalCode": "L4K5H4", "twitter": "None", "instagram": "None", "facebook": "None", "youtube": "None", "website": "None", "summary": "None", "logo": "None", "latitude": 43.83433774854291, "longitude": -79.48634439451222}, "887441269RR0001": {"name": "RUSSIAN GREEK CATHOLIC ORTHODOX CHURCH OF THE HOLY ASCENSION OF SKARO, ALBERTA", "designationCode": "B", "categoryCode": "38", "address": "BOX 501", "city": "LAMONT", "province": "AB", "country": "CA", "postalCode": "T0B2R0", "twitter": "None", "instagram": "None", "facebook": "None", "youtube": "None", "website": "None", "summary": "None", "logo": "None", "latitude": 53.759960000000035, "longitude": -112.77838999999994}, "107944860RR0001": {"name": "RUSSIAN GREEK ORTHODOX CHURCH OF ALL SAINTS", "designationCode": "C", "categoryCode": "39", "address": "905-8TH AVE N E", "city": "CALGARY", "province": "AB", "country": "CA", "postalCode": "T2E0S2", "twitter": "None", "instagram": "None", "facebook": "None", "youtube": "None", "website": "None", "summary": "None", "logo": "None", "latitude": 51.0595824884588, "longitude": -114.04258191618096}, "107488371RR0001": {"name": "RUSSIAN HOLY TRINITY ORTHODOX CHURCH", "designationCode": "C", "categoryCode": "39", "address": "237 BEDFORD PARK AVENUE", "city": "TORONTO", "province": "ON", "country": "CA", "postalCode": "M5M1J4", "twitter": "None", "instagram": "None", "facebook": "None", "youtube": "None", "website": "None", "summary": "None", "logo": "None", "latitude": 43.72536580209485, "longitude": -79.41242812155927}, "804059806RR0001": {"name": "RUSSIAN ORTHODOX CHRIST THE SAVIOUR CATHEDRAL", "designationCode": "C", "categoryCode": "39", "address": "823 MANNING AVE", "city": "TORONTO", "province": "ON", "country": "CA", "postalCode": "M6G2W9", "twitter": "None", "instagram": "None", "facebook": "None", "youtube": "None", "website": "None", "summary": "None", "logo": "None", "latitude": 43.668734500144225, "longitude": -79.41777611431726}, "119129997RR0001": {"name": "RUSSIAN ORTHODOX CHURCH OF CHRIST THE SAVIOUR", "designationCode": "C", "categoryCode": "39", "address": "140 FAIRVIEW AVE", "city": "LONDON", "province": "ON", "country": "CA", "postalCode": "N6C4T8", "twitter": "None", "instagram": "None", "facebook": "None", "youtube": "None", "website": "None", "summary": "None", "logo": "None", "latitude": 42.965562478215695, "longitude": -81.22679686952526}, "119130029RR0001": {"name": "RUSSIAN ORTHODOX CHURCH OUTSIDE OF RUSSIA HOLY VEIL OF HOLY MOTHER", "designationCode": "C", "categoryCode": "39", "address": "77 SANFORD AVE S", "city": "HAMILTON", "province": "ON", "country": "CA", "postalCode": "L8M2G7", "twitter": "None", "instagram": "None", "facebook": "None", "youtube": "None", "website": "None", "summary": "None", "logo": "None", "latitude": 43.249134731386775, "longitude": -79.84746625056542}, "869511212RR0001": {"name": "RUSSIAN ORTHODOX CHURCH REPRESENTATION IN TORONTO PARISH OF ST. TIKHON PATRIARCH OF MOSCOW", "designationCode": "C", "categoryCode": "39", "address": "275 WILSON HEIGHTS BLVD", "city": "TORONTO", "province": "ON", "country": "CA", "postalCode": "M3H2V3", "twitter": "None", "instagram": "None", "facebook": "None", "youtube": "None", "website": "None", "summary": "None", "logo": "None", "latitude": 43.736664927577934, "longitude": -79.44967793891757}, "891615262RR0001": {"name": "RUSSIAN OUTREACH", "designationCode": "C", "categoryCode": "09", "address": "713 NEWPORT CRES.", "city": "WINDSOR", "province": "ON", "country": "CA", "postalCode": "N9E4Z5", "twitter": "None", "instagram": "None", "facebook": "None", "youtube": "None", "website": "None", "summary": "None", "logo": "None", "latitude": 42.279973356079495, "longitude": -83.02628319219232}, "864502356RR0001": {"name": "RUSSIAN-CANADIAN THEATRICAL COMMUNITY CENTRE", "designationCode": "C", "categoryCode": "22", "address": "27 CALLOWHILL AVE", "city": "RICHMOND HILL", "province": "ON", "country": "CA", "postalCode": "L4B4H5", "twitter": "None", "instagram": "None", "facebook": "None", "youtube": "None", "website": "None", "summary": "None", "logo": "None", "latitude": 43.846182692740605, "longitude": -79.41435843282939}, "131801342RR0001": {"name": "RUSSIAN-ORTHODOX CHURCH OF ST JOHN THE BAPTIST", "designationCode": "C", "categoryCode": "39", "address": "5016 144 ST NW", "city": "EDMONTON", "province": "AB", "country": "CA", "postalCode": "T6H4H3", "twitter": "None", "instagram": "None", "facebook": "None", "youtube": "None", "website": "None", "summary": "None", "logo": "None", "latitude": 53.488798490709186, "longitude": -113.5699794614517}, "889377594RR0001": {"name": "RUSSIAN-UKRAINIAN CHURCH OF EVANGELICAL CHRISTIANS,", "designationCode": "C", "categoryCode": "39", "address": "4009 - 1 KING ST W", "city": "TORONTO", "province": "ON", "country": "CA", "postalCode": "M5H1A1", "twitter": "None", "instagram": "None", "facebook": "None", "youtube": "None", "website": "None", "summary": "None", "logo": "None", "latitude": 43.64813467004466, "longitude": -79.38254906728791}, "119130078RR0001": {"name": "RUSSO GREEK CATHOLIC ORTHODOX CHURCH OF ST. JAMES MUNDARE, ALTA", "designationCode": "C", "categoryCode": "39", "address": "BOX 147", "city": "LAVOY", "province": "AB", "country": "CA", "postalCode": "T0B2S0", "twitter": "None", "instagram": "None", "facebook": "None", "youtube": "None", "website": "None", "summary": "None", "logo": "None", "latitude": 53.46116000000006, "longitude": -111.86955999999998}, "841775729RR0001": {"name": "RUSSO GREEK-ORTHODOX CHURCH OF SAINTS PETER PAUL, CHAHOR, SMOKY LAKE ALBERTA", "designationCode": "C", "categoryCode": "39", "address": "BOX 509", "city": "SMOKY LAKE", "province": "AB", "country": "CA", "postalCode": "T0A3C0", "twitter": "None", "instagram": "None", "facebook": "None", "youtube": "None", "website": "None", "summary": "None", "logo": "None", "latitude": 54.113230000000044, "longitude": -112.47107999999997}, "891567042RR0001": {"name": "RUSSO-GREEK CATHOLIC ORTHODOX CHURCH OF ST MARY", "designationCode": "C", "categoryCode": "38", "address": "BOX 322", "city": "ANDREW", "province": "AB", "country": "CA", "postalCode": "T0B0C0", "twitter": "None", "instagram": "None", "facebook": "None", "youtube": "None", "website": "None", "summary": "None", "logo": "None", "latitude": 53.88346000000007, "longitude": -112.35188999999997}, "892265760RR0001": {"name": "RUSSO-GREEK ORTHODOX CHURCH OF ST ONUPHREY", "designationCode": "C", "categoryCode": "39", "address": "BOX 954", "city": "FOAM LAKE", "province": "SK", "country": "CA", "postalCode": "S0A1A0", "twitter": "None", "instagram": "None", "facebook": "None", "youtube": "None", "website": "None", "summary": "None", "logo": "None", "latitude": 51.637590000000046, "longitude": -103.53518999999994}, "107944977RR0001": {"name": "RUSTY RELICS MUSEUM INC.", "designationCode": "C", "categoryCode": "50", "address": "BOX 840", "city": "CARLYLE", "province": "SK", "country": "CA", "postalCode": "S0C0R0", "twitter": "None", "instagram": "None", "facebook": "None", "youtube": "None", "website": "None", "summary": "None", "logo": "None", "latitude": 49.628016, "longitude": -102.26315694795335}, "863030482RR0001": {"name": "RUTH & NAOMI'S MISSION", "designationCode": "C", "categoryCode": "09", "address": "46130 MARGART AVE", "city": "CHILLIWACK", "province": "BC", "country": "CA", "postalCode": "V2P2G5", "twitter": "None", "instagram": "None", "facebook": "None", "youtube": "None", "website": "None", "summary": "None", "logo": "None", "latitude": 49.17141938823078, "longitude": -121.94777754713994}, "862789625RR0001": {"name": "RUTH CHURCH", "designationCode": "C", "categoryCode": "39", "address": "521 MCGREGOR FARM TRAIL", "city": "NEWMARKET", "province": "ON", "country": "CA", "postalCode": "L3X0H7", "twitter": "None", "instagram": "None", "facebook": "None", "youtube": "None", "website": "None", "summary": "None", "logo": "None", "latitude": 44.049780012292224, "longitude": -79.50055925612534}, "888454592RR0001": {"name": "RUTH HARVEY ART SCHOLARSHIP TRUST", "designationCode": "B", "categoryCode": "22", "address": "398 RIDGE ROAD", "city": "PENTICTON", "province": "BC", "country": "CA", "postalCode": "V2A8N7", "twitter": "None", "instagram": "None", "facebook": "None", "youtube": "None", "website": "None", "summary": "None", "logo": "None", "latitude": 49.501411155981316, "longitude": -119.61961309533156}, "107797383RR0088": {"name": "RUTH SEVENTH-DAY ADVENTIST CHURCH", "designationCode": "C", "categoryCode": "41", "address": "PO BOX 41553 HLRPO            230 SANDALWOOD PKWY", "city": "BRAMPTON", "province": "ON", "country": "CA", "postalCode": "L6Z4R1", "twitter": "None", "instagram": "None", "facebook": "None", "youtube": "None", "website": "None", "summary": "None", "logo": "None", "latitude": 43.73045281046205, "longitude": -79.78977413465834}, "892409046RR0001": {"name": "RUTHENIAN GREEK CATHOLIC MISSION OF POKROW PREWSIATOI BOHORODYCI", "designationCode": "C", "categoryCode": "38", "address": "BOX 384", "city": "EAST SELKIRK", "province": "MB", "country": "CA", "postalCode": "R0E0M0", "twitter": "None", "instagram": "None", "facebook": "None", "youtube": "None", "website": "None", "summary": "None", "logo": "None", "latitude": 50.582348999999994, "longitude": -96.58096875000001}, "888393246RR0001": {"name": "RUTHENIAN GREEK CATHOLIC PARISH CEMETERY", "designationCode": "C", "categoryCode": "59", "address": "POST OFFICE BOX 261", "city": "GRANDVIEW", "province": "MB", "country": "CA", "postalCode": "R0L0Y0", "twitter": "None", "instagram": "None", "facebook": "None", "youtube": "None", "website": "None", "summary": "None", "logo": "None", "latitude": 51.168420000000026, "longitude": -100.69972999999999}, "867418642RR0001": {"name": "RUTHENIAN GREEK CATHOLIC PARISH OF SVIATOHO DUCHA (HOLY GHOST)", "designationCode": "C", "categoryCode": "39", "address": "210 VETERANS DR", "city": "DAUPHIN", "province": "MB", "country": "CA", "postalCode": "R7N3K4", "twitter": "None", "instagram": "None", "facebook": "None", "youtube": "None", "website": "None", "summary": "None", "logo": "None", "latitude": 51.15623646047076, "longitude": -100.02955236511052}, "107945206RR0001": {"name": "RUTHERFORD ELEMENTARY SCHOOL PARENT ADVISORY COUNCIL SOCIETY", "designationCode": "C", "categoryCode": "20", "address": "5840 HAMMOND BAY ROAD", "city": "NANAIMO", "province": "BC", "country": "CA", "postalCode": "V9T5M6", "twitter": "None", "instagram": "None", "facebook": "None", "youtube": "None", "website": "None", "summary": "None", "logo": "None", "latitude": 49.2342471552408, "longitude": -124.01931622619306}, "119130151RR0001": {"name": "RUTHERFORD PRESBYTERIAN CHURCH", "designationCode": "C", "categoryCode": "37", "address": "719 ESTERVILLE RD             RR 4", "city": "DRESDEN", "province": "ON", "country": "CA", "postalCode": "N0P1M0", "twitter": "None", "instagram": "None", "facebook": "None", "youtube": "None", "website": "None", "summary": "None", "logo": "None", "latitude": 42.67028458924338, "longitude": -82.142658775084}, "888132792RR0001": {"name": "RUTHVEN PASTORAL CHARGE,", "designationCode": "C", "categoryCode": "44", "address": "BOX 370", "city": "RUTHVEN", "province": "ON", "country": "CA", "postalCode": "N0P2G0", "twitter": "None", "instagram": "None", "facebook": "None", "youtube": "None", "website": "None", "summary": "None", "logo": "None", "latitude": 32.95451000000003, "longitude": -115.00644999999997}, "119130250RR0001": {"name": "RUTLAND PRESCHOOL (COUNCIL OF PARENT PARTICIPATION PRESCHOOLS IN BRITISH COLUMBIA)", "designationCode": "C", "categoryCode": "20", "address": "PO BOX 23039 RPO PLAZA 33", "city": "KELOWNA", "province": "BC", "country": "CA", "postalCode": "V1X7K7", "twitter": "None", "instagram": "None", "facebook": "None", "youtube": "None", "website": "None", "summary": "None", "logo": "None", "latitude": 50.00633700000006, "longitude": -119.21151049999993}, "855419933RR0001": {"name": "RUTLAND SENIOR CENTRE SOCIETY", "designationCode": "C", "categoryCode": "56", "address": "765 DODD ROAD", "city": "KELOWNA", "province": "BC", "country": "CA", "postalCode": "V1X5H1", "twitter": "None", "instagram": "None", "facebook": "None", "youtube": "None", "website": "None", "summary": "None", "logo": "None", "latitude": 49.897771121648226, "longitude": -119.38234483406605}, "118818491RR0046": {"name": "RUTLAND SEVENTH-DAY ADVENTIST CHURCH", "designationCode": "C", "categoryCode": "41", "address": "PO 1000", "city": "ABBOTSFORD", "province": "BC", "country": "CA", "postalCode": "V2S4P5", "twitter": "None", "instagram": "None", "facebook": "None", "youtube": "None", "website": "None", "summary": "None", "logo": "None", "latitude": 49.03851300000005, "longitude": -122.29441549999993}, "107945776RR0001": {"name": "RUTLAND UNITED CHURCH", "designationCode": "C", "categoryCode": "44", "address": "1370 RUTLAND RD", "city": "KELOWNA", "province": "BC", "country": "CA", "postalCode": "V1X4Z3", "twitter": "None", "instagram": "None", "facebook": "None", "youtube": "None", "website": "None", "summary": "None", "logo": "None", "latitude": 49.906620000000004, "longitude": -119.3868636656179}, "709659890RR0001": {"name": "RYAN AND TANYA BOSA FAMILY FOUNDATION", "designationCode": "B", "categoryCode": "03", "address": "2900 - 550 BURRARD ST", "city": "VANCOUVER", "province": "BC", "country": "CA", "postalCode": "V6C0A3", "twitter": "None", "instagram": "None", "facebook": "None", "youtube": "None", "website": "None", "summary": "None", "logo": "None", "latitude": 49.28596391921073, "longitude": -123.11870289255033}, "864614912RR0001": {"name": "RYAN BEEDIE FOUNDATION", "designationCode": "B", "categoryCode": "03", "address": "3030 GILMORE DIVERSION", "city": "BURNABY", "province": "BC", "country": "CA", "postalCode": "V5G3B4", "twitter": "None", "instagram": "None", "facebook": "None", "youtube": "None", "website": "None", "summary": "None", "logo": "None", "latitude": 49.25695862085931, "longitude": -123.01195621441457}, "888587110RR0001": {"name": "RYAN'S WELL FOUNDATION", "designationCode": "C", "categoryCode": "09", "address": "PO BOX 1120", "city": "KEMPTVILLE", "province": "ON", "country": "CA", "postalCode": "K0G1J0", "twitter": "None", "instagram": "None", "facebook": "None", "youtube": "None", "website": "None", "summary": "None", "logo": "None", "latitude": 44.98774800000005, "longitude": -75.69332899999993}, "868132275RR0001": {"name": "RYANDALE SHELTER FOR THE HOMELESS", "designationCode": "C", "categoryCode": "09", "address": "669 VICTORIA ST", "city": "KINGSTON", "province": "ON", "country": "CA", "postalCode": "K7K4S6", "twitter": "None", "instagram": "None", "facebook": "None", "youtube": "None", "website": "None", "summary": "None", "logo": "None", "latitude": 44.24045654593456, "longitude": -76.50334592726081}, "132104902RR0001": {"name": "RYCROFT AGRICULTURAL SOCIETY", "designationCode": "C", "categoryCode": "52", "address": "BOX 478", "city": "RYCROFT", "province": "AB", "country": "CA", "postalCode": "T0H3A0", "twitter": "None", "instagram": "None", "facebook": "None", "youtube": "None", "website": "None", "summary": "None", "logo": "None", "latitude": 55.749970000000076, "longitude": -118.71945999999997}, "107946402RR0001": {"name": "RYDAL BANK PASTORAL CHARGE", "designationCode": "C", "categoryCode": "44", "address": "RR#2", "city": "BRUCE MINCS", "province": "ON", "country": "CA", "postalCode": "P0R1C0", "twitter": "None", "instagram": "None", "facebook": "None", "youtube": "None", "website": "None", "summary": "None", "logo": "None", "latitude": 46.29836000000006, "longitude": -83.79040999999995}, "119130359RR0001": {"name": "RYDE CENTENNIAL FREE METHODIST CHURCH", "designationCode": "C", "categoryCode": "39", "address": "1667 HOUSEY'S RAPIDS RD RR#3", "city": "GRAVENHURST", "province": "ON", "country": "CA", "postalCode": "P1P1R3", "twitter": "None", "instagram": "None", "facebook": "None", "youtube": "None", "website": "None", "summary": "None", "logo": "None", "latitude": 44.86679275212093, "longitude": -79.21054932439876}, "119130367RR0001": {"name": "RYDE LAKE CAMP", "designationCode": "C", "categoryCode": "56", "address": "BOX 1120", "city": "GRAVENHURST", "province": "ON", "country": "CA", "postalCode": "P1P1V4", "twitter": "None", "instagram": "None", "facebook": "None", "youtube": "None", "website": "None", "summary": "None", "logo": "None", "latitude": 44.92084200000005, "longitude": -79.37371249999994}, "119130375RR0001": {"name": "RYERSON CENTRE", "designationCode": "C", "categoryCode": "21", "address": "18-197 LAROSE AVENUE", "city": "TORONTO", "province": "ON", "country": "CA", "postalCode": "M9P3W1", "twitter": "None", "instagram": "None", "facebook": "None", "youtube": "None", "website": "None", "summary": "None", "logo": "None", "latitude": 43.684062000000054, "longitude": -79.52745499999993}, "108137779RR0001": {"name": "RYERSON SCHOOL-AGE CENTRE INC.", "designationCode": "C", "categoryCode": "20", "address": "10 RYERSON AVE", "city": "WINNIPEG", "province": "MB", "country": "CA", "postalCode": "R3T3P9", "twitter": "None", "instagram": "None", "facebook": "None", "youtube": "None", "website": "None", "summary": "None", "logo": "None", "latitude": 49.78546487422846, "longitude": -97.14604922012215}, "107946485RR0001": {"name": "RYERSON UNITED CHURCH", "designationCode": "C", "categoryCode": "44", "address": "842 MAIN ST E", "city": "HAMILTON", "province": "ON", "country": "CA", "postalCode": "L8M1L6", "twitter": "None", "instagram": "None", "facebook": "None", "youtube": "None", "website": "None", "summary": "None", "logo": "None", "latitude": 43.246593767933405, "longitude": -79.83597511501365}, "107946501RR0001": {"name": "RYERSON UNITED CHURCH", "designationCode": "C", "categoryCode": "44", "address": "265 WILSON STREET", "city": "ANCASTER", "province": "ON", "country": "CA", "postalCode": "L9G2B8", "twitter": "None", "instagram": "None", "facebook": "None", "youtube": "None", "website": "None", "summary": "None", "logo": "None", "latitude": 43.22449677352987, "longitude": -79.97768876161331}, "119130383RR0001": {"name": "RYERSON UNIVERSITY", "designationCode": "C", "categoryCode": "20", "address": "350 VICTORIA ST", "city": "TORONTO", "province": "ON", "country": "CA", "postalCode": "M5B2K3", "twitter": "None", "instagram": "None", "facebook": "None", "youtube": "None", "website": "None", "summary": "None", "logo": "None", "latitude": 43.65780337745978, "longitude": -79.38023396699161}, "873397012RR0001": {"name": "RYGIEL HOMES HOUSING CORPORATION", "designationCode": "C", "categoryCode": "09", "address": "220 CRANBROOK DR", "city": "HAMILTON", "province": "ON", "country": "CA", "postalCode": "L9C5V7", "twitter": "None", "instagram": "None", "facebook": "None", "youtube": "None", "website": "None", "summary": "None", "logo": "None", "latitude": 43.22073786346574, "longitude": -79.91010360791101}, "119130425RR0001": {"name": "RYGIEL SUPPORTS FOR COMMUNITY LIVING", "designationCode": "C", "categoryCode": "10", "address": "220 CRANBROOK DR", "city": "HAMILTON", "province": "ON", "country": "CA", "postalCode": "L9C5V7", "twitter": "None", "instagram": "None", "facebook": "None", "youtube": "None", "website": "None", "summary": "None", "logo": "None", "latitude": 43.22073786346574, "longitude": -79.91010360791101}, "136722121RR0001": {"name": "RYLEY MUSEUM SOCIETY", "designationCode": "C", "categoryCode": "50", "address": "RR2", "city": "RYLEY", "province": "AB", "country": "CA", "postalCode": "T0B4A0", "twitter": "None", "instagram": "None", "facebook": "None", "youtube": "None", "website": "None", "summary": "None", "logo": "None", "latitude": 53.28344000000004, "longitude": -112.43517999999995}, "106693047RR0009": {"name": "RYLEY SEVENTH-DAY ADVENTIST CHURCH", "designationCode": "C", "categoryCode": "41", "address": "5816 HIGHWAY, 2A", "city": "LACOMBE", "province": "AB", "country": "CA", "postalCode": "T4L2G5", "twitter": "None", "instagram": "None", "facebook": "None", "youtube": "None", "website": "None", "summary": "None", "logo": "None", "latitude": 52.474063600197404, "longitude": -113.71692568401835}, "119130458RR0001": {"name": "RYLEY SUNSHINE CLUB", "designationCode": "C", "categoryCode": "56", "address": "BOX 127", "city": "RYLEY", "province": "AB", "country": "CA", "postalCode": "T0B4A0", "twitter": "None", "instagram": "None", "facebook": "None", "youtube": "None", "website": "None", "summary": "None", "logo": "None", "latitude": 53.28344000000004, "longitude": -112.43517999999995}, "107406316RR0028": {"name": "RYMAL ROAD COMMUNITY CHURCH", "designationCode": "C", "categoryCode": "39", "address": "1967 RYMAL ROAD EAST", "city": "STONEY CREEK", "province": "ON", "country": "CA", "postalCode": "L8J2R7", "twitter": "None", "instagram": "None", "facebook": "None", "youtube": "None", "website": "None", "summary": "None", "logo": "None", "latitude": 43.17977706806466, "longitude": -79.80492359253294}, "867456949RR0001": {"name": "S A B E C (SERVICES D'ACCOMPAGNEMENT BENEVOLE ET COMMUNAUTAIRES", "designationCode": "C", "categoryCode": "09", "address": "1493 RTE.138, PORTE 2,C.P.1953", "city": "GODMANCHESTER", "province": "QC", "country": "CA", "postalCode": "J0S1H0", "twitter": "None", "instagram": "None", "facebook": "None", "youtube": "None", "website": "None", "summary": "None", "logo": "None", "latitude": 45.09602636243139, "longitude": -74.1535971219982}, "139479745RR0001": {"name": "S A T SOCIETE DES ARTS TECHNOLOGIQUES/S A T TECHNOLOGICAL ART SOCIETY", "designationCode": "C", "categoryCode": "21", "address": "1201 BOUL SAINT-LAURENT", "city": "MONTREAL", "province": "QC", "country": "CA", "postalCode": "H2X2S6", "twitter": "None", "instagram": "None", "facebook": "None", "youtube": "None", "website": "None", "summary": "None", "logo": "None", "latitude": 45.50943210104437, "longitude": -73.56279033845011}, "826740458RR0001": {"name": "S E Tours & Trails, Inc.", "designationCode": "C", "categoryCode": "52", "address": "RR 1, BOX 27", "city": "BIENFAIT", "province": "SK", "country": "CA", "postalCode": "S0C0M0", "twitter": "None", "instagram": "None", "facebook": "None", "youtube": "None", "website": "None", "summary": "None", "logo": "None", "latitude": 49.117180661932466, "longitude": -102.81621216528738}, "130169113RR0001": {"name": "S H A I D TREE SHELTER SOCIETY", "designationCode": "C", "categoryCode": "54", "address": "450 LAHAVE STREET             UNIT 17, SUITE 138", "city": "BRIDGEWATER", "province": "NS", "country": "CA", "postalCode": "B4V4A3", "twitter": "None", "instagram": "None", "facebook": "None", "youtube": "None", "website": "None", "summary": "None", "logo": "None", "latitude": 44.37902536555668, "longitude": -64.51566585769098}, "885230821RR0001": {"name": "S N Y P (SPAY, NEUTER YOUR PET)", "designationCode": "C", "categoryCode": "54", "address": "PO BOX 336", "city": "HOPE", "province": "BC", "country": "CA", "postalCode": "V0X1L0", "twitter": "None", "instagram": "None", "facebook": "None", "youtube": "None", "website": "None", "summary": "None", "logo": "None", "latitude": 49.37911800000006, "longitude": -121.44296149999994}, "891468290RR0001": {"name": "S O S - STARTING OVER SOCIETY", "designationCode": "C", "categoryCode": "57", "address": "6950 BALMORAL ST", "city": "VANCOUVER", "province": "BC", "country": "CA", "postalCode": "V5P3P7", "twitter": "None", "instagram": "None", "facebook": "None", "youtube": "None", "website": "None", "summary": "None", "logo": "None", "latitude": 49.221053245628724, "longitude": -123.06836144390924}, "136441649RR0001": {"name": "S O S GROSSESSE (ESTRIE)", "designationCode": "C", "categoryCode": "09", "address": "C.P. 224 SUCC PL DE LA CITE", "city": "SHERBROOKE", "province": "QC", "country": "CA", "postalCode": "J1H5H8", "twitter": "None", "instagram": "None", "facebook": "None", "youtube": "None", "website": "None", "summary": "None", "logo": "None", "latitude": 45.39993924181269, "longitude": -71.89518081045317}, "889689782RR0001": {"name": "S O S JEUNESSE", "designationCode": "C", "categoryCode": "09", "address": "200 HENRI-DUNANT", "city": "DEUX-MONTAGNES", "province": "QC", "country": "CA", "postalCode": "J7R4W6", "twitter": "None", "instagram": "None", "facebook": "None", "youtube": "None", "website": "None", "summary": "None", "logo": "None", "latitude": 45.547411097957294, "longitude": -73.89182390657302}, "138506225RR0001": {"name": "S O S PREDELT", "designationCode": "C", "categoryCode": "09", "address": "1164 \"A\" 1ERE RUE", "city": "RICHELIEU", "province": "QC", "country": "CA", "postalCode": "J3L3W8", "twitter": "None", "instagram": "None", "facebook": "None", "youtube": "None", "website": "None", "summary": "None", "logo": "None", "latitude": 45.44119641771018, "longitude": -73.25429487633458}, "867425175RR0001": {"name": "S O S SUICIDE JEUNESSE", "designationCode": "C", "categoryCode": "09", "address": "2910  1ERE AVENUE", "city": "QUEBEC", "province": "QC", "country": "CA", "postalCode": "G1L3P3", "twitter": "None", "instagram": "None", "facebook": "None", "youtube": "None", "website": "None", "summary": "None", "logo": "None", "latitude": 46.837676796843404, "longitude": -71.2447554987306}, "889676177RR0001": {"name": "S P A R C SOCIETY FOR PRESERVATION OF ANTIQUE RADIO IN CANADA", "designationCode": "C", "categoryCode": "50", "address": "4757 LONDON GREEN", "city": "DELTA", "province": "BC", "country": "CA", "postalCode": "V4K4X1", "twitter": "None", "instagram": "None", "facebook": "None", "youtube": "None", "website": "None", "summary": "None", "logo": "None", "latitude": 49.089365257575984, "longitude": -123.03997382154596}, "135298115RR0001": {"name": "S S C O P E INCORPORATED", "designationCode": "C", "categoryCode": "59", "address": "1466 ARLINGTON ST", "city": "WINNIPEG", "province": "MB", "country": "CA", "postalCode": "R2X1T8", "twitter": "None", "instagram": "None", "facebook": "None", "youtube": "None", "website": "None", "summary": "None", "logo": "None", "latitude": 49.92168149431585, "longitude": -97.15471909674521}, "122147028RR0001": {"name": "S T O P", "designationCode": "C", "categoryCode": "59", "address": "P.O. BOX 355                  STATION H", "city": "MONTREAL", "province": "QC", "country": "CA", "postalCode": "H3G2L1", "twitter": "None", "instagram": "None", "facebook": "None", "youtube": "None", "website": "None", "summary": "None", "logo": "None", "latitude": 45.49856100000005, "longitude": -73.57906249999994}, "889574463RR0001": {"name": "S U C C E S", "designationCode": "C", "categoryCode": "21", "address": "652 CHIRON CRESCENT", "city": "PICKERING", "province": "ON", "country": "CA", "postalCode": "L1V4V1", "twitter": "None", "instagram": "None", "facebook": "None", "youtube": "None", "website": "None", "summary": "None", "logo": "None", "latitude": 43.83019256433048, "longitude": -79.12544569132113}, "890610595RR0001": {"name": "S.A. OPERA DEVELOPMENT FOUNDATION", "designationCode": "C", "categoryCode": "22", "address": "1600 - 421 7 AVE SW", "city": "CALGARY", "province": "AB", "country": "CA", "postalCode": "T2P4K9", "twitter": "None", "instagram": "None", "facebook": "None", "youtube": "None", "website": "None", "summary": "None", "logo": "None", "latitude": 51.04682342625144, "longitude": -114.07570373231476}, "120506316RR0001": {"name": "S.A.C. Service d'aide aux conjoints", "designationCode": "C", "categoryCode": "09", "address": "230-10000 RUE LAJEUNESSE", "city": "MONTREAL", "province": "QC", "country": "CA", "postalCode": "H3L2E1", "twitter": "None", "instagram": "None", "facebook": "None", "youtube": "None", "website": "None", "summary": "None", "logo": "None", "latitude": 45.552396060765304, "longitude": -73.65860135013553}, "876629304RR0001": {"name": "S.A.G.A. SOUTHERN ALBERTA GREYHOUND ASSOCIATION", "designationCode": "C", "categoryCode": "54", "address": "1311-109 AVENUE SW", "city": "CALGARY", "province": "AB", "country": "CA", "postalCode": "T2W0C8", "twitter": "None", "instagram": "None", "facebook": "None", "youtube": "None", "website": "None", "summary": "None", "logo": "None", "latitude": 50.955598477927246, "longitude": -114.09204166763806}, "891437345RR0001": {"name": "S.A.G.E. INC.", "designationCode": "C", "categoryCode": "01", "address": "81 PRINCE ST", "city": "CHARLOTTETOWN", "province": "PE", "country": "CA", "postalCode": "C1A4R3", "twitter": "None", "instagram": "None", "facebook": "None", "youtube": "None", "website": "None", "summary": "None", "logo": "None", "latitude": 46.23527784901036, "longitude": -63.123739081885795}, "119133619RR0001": {"name": "S.A.L.T.S. SAIL AND LIFE TRAINING SOCIETY", "designationCode": "C", "categoryCode": "56", "address": "451 HERALD ST", "city": "VICTORIA", "province": "BC", "country": "CA", "postalCode": "V8W3N8", "twitter": "None", "instagram": "None", "facebook": "None", "youtube": "None", "website": "None", "summary": "None", "logo": "None", "latitude": 48.43001551399405, "longitude": -123.37072055343639}, "104705942RR0001": {"name": "S.A.M. (PROPERTIES) INC.", "designationCode": "C", "categoryCode": "09", "address": "200 - 1080 PORTAGE AVE", "city": "WINNIPEG", "province": "MB", "country": "CA", "postalCode": "R3G3M3", "twitter": "None", "instagram": "None", "facebook": "None", "youtube": "None", "website": "None", "summary": "None", "logo": "None", "latitude": 49.88402859781306, "longitude": -97.17888946849216}, "889976718RR0001": {"name": "S.A.M. MINISTRIES INC.", "designationCode": "C", "categoryCode": "09", "address": "3715-85 ST NW", "city": "EDMONTON", "province": "AB", "country": "CA", "postalCode": "T6K3R9", "twitter": "None", "instagram": "None", "facebook": "None", "youtube": "None", "website": "None", "summary": "None", "logo": "None", "latitude": 53.471655367188006, "longitude": -113.4601956656475}, "891281495RR0001": {"name": "S.A.R.A.-SERVICE D'APPLICATION DES RESSOURCES ADAPTEES", "designationCode": "C", "categoryCode": "09", "address": "400, BOUL. DE LA BONAVENTURE", "city": "VICTORIAVILLE", "province": "QC", "country": "CA", "postalCode": "G6T1V8", "twitter": "None", "instagram": "None", "facebook": "None", "youtube": "None", "website": "None", "summary": "None", "logo": "None", "latitude": 46.07902414925889, "longitude": -71.95014351491672}, "119142040RR0001": {"name": "S.A.W. GALLERY INC.", "designationCode": "C", "categoryCode": "50", "address": "67 NICHOLAS ST", "city": "OTTAWA", "province": "ON", "country": "CA", "postalCode": "K1N7B9", "twitter": "None", "instagram": "None", "facebook": "None", "youtube": "None", "website": "None", "summary": "None", "logo": "None", "latitude": 45.425234240925526, "longitude": -75.68919354478071}, "118975309RR0001": {"name": "S.C. JOHNSON AND SON LIMITED EMPLOYEES CHARITY TRUST", "designationCode": "B", "categoryCode": "75", "address": "1 WEBSTER STREET", "city": "BRANTFORD", "province": "ON", "country": "CA", "postalCode": "N3T5R1", "twitter": "None", "instagram": "None", "facebook": "None", "youtube": "None", "website": "None", "summary": "None", "logo": "None", "latitude": 43.14245093677197, "longitude": -80.28984403705658}, "107995367RR0001": {"name": "S.E.A.S. CENTRE (SUPPORT ENHANCE ACCESS SERVICES CENTRE)", "designationCode": "C", "categoryCode": "59", "address": "328 - 4168 FINCH AVE E", "city": "SCARBOROUGH", "province": "ON", "country": "CA", "postalCode": "M1S5H6", "twitter": "None", "instagram": "None", "facebook": "None", "youtube": "None", "website": "None", "summary": "None", "logo": "None", "latitude": 43.80322013356183, "longitude": -79.28863890746706}, "800719734RR0001": {"name": "S.E.E.D.S", "designationCode": "C", "categoryCode": "21", "address": "804 HUNTINGWOOD DR", "city": "SCARBOROUGH", "province": "ON", "country": "CA", "postalCode": "M1T2L6", "twitter": "None", "instagram": "None", "facebook": "None", "youtube": "None", "website": "None", "summary": "None", "logo": "None", "latitude": 43.792666941167944, "longitude": -79.29720933821898}}