{"891573545RR0001": {"name": "THE OLZHYCH FOUNDATION", "designationCode": "C", "categoryCode": "23", "address": "464 SYMINGTON AVE.", "city": "TORONTO", "province": "ON", "country": "CA", "postalCode": "M6N2W5", "twitter": "None", "instagram": "None", "facebook": "None", "youtube": "None", "website": "None", "summary": "None", "logo": "None", "latitude": 43.6695500224768, "longitude": -79.45280453929811}, "891280547RR0001": {"name": "THE OMEMEE-EMILY EMERGENCY RESPONSE ASSOCIATION", "designationCode": "C", "categoryCode": "59", "address": "756 MEADOWVIEW                RR#2", "city": "OMEMEE", "province": "ON", "country": "CA", "postalCode": "K0L2W0", "twitter": "None", "instagram": "None", "facebook": "None", "youtube": "None", "website": "None", "summary": "None", "logo": "None", "latitude": 44.288885958337815, "longitude": -78.48908341090178}, "851821744RR0001": {"name": "THE ONE CHANGE INC.", "designationCode": "C", "categoryCode": "09", "address": "75 ADELAIDE STREET", "city": "ST JOHN", "province": "NB", "country": "CA", "postalCode": "E2K1W4", "twitter": "None", "instagram": "None", "facebook": "None", "youtube": "None", "website": "None", "summary": "None", "logo": "None", "latitude": 45.276755532056086, "longitude": -66.080461546223}, "119248508RR0001": {"name": "THE ONEIDA BAPTIST CAMP", "designationCode": "C", "categoryCode": "56", "address": "335 SOUTH COAST DR            RR2", "city": "NANTICOKE", "province": "ON", "country": "CA", "postalCode": "N0A1L0", "twitter": "None", "instagram": "None", "facebook": "None", "youtube": "None", "website": "None", "summary": "None", "logo": "None", "latitude": 42.80745697102714, "longitude": -80.02197831667142}, "845261544RR0001": {"name": "THE ONLY ANIMAL THEATRE SOCIETY", "designationCode": "C", "categoryCode": "22", "address": "201-739 GORE ST", "city": "VANCOUVER", "province": "BC", "country": "CA", "postalCode": "V6A2Z9", "twitter": "None", "instagram": "None", "facebook": "None", "youtube": "None", "website": "None", "summary": "None", "logo": "None", "latitude": 49.27805526430562, "longitude": -123.09702676004775}, "135918407RR0001": {"name": "THE ONNURI KOREAN UNITED CHURCH", "designationCode": "C", "categoryCode": "44", "address": "63 DUNBLAINE AVE", "city": "NORTH YORK", "province": "ON", "country": "CA", "postalCode": "M5M2S2", "twitter": "None", "instagram": "None", "facebook": "None", "youtube": "None", "website": "None", "summary": "None", "logo": "None", "latitude": 43.73536685648353, "longitude": -79.42235460323742}, "886439793RR0001": {"name": "THE ONOWAY LIBRARY BOARD", "designationCode": "C", "categoryCode": "50", "address": "BOX 484", "city": "ONOWAY", "province": "AB", "country": "CA", "postalCode": "T0E1V0", "twitter": "None", "instagram": "None", "facebook": "None", "youtube": "None", "website": "None", "summary": "None", "logo": "None", "latitude": 53.70302000000004, "longitude": -114.19152999999994}, "119248516RR0001": {"name": "THE ONTARIO AGRICULTURAL HALL OF FAME ASSOCIATION", "designationCode": "C", "categoryCode": "50", "address": "P.O. BOX 551", "city": "MILTON", "province": "ON", "country": "CA", "postalCode": "L9T4Z1", "twitter": "None", "instagram": "None", "facebook": "None", "youtube": "None", "website": "None", "summary": "None", "logo": "None", "latitude": 43.51104600000005, "longitude": -79.88386399999993}, "888784444RR0001": {"name": "THE ONTARIO ASSEMBLY OF THE CHRISTIAN CHURCH (DISCIPLES OF CHRIST)", "designationCode": "C", "categoryCode": "39", "address": "12921 SELTON LINE, RR 4", "city": "THAMESVILLE", "province": "ON", "country": "CA", "postalCode": "N0P2K0", "twitter": "None", "instagram": "None", "facebook": "None", "youtube": "None", "website": "None", "summary": "None", "logo": "None", "latitude": 42.49972251367505, "longitude": -81.94791783290833}, "119248540RR0001": {"name": "THE ONTARIO ASSOCIATION OF DISTRESS CENTRES", "designationCode": "C", "categoryCode": "59", "address": "1016-30 DUKE ST.W.", "city": "KITCHENER", "province": "ON", "country": "CA", "postalCode": "N2H3W5", "twitter": "None", "instagram": "None", "facebook": "None", "youtube": "None", "website": "None", "summary": "None", "logo": "None", "latitude": 43.45493890661377, "longitude": -80.49626406663361}, "119248565RR0001": {"name": "THE ONTARIO ASSOCIATION OF NON-PROFIT HOMES AND SERVICES FORSENIORS", "designationCode": "C", "categoryCode": "01", "address": "7050 WESTON RD SUITE 700", "city": "WOODBRIDGE", "province": "ON", "country": "CA", "postalCode": "L4L8G7", "twitter": "None", "instagram": "None", "facebook": "None", "youtube": "None", "website": "None", "summary": "None", "logo": "None", "latitude": 43.77246764415165, "longitude": -79.54514569256771}, "889430427RR0001": {"name": "THE ONTARIO ASSOCIATION OF PARENTS IN CATHOLIC EDUCATION", "designationCode": "C", "categoryCode": "21", "address": "PO BOX 72 STN MAIN", "city": "PETAWAWA", "province": "ON", "country": "CA", "postalCode": "K8H2X1", "twitter": "None", "instagram": "None", "facebook": "None", "youtube": "None", "website": "None", "summary": "None", "logo": "None", "latitude": 45.89938500000005, "longitude": -77.28330049999994}, "118549286RR0001": {"name": "THE ONTARIO BUSHPLANE HERITAGE AND FOREST FIRE EDUCATIONAL CENTRE", "designationCode": "C", "categoryCode": "50", "address": "50 PIM ST.", "city": "SAULT STE MARIE", "province": "ON", "country": "CA", "postalCode": "P6A3G4", "twitter": "None", "instagram": "None", "facebook": "None", "youtube": "None", "website": "None", "summary": "None", "logo": "None", "latitude": 46.50551739388686, "longitude": -84.3244723392153}, "107797177RR0001": {"name": "THE ONTARIO CHINESE CHRISTIAN MEDICAL FELLOWSHIP", "designationCode": "C", "categoryCode": "49", "address": "SUITE 308 - 4040 FINCH AVE E", "city": "TORONTO", "province": "ON", "country": "CA", "postalCode": "M1S4V5", "twitter": "None", "instagram": "None", "facebook": "None", "youtube": "None", "website": "None", "summary": "None", "logo": "None", "latitude": 43.80203105637923, "longitude": -79.29351904567476}, "119288918RR1415": {"name": "THE ONTARIO CIRCUIT 19-C OF JEHOVAH'S WITNESSES", "designationCode": "C", "categoryCode": "61", "address": "1170 WILLOWBROOK DR", "city": "OAKVILLE", "province": "ON", "country": "CA", "postalCode": "L6L2J8", "twitter": "None", "instagram": "None", "facebook": "None", "youtube": "None", "website": "None", "summary": "None", "logo": "None", "latitude": 43.42039365583709, "longitude": -79.69603157314322}, "119248623RR0001": {"name": "THE ONTARIO COALITION OF RAPE CRISIS CENTRES", "designationCode": "C", "categoryCode": "09", "address": "355 WILSON AVE", "city": "TIMMINS", "province": "ON", "country": "CA", "postalCode": "P4N2T7", "twitter": "None", "instagram": "None", "facebook": "None", "youtube": "None", "website": "None", "summary": "None", "logo": "None", "latitude": 48.47530883224343, "longitude": -81.34558266775656}, "108073776RR0001": {"name": "THE ONTARIO COMMUNITY CENTRE FOR THE DEAF INC.", "designationCode": "C", "categoryCode": "56", "address": "2395 BAYVIEW AVE", "city": "NORTH YORK", "province": "ON", "country": "CA", "postalCode": "M2L1A2", "twitter": "None", "instagram": "None", "facebook": "None", "youtube": "None", "website": "None", "summary": "None", "logo": "None", "latitude": 43.734641824600324, "longitude": -79.38153456526695}, "108090929RR0001": {"name": "THE ONTARIO CONFERENCE OF MENNONITE BRETHREN CHURCHES", "designationCode": "C", "categoryCode": "34", "address": "3970 GLENDALE AVE", "city": "VINELAND", "province": "ON", "country": "CA", "postalCode": "L0R2C0", "twitter": "None", "instagram": "None", "facebook": "None", "youtube": "None", "website": "None", "summary": "None", "logo": "None", "latitude": 43.153652869842375, "longitude": -79.3989501986263}, "859850232RR0001": {"name": "THE ONTARIO EDUCATIONAL COMMUNICATIONS AUTHORITY", "designationCode": "C", "categoryCode": "22", "address": "2180 YONGE STREET             BOX 200, STATION Q", "city": "TORONTO", "province": "ON", "country": "CA", "postalCode": "M4T2T1", "twitter": "None", "instagram": "None", "facebook": "None", "youtube": "None", "website": "None", "summary": "None", "logo": "None", "latitude": 43.688167950092954, "longitude": -79.39411846650309}, "107801169RR0001": {"name": "THE ONTARIO ELECTRIC RAILWAY HISTORICAL ASSOCIATION", "designationCode": "C", "categoryCode": "50", "address": "P.O BOX 578", "city": "MILTON", "province": "ON", "country": "CA", "postalCode": "L9T5A2", "twitter": "None", "instagram": "None", "facebook": "None", "youtube": "None", "website": "None", "summary": "None", "logo": "None", "latitude": 43.51104600000005, "longitude": -79.88386399999993}, "118913904RR0001": {"name": "THE ONTARIO FEDERATION OF ANGLERS AND HUNTERS", "designationCode": "C", "categoryCode": "54", "address": "P.O. BOX 2800", "city": "PETERBOROUGH", "province": "ON", "country": "CA", "postalCode": "K9J8L5", "twitter": "None", "instagram": "None", "facebook": "None", "youtube": "None", "website": "None", "summary": "None", "logo": "None", "latitude": 44.30591700000005, "longitude": -78.31950199999993}, "870729266RR0001": {"name": "THE ONTARIO FEDERATION OF HOME AND SCHOOL ASSOCIATIONS, INCORPORATED", "designationCode": "C", "categoryCode": "21", "address": "51 STUART STR", "city": "HAMILTON", "province": "ON", "country": "CA", "postalCode": "L8L1B5", "twitter": "None", "instagram": "None", "facebook": "None", "youtube": "None", "website": "None", "summary": "None", "logo": "None", "latitude": 43.266479900340606, "longitude": -79.86729670650348}, "119248680RR0001": {"name": "THE ONTARIO GENEALOGICAL SOCIETY", "designationCode": "C", "categoryCode": "50", "address": "202 - 2100 STEELES AVE W", "city": "CONCORD", "province": "ON", "country": "CA", "postalCode": "L4K2V1", "twitter": "None", "instagram": "None", "facebook": "None", "youtube": "None", "website": "None", "summary": "None", "logo": "None", "latitude": 43.77641293434587, "longitude": -79.51718439392475}, "886615681RR0001": {"name": "THE ONTARIO GUILD OF ENGLISH HANDBELL RINGERS", "designationCode": "C", "categoryCode": "22", "address": "74-5480 GLEN ERIN DRIVE", "city": "MISSISSAUGA", "province": "ON", "country": "CA", "postalCode": "L5M5R3", "twitter": "None", "instagram": "None", "facebook": "None", "youtube": "None", "website": "None", "summary": "None", "logo": "None", "latitude": 43.5634542138697, "longitude": -79.72470525510047}, "108091000RR0001": {"name": "THE ONTARIO HISTORICAL SOCIETY", "designationCode": "C", "categoryCode": "52", "address": "34 PARKVIEW AVENUE", "city": "WILLOWDALE", "province": "ON", "country": "CA", "postalCode": "M2N3Y2", "twitter": "None", "instagram": "None", "facebook": "None", "youtube": "None", "website": "None", "summary": "None", "logo": "None", "latitude": 43.77149712851284, "longitude": -79.41115955386907}, "119248722RR0001": {"name": "THE ONTARIO JEWISH ARCHIVES FOUNDATION", "designationCode": "A", "categoryCode": "55", "address": "4600 BATHURST ST", "city": "WILLOWDALE", "province": "ON", "country": "CA", "postalCode": "M2R3V2", "twitter": "None", "instagram": "None", "facebook": "None", "youtube": "None", "website": "None", "summary": "None", "logo": "None", "latitude": 43.764549213428396, "longitude": -79.4407190577642}, "891020976RR0001": {"name": "THE ONTARIO MENNONITE BROTHERHOOD", "designationCode": "C", "categoryCode": "39", "address": "9305 STEWART RD.              RR 1", "city": "EDEN", "province": "ON", "country": "CA", "postalCode": "N0J1H0", "twitter": "None", "instagram": "None", "facebook": "None", "youtube": "None", "website": "None", "summary": "None", "logo": "None", "latitude": 42.76288409571336, "longitude": -80.7912866544544}, "119068088RR0001": {"name": "THE ONTARIO MENTAL HEALTH FOUNDATION", "designationCode": "C", "categoryCode": "11", "address": "UC101-180 BLOOR ST W", "city": "TORONTO", "province": "ON", "country": "CA", "postalCode": "M5S2V6", "twitter": "None", "instagram": "None", "facebook": "None", "youtube": "None", "website": "None", "summary": "None", "logo": "None", "latitude": 43.66858499999999, "longitude": -79.39474424999999}, "119248730RR0001": {"name": "THE ONTARIO MISSION OF THE DEAF", "designationCode": "C", "categoryCode": "59", "address": "2395 BAYVIEW AVENUE", "city": "TORONTO", "province": "ON", "country": "CA", "postalCode": "M2L1A2", "twitter": "None", "instagram": "None", "facebook": "None", "youtube": "None", "website": "None", "summary": "None", "logo": "None", "latitude": 43.734641824600324, "longitude": -79.38153456526695}, "891191777RR0001": {"name": "THE ONTARIO PARKS ASSOCIATION FOUNDATION", "designationCode": "C", "categoryCode": "21", "address": "7856 5TH LINE SOUTH           RR#4", "city": "MILTON", "province": "ON", "country": "CA", "postalCode": "L9T2X9", "twitter": "None", "instagram": "None", "facebook": "None", "youtube": "None", "website": "None", "summary": "None", "logo": "None", "latitude": 43.53838792071973, "longitude": -79.92389155735691}, "136957966RR0001": {"name": "THE ONTARIO PRESBYTERIAN CHORUS", "designationCode": "C", "categoryCode": "49", "address": "PO BOX 215                    65 JOHN KLINE LANE", "city": "KLEINBURG", "province": "ON", "country": "CA", "postalCode": "L0J1C0", "twitter": "None", "instagram": "None", "facebook": "None", "youtube": "None", "website": "None", "summary": "None", "logo": "None", "latitude": 43.83702091009279, "longitude": -79.62540838311527}, "119248763RR0001": {"name": "THE ONTARIO PROVINCIAL ASSOCIATION INC OF N C H A CONSERVATION SCHOLARSHIP", "designationCode": "C", "categoryCode": "21", "address": "15 FLORA ST", "city": "CAMBRIDGE", "province": "ON", "country": "CA", "postalCode": "N1R5K8", "twitter": "None", "instagram": "None", "facebook": "None", "youtube": "None", "website": "None", "summary": "None", "logo": "None", "latitude": 43.35850379822837, "longitude": -80.29472573616499}, "119248771RR0001": {"name": "THE ONTARIO PUBLIC HEALTH ASSOCIATION", "designationCode": "C", "categoryCode": "11", "address": "502 - 44 VICTORIA ST", "city": "TORONTO", "province": "ON", "country": "CA", "postalCode": "M5C1Y2", "twitter": "None", "instagram": "None", "facebook": "None", "youtube": "None", "website": "None", "summary": "None", "logo": "None", "latitude": 43.65039498389985, "longitude": -79.3771861788908}, "119068294RR0001": {"name": "THE ONTARIO REGIMENT FOUNDATION", "designationCode": "C", "categoryCode": "51", "address": "53 SIMCOE ST N", "city": "OSHAWA", "province": "ON", "country": "CA", "postalCode": "L1G4R9", "twitter": "None", "instagram": "None", "facebook": "None", "youtube": "None", "website": "None", "summary": "None", "logo": "None", "latitude": 43.89903918763338, "longitude": -78.86427133827722}, "119068401RR0001": {"name": "THE ONTARIO SOCIETY OF ARTISTS", "designationCode": "C", "categoryCode": "22", "address": "14 ELM ST", "city": "TORONTO", "province": "ON", "country": "CA", "postalCode": "M5G1G7", "twitter": "None", "instagram": "None", "facebook": "None", "youtube": "None", "website": "None", "summary": "None", "logo": "None", "latitude": 43.65774714351647, "longitude": -79.382377864014}, "118915834RR0001": {"name": "THE ONTARIO-FINNISH RESTHOME ASSOCIATION", "designationCode": "C", "categoryCode": "01", "address": "725 NORTH STREET", "city": "SAULT STE. MARIE", "province": "ON", "country": "CA", "postalCode": "P6B5Z3", "twitter": "None", "instagram": "None", "facebook": "None", "youtube": "None", "website": "None", "summary": "None", "logo": "None", "latitude": 46.53975109631252, "longitude": -84.33490970139626}, "889289575RR0001": {"name": "THE ONTARIO-FINNISH RESTHOME FOUNDATION", "designationCode": "A", "categoryCode": "13", "address": "725 NORTH STREET", "city": "SAULT STE MARY", "province": "ON", "country": "CA", "postalCode": "P6B5Z3", "twitter": "None", "instagram": "None", "facebook": "None", "youtube": "None", "website": "None", "summary": "None", "logo": "None", "latitude": 46.53975109631252, "longitude": -84.33490970139626}, "119248813RR0001": {"name": "THE OPASQUIA AGRICULTURAL SOCIETY", "designationCode": "C", "categoryCode": "56", "address": "BOX 2202", "city": "THE PAS", "province": "MB", "country": "CA", "postalCode": "R9A1L8", "twitter": "None", "instagram": "None", "facebook": "None", "youtube": "None", "website": "None", "summary": "None", "logo": "None", "latitude": 53.81342700000006, "longitude": -101.25038149999993}, "888182334RR0001": {"name": "THE OPEN ACCESS RESOURCE CENTRE INC.", "designationCode": "C", "categoryCode": "09", "address": "316 TACH\u00c9 AVE", "city": "WINNIPEG", "province": "MB", "country": "CA", "postalCode": "R2H2A4", "twitter": "None", "instagram": "None", "facebook": "None", "youtube": "None", "website": "None", "summary": "None", "logo": "None", "latitude": 49.88170213266778, "longitude": -97.12339083845012}, "866212111RR0001": {"name": "THE OPEN ARMS OF JESUS OUTREACH MINISTRY", "designationCode": "C", "categoryCode": "39", "address": "216-479A CARLTON ST", "city": "ST CATHARINES", "province": "ON", "country": "CA", "postalCode": "L2M4X6", "twitter": "None", "instagram": "None", "facebook": "None", "youtube": "None", "website": "None", "summary": "None", "logo": "None", "latitude": 43.18186491686191, "longitude": -79.22205114649421}, "108091125RR0001": {"name": "THE OPEN BIBLE CHAPEL SOCIETY", "designationCode": "C", "categoryCode": "47", "address": "300-2520 ONTARIO ST", "city": "VANCOUVER", "province": "BC", "country": "CA", "postalCode": "V5T2X6", "twitter": "None", "instagram": "None", "facebook": "None", "youtube": "None", "website": "None", "summary": "None", "logo": "None", "latitude": 49.26272220843674, "longitude": -123.10485858211692}, "866336811RR0001": {"name": "THE OPEN DOOR", "designationCode": "C", "categoryCode": "39", "address": "412 KINGSWAY STREET", "city": "KINCARDINE", "province": "ON", "country": "CA", "postalCode": "N2Z1X5", "twitter": "None", "instagram": "None", "facebook": "None", "youtube": "None", "website": "None", "summary": "None", "logo": "None", "latitude": 44.1831835964281, "longitude": -81.62588321109112}, "857168538RR0001": {"name": "THE OPEN DOOR SEVENTH-DAY CHRISTIAN CHURCH", "designationCode": "C", "categoryCode": "39", "address": "3194 WESTON RD", "city": "NORTH YORK", "province": "ON", "country": "CA", "postalCode": "M9M2T6", "twitter": "None", "instagram": "None", "facebook": "None", "youtube": "None", "website": "None", "summary": "None", "logo": "None", "latitude": 43.73759463252357, "longitude": -79.53911769654883}, "897441002RR0001": {"name": "THE OPEN DOORS ADULT LITERACY PROGRAM", "designationCode": "C", "categoryCode": "21", "address": "81 KENVILLE CRES", "city": "WINNIPEG", "province": "MB", "country": "CA", "postalCode": "R2P0X6", "twitter": "None", "instagram": "None", "facebook": "None", "youtube": "None", "website": "None", "summary": "None", "logo": "None", "latitude": 49.957295855415666, "longitude": -97.17844393254093}, "892608241RR0001": {"name": "THE OPEN HAMPER FOOD BANK SOCIETY", "designationCode": "C", "categoryCode": "09", "address": "PO BOX 182", "city": "WALLACE", "province": "NS", "country": "CA", "postalCode": "B0K1Y0", "twitter": "None", "instagram": "None", "facebook": "None", "youtube": "None", "website": "None", "summary": "None", "logo": "None", "latitude": 45.52877866223628, "longitude": -62.73566833776373}, "886242791RR0001": {"name": "THE OPTIMIST CLUB OF CHILLIWACK, BRITISH COLUMBIA", "designationCode": "C", "categoryCode": "63", "address": "PO BOX 601", "city": "CHILLIWACK", "province": "BC", "country": "CA", "postalCode": "V2P7V5", "twitter": "None", "instagram": "None", "facebook": "None", "youtube": "None", "website": "None", "summary": "None", "logo": "None", "latitude": 49.15747500000006, "longitude": -121.95172249999993}, "893061333RR0001": {"name": "THE OR GALLERY SOCIETY", "designationCode": "C", "categoryCode": "50", "address": "555 HAMILTON ST", "city": "VANCOUVER", "province": "BC", "country": "CA", "postalCode": "V6B2R1", "twitter": "None", "instagram": "None", "facebook": "None", "youtube": "None", "website": "None", "summary": "None", "logo": "None", "latitude": 49.281422899770746, "longitude": -123.11213117130427}, "892414764RR0001": {"name": "THE ORANGE AND PROTESTANT CHILDREN'S FOUNDATION", "designationCode": "A", "categoryCode": "03", "address": "372, ROUTE DE CANTON", "city": "CHATHAM", "province": "QC", "country": "CA", "postalCode": "J8G1R2", "twitter": "None", "instagram": "None", "facebook": "None", "youtube": "None", "website": "None", "summary": "None", "logo": "None", "latitude": 45.62611638501891, "longitude": -74.46688824588851}, "868265521RR0001": {"name": "THE ORANGEVILLE AREA FOREST LAWN CEMETERY COMPANY", "designationCode": "C", "categoryCode": "59", "address": "14 CEMETERY RD", "city": "MONO", "province": "ON", "country": "CA", "postalCode": "L9W5W3", "twitter": "None", "instagram": "None", "facebook": "None", "youtube": "None", "website": "None", "summary": "None", "logo": "None", "latitude": 43.934817199679024, "longitude": -80.09883530496062}, "108091216RR0001": {"name": "THE ORATORY OF ST. PHILIP NERI-TORONTO", "designationCode": "C", "categoryCode": "47", "address": "1372 KING ST W", "city": "TORONTO", "province": "ON", "country": "CA", "postalCode": "M6K1H3", "twitter": "None", "instagram": "None", "facebook": "None", "youtube": "None", "website": "None", "summary": "None", "logo": "None", "latitude": 43.637559169051706, "longitude": -79.43425661977025}, "887546661RR0001": {"name": "THE ORCHESTRA SOCIETY OF CALGARY", "designationCode": "C", "categoryCode": "22", "address": "2ND FLOOR, 205 8TH AVENUE SE", "city": "CALGARY", "province": "AB", "country": "CA", "postalCode": "T2G0K9", "twitter": "None", "instagram": "None", "facebook": "None", "youtube": "None", "website": "None", "summary": "None", "logo": "None", "latitude": 51.04534220984015, "longitude": -114.05999708058519}, "119248912RR0001": {"name": "THE ORDER MINOR CONVENTUALS OF ONTARIO", "designationCode": "C", "categoryCode": "46", "address": "1300 LESLIE STREET", "city": "DON MILLS", "province": "ON", "country": "CA", "postalCode": "M3C2K9", "twitter": "None", "instagram": "None", "facebook": "None", "youtube": "None", "website": "None", "summary": "None", "logo": "None", "latitude": 43.73182985483875, "longitude": -79.35532342273049}, "119248920RR0001": {"name": "THE ORDER OF MALTA (ONTARIO) CHARITABLE FOUNDATION", "designationCode": "A", "categoryCode": "01", "address": "114 BRAESIDE RD", "city": "NORTH YORK", "province": "ON", "country": "CA", "postalCode": "M4N1Y2", "twitter": "None", "instagram": "None", "facebook": "None", "youtube": "None", "website": "None", "summary": "None", "logo": "None", "latitude": 43.72902627560733, "longitude": -79.39044781277066}, "119069615RR0001": {"name": "THE ORDER OF SAINT BASIL THE GREAT IN CANADA", "designationCode": "C", "categoryCode": "46", "address": "737 BANNERMAN AVE", "city": "WINNIPEG", "province": "MB", "country": "CA", "postalCode": "R2X1J9", "twitter": "None", "instagram": "None", "facebook": "None", "youtube": "None", "website": "None", "summary": "None", "logo": "None", "latitude": 49.93193091038124, "longitude": -97.14750228945714}, "107802928RR0001": {"name": "THE ORDER OF ST. BENEDICT", "designationCode": "C", "categoryCode": "46", "address": "PO BOX 10", "city": "MUENSTER", "province": "SK", "country": "CA", "postalCode": "S0K2Y0", "twitter": "None", "instagram": "None", "facebook": "None", "youtube": "None", "website": "None", "summary": "None", "logo": "None", "latitude": 51.84849208187196, "longitude": -105.03696795906401}, "870188232RR0001": {"name": "THE ORDER OF ST. STANISLAS FOR CANADA", "designationCode": "A", "categoryCode": "09", "address": "1498 GILES BLVD E", "city": "WINDSOR", "province": "ON", "country": "CA", "postalCode": "N9A4H1", "twitter": "None", "instagram": "None", "facebook": "None", "youtube": "None", "website": "None", "summary": "None", "logo": "None", "latitude": 42.31283453127588, "longitude": -83.01163033604217}, "869749291RR0001": {"name": "THE ORGANIX FOUNDATION INC", "designationCode": "B", "categoryCode": "23", "address": "421 ST PAUL EAST              SUITE 200", "city": "MONTREAL", "province": "QC", "country": "CA", "postalCode": "H2Y1H5", "twitter": "None", "instagram": "None", "facebook": "None", "youtube": "None", "website": "None", "summary": "None", "logo": "None"}, "136536281RR0001": {"name": "THE ORGANIZATION FOR CHILD AND FAMILY ASSISTANCE (HAMILTON)", "designationCode": "C", "categoryCode": "09", "address": "75 WENTWORTH STREET SOUTH     UNIT 1", "city": "HAMILTON", "province": "ON", "country": "CA", "postalCode": "L8N2Y6", "twitter": "None", "instagram": "None", "facebook": "None", "youtube": "None", "website": "None", "summary": "None", "logo": "None", "latitude": 43.24998988807803, "longitude": -79.84982255618195}, "119248961RR0001": {"name": "THE ORIANA SINGERS", "designationCode": "C", "categoryCode": "22", "address": "35 GRANDVIEW AVENUE", "city": "TORONTO", "province": "ON", "country": "CA", "postalCode": "M4K1J1", "twitter": "None", "instagram": "None", "facebook": "None", "youtube": "None", "website": "None", "summary": "None", "logo": "None", "latitude": 43.673711878700516, "longitude": -79.34930522799934}, "130577133RR0001": {"name": "THE ORIGINAL SANTA CLAUS PARADE", "designationCode": "C", "categoryCode": "59", "address": "139 WENDELL AVE", "city": "NORTH YORK", "province": "ON", "country": "CA", "postalCode": "M9N3K9", "twitter": "None", "instagram": "None", "facebook": "None", "youtube": "None", "website": "None", "summary": "None", "logo": "None", "latitude": 43.714970433810336, "longitude": -79.52626850510724}, "889282778RR0001": {"name": "THE ORIGINAL WORD FULL GOSPEL ASSEMBLY INC", "designationCode": "C", "categoryCode": "39", "address": "180 TURNPIKE ROAD", "city": "PENNFIELD", "province": "NB", "country": "CA", "postalCode": "E5H2C2", "twitter": "None", "instagram": "None", "facebook": "None", "youtube": "None", "website": "None", "summary": "None", "logo": "None", "latitude": 45.130001225145755, "longitude": -66.71075538172984}, "137230587RR0001": {"name": "THE ORILLIA MUSEUM OF ART AND HISTORY", "designationCode": "C", "categoryCode": "22", "address": "30 PETER ST S", "city": "ORILLIA", "province": "ON", "country": "CA", "postalCode": "L3V5A9", "twitter": "None", "instagram": "None", "facebook": "None", "youtube": "None", "website": "None", "summary": "None", "logo": "None", "latitude": 44.608456863639326, "longitude": -79.41704114785502}, "107803587RR0001": {"name": "THE ORILLIA PUBLIC LIBRARY BOARD", "designationCode": "A", "categoryCode": "50", "address": "36 MISSISSAGA ST W", "city": "ORILLIA", "province": "ON", "country": "CA", "postalCode": "L3V3A6", "twitter": "None", "instagram": "None", "facebook": "None", "youtube": "None", "website": "None", "summary": "None", "logo": "None", "latitude": 44.607875893957456, "longitude": -79.42078172044486}, "885965632RR0001": {"name": "THE OROMO CHRISTIAN CHURCH OF TORONTO", "designationCode": "C", "categoryCode": "39", "address": "330 BELLAMY RD N", "city": "SCARBOROUGH", "province": "ON", "country": "CA", "postalCode": "M1H1E8", "twitter": "None", "instagram": "None", "facebook": "None", "youtube": "None", "website": "None", "summary": "None", "logo": "None", "latitude": 43.754438149392634, "longitude": -79.2345485242448}, "893040360RR0001": {"name": "THE ORPHANED KITTEN NURSERIES AND ADOPTION SERVICES", "designationCode": "C", "categoryCode": "54", "address": "232 SHOREHAVEN WYND", "city": "WINDSOR", "province": "ON", "country": "CA", "postalCode": "N8S3C7", "twitter": "None", "instagram": "None", "facebook": "None", "youtube": "None", "website": "None", "summary": "None", "logo": "None", "latitude": 42.335467689710846, "longitude": -82.95036351537901}, "892839168RR0001": {"name": "THE ORPHEUS CHOIR OF TORONTO, INC", "designationCode": "C", "categoryCode": "22", "address": "PO BOX 662 STATION F", "city": "TORONTO", "province": "ON", "country": "CA", "postalCode": "M4Y2N6", "twitter": "None", "instagram": "None", "facebook": "None", "youtube": "None", "website": "None", "summary": "None", "logo": "None", "latitude": 43.666332000000054, "longitude": -79.38025549999993}, "862034451RR0001": {"name": "THE ORTHODOX COMMUNITY OHEV YISROEL/L'ASSOCIATION CULTUELLE DE STRICTE OBEDIENCE OHEV YISROEL", "designationCode": "C", "categoryCode": "42", "address": "195 MARLBOROUGH AVE.", "city": "OTTAWA", "province": "ON", "country": "CA", "postalCode": "K1N8G3", "twitter": "None", "instagram": "None", "facebook": "None", "youtube": "None", "website": "None", "summary": "None", "logo": "None", "latitude": 45.4221150863292, "longitude": -75.6701188242832}, "867323669RR0001": {"name": "THE ORVILLE J DERRAUGH MEMORIAL RECITAL SCHOLARSHIP FUND INC", "designationCode": "C", "categoryCode": "22", "address": "18 DE JONG CRES", "city": "WINNIPEG", "province": "MB", "country": "CA", "postalCode": "R2K3M1", "twitter": "None", "instagram": "None", "facebook": "None", "youtube": "None", "website": "None", "summary": "None", "logo": "None", "latitude": 49.920807228403376, "longitude": -97.06745326354654}, "119249084RR0001": {"name": "THE OSCAR ASCHER SCHMIDT CHARITABLE FOUNDATION", "designationCode": "B", "categoryCode": "03", "address": "3900 YONGE STREET             P.H. #3", "city": "TORONTO", "province": "ON", "country": "CA", "postalCode": "M6A2E4", "twitter": "None", "instagram": "None", "facebook": "None", "youtube": "None", "website": "None", "summary": "None", "logo": "None", "latitude": 43.741011876767296, "longitude": -79.40613879868971}, "105233720RR0001": {"name": "THE OSCAR YOLLES CHARITABLE FOUNDATION", "designationCode": "B", "categoryCode": "03", "address": "2100 - 40 KING ST W", "city": "TORONTO", "province": "ON", "country": "CA", "postalCode": "M5H3C2", "twitter": "None", "instagram": "None", "facebook": "None", "youtube": "None", "website": "None", "summary": "None", "logo": "None", "latitude": 43.64813467004466, "longitude": -79.38254906728791}, "119249092RR0001": {"name": "THE OSGOODE SOCIETY FOR CANADIAN LEGAL HISTORY", "designationCode": "C", "categoryCode": "29", "address": "130 QUEEN STREET WEST", "city": "TORONTO", "province": "ON", "country": "CA", "postalCode": "M5H2N5", "twitter": "None", "instagram": "None", "facebook": "None", "youtube": "None", "website": "None", "summary": "None", "logo": "None", "latitude": 43.65125219126871, "longitude": -79.38473957259495}, "123756314RR0001": {"name": "THE OSHAWA HISTORICAL SOCIETY", "designationCode": "C", "categoryCode": "50", "address": "1450 SIMCOE STREET SOUTH", "city": "OSHAWA", "province": "ON", "country": "CA", "postalCode": "L1H8S8", "twitter": "None", "instagram": "None", "facebook": "None", "youtube": "None", "website": "None", "summary": "None", "logo": "None", "latitude": 43.86465747619648, "longitude": -78.82695352553522}, "119070811RR0001": {"name": "THE OSHAWA LITTLE THEATRE", "designationCode": "C", "categoryCode": "22", "address": "62 RUSSETT AVENUE", "city": "OSHAWA", "province": "ON", "country": "CA", "postalCode": "L1G3R5", "twitter": "None", "instagram": "None", "facebook": "None", "youtube": "None", "website": "None", "summary": "None", "logo": "None", "latitude": 43.93021218795049, "longitude": -78.88017670027106}, "119249142RR0001": {"name": "THE OSHAWA SPORTS HALL OF FAME INC.", "designationCode": "C", "categoryCode": "50", "address": "475 BONO STREET WEST          SUITE 7", "city": "OSHAWA", "province": "ON", "country": "CA", "postalCode": "L1J2M2", "twitter": "None", "instagram": "None", "facebook": "None", "youtube": "None", "website": "None", "summary": "None", "logo": "None", "latitude": 43.89468000000005, "longitude": -78.88017499999994}, "121790240RR0001": {"name": "THE OSHAWA YOUNG WOMEN'S CHRISTIAN ASSOCIATION", "designationCode": "C", "categoryCode": "49", "address": "1 MCGRIGOR STREET", "city": "OSHAWA", "province": "ON", "country": "CA", "postalCode": "L1H1X8", "twitter": "None", "instagram": "None", "facebook": "None", "youtube": "None", "website": "None", "summary": "None", "logo": "None", "latitude": 43.892357552063395, "longitude": -78.86131932878214}, "131572273RR0001": {"name": "THE OSLER COMMUNITY CHURCH", "designationCode": "C", "categoryCode": "39", "address": "BOX 364", "city": "OSLER", "province": "SK", "country": "CA", "postalCode": "S0K3A0", "twitter": "None", "instagram": "None", "facebook": "None", "youtube": "None", "website": "None", "summary": "None", "logo": "None", "latitude": 52.37312184017284, "longitude": -106.5326670943257}, "119249191RR0001": {"name": "THE OSVITA FOUNDATION INC", "designationCode": "A", "categoryCode": "23", "address": "1215F HENDERSON HWY", "city": "WINNIPEG", "province": "MB", "country": "CA", "postalCode": "R2G1L8", "twitter": "None", "instagram": "None", "facebook": "None", "youtube": "None", "website": "None", "summary": "None", "logo": "None", "latitude": 49.94054686300085, "longitude": -97.09032795602528}, "866729296RR0001": {"name": "THE OTHER GUYS THEATRE COMPANY SOCIETY", "designationCode": "C", "categoryCode": "22", "address": "3665 GARDNER ROAD", "city": "LADYSMITH", "province": "BC", "country": "CA", "postalCode": "V9G2A2", "twitter": "None", "instagram": "None", "facebook": "None", "youtube": "None", "website": "None", "summary": "None", "logo": "None", "latitude": 48.95883463133334, "longitude": -123.75897425212351}, "107805459RR0001": {"name": "THE OTONABEE REGION CONSERVATION AUTHORITY", "designationCode": "C", "categoryCode": "52", "address": "250 MILROY DRIVE", "city": "PETERBOROUGH", "province": "ON", "country": "CA", "postalCode": "K9H7M9", "twitter": "None", "instagram": "None", "facebook": "None", "youtube": "None", "website": "None", "summary": "None", "logo": "None", "latitude": 44.331418609815614, "longitude": -78.33876714493012}, "890034176RR0001": {"name": "THE OTONABEE REGION CONSERVATION FOUNDATION", "designationCode": "A", "categoryCode": "53", "address": "250 MILROY DRIVE", "city": "PETERBOROUGH", "province": "ON", "country": "CA", "postalCode": "K9H7M9", "twitter": "None", "instagram": "None", "facebook": "None", "youtube": "None", "website": "None", "summary": "None", "logo": "None", "latitude": 44.331418609815614, "longitude": -78.33876714493012}, "894945633RR0015": {"name": "THE OTTAWA AGAPE CHINESE ALLIANCE CHURCH, THE CHRISTIAN AND MISSIONARY ALLIANCE IN CANADA", "designationCode": "C", "categoryCode": "39", "address": "5492 SOUTH RIVER DR", "city": "MANOTICK", "province": "ON", "country": "CA", "postalCode": "K4M1J3", "twitter": "None", "instagram": "None", "facebook": "None", "youtube": "None", "website": "None", "summary": "None", "logo": "None", "latitude": 45.230333208696536, "longitude": -75.68045499544102}, "863839411RR0001": {"name": "THE OTTAWA ALL NATIONS REFORMED PENTECOSTAL GOSPEL SPIRITUAL ASSEMBLY", "designationCode": "C", "categoryCode": "39", "address": "PO BOX 20423 RPO NELSON", "city": "OTTAWA", "province": "ON", "country": "CA", "postalCode": "K1N1A3", "twitter": "None", "instagram": "None", "facebook": "None", "youtube": "None", "website": "None", "summary": "None", "logo": "None", "latitude": 45.42704107422565, "longitude": -75.68196928335257}, "119249217RR0001": {"name": "THE OTTAWA ANGLICAN CURSILLO MOVEMENT", "designationCode": "C", "categoryCode": "49", "address": "571 DEVONWOOD CIR", "city": "OTTAWA", "province": "ON", "country": "CA", "postalCode": "K1T4E6", "twitter": "None", "instagram": "None", "facebook": "None", "youtube": "None", "website": "None", "summary": "None", "logo": "None", "latitude": 45.322169520139525, "longitude": -75.59846060603604}, "137078960RR0001": {"name": "THE OTTAWA ART GALLERY / LA GALERIE D'ART D'OTTAWA", "designationCode": "C", "categoryCode": "22", "address": "2 DALY AVENUE", "city": "OTTAWA", "province": "ON", "country": "CA", "postalCode": "K1N6E2", "twitter": "None", "instagram": "None", "facebook": "None", "youtube": "None", "website": "None", "summary": "None", "logo": "None", "latitude": 45.42564301552326, "longitude": -75.68902925893026}, "859185688RR0001": {"name": "THE OTTAWA BACH CHOIR", "designationCode": "C", "categoryCode": "22", "address": "137 BLACKDOME CRESCENT", "city": "OTTAWA", "province": "ON", "country": "CA", "postalCode": "K2T1A7", "twitter": "None", "instagram": "None", "facebook": "None", "youtube": "None", "website": "None", "summary": "None", "logo": "None", "latitude": 45.320252565064486, "longitude": -75.92154905092622}, "897274437RR0001": {"name": "THE OTTAWA CHAMBER MUSIC SOCIETY / LA SOCIETE DE MUSIQUE DE CHAMBRE D'OTTAWA", "designationCode": "C", "categoryCode": "22", "address": "4 FLORENCE ST                 STE 201", "city": "OTTAWA", "province": "ON", "country": "CA", "postalCode": "K2P0W7", "twitter": "None", "instagram": "None", "facebook": "None", "youtube": "None", "website": "None", "summary": "None", "logo": "None", "latitude": 45.41265061864509, "longitude": -75.69435209241738}, "894945633RR0020": {"name": "THE OTTAWA CHINESE ALLIANCE CHURCH", "designationCode": "C", "categoryCode": "39", "address": "22 ECCLES ST", "city": "OTTAWA", "province": "ON", "country": "CA", "postalCode": "K1R6S3", "twitter": "None", "instagram": "None", "facebook": "None", "youtube": "None", "website": "None", "summary": "None", "logo": "None", "latitude": 45.40924110794061, "longitude": -75.70838588008549}, "889181624RR0001": {"name": "THE OTTAWA CHURCH OF CHRIST", "designationCode": "C", "categoryCode": "39", "address": "257 - 1769 ST. LAURENT BLVD", "city": "OTTAWA", "province": "ON", "country": "CA", "postalCode": "K1G5X7", "twitter": "None", "instagram": "None", "facebook": "None", "youtube": "None", "website": "None", "summary": "None", "logo": "None", "latitude": 45.40455198892016, "longitude": -75.62619291346925}, "856138128RR0001": {"name": "THE OTTAWA FIREFIGHTERS COMMUNITY FOUNDATION INC.", "designationCode": "C", "categoryCode": "29", "address": "101-865 GLADSTONE AVENUE", "city": "OTTAWA", "province": "ON", "country": "CA", "postalCode": "K1R7T4", "twitter": "None", "instagram": "None", "facebook": "None", "youtube": "None", "website": "None", "summary": "None", "logo": "None", "latitude": 45.40504778547144, "longitude": -75.71085593935642}, "108082363RR0001": {"name": "THE OTTAWA FOOD BANK/LA BANQUE D'ALIMENTATION D'OTTAWA", "designationCode": "C", "categoryCode": "09", "address": "1317B MICHAEL ST", "city": "OTTAWA", "province": "ON", "country": "CA", "postalCode": "K1B3M9", "twitter": "None", "instagram": "None", "facebook": "None", "youtube": "None", "website": "None", "summary": "None", "logo": "None", "latitude": 45.4195983416365, "longitude": -75.63079569224962}, "139482434RR0001": {"name": "THE OTTAWA HEART INSTITUTE ALUMNI INC.", "designationCode": "C", "categoryCode": "13", "address": "40 RUSKIN ST.", "city": "OTTAWA", "province": "ON", "country": "CA", "postalCode": "K1Y4W7", "twitter": "None", "instagram": "None", "facebook": "None", "youtube": "None", "website": "None", "summary": "None", "logo": "None", "latitude": 45.393975317224154, "longitude": -75.72246593163077}, "869042747RR0001": {"name": "THE OTTAWA HOSPITAL FOUNDATION/LA FONDATION DE L'HOPITAL D'OTTAWA", "designationCode": "A", "categoryCode": "03", "address": "737 PARKDALE AVENUE", "city": "OTTAWA", "province": "ON", "country": "CA", "postalCode": "K1Y1J8", "twitter": "None", "instagram": "None", "facebook": "None", "youtube": "None", "website": "None", "summary": "None", "logo": "None", "latitude": 45.39213339259588, "longitude": -75.72385921838887}, "119120772RR0001": {"name": "THE OTTAWA HOSPITAL RIVERSIDE CAMPUS AUXILIARY", "designationCode": "C", "categoryCode": "19", "address": "1967 RIVERSIDE DR", "city": "OTTAWA", "province": "ON", "country": "CA", "postalCode": "K1H7W9", "twitter": "None", "instagram": "None", "facebook": "None", "youtube": "None", "website": "None", "summary": "None", "logo": "None", "latitude": 45.39616118537876, "longitude": -75.67012188953579}, "107805889RR0001": {"name": "THE OTTAWA HOSPITAL-CIVIC AUXILIARY/LES AUXILIAIRES CIVIC DE L'HOPITAL D'OTTAWA", "designationCode": "C", "categoryCode": "19", "address": "1053 CARLING AVENUE", "city": "OTTAWA", "province": "ON", "country": "CA", "postalCode": "K1Y4E9", "twitter": "None", "instagram": "None", "facebook": "None", "youtube": "None", "website": "None", "summary": "None", "logo": "None", "latitude": 45.39278639105125, "longitude": -75.71897024460785}, "107805921RR0001": {"name": "THE OTTAWA HOSPITAL/L'HOPITAL D'OTTAWA", "designationCode": "C", "categoryCode": "10", "address": "1053 CARLING AVENUE", "city": "OTTAWA", "province": "ON", "country": "CA", "postalCode": "K1Y4E9", "twitter": "None", "instagram": "None", "facebook": "None", "youtube": "None", "website": "None", "summary": "None", "logo": "None", "latitude": 45.39278639105125, "longitude": -75.71897024460785}, "808970149RR0001": {"name": "THE OTTAWA INUIT CHILDREN'S CENTRE", "designationCode": "C", "categoryCode": "20", "address": "230 MCARTHUR AVENUE", "city": "OTTAWA", "province": "ON", "country": "CA", "postalCode": "K1L6P5", "twitter": "None", "instagram": "None", "facebook": "None", "youtube": "None", "website": "None", "summary": "None", "logo": "None", "latitude": 45.431340477350304, "longitude": -75.6601019686364}, "897866000RR0001": {"name": "THE OTTAWA ISLAMIC CENTRE AND ASSALAM MOSQUE", "designationCode": "C", "categoryCode": "60", "address": "2335 ST LAURENT", "city": "OTTAWA", "province": "ON", "country": "CA", "postalCode": "K1G5G6", "twitter": "None", "instagram": "None", "facebook": "None", "youtube": "None", "website": "None", "summary": "None", "logo": "None", "latitude": 45.38380723503982, "longitude": -75.62090207796199}, "136729142RR0001": {"name": "THE OTTAWA JEWISH COMMUNITY FOUNDATION", "designationCode": "A", "categoryCode": "53", "address": "21 NADOLNY SACHS PRIVATE", "city": "OTTAWA", "province": "ON", "country": "CA", "postalCode": "K2A1R9", "twitter": "None", "instagram": "None", "facebook": "None", "youtube": "None", "website": "None", "summary": "None", "logo": "None", "latitude": 45.375832560101486, "longitude": -75.75231223766554}, "119249357RR0001": {"name": "THE OTTAWA KOREAN COMMUNITY CHURCH", "designationCode": "C", "categoryCode": "39", "address": "384 ARLINGTON AVE", "city": "OTTAWA", "province": "ON", "country": "CA", "postalCode": "K1R6Z5", "twitter": "None", "instagram": "None", "facebook": "None", "youtube": "None", "website": "None", "summary": "None", "logo": "None", "latitude": 45.405319947515906, "longitude": -75.70469327655964}, "119249365RR0001": {"name": "THE OTTAWA MASONIC CORPORATION", "designationCode": "C", "categoryCode": "56", "address": "2140 WALKLEY RD", "city": "OTTAWA", "province": "ON", "country": "CA", "postalCode": "K1G3V3", "twitter": "None", "instagram": "None", "facebook": "None", "youtube": "None", "website": "None", "summary": "None", "logo": "None", "latitude": 45.386437562525664, "longitude": -75.6234613171854}}