{"885826362RR0001": {"name": "ALTA VISTA CO-OPERATIVE NURSERY SCHOOL INC.", "designationCode": "C", "categoryCode": "20", "address": "480 AVALON PLACE", "city": "OTTAWA", "province": "ON", "country": "CA", "postalCode": "K1G0W4", "twitter": "None", "instagram": "None", "facebook": "None", "youtube": "None", "website": "None", "summary": "None", "logo": "None", "latitude": 45.40627284869324, "longitude": -75.64925473853093}, "119288918RR0966": {"name": "ALTA VISTA CONGREGATION OF JEHOVAH'S WITNESSES", "designationCode": "C", "categoryCode": "61", "address": "1957 QUEENSDALE AVE", "city": "GLOUCESTER", "province": "ON", "country": "CA", "postalCode": "K1T1J9", "twitter": "None", "instagram": "None", "facebook": "None", "youtube": "None", "website": "None", "summary": "None", "logo": "None", "latitude": 45.35220851292616, "longitude": -75.61387379199596}, "877195073RR0001": {"name": "ALTA-VI MEMORIAL SOCIETY", "designationCode": "C", "categoryCode": "09", "address": "5128-57 AVE                   P.O. BOX 780", "city": "VIKING", "province": "AB", "country": "CA", "postalCode": "T0B4N0", "twitter": "None", "instagram": "None", "facebook": "None", "youtube": "None", "website": "None", "summary": "None", "logo": "None", "latitude": 53.10007105306101, "longitude": -111.77781478458104}, "118784461RR0001": {"name": "ALTADORE BAPTIST CHURCH", "designationCode": "C", "categoryCode": "31", "address": "4304-16 ST SW", "city": "CALGARY", "province": "AB", "country": "CA", "postalCode": "T2T4H9", "twitter": "None", "instagram": "None", "facebook": "None", "youtube": "None", "website": "None", "summary": "None", "logo": "None", "latitude": 51.015690000000006, "longitude": -114.10039883360268}, "118784479RR0001": {"name": "ALTAMONT UNITED CHURCH", "designationCode": "C", "categoryCode": "44", "address": "BOX 44", "city": "ALTAMONT", "province": "MB", "country": "CA", "postalCode": "R0G0A0", "twitter": "None", "instagram": "None", "facebook": "None", "youtube": "None", "website": "None", "summary": "None", "logo": "None", "latitude": 49.398720000000026, "longitude": -98.49590999999998}, "118795046RR0001": {"name": "ALTERGO", "designationCode": "C", "categoryCode": "56", "address": "340 - 525 RUE DOMINION", "city": "MONTREAL", "province": "QC", "country": "CA", "postalCode": "H3J2B4", "twitter": "None", "instagram": "None", "facebook": "None", "youtube": "None", "website": "None", "summary": "None", "logo": "None", "latitude": 45.48452789621432, "longitude": -73.5735421333316}, "118784511RR0001": {"name": "ALTERNATE SHELTER SOCIETY", "designationCode": "C", "categoryCode": "01", "address": "2-2661 EAST HASTINGS ST", "city": "VANCOUVER", "province": "BC", "country": "CA", "postalCode": "V5K1Z5", "twitter": "None", "instagram": "None", "facebook": "None", "youtube": "None", "website": "None", "summary": "None", "logo": "None", "latitude": 49.28116551154119, "longitude": -123.0504615}, "130642564RR0001": {"name": "ALTERNATIVE EN SANTE MENTALE L'AUTRE VERSANT INC.", "designationCode": "C", "categoryCode": "09", "address": "20 DRUMMOND", "city": "GRANBY", "province": "QC", "country": "CA", "postalCode": "J2G2S4", "twitter": "None", "instagram": "None", "facebook": "None", "youtube": "None", "website": "None", "summary": "None", "logo": "None", "latitude": 45.39750271827584, "longitude": -72.71905590146578}, "140952938RR0001": {"name": "ALTERNATIVE JEUNESSE DE TROIS-RIVIERES", "designationCode": "C", "categoryCode": "09", "address": "975 RUE ROYALE", "city": "TROIS-RIVIERES", "province": "QC", "country": "CA", "postalCode": "G9A4H7", "twitter": "None", "instagram": "None", "facebook": "None", "youtube": "None", "website": "None", "summary": "None", "logo": "None", "latitude": 46.34522863835194, "longitude": -72.5426291540194}, "106704570RR0001": {"name": "ALTERNATIVE LEARNING STYLES AND OUTLOOKS OTTAWA, INCORPORATED", "designationCode": "C", "categoryCode": "59", "address": "404 MCARTHUR AVE", "city": "OTTAWA", "province": "ON", "country": "CA", "postalCode": "K1K1G8", "twitter": "None", "instagram": "None", "facebook": "None", "youtube": "None", "website": "None", "summary": "None", "logo": "None", "latitude": 45.43209152120739, "longitude": -75.64884963765944}, "899156210RR0001": {"name": "ALTERNATIVE MISSIONS INC", "designationCode": "C", "categoryCode": "47", "address": "2512 MCGILLIVARY BLVD.", "city": "WINNIPEG", "province": "MB", "country": "CA", "postalCode": "R3Y1S9", "twitter": "None", "instagram": "None", "facebook": "None", "youtube": "None", "website": "None", "summary": "None", "logo": "None", "latitude": 49.81551315901106, "longitude": -97.21805330486481}, "892587759RR0001": {"name": "ALTERNATIVE NAISSANCE", "designationCode": "C", "categoryCode": "09", "address": "6006 DE BORDEAUX", "city": "MONTR\u00c9AL", "province": "QC", "country": "CA", "postalCode": "H2G2R7", "twitter": "None", "instagram": "None", "facebook": "None", "youtube": "None", "website": "None", "summary": "None", "logo": "None", "latitude": 45.54322581513661, "longitude": -73.59150363601465}, "118784545RR0001": {"name": "ALTERNATIVE POUR ELLES (MAISON D'HEBERGEMENT POUR FEMMES VIOLENTEES)", "designationCode": "C", "categoryCode": "09", "address": "C.P. 1225", "city": "ROUYN-NORANDA", "province": "QC", "country": "CA", "postalCode": "J9X2G9", "twitter": "None", "instagram": "None", "facebook": "None", "youtube": "None", "website": "None", "summary": "None", "logo": "None", "latitude": 48.24924000000006, "longitude": -79.02831049999993}, "118784552RR0001": {"name": "ALTERNATIVE RESIDENCES ALTERNATIVES INC.", "designationCode": "C", "categoryCode": "01", "address": "100 BOTSFORD ST", "city": "MONCTON", "province": "NB", "country": "CA", "postalCode": "E1C4X3", "twitter": "None", "instagram": "None", "facebook": "None", "youtube": "None", "website": "None", "summary": "None", "logo": "None", "latitude": 46.091785495412374, "longitude": -64.77712672193982}, "118784529RR0001": {"name": "ALTERNATIVE-CENTREGENS", "designationCode": "C", "categoryCode": "09", "address": "462, BOUL. SAINTE-FOY", "city": "LONGUEUIL", "province": "QC", "country": "CA", "postalCode": "J4J1Y2", "twitter": "None", "instagram": "None", "facebook": "None", "youtube": "None", "website": "None", "summary": "None", "logo": "None"}, "118784560RR0001": {"name": "ALTERNATIVES - COMMUNITY PROGRAM SERVICES (PETERBOROUGH) INC.", "designationCode": "C", "categoryCode": "09", "address": "264 STEWART ST", "city": "PETERBOROUGH", "province": "ON", "country": "CA", "postalCode": "K9J3M9", "twitter": "None", "instagram": "None", "facebook": "None", "youtube": "None", "website": "None", "summary": "None", "logo": "None", "latitude": 44.30146606855558, "longitude": -78.32531583954663}, "892486762RR0001": {"name": "ALTERNATIVES ASSOCIATION FOR TREATING ABUSIVE MEN", "designationCode": "C", "categoryCode": "09", "address": "29 VICTORIA RD,P.O.BOX 131", "city": "BRIDGEWATER", "province": "NS", "country": "CA", "postalCode": "B4V2W8", "twitter": "None", "instagram": "None", "facebook": "None", "youtube": "None", "website": "None", "summary": "None", "logo": "None", "latitude": 44.38029572080616, "longitude": -64.52370962566631}, "134172857RR0001": {"name": "ALTERNATIVES COMMUNAUTAIRES D'HABITATION ET D'INTERVENTION DE MILIEU (ACHIM)", "designationCode": "C", "categoryCode": "01", "address": "5940 RUE MONK", "city": "MONTREAL", "province": "QC", "country": "CA", "postalCode": "H4E3H4", "twitter": "None", "instagram": "None", "facebook": "None", "youtube": "None", "website": "None", "summary": "None", "logo": "None", "latitude": 45.459149615326865, "longitude": -73.59622795389255}, "118784578RR0001": {"name": "ALTERNATIVES FOR COMMUNITY LIVING IN ETOBICOKE", "designationCode": "C", "categoryCode": "09", "address": "29 WEST DEANE PK DR           UNIT #1", "city": "TORONTO", "province": "ON", "country": "CA", "postalCode": "M9B2R5", "twitter": "None", "instagram": "None", "facebook": "None", "youtube": "None", "website": "None", "summary": "None", "logo": "None", "latitude": 43.65949990423576, "longitude": -79.56776558589651}, "106704620RR0001": {"name": "ALTERNATIVES FOR WOMEN IN PRINCE EDWARD COUNTY", "designationCode": "C", "categoryCode": "59", "address": "PO BOX 6206", "city": "PICTON", "province": "ON", "country": "CA", "postalCode": "K0K2T0", "twitter": "None", "instagram": "None", "facebook": "None", "youtube": "None", "website": "None", "summary": "None", "logo": "None", "latitude": 44.19536494728186, "longitude": -77.59328555317504}, "890184245RR0001": {"name": "ALTERNATIVES INC", "designationCode": "C", "categoryCode": "59", "address": "#202-195 KING STREET WEST", "city": "KITCHENER", "province": "ON", "country": "CA", "postalCode": "N2G1B1", "twitter": "None", "instagram": "None", "facebook": "None", "youtube": "None", "website": "None", "summary": "None", "logo": "None", "latitude": 43.45111025783375, "longitude": -80.49274937039064}, "887379063RR0001": {"name": "ALTERNATIVES TO VIOLENCE PROJECT CANADA", "designationCode": "C", "categoryCode": "09", "address": "LANSDOWNE & HIGH STREET RPO   POST OFFICE BOX 50063", "city": "PETERBOROUGH", "province": "ON", "country": "CA", "postalCode": "K9J8R1", "twitter": "None", "instagram": "None", "facebook": "None", "youtube": "None", "website": "None", "summary": "None", "logo": "None", "latitude": 44.28491400000001, "longitude": -78.3334125}, "118784719RR0001": {"name": "ALTON BAPTIST CHURCH", "designationCode": "C", "categoryCode": "31", "address": "4924 HIGHWAY 12", "city": "NORTH ALTON", "province": "NS", "country": "CA", "postalCode": "B4N3V8", "twitter": "None", "instagram": "None", "facebook": "None", "youtube": "None", "website": "None", "summary": "None", "logo": "None", "latitude": 45.05087523034435, "longitude": -64.52309302106187}, "878907518RR0001": {"name": "ALTONA & AREA FAMILY RESOURCE GROUP INC.", "designationCode": "C", "categoryCode": "09", "address": "BOX 473", "city": "ALTONA", "province": "MB", "country": "CA", "postalCode": "R0G0B0", "twitter": "None", "instagram": "None", "facebook": "None", "youtube": "None", "website": "None", "summary": "None", "logo": "None", "latitude": 49.10353800000006, "longitude": -97.55120149999993}, "865202139RR0001": {"name": "ALTONA & DISTRICT HEALTH CARE CENTRE INC", "designationCode": "C", "categoryCode": "11", "address": "POST OFFICE BOX 1630", "city": "ALTONA", "province": "MB", "country": "CA", "postalCode": "R0G0B0", "twitter": "None", "instagram": "None", "facebook": "None", "youtube": "None", "website": "None", "summary": "None", "logo": "None", "latitude": 49.10353800000006, "longitude": -97.55120149999993}, "869296384RR0001": {"name": "ALTONA & DISTRICT HERITAGE RESEARCH CENTRE INC", "designationCode": "C", "categoryCode": "50", "address": "BOX 2453", "city": "ALTONA", "province": "MB", "country": "CA", "postalCode": "R0G0B0", "twitter": "None", "instagram": "None", "facebook": "None", "youtube": "None", "website": "None", "summary": "None", "logo": "None", "latitude": 49.10353800000006, "longitude": -97.55120149999993}, "856164082RR0001": {"name": "ALTONA BAPTIST CHURCH INC", "designationCode": "C", "categoryCode": "39", "address": "106 4TH AVE SE", "city": "ALTONA", "province": "MB", "country": "CA", "postalCode": "R0G0B3", "twitter": "None", "instagram": "None", "facebook": "None", "youtube": "None", "website": "None", "summary": "None", "logo": "None", "latitude": 49.09987647071388, "longitude": -97.55538372300768}, "890379191RR0001": {"name": "ALTONA CHURCH OF GOD IN CHRIST, MENNONITE", "designationCode": "C", "categoryCode": "34", "address": "PO BOX 1328", "city": "ALTONA", "province": "MB", "country": "CA", "postalCode": "R0G0B0", "twitter": "None", "instagram": "None", "facebook": "None", "youtube": "None", "website": "None", "summary": "None", "logo": "None", "latitude": 49.10353800000006, "longitude": -97.55120149999993}, "892167677RR0001": {"name": "ALTONA COMMUNITY FOUNDATION INC.", "designationCode": "A", "categoryCode": "03", "address": "BOX 2076", "city": "ALTONA", "province": "MB", "country": "CA", "postalCode": "R0G0B0", "twitter": "None", "instagram": "None", "facebook": "None", "youtube": "None", "website": "None", "summary": "None", "logo": "None", "latitude": 49.10353800000006, "longitude": -97.55120149999993}, "119288918RR1125": {"name": "ALTONA CONGREGATION OF JEHOVAH'S WITNESSES", "designationCode": "C", "categoryCode": "61", "address": "101 WILLOW BAY", "city": "ALTONA", "province": "MB", "country": "CA", "postalCode": "R0G0B1", "twitter": "None", "instagram": "None", "facebook": "None", "youtube": "None", "website": "None", "summary": "None", "logo": "None", "latitude": 49.51391412181359, "longitude": -98.00795505421111}, "118784636RR0001": {"name": "ALTONA EVANGELICAL MENNONITE MISSION CHURCH", "designationCode": "C", "categoryCode": "34", "address": "BOX 907", "city": "ALTONA", "province": "MB", "country": "CA", "postalCode": "R0G0B0", "twitter": "None", "instagram": "None", "facebook": "None", "youtube": "None", "website": "None", "summary": "None", "logo": "None", "latitude": 49.10353800000006, "longitude": -97.55120149999993}, "125208629RR0001": {"name": "ALTONA MCC COMMUNITY ASSISTANCE CENTRE INC.", "designationCode": "A", "categoryCode": "43", "address": "BOX 1888", "city": "ALTONA", "province": "MB", "country": "CA", "postalCode": "R0G0B0", "twitter": "None", "instagram": "None", "facebook": "None", "youtube": "None", "website": "None", "summary": "None", "logo": "None", "latitude": 49.10353800000006, "longitude": -97.55120149999993}, "106704752RR0001": {"name": "ALTONA MENNONITE CHURCH", "designationCode": "C", "categoryCode": "34", "address": "BOX 1237", "city": "ALTONA", "province": "MB", "country": "CA", "postalCode": "R0G0B0", "twitter": "None", "instagram": "None", "facebook": "None", "youtube": "None", "website": "None", "summary": "None", "logo": "None", "latitude": 49.10353800000006, "longitude": -97.55120149999993}, "118784669RR0001": {"name": "ALTONA ROAD CHURCH OF THE NAZARENE", "designationCode": "C", "categoryCode": "39", "address": "1367 ALTONA ROAD", "city": "PICKERING", "province": "ON", "country": "CA", "postalCode": "L1V1M2", "twitter": "None", "instagram": "None", "facebook": "None", "youtube": "None", "website": "None", "summary": "None", "logo": "None", "latitude": 43.81040237026046, "longitude": -79.13321397997576}, "118784677RR0001": {"name": "ALTONA SENIOR CITIZENS CLUB INC.", "designationCode": "C", "categoryCode": "56", "address": "39 1ST ST NW", "city": "ALTONA", "province": "MB", "country": "CA", "postalCode": "R0G0B1", "twitter": "None", "instagram": "None", "facebook": "None", "youtube": "None", "website": "None", "summary": "None", "logo": "None", "latitude": 49.10470380545237, "longitude": -97.55937454344436}, "118784685RR0001": {"name": "ALTONA UNITED CHURCH", "designationCode": "C", "categoryCode": "44", "address": "45 3RD AVE. SE", "city": "ALTONA", "province": "MB", "country": "CA", "postalCode": "R0G0B0", "twitter": "None", "instagram": "None", "facebook": "None", "youtube": "None", "website": "None", "summary": "None", "logo": "None", "latitude": 49.10126423662933, "longitude": -97.55777719960405}, "118784693RR0001": {"name": "ALTONA UNITED WAY INC.", "designationCode": "C", "categoryCode": "03", "address": "BOX 565", "city": "ALTONA", "province": "MB", "country": "CA", "postalCode": "R0G0B0", "twitter": "None", "instagram": "None", "facebook": "None", "youtube": "None", "website": "None", "summary": "None", "logo": "None", "latitude": 49.10353800000006, "longitude": -97.55120149999993}, "890185440RR0001": {"name": "ALTRU FOUNDATION INC", "designationCode": "B", "categoryCode": "03", "address": "1001 PLACE MONT ROYAL         SUITE 1105", "city": "MONTREAL", "province": "QC", "country": "CA", "postalCode": "H3A1P2", "twitter": "None", "instagram": "None", "facebook": "None", "youtube": "None", "website": "None", "summary": "None", "logo": "None", "latitude": 45.500618995845066, "longitude": -73.5730934654624}, "892814161RR0001": {"name": "ALTRUVEST CHARITABLE SERVICES", "designationCode": "C", "categoryCode": "99", "address": "700 - 2 BLOOR ST W", "city": "TORONTO", "province": "ON", "country": "CA", "postalCode": "M4W3R1", "twitter": "None", "instagram": "None", "facebook": "None", "youtube": "None", "website": "None", "summary": "None", "logo": "None", "latitude": 43.67018118347844, "longitude": -79.38709687122736}, "119278992RR0001": {"name": "ALUMNAE THEATRE COMPANY", "designationCode": "C", "categoryCode": "22", "address": "70 BERKELEY STREET", "city": "TORONTO", "province": "ON", "country": "CA", "postalCode": "M5A2W6", "twitter": "None", "instagram": "None", "facebook": "None", "youtube": "None", "website": "None", "summary": "None", "logo": "None", "latitude": 43.65277220982171, "longitude": -79.36472433210213}, "890837974RR0001": {"name": "ALUMNI AND FRIENDS OF NORTH AND SOUTH ESK REGIONAL HIGH SCHOOL", "designationCode": "C", "categoryCode": "21", "address": "35 AITKEN AVENUE", "city": "MIRAMICHI", "province": "NB", "country": "CA", "postalCode": "E1V3X8", "twitter": "None", "instagram": "None", "facebook": "None", "youtube": "None", "website": "None", "summary": "None", "logo": "None", "latitude": 47.00532051122407, "longitude": -65.58078580264312}, "888700069RR0001": {"name": "ALUMNI ASSOCIATION OF YESHIVATKOL TORAH", "designationCode": "C", "categoryCode": "21", "address": "6927 PARK AVE SUITE 200", "city": "MONTREAL", "province": "QC", "country": "CA", "postalCode": "H3N1X7", "twitter": "None", "instagram": "None", "facebook": "None", "youtube": "None", "website": "None", "summary": "None", "logo": "None", "latitude": 45.52943369499095, "longitude": -73.61848342241338}, "811966324RR0001": {"name": "ALUS Canada", "designationCode": "C", "categoryCode": "52", "address": "555 - 2938 DUNDAS ST W", "city": "TORONTO", "province": "ON", "country": "CA", "postalCode": "M6P1Y8", "twitter": "None", "instagram": "None", "facebook": "None", "youtube": "None", "website": "None", "summary": "None", "logo": "None", "latitude": 43.66540166026824, "longitude": -79.46350793373855}, "118784792RR0001": {"name": "ALVENA COMMUNITY CENTRE", "designationCode": "C", "categoryCode": "56", "address": "BOX 118", "city": "ALVENA", "province": "SK", "country": "CA", "postalCode": "S0K0E0", "twitter": "None", "instagram": "None", "facebook": "None", "youtube": "None", "website": "None", "summary": "None", "logo": "None", "latitude": 52.51840000000004, "longitude": -106.02072999999996}, "899357644RR0001": {"name": "ALVIN SEGAL FAMILY FOUNDATION/FONDATION DE FAMILLE ALVIN SEGAL", "designationCode": "B", "categoryCode": "03", "address": "8888 PIE-1X", "city": "MONTREAL", "province": "QC", "country": "CA", "postalCode": "H1Z4J5", "twitter": "None", "instagram": "None", "facebook": "None", "youtube": "None", "website": "None", "summary": "None", "logo": "None", "latitude": 45.57754500000006, "longitude": -73.61661049999994}, "119221596RR0001": {"name": "ALVINSTON CEMETERY BOARD", "designationCode": "C", "categoryCode": "59", "address": "3236 RIVER ST P.O. BOX 28", "city": "ALVINSTON", "province": "ON", "country": "CA", "postalCode": "N0N1A0", "twitter": "None", "instagram": "None", "facebook": "None", "youtube": "None", "website": "None", "summary": "None", "logo": "None", "latitude": 42.8199657485429, "longitude": -81.86215606506447}, "889116794RR0001": {"name": "ALWARD CHARITABLE FOUNDATION, INC", "designationCode": "B", "categoryCode": "13", "address": "P.O. BOX 2001", "city": "HAVELOCK", "province": "NB", "country": "CA", "postalCode": "E4Z6H3", "twitter": "None", "instagram": "None", "facebook": "None", "youtube": "None", "website": "None", "summary": "None", "logo": "None", "latitude": 45.94799324385692, "longitude": -65.19818067160475}, "859585473RR0001": {"name": "ALZHEIMER FOUNDATION OF LONDON AND MIDDLESEX", "designationCode": "A", "categoryCode": "03", "address": "435 WINDERMERE ROAD", "city": "LONDON", "province": "ON", "country": "CA", "postalCode": "N5X2T1", "twitter": "None", "instagram": "None", "facebook": "None", "youtube": "None", "website": "None", "summary": "None", "logo": "None", "latitude": 43.017499241676255, "longitude": -81.26848246041342}, "896090487RR0001": {"name": "ALZHEIMER GROUPE (A.G.I.) INC.", "designationCode": "C", "categoryCode": "09", "address": "304-5555 WESTMINSTER", "city": "MONTREAL", "province": "QC", "country": "CA", "postalCode": "H4W2J2", "twitter": "None", "instagram": "None", "facebook": "None", "youtube": "None", "website": "None", "summary": "None", "logo": "None", "latitude": 45.45992646517395, "longitude": -73.66331351151253}, "890844574RR0001": {"name": "ALZHEIMER RESEARCH FOUNDATION OF B C", "designationCode": "A", "categoryCode": "13", "address": "300-828 WEST 8TH AVENUE", "city": "VANCOUVER", "province": "BC", "country": "CA", "postalCode": "V5Z1E2", "twitter": "None", "instagram": "None", "facebook": "None", "youtube": "None", "website": "None", "summary": "None", "logo": "None", "latitude": 49.26421553952925, "longitude": -123.12287405398465}, "894537984RR0001": {"name": "ALZHEIMER SOCIETY FOUNDATION OF BRANT, HALDIMAND NORFOLK, HAMILTON HALTON", "designationCode": "C", "categoryCode": "11", "address": "1575 UPPER OTTAWA ST SUITE 700", "city": "HAMILTON", "province": "ON", "country": "CA", "postalCode": "L8W3E2", "twitter": "None", "instagram": "None", "facebook": "None", "youtube": "None", "website": "None", "summary": "None", "logo": "None", "latitude": 43.19104664666181, "longitude": -79.84378702348734}, "129690343RR0001": {"name": "ALZHEIMER SOCIETY OF ALBERTA AND NORTHWEST TERRITORIES", "designationCode": "C", "categoryCode": "11", "address": "10531 KINGSWAY NW", "city": "EDMONTON", "province": "AB", "country": "CA", "postalCode": "T5H4K1", "twitter": "None", "instagram": "None", "facebook": "None", "youtube": "None", "website": "None", "summary": "None", "logo": "None", "latitude": 53.55762382956331, "longitude": -113.5015055644293}, "118784891RR0001": {"name": "ALZHEIMER SOCIETY OF B.C.", "designationCode": "C", "categoryCode": "11", "address": "#300-828 WEST 8TH AVENUE", "city": "VANCOUVER", "province": "BC", "country": "CA", "postalCode": "V5Z1E2", "twitter": "None", "instagram": "None", "facebook": "None", "youtube": "None", "website": "None", "summary": "None", "logo": "None", "latitude": 49.26421553952925, "longitude": -123.12287405398465}, "130725740RR0001": {"name": "ALZHEIMER SOCIETY OF CALGARY", "designationCode": "C", "categoryCode": "11", "address": "800 - 7015 MACLEOD TRAIL SW", "city": "CALGARY", "province": "AB", "country": "CA", "postalCode": "T2H2K6", "twitter": "None", "instagram": "None", "facebook": "None", "youtube": "None", "website": "None", "summary": "None", "logo": "None", "latitude": 50.99439991848855, "longitude": -114.0716953460148}, "118784925RR0001": {"name": "ALZHEIMER SOCIETY OF CANADA - SOCIETE ALZHEIMER DU CANADA", "designationCode": "C", "categoryCode": "11", "address": "20 EGLINTON AVE WEST STE 1600", "city": "TORONTO", "province": "ON", "country": "CA", "postalCode": "M4R1K8", "twitter": "None", "instagram": "None", "facebook": "None", "youtube": "None", "website": "None", "summary": "None", "logo": "None", "latitude": 43.70660119790514, "longitude": -79.39910587844072}, "106705247RR0001": {"name": "ALZHEIMER SOCIETY OF CHATHAM-KENT", "designationCode": "C", "categoryCode": "11", "address": "36 MEMORY LANE", "city": "CHATHAM", "province": "ON", "country": "CA", "postalCode": "N7L5M8", "twitter": "None", "instagram": "None", "facebook": "None", "youtube": "None", "website": "None", "summary": "None", "logo": "None", "latitude": 42.41441810046747, "longitude": -82.1829323602631}, "884602129RR0001": {"name": "ALZHEIMER SOCIETY OF DUFFERIN COUNTY", "designationCode": "C", "categoryCode": "11", "address": "1-25 CENTENNIAL RD", "city": "ORANGEVILLE", "province": "ON", "country": "CA", "postalCode": "L9W1R1", "twitter": "None", "instagram": "None", "facebook": "None", "youtube": "None", "website": "None", "summary": "None", "logo": "None", "latitude": 43.912578635033704, "longitude": -80.10768524966808}, "106705296RR0001": {"name": "ALZHEIMER SOCIETY OF DURHAM REGION", "designationCode": "C", "categoryCode": "11", "address": "202 - 1600 CHAMPLAIN AVE", "city": "WHITBY", "province": "ON", "country": "CA", "postalCode": "L1N9B2", "twitter": "None", "instagram": "None", "facebook": "None", "youtube": "None", "website": "None", "summary": "None", "logo": "None", "latitude": 43.8727036764291, "longitude": -78.90640442452131}, "118784982RR0001": {"name": "ALZHEIMER SOCIETY OF GREY-BRUCE INC.", "designationCode": "C", "categoryCode": "11", "address": "753 2ND AVE E", "city": "OWEN SOUND", "province": "ON", "country": "CA", "postalCode": "N4K2G9", "twitter": "None", "instagram": "None", "facebook": "None", "youtube": "None", "website": "None", "summary": "None", "logo": "None", "latitude": 44.562694062207605, "longitude": -80.94204565511592}, "140685751RR0001": {"name": "ALZHEIMER SOCIETY OF HURON COUNTY INC", "designationCode": "C", "categoryCode": "11", "address": "317 HURON RD                  PO BOX 639", "city": "CLINTON", "province": "ON", "country": "CA", "postalCode": "N0M1L0", "twitter": "None", "instagram": "None", "facebook": "None", "youtube": "None", "website": "None", "summary": "None", "logo": "None", "latitude": 43.62124084774284, "longitude": -81.54902919698813}, "889614970RR0001": {"name": "ALZHEIMER SOCIETY OF KENORA/RAINY RIVER DISTRICTS", "designationCode": "C", "categoryCode": "19", "address": "BOX 837", "city": "KENORA", "province": "ON", "country": "CA", "postalCode": "P9N4B5", "twitter": "None", "instagram": "None", "facebook": "None", "youtube": "None", "website": "None", "summary": "None", "logo": "None", "latitude": 49.77125700000006, "longitude": -94.48912249999994}, "129401683RR0001": {"name": "ALZHEIMER SOCIETY OF KINGSTON", "designationCode": "C", "categoryCode": "11", "address": "4 - 400 ELLIOTT AVE", "city": "KINGSTON", "province": "ON", "country": "CA", "postalCode": "K7K6M9", "twitter": "None", "instagram": "None", "facebook": "None", "youtube": "None", "website": "None", "summary": "None", "logo": "None", "latitude": 44.25628254227055, "longitude": -76.49807858950318}, "132563057RR0001": {"name": "ALZHEIMER SOCIETY OF LANARK COUNTY", "designationCode": "C", "categoryCode": "11", "address": "115 CHRISTIE LAKE RD", "city": "PERTH", "province": "ON", "country": "CA", "postalCode": "K7H3C6", "twitter": "None", "instagram": "None", "facebook": "None", "youtube": "None", "website": "None", "summary": "None", "logo": "None", "latitude": 44.90538252654672, "longitude": -76.26991141776843}, "106705346RR0001": {"name": "ALZHEIMER SOCIETY OF LONDON AND MIDDLESEX", "designationCode": "C", "categoryCode": "11", "address": "435 WINDERMERE RD", "city": "LONDON", "province": "ON", "country": "CA", "postalCode": "N5X2T1", "twitter": "None", "instagram": "None", "facebook": "None", "youtube": "None", "website": "None", "summary": "None", "logo": "None", "latitude": 43.017499241676255, "longitude": -81.26848246041342}, "106705353RR0001": {"name": "ALZHEIMER SOCIETY OF MANITOBA INC.", "designationCode": "C", "categoryCode": "11", "address": "10-120 DONALD ST", "city": "WINNIPEG", "province": "MB", "country": "CA", "postalCode": "R3C4G2", "twitter": "None", "instagram": "None", "facebook": "None", "youtube": "None", "website": "None", "summary": "None", "logo": "None", "latitude": 49.888619999999996, "longitude": -97.14076649999998}, "133889238RR0001": {"name": "ALZHEIMER SOCIETY OF MUSKOKA", "designationCode": "C", "categoryCode": "11", "address": "205-230 MANITOBA ST", "city": "BRACEBRIDGE", "province": "ON", "country": "CA", "postalCode": "P1L2E1", "twitter": "None", "instagram": "None", "facebook": "None", "youtube": "None", "website": "None", "summary": "None", "logo": "None", "latitude": 45.044950957239436, "longitude": -79.31821641300698}, "893280263RR0001": {"name": "ALZHEIMER SOCIETY OF NEW BRUNSWICK INC./SOCIETE ALZHEIMER DE NOUVEAU BRUNSWICK INC.", "designationCode": "C", "categoryCode": "11", "address": "PO BOX 1553  STN A", "city": "FREDERICTON", "province": "NB", "country": "CA", "postalCode": "E3B5G2", "twitter": "None", "instagram": "None", "facebook": "None", "youtube": "None", "website": "None", "summary": "None", "logo": "None", "latitude": 45.96062100000006, "longitude": -66.63911299999994}, "132071374RR0001": {"name": "ALZHEIMER SOCIETY OF NEWFOUNDLAND AND LABRADOR, INC", "designationCode": "C", "categoryCode": "11", "address": "107-835 TOPSAIL RD", "city": "MOUNT PEARL", "province": "NL", "country": "CA", "postalCode": "A1N3J6", "twitter": "None", "instagram": "None", "facebook": "None", "youtube": "None", "website": "None", "summary": "None", "logo": "None", "latitude": 47.52382345599081, "longitude": -52.789656155744986}, "106705361RR0001": {"name": "ALZHEIMER SOCIETY OF NIAGARA REGION", "designationCode": "C", "categoryCode": "11", "address": "403 ONTARIO ST., UNIT 1", "city": "ST CATHARINES", "province": "ON", "country": "CA", "postalCode": "L2N1L5", "twitter": "None", "instagram": "None", "facebook": "None", "youtube": "None", "website": "None", "summary": "None", "logo": "None", "latitude": 43.18256491095817, "longitude": -79.26662978258862}, "106705379RR0001": {"name": "ALZHEIMER SOCIETY OF NOVA SCOTIA", "designationCode": "C", "categoryCode": "11", "address": "112 - 2719 GLADSTONE ST", "city": "HALIFAX", "province": "NS", "country": "CA", "postalCode": "B3K4W6", "twitter": "None", "instagram": "None", "facebook": "None", "youtube": "None", "website": "None", "summary": "None", "logo": "None", "latitude": 44.654537717461196, "longitude": -63.59972665913218}, "118784842RR0001": {"name": "ALZHEIMER SOCIETY OF ONTARIO", "designationCode": "C", "categoryCode": "09", "address": "1600-20 EGLINTON AVE W", "city": "TORONTO", "province": "ON", "country": "CA", "postalCode": "M4R1K8", "twitter": "None", "instagram": "None", "facebook": "None", "youtube": "None", "website": "None", "summary": "None", "logo": "None", "latitude": 43.70661117236991, "longitude": -79.39906987844073}, "130498058RR0001": {"name": "ALZHEIMER SOCIETY OF OXFORD", "designationCode": "C", "categoryCode": "11", "address": "575 PEEL STREET", "city": "WOODSTOCK", "province": "ON", "country": "CA", "postalCode": "N4S1K6", "twitter": "None", "instagram": "None", "facebook": "None", "youtube": "None", "website": "None", "summary": "None", "logo": "None", "latitude": 43.129807354434725, "longitude": -80.75255501610016}, "131503138RR0001": {"name": "ALZHEIMER SOCIETY OF PERTH COUNTY", "designationCode": "C", "categoryCode": "11", "address": "1020 ONTARIO ST., UNIT 5", "city": "STRATFORD", "province": "ON", "country": "CA", "postalCode": "N5A6Z3", "twitter": "None", "instagram": "None", "facebook": "None", "youtube": "None", "website": "None", "summary": "None", "logo": "None", "latitude": 43.37081745830637, "longitude": -80.9465639306077}, "129397980RR0001": {"name": "ALZHEIMER SOCIETY OF PETERBOROUGH, KAWARTHA LAKES, NORTHUMBERLAND AND HALIBURTON", "designationCode": "C", "categoryCode": "11", "address": "183 SIMCOE ST", "city": "PETERBOROUGH", "province": "ON", "country": "CA", "postalCode": "K9H2H6", "twitter": "None", "instagram": "None", "facebook": "None", "youtube": "None", "website": "None", "summary": "None", "logo": "None", "latitude": 44.30457548124544, "longitude": -78.3211192754631}, "119004513RR0001": {"name": "ALZHEIMER SOCIETY OF SARNIA-LAMBTON", "designationCode": "C", "categoryCode": "11", "address": "8 420 EAST ST N", "city": "SARNIA", "province": "ON", "country": "CA", "postalCode": "N7T6Y5", "twitter": "None", "instagram": "None", "facebook": "None", "youtube": "None", "website": "None", "summary": "None", "logo": "None", "latitude": 42.98260143694946, "longitude": -82.38619883831706}, "129963617RR0001": {"name": "ALZHEIMER SOCIETY OF SASKATCHEWAN INC.", "designationCode": "C", "categoryCode": "11", "address": "301-2550 12TH AVE", "city": "REGINA", "province": "SK", "country": "CA", "postalCode": "S4P3X1", "twitter": "None", "instagram": "None", "facebook": "None", "youtube": "None", "website": "None", "summary": "None", "logo": "None", "latitude": 50.44886352264969, "longitude": -104.61761002553523}, "119212116RR0001": {"name": "ALZHEIMER SOCIETY OF SIMCOE COUNTY", "designationCode": "C", "categoryCode": "11", "address": "20 ANNE STREET SOUTH, UNIT 3  P.O. BOX 1414", "city": "BARRIE", "province": "ON", "country": "CA", "postalCode": "L4M5R4", "twitter": "None", "instagram": "None", "facebook": "None", "youtube": "None", "website": "None", "summary": "None", "logo": "None", "latitude": 44.381543449333584, "longitude": -79.70443558038524}, "118785054RR0001": {"name": "ALZHEIMER SOCIETY OF THUNDER BAY", "designationCode": "C", "categoryCode": "11", "address": "180 PARK AVENUE               SUITE 310", "city": "THUNDER BAY", "province": "ON", "country": "CA", "postalCode": "P7B6J4", "twitter": "None", "instagram": "None", "facebook": "None", "youtube": "None", "website": "None", "summary": "None", "logo": "None"}, "118785062RR0001": {"name": "ALZHEIMER SOCIETY OF TIMMINS-PORCUPINE DISTRICT INC.", "designationCode": "C", "categoryCode": "11", "address": "70 CEDAR STREET SOUTH", "city": "TIMMINS", "province": "ON", "country": "CA", "postalCode": "P4N2G6", "twitter": "None", "instagram": "None", "facebook": "None", "youtube": "None", "website": "None", "summary": "None", "logo": "None", "latitude": 48.47511382963916, "longitude": -81.32948800265913}, "106705262RR0001": {"name": "ALZHEIMER SOCIETY OF TORONTO", "designationCode": "C", "categoryCode": "11", "address": "20 EGLINTON AVE WEST          SUITE 1600", "city": "TORONTO", "province": "ON", "country": "CA", "postalCode": "M4R1K8", "twitter": "None", "instagram": "None", "facebook": "None", "youtube": "None", "website": "None", "summary": "None", "logo": "None", "latitude": 43.70660119790514, "longitude": -79.39910587844072}, "118785070RR0001": {"name": "ALZHEIMER SOCIETY OF WINDSOR AND ESSEX COUNTY", "designationCode": "C", "categoryCode": "11", "address": "2135 RICHMOND ST", "city": "WINDSOR", "province": "ON", "country": "CA", "postalCode": "N8Y0A1", "twitter": "None", "instagram": "None", "facebook": "None", "youtube": "None", "website": "None", "summary": "None", "logo": "None", "latitude": 42.31698048707383, "longitude": -83.00614114542105}, "106705429RR0001": {"name": "ALZHEIMER SOCIETY OF YORK REGION", "designationCode": "C", "categoryCode": "11", "address": "2 - 240 EDWARD ST", "city": "AURORA", "province": "ON", "country": "CA", "postalCode": "L4G3S9", "twitter": "None", "instagram": "None", "facebook": "None", "youtube": "None", "website": "None", "summary": "None", "logo": "None", "latitude": 43.987334191845626, "longitude": -79.4616266347739}, "106705338RR0001": {"name": "ALZHEIMER SOCIETY WATERLOO WELLINGTON", "designationCode": "C", "categoryCode": "11", "address": "831 FREDERICK STREET", "city": "KITCHENER", "province": "ON", "country": "CA", "postalCode": "N2B2B4", "twitter": "None", "instagram": "None", "facebook": "None", "youtube": "None", "website": "None", "summary": "None", "logo": "None", "latitude": 43.46364469300041, "longitude": -80.45953850227995}, "118784941RR0001": {"name": "ALZHEIMER/SOCIETY OF CORNWALL & DISTRICT/ SOCIETE ALZHEIMER DE CORNWALL ET REGION", "designationCode": "C", "categoryCode": "11", "address": "106 B SECOND ST WEST", "city": "CORNWALL", "province": "ON", "country": "CA", "postalCode": "K6J1G5", "twitter": "None", "instagram": "None", "facebook": "None", "youtube": "None", "website": "None", "summary": "None", "logo": "None", "latitude": 45.0174730163313, "longitude": -74.73149341185312}, "138791389RR0001": {"name": "ALZHEIMER'S SOCIETY OF P.E.I. LTD.", "designationCode": "C", "categoryCode": "11", "address": "166 FITZROY ST", "city": "CHARLOTTETOWN", "province": "PE", "country": "CA", "postalCode": "C1A1S1", "twitter": "None", "instagram": "None", "facebook": "None", "youtube": "None", "website": "None", "summary": "None", "logo": "None", "latitude": 46.23833790146578, "longitude": -63.12655411864509}, "134983956RR0001": {"name": "ALZHEIMERS SOCIETY OF ELGIN / ST THOMAS", "designationCode": "C", "categoryCode": "09", "address": "229-450 SUNSET DRIVE", "city": "ST THOMAS", "province": "ON", "country": "CA", "postalCode": "N5R5V1", "twitter": "None", "instagram": "None", "facebook": "None", "youtube": "None", "website": "None", "summary": "None", "logo": "None"}, "892219247RR0001": {"name": "AM SHALOM CONGREGATION", "designationCode": "C", "categoryCode": "21", "address": "767 HURONIA RD", "city": "BARRIE", "province": "ON", "country": "CA", "postalCode": "L4N9H2", "twitter": "None", "instagram": "None", "facebook": "None", "youtube": "None", "website": "None", "summary": "None", "logo": "None", "latitude": 44.3302968193202, "longitude": -79.6596776108548}, "869557249RR0001": {"name": "AMA FOUNDATION FOR TRAFFIC SAFETY/FONDATION AMA POUR LA SECURITE ROUTIERE", "designationCode": "C", "categoryCode": "21", "address": "BOX 8180 STATION SOUTH", "city": "EDMONTON", "province": "AB", "country": "CA", "postalCode": "T6H5X9", "twitter": "None", "instagram": "None", "facebook": "None", "youtube": "None", "website": "None", "summary": "None", "logo": "None", "latitude": 53.494935000000055, "longitude": -113.54074099999994}, "857473201RR0001": {"name": "AMA LIISAOS HERITAGE TRUST SOCIETY", "designationCode": "C", "categoryCode": "52", "address": "7531 COLUMBIA ST", "city": "MISSION", "province": "BC", "country": "CA", "postalCode": "V2V4C2", "twitter": "None", "instagram": "None", "facebook": "None", "youtube": "None", "website": "None", "summary": "None", "logo": "None", "latitude": 49.13869612101101, "longitude": -122.29744391788307}, "886479997RR0001": {"name": "AMABILE CHOIRS OF LONDON, CANADA", "designationCode": "C", "categoryCode": "22", "address": "199 RATHOWEN ST.", "city": "LONDON", "province": "ON", "country": "CA", "postalCode": "N6H2E9", "twitter": "None", "instagram": "None", "facebook": "None", "youtube": "None", "website": "None", "summary": "None", "logo": "None", "latitude": 42.98905007882737, "longitude": -81.26709351483075}, "858570237RR0001": {"name": "AMAL-CENTRE POUR FEMMES / AMAL-CENTER FOR WOMEN", "designationCode": "C", "categoryCode": "09", "address": "204-903 BOUL DECARIE", "city": "SAINT-LAURENT", "province": "QC", "country": "CA", "postalCode": "H4L3M3", "twitter": "None", "instagram": "None", "facebook": "None", "youtube": "None", "website": "None", "summary": "None", "logo": "None", "latitude": 45.51304822621035, "longitude": -73.68072783637264}, "127358216RR0001": {"name": "AMALGAME MONTREAL INC", "designationCode": "C", "categoryCode": "09", "address": "5970 RUE BANNANTYNE", "city": "VERDUN", "province": "QC", "country": "CA", "postalCode": "H4H1H8", "twitter": "None", "instagram": "None", "facebook": "None", "youtube": "None", "website": "None", "summary": "None", "logo": "None", "latitude": 45.447919679987315, "longitude": -73.57704257796199}, "894191162RR0001": {"name": "AMAN HOUSE INC.", "designationCode": "C", "categoryCode": "01", "address": "PO BOX 4734 STN MAIN", "city": "REGINA", "province": "SK", "country": "CA", "postalCode": "S4P3Y4", "twitter": "None", "instagram": "None", "facebook": "None", "youtube": "None", "website": "None", "summary": "None", "logo": "None", "latitude": 50.448246000000054, "longitude": -104.59517299999993}, "119288918RR0942": {"name": "AMARANTH CONGREGATION OF JEHOVAH'S WITNESSES", "designationCode": "C", "categoryCode": "61", "address": "35 WOODLAND DRIVE", "city": "EAST GARAFRAXA", "province": "ON", "country": "CA", "postalCode": "L9W6B7", "twitter": "None", "instagram": "None", "facebook": "None", "youtube": "None", "website": "None", "summary": "None", "logo": "None", "latitude": 43.89499137391042, "longitude": -80.12848723578962}, "118785187RR0001": {"name": "AMARANTH GOSPEL MISSION", "designationCode": "C", "categoryCode": "39", "address": "PO BOX 116", "city": "AMARANTH", "province": "MB", "country": "CA", "postalCode": "R0H0B0", "twitter": "None", "instagram": "None", "facebook": "None", "youtube": "None", "website": "None", "summary": "None", "logo": "None", "latitude": 50.59495000000004, "longitude": -98.73795999999999}, "881772917RR0001": {"name": "AMARYLLIS WOMEN'S CHOIR", "designationCode": "C", "categoryCode": "22", "address": "1484 ST ANDRE", "city": "EMBRUN", "province": "ON", "country": "CA", "postalCode": "K0A1W0", "twitter": "None", "instagram": "None", "facebook": "None", "youtube": "None", "website": "None", "summary": "None", "logo": "None", "latitude": 45.24214030131002, "longitude": -75.29521262318573}, "106706047RR0001": {"name": "AMATA TRANSITION HOUSE SOCIETY", "designationCode": "C", "categoryCode": "01", "address": "693 MCLEAN ST", "city": "QUESNEL", "province": "BC", "country": "CA", "postalCode": "V2J2P7", "twitter": "None", "instagram": "None", "facebook": "None", "youtube": "None", "website": "None", "summary": "None", "logo": "None", "latitude": 52.98395072078598, "longitude": -122.49615691413214}, "137508008RR0001": {"name": "AMAZING GRACE BAPTIST CHURCH", "designationCode": "C", "categoryCode": "49", "address": "P.O. BOX 744", "city": "BRIDGETOWN", "province": "NS", "country": "CA", "postalCode": "B0S1C0", "twitter": "None", "instagram": "None", "facebook": "None", "youtube": "None", "website": "None", "summary": "None", "logo": "None", "latitude": 44.85015000000004, "longitude": -65.29881999999998}, "888178258RR0001": {"name": "AMAZING GRACE CHRISTIAN FELLOWSHIP", "designationCode": "C", "categoryCode": "39", "address": "7416 VICTORIA DR", "city": "VANCOUVER", "province": "BC", "country": "CA", "postalCode": "V5P3Z3", "twitter": "None", "instagram": "None", "facebook": "None", "youtube": "None", "website": "None", "summary": "None", "logo": "None", "latitude": 49.217022000000014, "longitude": -123.06594992169222}, "893771261RR0001": {"name": "AMAZING GRACE CHRISTIAN MINISTRIES", "designationCode": "C", "categoryCode": "39", "address": "3274 PRINGLE PLACE", "city": "MISSISSAUGA", "province": "ON", "country": "CA", "postalCode": "L5M7R7", "twitter": "None", "instagram": "None", "facebook": "None", "youtube": "None", "website": "None", "summary": "None", "logo": "None", "latitude": 43.54967109212892, "longitude": -79.73205044489018}}