{"808924427RR0001": {"name": "NU", "designationCode": "C", "categoryCode": "22", "address": "7079.CHRISTOPHE-COLOMB", "city": "MONTR\u00c9AL", "province": "QC", "country": "CA", "postalCode": "H2S2H4", "twitter": "None", "instagram": "None", "facebook": "None", "youtube": "None", "website": "None", "summary": "None", "logo": "None", "latitude": 45.5419002870043, "longitude": -73.61065945793192}, "871391249RR0001": {"name": "NU CHAPTER EDUCATION FUND", "designationCode": "C", "categoryCode": "21", "address": "405 - 860 NORWEST RD", "city": "KINGSTON", "province": "ON", "country": "CA", "postalCode": "K7P3K3", "twitter": "None", "instagram": "None", "facebook": "None", "youtube": "None", "website": "None", "summary": "None", "logo": "None", "latitude": 44.25738338444201, "longitude": -76.57674743617626}, "132345398RR0001": {"name": "NU-LIFE PENTECOSTAL CHURCH INC", "designationCode": "C", "categoryCode": "39", "address": "3 ROOTH RD", "city": "TRACY", "province": "NB", "country": "CA", "postalCode": "E5L1J8", "twitter": "None", "instagram": "None", "facebook": "None", "youtube": "None", "website": "None", "summary": "None", "logo": "None", "latitude": 45.67678923468073, "longitude": -66.68321779328433}, "888542412RR0001": {"name": "NUC-TUCT NON-PROFIT HOMES CORPORATION", "designationCode": "C", "categoryCode": "09", "address": "45 CUMMER AVE.", "city": "TORONTO", "province": "ON", "country": "CA", "postalCode": "M2M0A1", "twitter": "None", "instagram": "None", "facebook": "None", "youtube": "None", "website": "None", "summary": "None", "logo": "None", "latitude": 43.7873888892321, "longitude": -79.41548407770219}, "119063733RR0001": {"name": "NUCLEUS INDEPENDENT LIVING", "designationCode": "C", "categoryCode": "01", "address": "2030 BRISTOL CIRCLE - #110", "city": "OAKVILLE", "province": "ON", "country": "CA", "postalCode": "L6H0H2", "twitter": "None", "instagram": "None", "facebook": "None", "youtube": "None", "website": "None", "summary": "None", "logo": "None", "latitude": 43.51046850513589, "longitude": -79.67038882266708}, "118834779RR0001": {"name": "NUFFIELD CANADA", "designationCode": "C", "categoryCode": "21", "address": "35011 RANGE ROAD 13", "city": "RED DEER COUNTY", "province": "AB", "country": "CA", "postalCode": "T4G0J1", "twitter": "None", "instagram": "None", "facebook": "None", "youtube": "None", "website": "None", "summary": "None", "logo": "None", "latitude": 51.97172467055225, "longitude": -114.0730389104395}, "123787475RR0001": {"name": "NUIT BLANCHE, LE MAGAZINE DU LIVRE", "designationCode": "C", "categoryCode": "22", "address": "1026 RUE SAINT-JEAN           PORTE 403", "city": "QUEBEC", "province": "QC", "country": "CA", "postalCode": "G1R1R7", "twitter": "None", "instagram": "None", "facebook": "None", "youtube": "None", "website": "None", "summary": "None", "logo": "None", "latitude": 46.81303815932817, "longitude": -71.21233385472317}, "139423834RR0001": {"name": "NUMUS INC", "designationCode": "C", "categoryCode": "22", "address": "PO BOX 38040 256 KING ST NORTH", "city": "WATERLOO", "province": "ON", "country": "CA", "postalCode": "N2J4T9", "twitter": "None", "instagram": "None", "facebook": "None", "youtube": "None", "website": "None", "summary": "None", "logo": "None", "latitude": 43.47661886594724, "longitude": -80.5250263011139}, "139718241RR0001": {"name": "NUNAVUT ARCTIC COLLEGE", "designationCode": "C", "categoryCode": "20", "address": "PO BOX 230", "city": "ARVIAT", "province": "NU", "country": "CA", "postalCode": "X0C0E0", "twitter": "None", "instagram": "None", "facebook": "None", "youtube": "None", "website": "None", "summary": "None", "logo": "None", "latitude": 61.10970000000003, "longitude": -94.05899999999997}, "890516370RR0001": {"name": "NUNAVUT ELDERS' PENSION TRUST", "designationCode": "C", "categoryCode": "09", "address": "BOX 280", "city": "RANKIN INLET", "province": "NU", "country": "CA", "postalCode": "X0C0G0", "twitter": "None", "instagram": "None", "facebook": "None", "youtube": "None", "website": "None", "summary": "None", "logo": "None", "latitude": 62.80393000000004, "longitude": -92.10015999999996}, "888933868RR0001": {"name": "NUNAVUT HUNTERS INCOME SUPPORT TRUST", "designationCode": "C", "categoryCode": "59", "address": "SUITE 1415, 50 O'CONNER STREET", "city": "OTTAWA", "province": "ON", "country": "CA", "postalCode": "K1P6L2", "twitter": "None", "instagram": "None", "facebook": "None", "youtube": "None", "website": "None", "summary": "None", "logo": "None", "latitude": 45.42113389006883, "longitude": -75.69864072889338}, "868077546RR0001": {"name": "NUNAVUT KAMATSIAQTUT HELP LINE", "designationCode": "C", "categoryCode": "09", "address": "P.O. BOX 419", "city": "IQALUIT", "province": "NU", "country": "CA", "postalCode": "X0A0H0", "twitter": "None", "instagram": "None", "facebook": "None", "youtube": "None", "website": "None", "summary": "None", "logo": "None", "latitude": 62.81090700000006, "longitude": -92.08155949999994}, "890842123RR0001": {"name": "NUNAVUT LITERACY COUNCIL", "designationCode": "C", "categoryCode": "21", "address": "BOX 1049", "city": "CAMBRIDGE BAY", "province": "NU", "country": "CA", "postalCode": "X0B0C0", "twitter": "None", "instagram": "None", "facebook": "None", "youtube": "None", "website": "None", "summary": "None", "logo": "None", "latitude": 69.13891500000005, "longitude": -105.17166799999994}, "868801630RR0001": {"name": "NUNAVUT SIVUNIKSAVUT", "designationCode": "C", "categoryCode": "20", "address": "201-450 RIDEAU ST", "city": "OTTAWA", "province": "ON", "country": "CA", "postalCode": "K1N5Z4", "twitter": "None", "instagram": "None", "facebook": "None", "youtube": "None", "website": "None", "summary": "None", "logo": "None", "latitude": 45.4308965636795, "longitude": -75.68052908852223}, "892518762RR0001": {"name": "NUNAVUT WILDLIFE RESEARCH TRUST", "designationCode": "C", "categoryCode": "54", "address": "P.O. BOX 1379", "city": "IQALUIT", "province": "NU", "country": "CA", "postalCode": "X0A0H0", "twitter": "None", "instagram": "None", "facebook": "None", "youtube": "None", "website": "None", "summary": "None", "logo": "None", "latitude": 62.81090700000006, "longitude": -92.08155949999994}, "890628399RR0001": {"name": "NUNQUAM RETRO INSTITUTE FOR RENEWED EDUCATION", "designationCode": "C", "categoryCode": "20", "address": "1280 FINCH AVE, W. #419", "city": "NORTH YORK", "province": "ON", "country": "CA", "postalCode": "M3J3K6", "twitter": "None", "instagram": "None", "facebook": "None", "youtube": "None", "website": "None", "summary": "None", "logo": "None", "latitude": 43.76409311408613, "longitude": -79.48842034860633}, "882864424RR0001": {"name": "NUOVA NEWLY UNITED OPERATIC VOCALISTS ASSOCIATION", "designationCode": "C", "categoryCode": "22", "address": "15123 43 AVE NW", "city": "EDMONTON", "province": "AB", "country": "CA", "postalCode": "T6H5L7", "twitter": "None", "instagram": "None", "facebook": "None", "youtube": "None", "website": "None", "summary": "None", "logo": "None", "latitude": 53.48062647126213, "longitude": -113.58271975287074}, "895136257RR0001": {"name": "NURSE MYRA BENNETT FOUNDATION INC.", "designationCode": "C", "categoryCode": "52", "address": "14 FOREST DR", "city": "STEADY BROOK", "province": "NL", "country": "CA", "postalCode": "A2H2N2", "twitter": "None", "instagram": "None", "facebook": "None", "youtube": "None", "website": "None", "summary": "None", "logo": "None", "latitude": 48.95518895744044, "longitude": -57.83000732871334}, "107789448RR0001": {"name": "NURSERY TWO", "designationCode": "C", "categoryCode": "20", "address": "746 PARK STREET SOUTH", "city": "PETERBOROUGH", "province": "ON", "country": "CA", "postalCode": "K9J3T4", "twitter": "None", "instagram": "None", "facebook": "None", "youtube": "None", "website": "None", "summary": "None", "logo": "None", "latitude": 44.284079953113164, "longitude": -78.32077082229263}, "119063816RR0001": {"name": "NUT LAKE LUTHERAN CHURCH", "designationCode": "C", "categoryCode": "32", "address": "BOX 299", "city": "ROSE VALLEY", "province": "SK", "country": "CA", "postalCode": "S0E1M0", "twitter": "None", "instagram": "None", "facebook": "None", "youtube": "None", "website": "None", "summary": "None", "logo": "None", "latitude": 52.59930444439391, "longitude": -103.257981}, "107789562RR0001": {"name": "NUTANA PARK MENNONITE CHURCH", "designationCode": "C", "categoryCode": "34", "address": "1701 RUTH ST E", "city": "SASKATOON", "province": "SK", "country": "CA", "postalCode": "S7J0L7", "twitter": "None", "instagram": "None", "facebook": "None", "youtube": "None", "website": "None", "summary": "None", "logo": "None", "latitude": 52.100539353886454, "longitude": -106.62950124565737}, "877526921RR0001": {"name": "NUTRI-CENTRE LASALLE", "designationCode": "C", "categoryCode": "09", "address": "408-A, RUE LAFLEUR", "city": "LASALLE", "province": "QC", "country": "CA", "postalCode": "H8R3H6", "twitter": "None", "instagram": "None", "facebook": "None", "youtube": "None", "website": "None", "summary": "None", "logo": "None", "latitude": 45.43210997864839, "longitude": -73.64661534494138}, "880648142RR0001": {"name": "NUTRITION FOR LEARNING INC.", "designationCode": "C", "categoryCode": "09", "address": "2-495 WAYDOM DRIVE", "city": "AYR", "province": "ON", "country": "CA", "postalCode": "N0B1E0", "twitter": "None", "instagram": "None", "facebook": "None", "youtube": "None", "website": "None", "summary": "None", "logo": "None", "latitude": 43.33832097747635, "longitude": -80.43771435441869}, "107018194RR0001": {"name": "NUTRITIONLINK SERVICES SOCIETY", "designationCode": "C", "categoryCode": "59", "address": "649-718 333 BROOKSBANK", "city": "NORTH VANCOUVER", "province": "BC", "country": "CA", "postalCode": "V7J3V8", "twitter": "None", "instagram": "None", "facebook": "None", "youtube": "None", "website": "None", "summary": "None", "logo": "None", "latitude": 49.30863593213054, "longitude": -123.04051515363922}, "830416475RR0001": {"name": "NUU RAIN INC.", "designationCode": "C", "categoryCode": "09", "address": "P.O. BOX 1046", "city": "NIPAWIN", "province": "SK", "country": "CA", "postalCode": "S0E1E0", "twitter": "None", "instagram": "None", "facebook": "None", "youtube": "None", "website": "None", "summary": "None", "logo": "None", "latitude": 53.396118, "longitude": -104.00834700000001}, "856045331RR0001": {"name": "NUU-CHAH-NULTHAHT / WCVI AQUATIC MANAGEMENT SOCIETY", "designationCode": "C", "categoryCode": "54", "address": "7 - 5440 ARGYLE ST", "city": "PORT ALBERNI", "province": "BC", "country": "CA", "postalCode": "V9Y1T7", "twitter": "None", "instagram": "None", "facebook": "None", "youtube": "None", "website": "None", "summary": "None", "logo": "None", "latitude": 49.23459187737377, "longitude": -124.81492955558957}, "889542395RR0001": {"name": "NWM PRIVATE GIVING FOUNDATION", "designationCode": "A", "categoryCode": "03", "address": "500-1508 WEST BRODWAY", "city": "VANCOUVER", "province": "BC", "country": "CA", "postalCode": "V6J1W8", "twitter": "None", "instagram": "None", "facebook": "None", "youtube": "None", "website": "None", "summary": "None", "logo": "None", "latitude": 49.263577535634134, "longitude": -123.13927355300369}, "860325471RR0001": {"name": "NWT BREAST HEALTH/BREAST CANCER ACTION GROUP", "designationCode": "C", "categoryCode": "11", "address": "PO BOX 1672", "city": "YELLOWKNIFE", "province": "NT", "country": "CA", "postalCode": "X1A2P3", "twitter": "None", "instagram": "None", "facebook": "None", "youtube": "None", "website": "None", "summary": "None", "logo": "None", "latitude": 62.45446200000005, "longitude": -114.37092349999993}, "107789828RR0001": {"name": "NWT DISABILITIES COUNCIL", "designationCode": "C", "categoryCode": "11", "address": "116 - 5102 50 AVE", "city": "YELLOWKNIFE", "province": "NT", "country": "CA", "postalCode": "X1A3S8", "twitter": "None", "instagram": "None", "facebook": "None", "youtube": "None", "website": "None", "summary": "None", "logo": "None", "latitude": 62.453446888164244, "longitude": -114.3731528143572}, "858014442RR0001": {"name": "NWT MINING HERITAGE SOCIETY", "designationCode": "C", "categoryCode": "50", "address": "PO BOX 1856 STN MAIN", "city": "YELLOWKNIFE", "province": "NT", "country": "CA", "postalCode": "X1A2P4", "twitter": "None", "instagram": "None", "facebook": "None", "youtube": "None", "website": "None", "summary": "None", "logo": "None", "latitude": 62.45446200000005, "longitude": -114.37092349999993}, "891912982RR0001": {"name": "NZEN'MAN CHILD AND FAMILY DEVELOPMENT CENTRE SOCIETY", "designationCode": "C", "categoryCode": "09", "address": "PO BOX 490                    987 GEORGE RD", "city": "LYTTON", "province": "BC", "country": "CA", "postalCode": "V0K1Z0", "twitter": "None", "instagram": "None", "facebook": "None", "youtube": "None", "website": "None", "summary": "None", "logo": "None", "latitude": 50.18934318107426, "longitude": -121.5729612631305}, "888673191RR0001": {"name": "O A C ALUMNI FOUNDATION", "designationCode": "A", "categoryCode": "23", "address": "ALUMNI HOUSE                  UNIVERSITY OF GUELPH", "city": "GUELPH", "province": "ON", "country": "CA", "postalCode": "N1G2W1", "twitter": "None", "instagram": "None", "facebook": "None", "youtube": "None", "website": "None", "summary": "None", "logo": "None", "latitude": 43.52788000000004, "longitude": -80.22310999999996}, "141049601RR0001": {"name": "O K CHARITABLE TRUST", "designationCode": "B", "categoryCode": "39", "address": "3425 2 AVENUE SOUTH", "city": "LETHBRIDGE", "province": "AB", "country": "CA", "postalCode": "T1J4V1", "twitter": "None", "instagram": "None", "facebook": "None", "youtube": "None", "website": "None", "summary": "None", "logo": "None", "latitude": 49.696839530439966, "longitude": -112.78914308381903}, "871947958RR0001": {"name": "O L P H PARENT-SCHOOL EDUCATION FUTURE FUND", "designationCode": "C", "categoryCode": "21", "address": "1 1/2 GARFIELD AVENUE", "city": "TORONTO", "province": "ON", "country": "CA", "postalCode": "M4T1E6", "twitter": "None", "instagram": "None", "facebook": "None", "youtube": "None", "website": "None", "summary": "None", "logo": "None", "latitude": 43.687868719556974, "longitude": -79.38362554999098}, "104032107RR0001": {"name": "O VERTIGO DANSE INC.", "designationCode": "C", "categoryCode": "22", "address": "175,RUE STE-CATHERINE OUEST", "city": "MONTREAL", "province": "QC", "country": "CA", "postalCode": "H2X1Z8", "twitter": "None", "instagram": "None", "facebook": "None", "youtube": "None", "website": "None", "summary": "None", "logo": "None", "latitude": 45.50766987151582, "longitude": -73.56571748603461}, "103982492RR0001": {"name": "O. KOSHETZ CHOIR INC.", "designationCode": "C", "categoryCode": "22", "address": "PO BOX 3891 POSTAL STATION \"B\"", "city": "WINNIPEG", "province": "MB", "country": "CA", "postalCode": "R2W5H9", "twitter": "None", "instagram": "None", "facebook": "None", "youtube": "None", "website": "None", "summary": "None", "logo": "None", "latitude": 49.899525000000054, "longitude": -97.14112999999993}, "893496828RR0001": {"name": "O.B.A.D. THE ORGANIZATION FOR BIPOLAR AFFECTIVE DISORDERS SOCIETY", "designationCode": "C", "categoryCode": "11", "address": "1019 7 AVE SW", "city": "CALGARY", "province": "AB", "country": "CA", "postalCode": "T2P1A8", "twitter": "None", "instagram": "None", "facebook": "None", "youtube": "None", "website": "None", "summary": "None", "logo": "None", "latitude": 51.047097477350306, "longitude": -114.08467436081135}, "892618471RR0001": {"name": "O.C.C. Our Children's Centre Society of Greater Victoria", "designationCode": "C", "categoryCode": "01", "address": "4001 SEYMOUR PLACE", "city": "VICTORIA", "province": "BC", "country": "CA", "postalCode": "V8X1W4", "twitter": "None", "instagram": "None", "facebook": "None", "youtube": "None", "website": "None", "summary": "None", "logo": "None"}, "826327132RR0001": {"name": "O.E. Smith Trust", "designationCode": "A", "categoryCode": "05", "address": "275 DUNDAS STREET             11TH FLOOR", "city": "LONDON", "province": "ON", "country": "CA", "postalCode": "N6B3L1", "twitter": "None", "instagram": "None", "facebook": "None", "youtube": "None", "website": "None", "summary": "None", "logo": "None"}, "862425790RR0001": {"name": "O.J. JACOBSON FOUNDATION", "designationCode": "B", "categoryCode": "03", "address": "PO BOX 700 STN A", "city": "ABBOTSFORD", "province": "BC", "country": "CA", "postalCode": "V2T6Z8", "twitter": "None", "instagram": "None", "facebook": "None", "youtube": "None", "website": "None", "summary": "None", "logo": "None", "latitude": 49.05161700000005, "longitude": -122.32930399999994}, "897536363RR0001": {"name": "O.K. BEFORE AND AFTER SCHOOL CHILD CARE CENTRES INC.", "designationCode": "C", "categoryCode": "01", "address": "204-35 MARBURY RD", "city": "WINNIPEG", "province": "MB", "country": "CA", "postalCode": "R2P0Z1", "twitter": "None", "instagram": "None", "facebook": "None", "youtube": "None", "website": "None", "summary": "None", "logo": "None", "latitude": 49.94692373246768, "longitude": -97.16788878547602}, "107793705RR0001": {"name": "O.K. MINI SCHOOL SOCIETY", "designationCode": "C", "categoryCode": "20", "address": "BOX 6", "city": "OKANAGAN FALLS", "province": "BC", "country": "CA", "postalCode": "V0H1R0", "twitter": "None", "instagram": "None", "facebook": "None", "youtube": "None", "website": "None", "summary": "None", "logo": "None", "latitude": 49.3473766725659, "longitude": -119.5662063270074}, "808099337RR0001": {"name": "O.R.C.C.A. Dental Clinic Society", "designationCode": "C", "categoryCode": "11", "address": "103 - 9710 SECOND ST", "city": "SIDNEY", "province": "BC", "country": "CA", "postalCode": "V8L3C4", "twitter": "None", "instagram": "None", "facebook": "None", "youtube": "None", "website": "None", "summary": "None", "logo": "None", "latitude": 48.646961884984805, "longitude": -123.39663857080666}, "119070852RR0001": {"name": "O.S.J. CHARITIES TRUST FUND", "designationCode": "C", "categoryCode": "02", "address": "908 CENTRE STREET NORTH", "city": "WHITBY", "province": "ON", "country": "CA", "postalCode": "L1N4V1", "twitter": "None", "instagram": "None", "facebook": "None", "youtube": "None", "website": "None", "summary": "None", "logo": "None", "latitude": 43.89249765583709, "longitude": -78.95035259175354}, "891081069RR0001": {"name": "O.T.J. de St-Romain de Frontenac (1965) inc.", "designationCode": "C", "categoryCode": "56", "address": "115 RUE DU COUVENT", "city": "ST ROMAIN", "province": "QC", "country": "CA", "postalCode": "G0Y1L0", "twitter": "None", "instagram": "None", "facebook": "None", "youtube": "None", "website": "None", "summary": "None", "logo": "None", "latitude": 45.78245219703635, "longitude": -71.08754887780196}, "119071108RR0001": {"name": "O.T.J. PETIT-SAGUENAY", "designationCode": "C", "categoryCode": "56", "address": "19 DU COLLEGE", "city": "PETITE SAGUENAY", "province": "QC", "country": "CA", "postalCode": "G0V1N0", "twitter": "None", "instagram": "None", "facebook": "None", "youtube": "None", "website": "None", "summary": "None", "logo": "None", "latitude": 48.21099839687816, "longitude": -70.07069084600926}, "778660720RR0001": {"name": "O'Born Family Foundation", "designationCode": "B", "categoryCode": "03", "address": "10 BELLAIR STREET             NORTH PENTHOUSE", "city": "TORONTO", "province": "ON", "country": "CA", "postalCode": "M5R3T8", "twitter": "None", "instagram": "None", "facebook": "None", "youtube": "None", "website": "None", "summary": "None", "logo": "None", "latitude": 43.66975435053957, "longitude": -79.39075574300298}, "811110089RR0001": {"name": "O'Brien Farm Foundation Incorporated", "designationCode": "C", "categoryCode": "52", "address": "PO BOX 23034 RPO CHURCHILL SQ.", "city": "ST. JOHN'S", "province": "NL", "country": "CA", "postalCode": "A1B4J9", "twitter": "None", "instagram": "None", "facebook": "None", "youtube": "None", "website": "None", "summary": "None", "logo": "None", "latitude": 47.57470538694076, "longitude": -52.7226658486743}, "872153002RR0001": {"name": "O'BRIEN/JACKSON FAMILY FOUNDATION", "designationCode": "B", "categoryCode": "03", "address": "1074 LILLYDALE AVENUE", "city": "BELLE RIVER", "province": "ON", "country": "CA", "postalCode": "N0R1A0", "twitter": "None", "instagram": "None", "facebook": "None", "youtube": "None", "website": "None", "summary": "None", "logo": "None", "latitude": 42.30098741776751, "longitude": -82.77134948583307}, "119064905RR0001": {"name": "O'CONNOR FREE METHODIST CHURCH", "designationCode": "C", "categoryCode": "39", "address": "RR #1", "city": "KAKABEKA FALLS", "province": "ON", "country": "CA", "postalCode": "P0T1W0", "twitter": "None", "instagram": "None", "facebook": "None", "youtube": "None", "website": "None", "summary": "None", "logo": "None", "latitude": 48.40169000000003, "longitude": -89.61458999999996}, "815633946RR0001": {"name": "O'CONNOR IRISH HERITAGE HOUSE", "designationCode": "C", "categoryCode": "22", "address": "614 - 1030 SHEPPARD AVE W", "city": "NORTH YORK", "province": "ON", "country": "CA", "postalCode": "M3H6C1", "twitter": "None", "instagram": "None", "facebook": "None", "youtube": "None", "website": "None", "summary": "None", "logo": "None", "latitude": 43.753773909409865, "longitude": -79.44681881101987}, "888521044RR0001": {"name": "O'CONNOR VOLUNTEER FIRE DEPARTMENT AUXILIARY", "designationCode": "C", "categoryCode": "59", "address": "325 HWY 595 O'CONNOR TWP      RR 1", "city": "KAKABEKA FALLS", "province": "ON", "country": "CA", "postalCode": "P0T1W0", "twitter": "None", "instagram": "None", "facebook": "None", "youtube": "None", "website": "None", "summary": "None", "logo": "None", "latitude": 48.40503900000006, "longitude": -89.61733699999994}, "119065761RR0001": {"name": "O'GORMAN SCHOOL FOUNDATION INC.", "designationCode": "B", "categoryCode": "23", "address": "574 ELM ST SOUTH", "city": "TIMMINS", "province": "ON", "country": "CA", "postalCode": "P4N1Y3", "twitter": "None", "instagram": "None", "facebook": "None", "youtube": "None", "website": "None", "summary": "None", "logo": "None", "latitude": 48.46495813446983, "longitude": -81.33432179145636}, "840541080RR0001": {"name": "O'Hara Volunteers Association", "designationCode": "C", "categoryCode": "50", "address": "BOX 56", "city": "MADOC", "province": "ON", "country": "CA", "postalCode": "K0K2K0", "twitter": "None", "instagram": "None", "facebook": "None", "youtube": "None", "website": "None", "summary": "None", "logo": "None", "latitude": 44.506080000000054, "longitude": -77.47461999999996}, "816334288RR0001": {"name": "O'Leary New Life Worship Center Inc.", "designationCode": "C", "categoryCode": "39", "address": "2175 O'LEARY ROAD", "city": "O'LEARY", "province": "PE", "country": "CA", "postalCode": "C0B1V0", "twitter": "None", "instagram": "None", "facebook": "None", "youtube": "None", "website": "None", "summary": "None", "logo": "None", "latitude": 46.70373715509382, "longitude": -64.24377103578237}, "119066710RR0001": {"name": "O'LEARY CHURCH OF CHRIST INC.", "designationCode": "C", "categoryCode": "39", "address": "PO BOX 64", "city": "ALBERTON", "province": "PE", "country": "CA", "postalCode": "C0B1B0", "twitter": "None", "instagram": "None", "facebook": "None", "youtube": "None", "website": "None", "summary": "None", "logo": "None", "latitude": 46.813510000000065, "longitude": -64.06533999999994}, "820583987RR0001": {"name": "O'LEARY CHURCH OF THE NAZARENE INC.", "designationCode": "C", "categoryCode": "39", "address": "PO BOX 340", "city": "O'LEARY", "province": "PE", "country": "CA", "postalCode": "C0B1V0", "twitter": "None", "instagram": "None", "facebook": "None", "youtube": "None", "website": "None", "summary": "None", "logo": "None", "latitude": 46.71305115704506, "longitude": -64.19110057190973}, "138028220RR0001": {"name": "O'LEARY COMMUNITY HEALTH FOUNDATION INC", "designationCode": "C", "categoryCode": "10", "address": "PO BOX 832", "city": "O'LEARY", "province": "PE", "country": "CA", "postalCode": "C0B1V0", "twitter": "None", "instagram": "None", "facebook": "None", "youtube": "None", "website": "None", "summary": "None", "logo": "None", "latitude": 46.71305115704506, "longitude": -64.19110057190973}, "136452588RR0001": {"name": "O'LEARY COMMUNITY SPORTS CENTRE INC", "designationCode": "C", "categoryCode": "56", "address": "PO BOX 490", "city": "O'LEARY", "province": "PE", "country": "CA", "postalCode": "C0B1V0", "twitter": "None", "instagram": "None", "facebook": "None", "youtube": "None", "website": "None", "summary": "None", "logo": "None", "latitude": 46.71305115704506, "longitude": -64.19110057190973}, "139724926RR0001": {"name": "O'LEARY MUSEUM AND LIBRARY ASSOCIATION LTD", "designationCode": "C", "categoryCode": "50", "address": "PO BOX 602", "city": "O'LEARY", "province": "PE", "country": "CA", "postalCode": "C0B1V0", "twitter": "None", "instagram": "None", "facebook": "None", "youtube": "None", "website": "None", "summary": "None", "logo": "None", "latitude": 46.71305115704506, "longitude": -64.19110057190973}, "816345201RR0001": {"name": "O'Mahoney Family Foundation", "designationCode": "A", "categoryCode": "03", "address": "270 ORTONA GATE", "city": "OAKVILLE", "province": "ON", "country": "CA", "postalCode": "L6K0H3", "twitter": "None", "instagram": "None", "facebook": "None", "youtube": "None", "website": "None", "summary": "None", "logo": "None", "latitude": 43.43770179793991, "longitude": -79.6834749822264}, "850474487RR0001": {"name": "Oak Bay Fire Fighters Charitable Foundation", "designationCode": "A", "categoryCode": "03", "address": "1703 MONTEREY AVE", "city": "VICTORIA", "province": "BC", "country": "CA", "postalCode": "V8R5V6", "twitter": "None", "instagram": "None", "facebook": "None", "youtube": "None", "website": "None", "summary": "None", "logo": "None", "latitude": 48.42939753093092, "longitude": -123.31332268659509}, "812139061RR0001": {"name": "Oak Hill Cemetery Company", "designationCode": "C", "categoryCode": "59", "address": "37 HILLSIDE DR", "city": "ANNAPOLIS ROYAL", "province": "NS", "country": "CA", "postalCode": "B0S1A0", "twitter": "None", "instagram": "None", "facebook": "None", "youtube": "None", "website": "None", "summary": "None", "logo": "None", "latitude": 44.7357052045416, "longitude": -65.496545228028}, "843648932RR0001": {"name": "Oak Lake Beach Playground Committee", "designationCode": "C", "categoryCode": "56", "address": "PO BOX 423", "city": "OAK LAKE", "province": "MB", "country": "CA", "postalCode": "R0M1P0", "twitter": "None", "instagram": "None", "facebook": "None", "youtube": "None", "website": "None", "summary": "None", "logo": "None", "latitude": 49.76430756929151, "longitude": -100.63254783087561}, "825211485RR0001": {"name": "Oak Lake Care Centre Inc.", "designationCode": "C", "categoryCode": "01", "address": "POST OFFICE BOX 459", "city": "OAK LAKE", "province": "MB", "country": "CA", "postalCode": "R0M1P0", "twitter": "None", "instagram": "None", "facebook": "None", "youtube": "None", "website": "None", "summary": "None", "logo": "None", "latitude": 49.76430756929151, "longitude": -100.63254783087561}, "847798717RR0001": {"name": "Oak Ridges Christian Fellowship Foundation", "designationCode": "B", "categoryCode": "03", "address": "85 WEST WILMOT ST  SUITE 1", "city": "RICHMOND HILL", "province": "ON", "country": "CA", "postalCode": "L4B1K7", "twitter": "None", "instagram": "None", "facebook": "None", "youtube": "None", "website": "None", "summary": "None", "logo": "None", "latitude": 43.851976892550326, "longitude": -79.39138414749853}, "810511329RR0001": {"name": "Oak Ridges Hospice of Durham Ltd.", "designationCode": "C", "categoryCode": "01", "address": "870 MCKAY ROAD", "city": "PICKERING", "province": "ON", "country": "CA", "postalCode": "L1W2Y4", "twitter": "None", "instagram": "None", "facebook": "None", "youtube": "None", "website": "None", "summary": "None", "logo": "None", "latitude": 43.82087411134483, "longitude": -79.05470792189378}, "786842492RR0001": {"name": "Oak River Charitable Trust", "designationCode": "B", "categoryCode": "45", "address": "1401 PRINCESS AVE", "city": "BRANDON", "province": "MB", "country": "CA", "postalCode": "R7A7L7", "twitter": "None", "instagram": "None", "facebook": "None", "youtube": "None", "website": "None", "summary": "None", "logo": "None", "latitude": 49.84694947489748, "longitude": -99.957294}, "748152295RR0001": {"name": "Oak Table Inc.", "designationCode": "C", "categoryCode": "09", "address": "109 PULFORD ST", "city": "WINNIPEG", "province": "MB", "country": "CA", "postalCode": "R3L1X8", "twitter": "None", "instagram": "None", "facebook": "None", "youtube": "None", "website": "None", "summary": "None", "logo": "None", "latitude": 49.87900350568417, "longitude": -97.14502062228041}, "829479666RR0001": {"name": "Oak Tree Foundation", "designationCode": "A", "categoryCode": "03", "address": "201-3550 MT LEHMAN RD", "city": "ABBOTSFORD", "province": "BC", "country": "CA", "postalCode": "V4X2M9", "twitter": "None", "instagram": "None", "facebook": "None", "youtube": "None", "website": "None", "summary": "None", "logo": "None", "latitude": 49.06721409400878, "longitude": -122.38115793581528}, "887132025RR0001": {"name": "Oak Valley Productions Inc.", "designationCode": "C", "categoryCode": "22", "address": "POST OFFICE BOX 84", "city": "MANITOU", "province": "MB", "country": "CA", "postalCode": "R0G1G0", "twitter": "None", "instagram": "None", "facebook": "None", "youtube": "None", "website": "None", "summary": "None", "logo": "None", "latitude": 49.23673000000008, "longitude": -98.53495999999996}, "774367494RR0001": {"name": "Oakburn Ukrainian Cemetery Fund Inc.", "designationCode": "B", "categoryCode": "59", "address": "POST OFFICE BOX 114", "city": "OAKBURN", "province": "MB", "country": "CA", "postalCode": "R0J1L0", "twitter": "None", "instagram": "None", "facebook": "None", "youtube": "None", "website": "None", "summary": "None", "logo": "None", "latitude": 50.56456000000003, "longitude": -100.57705999999996}, "132019480RR0001": {"name": "Oakridge United Church", "designationCode": "C", "categoryCode": "44", "address": "305 41ST AVE W", "city": "VANCOUVER", "province": "BC", "country": "CA", "postalCode": "V5Y2S5", "twitter": "None", "instagram": "None", "facebook": "None", "youtube": "None", "website": "None", "summary": "None", "logo": "None", "latitude": 49.233446453257386, "longitude": -123.11276944310117}, "119064350RR0001": {"name": "Oakville & Milton Humane Society", "designationCode": "C", "categoryCode": "54", "address": "445 CORNWALL RD", "city": "OAKVILLE", "province": "ON", "country": "CA", "postalCode": "L6J7S8", "twitter": "None", "instagram": "None", "facebook": "None", "youtube": "None", "website": "None", "summary": "None", "logo": "None", "latitude": 43.46045226700901, "longitude": -79.67452421262033}, "824515266RR0001": {"name": "Oakville Chinese Evangelical Missionary Church", "designationCode": "C", "categoryCode": "39", "address": "1421 PRINCE JOHN CIR", "city": "OAKVILLE", "province": "ON", "country": "CA", "postalCode": "L6J6S3", "twitter": "None", "instagram": "None", "facebook": "None", "youtube": "None", "website": "None", "summary": "None", "logo": "None", "latitude": 43.5030328595706, "longitude": -79.66392218399803}, "810665752RR0001": {"name": "Oakville Christian Fellowship", "designationCode": "C", "categoryCode": "31", "address": "154 STEWART ST", "city": "OAKVILLE", "province": "ON", "country": "CA", "postalCode": "L6K1X9", "twitter": "None", "instagram": "None", "facebook": "None", "youtube": "None", "website": "None", "summary": "None", "logo": "None", "latitude": 43.443149281147264, "longitude": -79.68504266942708}, "846962843RR0001": {"name": "Oakville Hospital Volunteer Association", "designationCode": "C", "categoryCode": "15", "address": "3001 HOSPITAL GATE", "city": "OAKVILLE", "province": "ON", "country": "CA", "postalCode": "L6M0L8", "twitter": "None", "instagram": "None", "facebook": "None", "youtube": "None", "website": "None", "summary": "None", "logo": "None", "latitude": 43.447489375269086, "longitude": -79.76403185193158}, "107286759RR0001": {"name": "Oasis \u00c9glise Rive-Sud / Oasis South Shore Church", "designationCode": "C", "categoryCode": "36", "address": "879, CHEMIN DU FER-\u00c0-CHEVAL   CASE POSTALE 42", "city": "SAINTE-JULIE", "province": "QC", "country": "CA", "postalCode": "J3E1X5", "twitter": "None", "instagram": "None", "facebook": "None", "youtube": "None", "website": "None", "summary": "None", "logo": "None", "latitude": 45.60656291090085, "longitude": -73.32722337754669}, "818354862RR0001": {"name": "Oasis du bel \u00e2ge", "designationCode": "C", "categoryCode": "09", "address": "11 RUE DE LA RIVI\u00c8RE", "city": "AGUANISH", "province": "QC", "country": "CA", "postalCode": "G0G1A0", "twitter": "None", "instagram": "None", "facebook": "None", "youtube": "None", "website": "None", "summary": "None", "logo": "None", "latitude": 50.22774982901505, "longitude": -62.1115682384736}, "842223174RR0001": {"name": "Oasis pour adultes handicap\u00e9s de L\u00e9vis", "designationCode": "C", "categoryCode": "09", "address": "5700 RUE SAINT-LOUIS", "city": "LEVIS", "province": "QC", "country": "CA", "postalCode": "G6V4E5", "twitter": "None", "instagram": "None", "facebook": "None", "youtube": "None", "website": "None", "summary": "None", "logo": "None", "latitude": 46.804927977234726, "longitude": -71.18379599443142}, "832458681RR0001": {"name": "Oasis Church Calgary", "designationCode": "C", "categoryCode": "45", "address": "9 GARRICK DR SW", "city": "CALGARY", "province": "AB", "country": "CA", "postalCode": "T3E5B4", "twitter": "None", "instagram": "None", "facebook": "None", "youtube": "None", "website": "None", "summary": "None", "logo": "None", "latitude": 51.01041650346245, "longitude": -114.14979041909515}, "856861356RR0001": {"name": "Oasis Legacy Foundation", "designationCode": "C", "categoryCode": "03", "address": "21091 79A AVE", "city": "LANGLEY", "province": "BC", "country": "CA", "postalCode": "V2Y0H2", "twitter": "None", "instagram": "None", "facebook": "None", "youtube": "None", "website": "None", "summary": "None", "logo": "None", "latitude": 49.14700720691807, "longitude": -122.63851862538137}, "834434557RR0001": {"name": "Oasis Ministry for a Course in Miracles", "designationCode": "C", "categoryCode": "49", "address": "985 WATSON STREET", "city": "OTTAWA", "province": "ON", "country": "CA", "postalCode": "K2B6C1", "twitter": "None", "instagram": "None", "facebook": "None", "youtube": "None", "website": "None", "summary": "None", "logo": "None", "latitude": 45.35272568388246, "longitude": -75.79285045695097}, "858572985RR0001": {"name": "Oasis Project Africa Education Society.", "designationCode": "C", "categoryCode": "21", "address": "383 DOGWOOD COURT", "city": "SHERWOOD PARK", "province": "AB", "country": "CA", "postalCode": "T8A1K5", "twitter": "None", "instagram": "None", "facebook": "None", "youtube": "None", "website": "None", "summary": "None", "logo": "None", "latitude": 53.52145252345777, "longitude": -113.30950308572362}, "811630268RR0001": {"name": "Oasis United Church", "designationCode": "C", "categoryCode": "39", "address": "2964 SKAHA LAKE RD", "city": "PENTICTION", "province": "BC", "country": "CA", "postalCode": "V2A7H2", "twitter": "None", "instagram": "None", "facebook": "None", "youtube": "None", "website": "None", "summary": "None", "logo": "None", "latitude": 49.462825515955934, "longitude": -119.58811970217566}, "889022596RR0001": {"name": "Oasis-Canada", "designationCode": "C", "categoryCode": "32", "address": "124 - 3090 15 AVE SE", "city": "MEDICINE HAT", "province": "AB", "country": "CA", "postalCode": "T1B3Z3", "twitter": "None", "instagram": "None", "facebook": "None", "youtube": "None", "website": "None", "summary": "None", "logo": "None"}, "128567856RR0001": {"name": "Obair Economic Society", "designationCode": "C", "categoryCode": "20", "address": "2 - 929 106 AVE", "city": "DAWSON CREEK", "province": "BC", "country": "CA", "postalCode": "V1G2N8", "twitter": "None", "instagram": "None", "facebook": "None", "youtube": "None", "website": "None", "summary": "None", "logo": "None", "latitude": 55.75487778377298, "longitude": -120.23093966515655}, "810268615RR0001": {"name": "Ober Family Foundation", "designationCode": "B", "categoryCode": "05", "address": "CHAPMAN MATTEN WELTON WINTER  6010-3080 YONGE ST. PO BOX 79", "city": "TORONTO", "province": "ON", "country": "CA", "postalCode": "M4N3N1", "twitter": "None", "instagram": "None", "facebook": "None", "youtube": "None", "website": "None", "summary": "None", "logo": "None", "latitude": 43.72561462669516, "longitude": -79.40237629577553}, "824749063RR0001": {"name": "Observatoire de la G\u00e9osph\u00e8re de Charlevoix", "designationCode": "C", "categoryCode": "50", "address": "595, COTE BELLEVUE", "city": "LA MALBAIE", "province": "QC", "country": "CA", "postalCode": "G5A3B2", "twitter": "None", "instagram": "None", "facebook": "None", "youtube": "None", "website": "None", "summary": "None", "logo": "None", "latitude": 47.62140715958799, "longitude": -70.15525503857695}, "768196727RR0001": {"name": "Obsessive Compulsive Disorder Canada", "designationCode": "C", "categoryCode": "11", "address": "120 CARLTON ST                SUITE 208", "city": "TORONTO", "province": "ON", "country": "CA", "postalCode": "M5A4K2", "twitter": "None", "instagram": "None", "facebook": "None", "youtube": "None", "website": "None", "summary": "None", "logo": "None", "latitude": 43.66252218347842, "longitude": -79.37634981294354}, "840694830RR0001": {"name": "Ocean Governance Training Foundation", "designationCode": "C", "categoryCode": "20", "address": "PO BOX 15000                  DALHOUSIE UNIVERSITY", "city": "HALIFAX", "province": "NS", "country": "CA", "postalCode": "B3H4R2", "twitter": "None", "instagram": "None", "facebook": "None", "youtube": "None", "website": "None", "summary": "None", "logo": "None", "latitude": 44.63448000000005, "longitude": -63.59397999999999}, "119288918RR1595": {"name": "Ocean Park Congregation of Jehovah's Witnesses, White Rock, British Columbia", "designationCode": "C", "categoryCode": "61", "address": "14832 24TH AVENUE", "city": "SURREY", "province": "BC", "country": "CA", "postalCode": "V4A2H6", "twitter": "None", "instagram": "None", "facebook": "None", "youtube": "None", "website": "None", "summary": "None", "logo": "None", "latitude": 49.04563446681872, "longitude": -122.81115094463038}, "804842599RR0001": {"name": "Ocean Park Foundation", "designationCode": "B", "categoryCode": "03", "address": "2021 INDIAN FORT DR", "city": "SURREY", "province": "BC", "country": "CA", "postalCode": "V4A3L7", "twitter": "None", "instagram": "None", "facebook": "None", "youtube": "None", "website": "None", "summary": "None", "logo": "None", "latitude": 49.03926589312725, "longitude": -122.87896028602336}, "831248398RR0001": {"name": "Ocean View Manor Foundation", "designationCode": "C", "categoryCode": "09", "address": "P.O. BOX 130                  1909 CALDWELL ROAD", "city": "EASTERN PASSAGE", "province": "NS", "country": "CA", "postalCode": "B3G1M4", "twitter": "None", "instagram": "None", "facebook": "None", "youtube": "None", "website": "None", "summary": "None", "logo": "None", "latitude": 44.60713382621644, "longitude": -63.469562474666326}, "119282119RR0001": {"name": "Ocean Wise Conservation Association", "designationCode": "C", "categoryCode": "50", "address": "PO BOX 3232 STANLEY PARK", "city": "VANCOUVER", "province": "BC", "country": "CA", "postalCode": "V6B3X8", "twitter": "None", "instagram": "None", "facebook": "None", "youtube": "None", "website": "None", "summary": "None", "logo": "None", "latitude": 49.297270000000026, "longitude": -123.13586999999995}, "821618139RR0001": {"name": "Oceana Canada", "designationCode": "C", "categoryCode": "52", "address": "505-18 KING STREET EAST", "city": "TORONTO", "province": "ON", "country": "CA", "postalCode": "M5C1C4", "twitter": "None", "instagram": "None", "facebook": "None", "youtube": "None", "website": "None", "summary": "None", "logo": "None", "latitude": 43.64935016515658, "longitude": -79.37696809423504}, "808781330RR0001": {"name": "Oceans Research and Conservation Association - ORCA", "designationCode": "C", "categoryCode": "21", "address": "POST OFFICE BOX 62            1250-1500 WEST GEORGIA STREET", "city": "VANCOUVER", "province": "BC", "country": "CA", "postalCode": "V6G2Z6", "twitter": "None", "instagram": "None", "facebook": "None", "youtube": "None", "website": "None", "summary": "None", "logo": "None", "latitude": 49.29013479542975, "longitude": -123.1300069287031}, "867509176RR0001": {"name": "Oceanside Community Safety Volunteers", "designationCode": "C", "categoryCode": "59", "address": "101 - 691 BEACH RD", "city": "QUALICUM BEACH", "province": "BC", "country": "CA", "postalCode": "V9K0A7", "twitter": "None", "instagram": "None", "facebook": "None", "youtube": "None", "website": "None", "summary": "None", "logo": "None", "latitude": 49.346892, "longitude": -124.44713363269643}, "806416129RR0001": {"name": "Oceanside Stroke Recovery Society", "designationCode": "C", "categoryCode": "11", "address": "399 DORSET RD", "city": "QUALICUM BEACH", "province": "BC", "country": "CA", "postalCode": "V9K1H5", "twitter": "None", "instagram": "None", "facebook": "None", "youtube": "None", "website": "None", "summary": "None", "logo": "None", "latitude": 49.34728948600596, "longitude": -124.4578899970858}, "741405526RR0001": {"name": "Oceanview Christian Academy Association", "designationCode": "C", "categoryCode": "20", "address": "PO BOX 116", "city": "CENTREVILLE", "province": "NS", "country": "CA", "postalCode": "B0P1J0", "twitter": "None", "instagram": "None", "facebook": "None", "youtube": "None", "website": "None", "summary": "None", "logo": "None", "latitude": 45.14065816541881, "longitude": -64.48438511708392}}