{"129434486RR0001": {"name": "MIDDLESEX PENTECOSTAL CHURCH", "designationCode": "C", "categoryCode": "36", "address": "22 BANNISTER RD", "city": "COLPITTS SETTLEMENT", "province": "NB", "country": "CA", "postalCode": "E4J1A1", "twitter": "None", "instagram": "None", "facebook": "None", "youtube": "None", "website": "None", "summary": "None", "logo": "None", "latitude": 45.971894550052866, "longitude": -65.00515811869518}, "888167640RR0001": {"name": "MIDDLESEX 4-H ASSOCIATION", "designationCode": "C", "categoryCode": "29", "address": "POST OFFICE BOX 820           633 LIONS PARK DRIVE", "city": "MOUNT BRYDGES", "province": "ON", "country": "CA", "postalCode": "N0L1W0", "twitter": "None", "instagram": "None", "facebook": "None", "youtube": "None", "website": "None", "summary": "None", "logo": "None", "latitude": 42.91279634853828, "longitude": -81.50104129468363}, "107700791RR0001": {"name": "MIDDLESEX-LONDON HEALTH UNIT", "designationCode": "C", "categoryCode": "11", "address": "50 KING STREET", "city": "LONDON", "province": "ON", "country": "CA", "postalCode": "N6A5L7", "twitter": "None", "instagram": "None", "facebook": "None", "youtube": "None", "website": "None", "summary": "None", "logo": "None", "latitude": 42.9812159392347, "longitude": -81.25390987996992}, "119040145RR0001": {"name": "MIDDLETON AND DISTRICT DAY CARE CENTRE", "designationCode": "C", "categoryCode": "01", "address": "167 COMMERCIAL ST             PO BOX 142", "city": "MIDDLETON ANNAPOLIS COUNTY", "province": "NS", "country": "CA", "postalCode": "B0S1P0", "twitter": "None", "instagram": "None", "facebook": "None", "youtube": "None", "website": "None", "summary": "None", "logo": "None", "latitude": 44.947311580068124, "longitude": -65.07121105886073}, "119040228RR0001": {"name": "MIDDLETON BAPTIST CHURCH", "designationCode": "C", "categoryCode": "31", "address": "111 COMMERCIAL STREET         P.O. BOX 896", "city": "MIDDLETON", "province": "NS", "country": "CA", "postalCode": "B0S1P0", "twitter": "None", "instagram": "None", "facebook": "None", "youtube": "None", "website": "None", "summary": "None", "logo": "None", "latitude": 44.94448880737499, "longitude": -65.06947064795988}, "119040152RR0001": {"name": "MIDDLETON DISTRICT RINK COMMISSION", "designationCode": "C", "categoryCode": "56", "address": "P.O. BOX 823", "city": "MIDDLETON", "province": "NS", "country": "CA", "postalCode": "B0S1P0", "twitter": "None", "instagram": "None", "facebook": "None", "youtube": "None", "website": "None", "summary": "None", "logo": "None", "latitude": 45.01449600000005, "longitude": -65.06449099999993}, "131272650RR0001": {"name": "MIDDLETON HIGH SCHOOL BAND ASSOCIATION", "designationCode": "C", "categoryCode": "22", "address": "PO BOX 371", "city": "MIDDLETON", "province": "NS", "country": "CA", "postalCode": "B0S1P0", "twitter": "None", "instagram": "None", "facebook": "None", "youtube": "None", "website": "None", "summary": "None", "logo": "None", "latitude": 45.01449600000005, "longitude": -65.06449099999993}, "108156357RR0001": {"name": "MIDDLETON LOCAL CHURCH", "designationCode": "C", "categoryCode": "36", "address": "500 MAIN ST., PO BOX 222", "city": "MIDDLETON", "province": "NS", "country": "CA", "postalCode": "B0S1P0", "twitter": "None", "instagram": "None", "facebook": "None", "youtube": "None", "website": "None", "summary": "None", "logo": "None", "latitude": 44.949792965987605, "longitude": -65.05781294761479}, "119040186RR0001": {"name": "MIDDLETON PASTORAL CHARGE", "designationCode": "C", "categoryCode": "44", "address": "P.O. BOX 658", "city": "MIDDLETON", "province": "NS", "country": "CA", "postalCode": "B0S1P0", "twitter": "None", "instagram": "None", "facebook": "None", "youtube": "None", "website": "None", "summary": "None", "logo": "None", "latitude": 45.01449600000005, "longitude": -65.06449099999993}, "107669848RR0004": {"name": "MIDDLETON SEVENTH-DAY ADVENTIST CHURCH", "designationCode": "C", "categoryCode": "41", "address": "121 SALISBURY RD", "city": "MONCTON", "province": "NB", "country": "CA", "postalCode": "E1E1A6", "twitter": "None", "instagram": "None", "facebook": "None", "youtube": "None", "website": "None", "summary": "None", "logo": "None", "latitude": 46.0711640413756, "longitude": -64.82144086984238}, "119040210RR0001": {"name": "MIDDLETON UNION CHURCH", "designationCode": "C", "categoryCode": "44", "address": "R.R. #5", "city": "TATAMAGOUCHE", "province": "NS", "country": "CA", "postalCode": "B0K1V0", "twitter": "None", "instagram": "None", "facebook": "None", "youtube": "None", "website": "None", "summary": "None", "logo": "None", "latitude": 45.71288526208159, "longitude": -63.415849046616174}, "119040236RR0001": {"name": "MIDDLETON UNITED CHURCH", "designationCode": "C", "categoryCode": "44", "address": "PO BOX 39", "city": "MIDDLE MUSQUODOBOIT", "province": "NS", "country": "CA", "postalCode": "B0N1X0", "twitter": "None", "instagram": "None", "facebook": "None", "youtube": "None", "website": "None", "summary": "None", "logo": "None", "latitude": 45.04732000000007, "longitude": -63.14020999999997}, "899506133RR0001": {"name": "MIDDLEVILLE AGRICULTURAL SOCIETY", "designationCode": "C", "categoryCode": "56", "address": "4189 WOLF GROVE ROAD", "city": "LANARK", "province": "ON", "country": "CA", "postalCode": "K0G1K0", "twitter": "None", "instagram": "None", "facebook": "None", "youtube": "None", "website": "None", "summary": "None", "logo": "None", "latitude": 45.09844716705886, "longitude": -76.39483029575418}, "889800975RR0001": {"name": "MIDDLEVILLE AND DISTRICT MUSEUM", "designationCode": "C", "categoryCode": "50", "address": "P.O. BOX 6", "city": "LANARK", "province": "ON", "country": "CA", "postalCode": "K0G1K0", "twitter": "None", "instagram": "None", "facebook": "None", "youtube": "None", "website": "None", "summary": "None", "logo": "None", "latitude": 45.05259300000006, "longitude": -76.40778049999993}, "857005201RR0001": {"name": "MIDDLEVILLE GREENWOOD CEMETERY", "designationCode": "C", "categoryCode": "59", "address": "309 DARLING ROAD", "city": "LANARK", "province": "ON", "country": "CA", "postalCode": "K0G1K0", "twitter": "None", "instagram": "None", "facebook": "None", "youtube": "None", "website": "None", "summary": "None", "logo": "None", "latitude": 45.11257273222679, "longitude": -76.39206398988075}, "119040244RR0001": {"name": "MIDGELL AND MARIE CEMETERIES", "designationCode": "C", "categoryCode": "59", "address": "162 ANDERSON RD", "city": "ST. PETERS", "province": "PE", "country": "CA", "postalCode": "C0A2A0", "twitter": "None", "instagram": "None", "facebook": "None", "youtube": "None", "website": "None", "summary": "None", "logo": "None", "latitude": 46.40759817707312, "longitude": -62.603034971839044}, "824394126RR0001": {"name": "MIDGIC CEMETERY CO. LIMITED", "designationCode": "C", "categoryCode": "59", "address": "791 ROUTE 940", "city": "MIDGIC", "province": "NB", "country": "CA", "postalCode": "E4L1T3", "twitter": "None", "instagram": "None", "facebook": "None", "youtube": "None", "website": "None", "summary": "None", "logo": "None", "latitude": 45.974583562466705, "longitude": -64.29634867970498}, "828438333RR0001": {"name": "MIDGIC UNITED BAPTIST CHURCH INC.", "designationCode": "C", "categoryCode": "31", "address": "80 GOOSE LAKE RD", "city": "MIDGIC", "province": "NB", "country": "CA", "postalCode": "E4L1V4", "twitter": "None", "instagram": "None", "facebook": "None", "youtube": "None", "website": "None", "summary": "None", "logo": "None", "latitude": 45.96974434343727, "longitude": -64.28991177810583}, "107700957RR0001": {"name": "MIDHURST UNITED CHURCH", "designationCode": "C", "categoryCode": "44", "address": "91 DORAN RD", "city": "MIDHURST", "province": "ON", "country": "CA", "postalCode": "L9X0L5", "twitter": "None", "instagram": "None", "facebook": "None", "youtube": "None", "website": "None", "summary": "None", "logo": "None", "latitude": 44.45139844690857, "longitude": -79.7290858974368}, "131135592RR0001": {"name": "MIDLAKES ANGLICAN PARISH", "designationCode": "C", "categoryCode": "30", "address": "BOX 11", "city": "KENASTON", "province": "SK", "country": "CA", "postalCode": "S0G2N0", "twitter": "None", "instagram": "None", "facebook": "None", "youtube": "None", "website": "None", "summary": "None", "logo": "None", "latitude": 51.50007000000005, "longitude": -106.28451999999999}, "791741929RR0001": {"name": "MIDLAND BAPTIST CHURCH INC.", "designationCode": "C", "categoryCode": "31", "address": "4 UPPER MIDLAND RD", "city": "NORTON", "province": "NB", "country": "CA", "postalCode": "E5T1Z6", "twitter": "None", "instagram": "None", "facebook": "None", "youtube": "None", "website": "None", "summary": "None", "logo": "None", "latitude": 45.660762659183945, "longitude": -65.77664565603861}, "119040327RR0001": {"name": "MIDLAND CEMETERY ASSOCIATION LIMITED", "designationCode": "C", "categoryCode": "59", "address": "1122 ROUTE 850", "city": "KIERSTEADVILLE", "province": "NB", "country": "CA", "postalCode": "E5T3P4", "twitter": "None", "instagram": "None", "facebook": "None", "youtube": "None", "website": "None", "summary": "None", "logo": "None", "latitude": 45.62638208396968, "longitude": -65.8664138580799}, "141049874RR0001": {"name": "MIDLAND CHARITABLE TRUST", "designationCode": "B", "categoryCode": "39", "address": "3425 2ND AVE S", "city": "LETHBRIDGE", "province": "AB", "country": "CA", "postalCode": "T1J4V1", "twitter": "None", "instagram": "None", "facebook": "None", "youtube": "None", "website": "None", "summary": "None", "logo": "None", "latitude": 49.696839530439966, "longitude": -112.78914308381903}, "119288017RR0001": {"name": "MIDLAND PARK BAPTIST CHURCH", "designationCode": "C", "categoryCode": "31", "address": "5 TREEWOOD STREET", "city": "SCARBOROUGH", "province": "ON", "country": "CA", "postalCode": "M1P3J5", "twitter": "None", "instagram": "None", "facebook": "None", "youtube": "None", "website": "None", "summary": "None", "logo": "None", "latitude": 43.754081816521584, "longitude": -79.26356476366212}, "119040350RR0001": {"name": "MIDLAND PASTORAL CHARGE", "designationCode": "C", "categoryCode": "44", "address": "ST. PAUL'S UNITED CHURCH      308 KING STREET", "city": "MIDLAND", "province": "ON", "country": "CA", "postalCode": "L4R3M6", "twitter": "None", "instagram": "None", "facebook": "None", "youtube": "None", "website": "None", "summary": "None", "logo": "None", "latitude": 44.74907167778043, "longitude": -79.88477709118344}, "119040392RR0001": {"name": "MIDLAND PUBLIC LIBRARY BOARD", "designationCode": "C", "categoryCode": "50", "address": "320 KING ST", "city": "MIDLAND", "province": "ON", "country": "CA", "postalCode": "L4R3M6", "twitter": "None", "instagram": "None", "facebook": "None", "youtube": "None", "website": "None", "summary": "None", "logo": "None", "latitude": 44.7487514467443, "longitude": -79.88451023198667}, "131966640RR0001": {"name": "MIDNAPORE CONGREGATION OF JEHOVAH'S WITNESSES CALGARY ALBERTA", "designationCode": "C", "categoryCode": "61", "address": "270 MIDPARK WAY SE", "city": "CALGARY", "province": "AB", "country": "CA", "postalCode": "T2X1J6", "twitter": "None", "instagram": "None", "facebook": "None", "youtube": "None", "website": "None", "summary": "None", "logo": "None", "latitude": 50.911105065497175, "longitude": -114.06420055886072}, "897344321RR0001": {"name": "MIDNAPORE SCHOOL FUND - RAISING SOCIETY", "designationCode": "C", "categoryCode": "21", "address": "55 MIDPARK RISE SE", "city": "CALGARY", "province": "AB", "country": "CA", "postalCode": "T2X1L7", "twitter": "None", "instagram": "None", "facebook": "None", "youtube": "None", "website": "None", "summary": "None", "logo": "None", "latitude": 50.91551941326679, "longitude": -114.05592790631322}, "129475356RR0001": {"name": "MIDPARK CHRISTIAN ASSEMBLY", "designationCode": "C", "categoryCode": "36", "address": "260 MIDPARK BLVD SE", "city": "CALGARY", "province": "AB", "country": "CA", "postalCode": "T2X0A1", "twitter": "None", "instagram": "None", "facebook": "None", "youtube": "None", "website": "None", "summary": "None", "logo": "None", "latitude": 50.91110874271453, "longitude": -114.06199697570553}, "119040459RR0001": {"name": "MIDRASHA L'MORIM", "designationCode": "C", "categoryCode": "20", "address": "4600 BATHURST ST", "city": "NORTH YORK", "province": "ON", "country": "CA", "postalCode": "M2R3V2", "twitter": "None", "instagram": "None", "facebook": "None", "youtube": "None", "website": "None", "summary": "None", "logo": "None", "latitude": 43.764549213428396, "longitude": -79.4407190577642}, "871787156RR0001": {"name": "MIDSUN MUSIC PARENTS SOCIETY", "designationCode": "C", "categoryCode": "21", "address": "660 SUNMILLS DR SE", "city": "CALGARY", "province": "AB", "country": "CA", "postalCode": "T2X3R5", "twitter": "None", "instagram": "None", "facebook": "None", "youtube": "None", "website": "None", "summary": "None", "logo": "None", "latitude": 50.90201135636796, "longitude": -114.02990042812618}, "119288918RR1411": {"name": "MIDTOWN CONGREGATION OF JEHOVAH'S WITNESSES, OTTAWA ONTARIO", "designationCode": "C", "categoryCode": "61", "address": "1 - 18 RUE SAINT-DOMINIQUE", "city": "GATINEAU", "province": "QC", "country": "CA", "postalCode": "J9A1A2", "twitter": "None", "instagram": "None", "facebook": "None", "youtube": "None", "website": "None", "summary": "None", "logo": "None", "latitude": 45.4217154410237, "longitude": -75.75386213194663}, "119040483RR0001": {"name": "MIDVILLE AND DISTRICT FIRE DEPARTMENT", "designationCode": "C", "categoryCode": "59", "address": "2628 UPPER BRANCH RD", "city": "MIDVILLE BRANCH", "province": "NS", "country": "CA", "postalCode": "B4V4S6", "twitter": "None", "instagram": "None", "facebook": "None", "youtube": "None", "website": "None", "summary": "None", "logo": "None", "latitude": 44.436233955286426, "longitude": -64.65821007548749}, "132177486RR0001": {"name": "MIDWAY COMMUNITY CENTRE", "designationCode": "C", "categoryCode": "56", "address": "R.R. 1", "city": "CARSTAIRS", "province": "AB", "country": "CA", "postalCode": "T0M0N0", "twitter": "None", "instagram": "None", "facebook": "None", "youtube": "None", "website": "None", "summary": "None", "logo": "None", "latitude": 51.57611000000003, "longitude": -114.09373}, "119040509RR0001": {"name": "MIDWAY COMMUNITY CLUB", "designationCode": "C", "categoryCode": "56", "address": "PO BOX 249", "city": "MIDWAY", "province": "BC", "country": "CA", "postalCode": "V0H1M0", "twitter": "None", "instagram": "None", "facebook": "None", "youtube": "None", "website": "None", "summary": "None", "logo": "None", "latitude": 49.10113921679708, "longitude": -118.67616064840723}, "107701443RR0001": {"name": "MIDWEST BAPTIST ASSOCIATION", "designationCode": "C", "categoryCode": "49", "address": "100 - 15023 123 AVE NW", "city": "EDMONTON", "province": "AB", "country": "CA", "postalCode": "T5V1J7", "twitter": "None", "instagram": "None", "facebook": "None", "youtube": "None", "website": "None", "summary": "None", "logo": "None", "latitude": 53.57675733163996, "longitude": -113.58440290419165}, "107632291RR0001": {"name": "MIDWEST FAMILY CONNECTIONS INC.", "designationCode": "C", "categoryCode": "11", "address": "200 4910 50 ST                CO-OP PLAZA", "city": "LLOYDMINSTER", "province": "SK", "country": "CA", "postalCode": "S9V0Y5", "twitter": "None", "instagram": "None", "facebook": "None", "youtube": "None", "website": "None", "summary": "None", "logo": "None", "latitude": 53.283453525967914, "longitude": -110.0041605}, "875022550RR0001": {"name": "MIDWEST FOOD RESOURCE PROJECT, INC.", "designationCode": "C", "categoryCode": "03", "address": "10202 11TH AVE", "city": "NORTH BATTLEFORD", "province": "SK", "country": "CA", "postalCode": "S9A2S5", "twitter": "None", "instagram": "None", "facebook": "None", "youtube": "None", "website": "None", "summary": "None", "logo": "None", "latitude": 52.77331359829031, "longitude": -108.2959747576762}, "869890392RR0001": {"name": "MIDWEST VICTIM SERVICES INC.", "designationCode": "C", "categoryCode": "09", "address": "5106 44TH ST", "city": "LLOYDMINSTER", "province": "AB", "country": "CA", "postalCode": "T9V0W2", "twitter": "None", "instagram": "None", "facebook": "None", "youtube": "None", "website": "None", "summary": "None", "logo": "None", "latitude": 53.27811550984514, "longitude": -110.00804950984515}, "867095275RR0001": {"name": "MIDWESTERN ONTARIO ROTARY MUSIC FESTIVAL", "designationCode": "C", "categoryCode": "22", "address": "203-125 WILLIAM ST. N SS5", "city": "WALKERTON", "province": "ON", "country": "CA", "postalCode": "N0G2V0", "twitter": "None", "instagram": "None", "facebook": "None", "youtube": "None", "website": "None", "summary": "None", "logo": "None", "latitude": 44.13459604423611, "longitude": -81.14352666440142}, "119040533RR0001": {"name": "MIDWESTERN RAIL ASSOCIATION INC.", "designationCode": "C", "categoryCode": "50", "address": "VIA RAIL STATION-BOX 48       123 MAIN STREET", "city": "WINNIPEG", "province": "MB", "country": "CA", "postalCode": "R3C1A3", "twitter": "None", "instagram": "None", "facebook": "None", "youtube": "None", "website": "None", "summary": "None", "logo": "None", "latitude": 49.888832269230704, "longitude": -97.13476858543514}, "892429960RR0001": {"name": "MIDWINTER HERITAGE ASSOCIATION INC.", "designationCode": "C", "categoryCode": "52", "address": "BOX 73", "city": "EAST BRAINTREE", "province": "MB", "country": "CA", "postalCode": "R0E0L0", "twitter": "None", "instagram": "None", "facebook": "None", "youtube": "None", "website": "None", "summary": "None", "logo": "None", "latitude": 49.62913000000003, "longitude": -95.62013999999994}, "119040558RR0001": {"name": "MIFAL KLITA", "designationCode": "C", "categoryCode": "21", "address": "201 BRIDGELAND AVE", "city": "NORTH YORK", "province": "ON", "country": "CA", "postalCode": "M6A1Y7", "twitter": "None", "instagram": "None", "facebook": "None", "youtube": "None", "website": "None", "summary": "None", "logo": "None", "latitude": 43.724679896445465, "longitude": -79.46720435899367}, "897915823RR0001": {"name": "MIGHTY FORTRESS CHURCH OF GOD", "designationCode": "C", "categoryCode": "39", "address": "12 COMMERCIAL ST., EXTEN.", "city": "LOUISBOURG", "province": "NS", "country": "CA", "postalCode": "B1C2J6", "twitter": "None", "instagram": "None", "facebook": "None", "youtube": "None", "website": "None", "summary": "None", "logo": "None", "latitude": 45.918481315857754, "longitude": -59.9727223960701}, "141054619RR0001": {"name": "MIGHTY FORTRESS EVANGELICAL LUTHERAN CHURCH", "designationCode": "C", "categoryCode": "32", "address": "51 ALFORD AVENUE", "city": "RED DEER", "province": "AB", "country": "CA", "postalCode": "T4R1G9", "twitter": "None", "instagram": "None", "facebook": "None", "youtube": "None", "website": "None", "summary": "None", "logo": "None", "latitude": 52.251552000000004, "longitude": -113.78518558237673}, "868045071RR0001": {"name": "MIGHTY MEN OF VALOUR INCORPORATED", "designationCode": "C", "categoryCode": "49", "address": "P.O.BOX 35047                 RPO HENDERSON", "city": "WINNIPEG", "province": "MB", "country": "CA", "postalCode": "R2K4J9", "twitter": "None", "instagram": "None", "facebook": "None", "youtube": "None", "website": "None", "summary": "None", "logo": "None", "latitude": 49.91757891330441, "longitude": -97.11332657224632}, "867567315RR0001": {"name": "MIGHTY OAKS FOUNDATION", "designationCode": "A", "categoryCode": "03", "address": "1250-1500 WEST GEORGIA ST     BOX 62", "city": "VANCOUVER", "province": "BC", "country": "CA", "postalCode": "V6G2Z6", "twitter": "None", "instagram": "None", "facebook": "None", "youtube": "None", "website": "None", "summary": "None", "logo": "None"}, "873216246RR0001": {"name": "MIGHTY RUSHING WIND MINISTRIES INC.", "designationCode": "C", "categoryCode": "39", "address": "239 3RD AVENUE EAST PO BOX 820", "city": "BIGGAR", "province": "SK", "country": "CA", "postalCode": "S0K0M0", "twitter": "None", "instagram": "None", "facebook": "None", "youtube": "None", "website": "None", "summary": "None", "logo": "None", "latitude": 52.05511443862545, "longitude": -107.98189688076236}, "859681520RR0001": {"name": "MIGRANT WORKER COMMUNITY PROGRAM", "designationCode": "C", "categoryCode": "09", "address": "215 TALBOT ST E", "city": "LEAMINGTON", "province": "ON", "country": "CA", "postalCode": "N8H3X5", "twitter": "None", "instagram": "None", "facebook": "None", "youtube": "None", "website": "None", "summary": "None", "logo": "None", "latitude": 42.05658804958636, "longitude": -82.58568840703646}, "890634389RR0001": {"name": "MIGRATION COMMUNITY HALL KINGSVILLE", "designationCode": "A", "categoryCode": "56", "address": "50 MAIN ST EAST", "city": "KINGSVILLE", "province": "ON", "country": "CA", "postalCode": "N9Y1A2", "twitter": "None", "instagram": "None", "facebook": "None", "youtube": "None", "website": "None", "summary": "None", "logo": "None", "latitude": 42.03797343161731, "longitude": -82.73799216313733}, "890404965RR0001": {"name": "MIISTAKIS INSTITUTE FOR THE ROCKIES INC.", "designationCode": "C", "categoryCode": "23", "address": "RM U271 MOUNT ROYAL UNIVERSITY4825 MOUNT ROYAL GATE SW", "city": "CALGARY", "province": "AB", "country": "CA", "postalCode": "T3E6K6", "twitter": "None", "instagram": "None", "facebook": "None", "youtube": "None", "website": "None", "summary": "None", "logo": "None", "latitude": 51.00869710409782, "longitude": -114.12531199273205}, "856195367RR0001": {"name": "MIKEY'S PLACE FOR AUTISM", "designationCode": "C", "categoryCode": "11", "address": "527 HUGEL AVE", "city": "MIDLAND", "province": "ON", "country": "CA", "postalCode": "L4R1V8", "twitter": "None", "instagram": "None", "facebook": "None", "youtube": "None", "website": "None", "summary": "None", "logo": "None", "latitude": 44.74974409755018, "longitude": -79.88593944599074}, "827911819RR0001": {"name": "MIKINDURI CHILDREN OF HOPE", "designationCode": "C", "categoryCode": "09", "address": "25 WATERVIEW DRIVE", "city": "CORNWALL", "province": "PE", "country": "CA", "postalCode": "C0A1H0", "twitter": "None", "instagram": "None", "facebook": "None", "youtube": "None", "website": "None", "summary": "None", "logo": "None", "latitude": 46.212907516504195, "longitude": -63.19118111616358}, "119040590RR0001": {"name": "MIKVAH TAHARATH HAMISHPACHA", "designationCode": "C", "categoryCode": "49", "address": "5853 RUE JEANNE-MANCE", "city": "MONTREAL", "province": "QC", "country": "CA", "postalCode": "H2V4K9", "twitter": "None", "instagram": "None", "facebook": "None", "youtube": "None", "website": "None", "summary": "None", "logo": "None", "latitude": 45.52482819929014, "longitude": -73.60586210101572}, "890790975RR0001": {"name": "MIKVEH EDUCATION INTERNATIONAL ORGANIZATION (ONTARIO)", "designationCode": "C", "categoryCode": "49", "address": "150 DELHI AVE", "city": "DOWNSVIEW", "province": "ON", "country": "CA", "postalCode": "M3H1A6", "twitter": "None", "instagram": "None", "facebook": "None", "youtube": "None", "website": "None", "summary": "None", "logo": "None", "latitude": 43.740624822667066, "longitude": -79.42749173648211}, "119040608RR0001": {"name": "MIKVEH ISRAEL OF OTTAWA", "designationCode": "C", "categoryCode": "49", "address": "19-232 CLARE ST.", "city": "OTTAWA", "province": "ON", "country": "CA", "postalCode": "K1Z7C9", "twitter": "None", "instagram": "None", "facebook": "None", "youtube": "None", "website": "None", "summary": "None", "logo": "None", "latitude": 45.38833015064385, "longitude": -75.7459416974438}, "846984961RR0001": {"name": "MILAL CHURCH", "designationCode": "C", "categoryCode": "39", "address": "405 GORDON BAKER RD.", "city": "TORONTO", "province": "ON", "country": "CA", "postalCode": "M2H2S6", "twitter": "None", "instagram": "None", "facebook": "None", "youtube": "None", "website": "None", "summary": "None", "logo": "None", "latitude": 43.80749485457894, "longitude": -79.34553741456577}, "119040624RR0001": {"name": "MILAN & MAUREEN ILICH FOUNDATION", "designationCode": "B", "categoryCode": "03", "address": "5591 NO. 3 ROAD", "city": "RICHMOND", "province": "BC", "country": "CA", "postalCode": "V6X2C7", "twitter": "None", "instagram": "None", "facebook": "None", "youtube": "None", "website": "None", "summary": "None", "logo": "None", "latitude": 49.17462860401614, "longitude": -123.13689360593791}, "119040640RR0001": {"name": "MILDEN ALLIANCE CHURCH", "designationCode": "C", "categoryCode": "39", "address": "BOX 159", "city": "MILDEN", "province": "SK", "country": "CA", "postalCode": "S0L2L0", "twitter": "None", "instagram": "None", "facebook": "None", "youtube": "None", "website": "None", "summary": "None", "logo": "None", "latitude": 51.53024013692807, "longitude": -107.24442881127682}, "119040657RR0001": {"name": "MILDEN AND DISTRICT COMBINED APPEAL DONORS CHOICE", "designationCode": "A", "categoryCode": "05", "address": "BOX 266", "city": "MILDEN", "province": "SK", "country": "CA", "postalCode": "S0L2L0", "twitter": "None", "instagram": "None", "facebook": "None", "youtube": "None", "website": "None", "summary": "None", "logo": "None", "latitude": 51.53024013692807, "longitude": -107.24442881127682}, "119040681RR0001": {"name": "MILDEN UNITED CHURCH", "designationCode": "C", "categoryCode": "44", "address": "BOX 277", "city": "MILDEN", "province": "SK", "country": "CA", "postalCode": "S0L2L0", "twitter": "None", "instagram": "None", "facebook": "None", "youtube": "None", "website": "None", "summary": "None", "logo": "None", "latitude": 51.53024013692807, "longitude": -107.24442881127682}, "119040699RR0001": {"name": "MILDMAY - CARRICK AGRICULTURAL SOCIETY", "designationCode": "C", "categoryCode": "56", "address": "RR3", "city": "MILDMAY", "province": "ON", "country": "CA", "postalCode": "N0G2J0", "twitter": "None", "instagram": "None", "facebook": "None", "youtube": "None", "website": "None", "summary": "None", "logo": "None", "latitude": 44.06235438607068, "longitude": -81.1570757037305}, "885873497RR0001": {"name": "MILDRED AND JEREMIAH COUGHLAN SCHOLARSHIP FUND", "designationCode": "B", "categoryCode": "23", "address": "2700 AUDLEY RD NORTH", "city": "AJAX", "province": "ON", "country": "CA", "postalCode": "L1Z1T7", "twitter": "None", "instagram": "None", "facebook": "None", "youtube": "None", "website": "None", "summary": "None", "logo": "None", "latitude": 43.913532552311196, "longitude": -79.01566729894951}, "872133715RR0001": {"name": "MILDRED IONA DOBBS ESTATE", "designationCode": "B", "categoryCode": "05", "address": "PO BOX 10085                  LCD PACIFIC CENTRE", "city": "VANCOUVER", "province": "BC", "country": "CA", "postalCode": "V7Y1B6", "twitter": "None", "instagram": "None", "facebook": "None", "youtube": "None", "website": "None", "summary": "None", "logo": "None", "latitude": 49.28299000000004, "longitude": -123.11890999999997}, "120549795RR0001": {"name": "MILE ZERO DANCE SOCIETY", "designationCode": "C", "categoryCode": "22", "address": "10816 - 95 ST", "city": "EDMONTON", "province": "AB", "country": "CA", "postalCode": "T5H2E3", "twitter": "None", "instagram": "None", "facebook": "None", "youtube": "None", "website": "None", "summary": "None", "logo": "None", "latitude": 53.555117238963625, "longitude": -113.48431587457425}, "890769185RR0001": {"name": "MILES CANYON HISTORIC RAILWAY SOCIETY", "designationCode": "C", "categoryCode": "52", "address": "1127 FRONT ST", "city": "WHITEHORSE", "province": "YT", "country": "CA", "postalCode": "Y1A0G5", "twitter": "None", "instagram": "None", "facebook": "None", "youtube": "None", "website": "None", "summary": "None", "logo": "None", "latitude": 60.72125747878602, "longitude": -135.05111344187685}, "119040723RR0001": {"name": "MILES MACDONELL COLLEGIATE FACULTY ASSOCIATION", "designationCode": "C", "categoryCode": "21", "address": "757 ROCH STREET", "city": "WINNIPEG", "province": "MB", "country": "CA", "postalCode": "R2K2R1", "twitter": "None", "instagram": "None", "facebook": "None", "youtube": "None", "website": "None", "summary": "None", "logo": "None", "latitude": 49.924308239223414, "longitude": -97.09629491222852}, "140344243RR0001": {"name": "MILES NADAL JEWISH COMMUNITY CENTRE", "designationCode": "C", "categoryCode": "59", "address": "750 SPADINA AVE", "city": "TORONTO", "province": "ON", "country": "CA", "postalCode": "M5S2T9", "twitter": "None", "instagram": "None", "facebook": "None", "youtube": "None", "website": "None", "summary": "None", "logo": "None", "latitude": 43.666290388279826, "longitude": -79.40368890899627}, "107820284RR0001": {"name": "MILESTONE ALLIANCE CHURCH", "designationCode": "C", "categoryCode": "39", "address": "BOX 550", "city": "MILESTONE", "province": "SK", "country": "CA", "postalCode": "S0G3L0", "twitter": "None", "instagram": "None", "facebook": "None", "youtube": "None", "website": "None", "summary": "None", "logo": "None", "latitude": 49.72900593761053, "longitude": -104.01375418555948}, "890572795RR0001": {"name": "MILESTONE DONORS CHOICE COMBINED APPEAL", "designationCode": "A", "categoryCode": "05", "address": "P.O. BOX 489", "city": "MILESTONE", "province": "SK", "country": "CA", "postalCode": "S0G3L0", "twitter": "None", "instagram": "None", "facebook": "None", "youtube": "None", "website": "None", "summary": "None", "logo": "None", "latitude": 49.72900593761053, "longitude": -104.01375418555948}, "131572927RR0001": {"name": "MILESTONE UNITED CHURCH", "designationCode": "C", "categoryCode": "44", "address": "BOX 25", "city": "MILESTONE", "province": "SK", "country": "CA", "postalCode": "S0G3L0", "twitter": "None", "instagram": "None", "facebook": "None", "youtube": "None", "website": "None", "summary": "None", "logo": "None", "latitude": 49.72900593761053, "longitude": -104.01375418555948}, "896876554RR0001": {"name": "MILESTONES CHILDREN'S CENTRE", "designationCode": "C", "categoryCode": "01", "address": "5 SHAW VALLEY DR.", "city": "ST. THOMAS", "province": "ON", "country": "CA", "postalCode": "N5R6J9", "twitter": "None", "instagram": "None", "facebook": "None", "youtube": "None", "website": "None", "summary": "None", "logo": "None", "latitude": 42.759344610206654, "longitude": -81.19573785407518}, "119040780RR0001": {"name": "MILFORD AND AREA COMMUNITY ASSOCIATION", "designationCode": "C", "categoryCode": "56", "address": "RR#4 WEST SPRING HILL", "city": "ANNAPOLIS CO", "province": "NS", "country": "CA", "postalCode": "B0S1A0", "twitter": "None", "instagram": "None", "facebook": "None", "youtube": "None", "website": "None", "summary": "None", "logo": "None", "latitude": 44.73691800000006, "longitude": -65.49796699999993}, "141049890RR0001": {"name": "MILFORD CHARITABLE TRUST", "designationCode": "B", "categoryCode": "39", "address": "3425 2 AVE S", "city": "LETHBRIDGE", "province": "AB", "country": "CA", "postalCode": "T1J4V1", "twitter": "None", "instagram": "None", "facebook": "None", "youtube": "None", "website": "None", "summary": "None", "logo": "None", "latitude": 49.696839530439966, "longitude": -112.78914308381903}, "119040822RR0001": {"name": "MILFORD LANTZ UNITED CHURCH", "designationCode": "C", "categoryCode": "44", "address": "2134 HIGHWAY 2", "city": "MILFORD", "province": "NS", "country": "CA", "postalCode": "B0N1Y0", "twitter": "None", "instagram": "None", "facebook": "None", "youtube": "None", "website": "None", "summary": "None", "logo": "None", "latitude": 45.04355574639999, "longitude": -63.4382012678554}, "888298791RR0001": {"name": "MILFORD RECREATION ASSOCIATION", "designationCode": "C", "categoryCode": "56", "address": "2288 HWY 2                    RR 1", "city": "MILFORD STATION", "province": "NS", "country": "CA", "postalCode": "B0N1Y0", "twitter": "None", "instagram": "None", "facebook": "None", "youtube": "None", "website": "None", "summary": "None", "logo": "None", "latitude": 45.058004852334356, "longitude": -63.427784871617014}, "131294951RR0001": {"name": "MILIEU DE REINSERTION SOCIALE MI-RE-SOL INC", "designationCode": "C", "categoryCode": "01", "address": "1525 RUE L'ANNONCIATION NORD", "city": "RIVIERE-ROUGE", "province": "QC", "country": "CA", "postalCode": "J0T1T0", "twitter": "None", "instagram": "None", "facebook": "None", "youtube": "None", "website": "None", "summary": "None", "logo": "None", "latitude": 46.42171575171709, "longitude": -74.8824755062986}, "894297076RR0001": {"name": "MILIEU EDUCATIF LA SOURCE", "designationCode": "C", "categoryCode": "09", "address": "75,SIR-GEORGES-ETIENNE-CARTIER", "city": "MONTREAL", "province": "QC", "country": "CA", "postalCode": "H4C3A1", "twitter": "None", "instagram": "None", "facebook": "None", "youtube": "None", "website": "None", "summary": "None", "logo": "None", "latitude": 45.47273916322333, "longitude": -73.58398005326347}, "107702250RR0001": {"name": "MILITARY CHRISTIAN FELLOWSHIP OF CANADA", "designationCode": "C", "categoryCode": "47", "address": "1186 BEAUJOLAIS CRES", "city": "ORLEANS", "province": "ON", "country": "CA", "postalCode": "K1C2H2", "twitter": "None", "instagram": "None", "facebook": "None", "youtube": "None", "website": "None", "summary": "None", "logo": "None", "latitude": 45.46902742492355, "longitude": -75.55076965849146}, "133179580RR0001": {"name": "MILITARY ENGINEERING INSTITUTE OF CANADA/INSTITUT CANADIEN DU GENIE MILITAIRE", "designationCode": "C", "categoryCode": "21", "address": "663 PROMENADE DES ERABLES", "city": "CASSELMAN", "province": "ON", "country": "CA", "postalCode": "K0A1M0", "twitter": "None", "instagram": "None", "facebook": "None", "youtube": "None", "website": "None", "summary": "None", "logo": "None", "latitude": 45.30708583156863, "longitude": -75.09083214434135}, "875451924RR0001": {"name": "MILITARY ESTABLISHMENT OF UPPER CANADA", "designationCode": "C", "categoryCode": "50", "address": "23 BYRNES CRESCENT", "city": "PENETANGUISHENE", "province": "ON", "country": "CA", "postalCode": "L9M1W4", "twitter": "None", "instagram": "None", "facebook": "None", "youtube": "None", "website": "None", "summary": "None", "logo": "None", "latitude": 44.792278513994034, "longitude": -79.92445049999999}, "889417036RR0001": {"name": "MILITARY FAMILY RESOURCE CENTRE (LONDON) INC", "designationCode": "C", "categoryCode": "09", "address": "701 OXFORD ST E", "city": "LONDON", "province": "ON", "country": "CA", "postalCode": "N5Y4T7", "twitter": "None", "instagram": "None", "facebook": "None", "youtube": "None", "website": "None", "summary": "None", "logo": "None", "latitude": 43.00168312900379, "longitude": -81.23191372589321}, "897148664RR0001": {"name": "MILITARY FAMILY RESOURCE CENTRE MEAFORD", "designationCode": "C", "categoryCode": "09", "address": "R.R. #1", "city": "MEAFORD", "province": "ON", "country": "CA", "postalCode": "N4L0A1", "twitter": "None", "instagram": "None", "facebook": "None", "youtube": "None", "website": "None", "summary": "None", "logo": "None", "latitude": 44.58701400000005, "longitude": -80.60319349999993}, "136890324RR0001": {"name": "MILITARY FAMILY RESOURCE CENTRE OF THE NATIONAL CAPITAL REGION/CENTRE DE RESSOURCES POUR LES FAMILLES MILITAIRES DE LA REGION DE LA CAPITALE NATIONALE", "designationCode": "C", "categoryCode": "09", "address": "330 CROIL PRIVATE             BUILDING 471", "city": "GLOUCESTER", "province": "ON", "country": "CA", "postalCode": "K1V1J1", "twitter": "None", "instagram": "None", "facebook": "None", "youtube": "None", "website": "None", "summary": "None", "logo": "None", "latitude": 45.33124445067045, "longitude": -75.67395280998585}, "119040855RR0001": {"name": "MILITARY HISTORY SOCIETY OF MANITOBA INCORPORATED", "designationCode": "C", "categoryCode": "50", "address": "134 MARION STREET", "city": "WINNIPEG", "province": "MB", "country": "CA", "postalCode": "R2H0T4", "twitter": "None", "instagram": "None", "facebook": "None", "youtube": "None", "website": "None", "summary": "None", "logo": "None", "latitude": 49.88142054674262, "longitude": -97.12258294310116}, "134949635RR0001": {"name": "MILITARY POLICE FUND FOR BLIND CHILDREN FOND DE LA POLICE MILITAIRE POUR ENFANTS AVEUGLES", "designationCode": "A", "categoryCode": "23", "address": "2200 WALKLEY ROAD", "city": "OTTAWA", "province": "ON", "country": "CA", "postalCode": "K1A0K2", "twitter": "None", "instagram": "None", "facebook": "None", "youtube": "None", "website": "None", "summary": "None", "logo": "None", "latitude": 45.38698258084753, "longitude": -75.62212983550727}, "119040863RR0001": {"name": "MILK RIVER AND DISTRICT AGRICULTURAL SOCIETY", "designationCode": "C", "categoryCode": "56", "address": "PO BOX 577", "city": "MILK RIVER", "province": "AB", "country": "CA", "postalCode": "T0K1M0", "twitter": "None", "instagram": "None", "facebook": "None", "youtube": "None", "website": "None", "summary": "None", "logo": "None", "latitude": 49.14831000000004, "longitude": -112.08642999999995}, "119040871RR0001": {"name": "MILK RIVER AND DISTRICT SENIOR CITIZENS SOCIETY", "designationCode": "C", "categoryCode": "09", "address": "BOX 505", "city": "MILK RIVER", "province": "AB", "country": "CA", "postalCode": "T0K1M0", "twitter": "None", "instagram": "None", "facebook": "None", "youtube": "None", "website": "None", "summary": "None", "logo": "None", "latitude": 49.14831000000004, "longitude": -112.08642999999995}, "119040889RR0001": {"name": "MILK RIVER MUNICIPAL LIBRARY", "designationCode": "C", "categoryCode": "50", "address": "PO BOX 579", "city": "MILK RIVER", "province": "AB", "country": "CA", "postalCode": "T0K1M0", "twitter": "None", "instagram": "None", "facebook": "None", "youtube": "None", "website": "None", "summary": "None", "logo": "None", "latitude": 49.14831000000004, "longitude": -112.08642999999995}, "890953946RR0001": {"name": "MILL BAY MARINE RESCUE SOCIETY", "designationCode": "C", "categoryCode": "59", "address": "PO BOX 62", "city": "MILL BAY", "province": "BC", "country": "CA", "postalCode": "V0R2P1", "twitter": "None", "instagram": "None", "facebook": "None", "youtube": "None", "website": "None", "summary": "None", "logo": "None", "latitude": 48.64669177718904, "longitude": -123.55275863069761}, "119040962RR0001": {"name": "MILL BROOK CEMETERY COMPANY", "designationCode": "C", "categoryCode": "59", "address": "WILSON HAYTER                 RR#2", "city": "WESTVILLE", "province": "NS", "country": "CA", "postalCode": "B0K2A0", "twitter": "None", "instagram": "None", "facebook": "None", "youtube": "None", "website": "None", "summary": "None", "logo": "None", "latitude": 45.769427752740235, "longitude": -62.88329540956659}, "106789365RR0001": {"name": "MILL COVE CHURCH OF GOD", "designationCode": "C", "categoryCode": "36", "address": "13 FERRIS ROAD", "city": "MILL COVE", "province": "NB", "country": "CA", "postalCode": "E4C3C7", "twitter": "None", "instagram": "None", "facebook": "None", "youtube": "None", "website": "None", "summary": "None", "logo": "None", "latitude": 45.87781983955712, "longitude": -66.00666841146658}, "119040988RR0001": {"name": "MILL COVE NURSING HOME INC.", "designationCode": "C", "categoryCode": "10", "address": "12 LAKEVIEW LANE", "city": "MILL COVE", "province": "NB", "country": "CA", "postalCode": "E4C3E3", "twitter": "None", "instagram": "None", "facebook": "None", "youtube": "None", "website": "None", "summary": "None", "logo": "None", "latitude": 45.879666940228255, "longitude": -66.0127873524283}, "832459135RR0001": {"name": "MILL CREEK BAPTIST CAMP LTD.", "designationCode": "C", "categoryCode": "56", "address": "PO BOX 132", "city": "PINCHER CREEK", "province": "AB", "country": "CA", "postalCode": "T0K1W0", "twitter": "None", "instagram": "None", "facebook": "None", "youtube": "None", "website": "None", "summary": "None", "logo": "None"}, "851695759RR0001": {"name": "MILL CREEK CARE CENTRE", "designationCode": "C", "categoryCode": "10", "address": "274 HURST DRIVE", "city": "BARRIE", "province": "ON", "country": "CA", "postalCode": "L4N0Z3", "twitter": "None", "instagram": "None", "facebook": "None", "youtube": "None", "website": "None", "summary": "None", "logo": "None", "latitude": 44.36873443164597, "longitude": -79.65645845371967}, "132880444RR0001": {"name": "MILL CREEK CHRISTIAN ASSEMBLY", "designationCode": "C", "categoryCode": "36", "address": "8928 83 AVE", "city": "EDMONTON", "province": "AB", "country": "CA", "postalCode": "T6C1B5", "twitter": "None", "instagram": "None", "facebook": "None", "youtube": "None", "website": "None", "summary": "None", "logo": "None", "latitude": 53.51903652986305, "longitude": -113.46584408381904}, "860236199RR0001": {"name": "MILL CREEK COLLIERY BAND SOCIETY", "designationCode": "C", "categoryCode": "22", "address": "10403 18 AVE NW", "city": "EDMONTON", "province": "AB", "country": "CA", "postalCode": "T6J5J3", "twitter": "None", "instagram": "None", "facebook": "None", "youtube": "None", "website": "None", "summary": "None", "logo": "None", "latitude": 53.447065597813065, "longitude": -113.49530850262573}, "133037978RR0001": {"name": "MILL VIEW ALLIANCE CHURCH OF THE CHRISTIAN AND MISSIONARY ALLIANCE IN CANADA", "designationCode": "C", "categoryCode": "39", "address": "1972 68 STREET NW", "city": "EDMONTON", "province": "AB", "country": "CA", "postalCode": "T6K2J4", "twitter": "None", "instagram": "None", "facebook": "None", "youtube": "None", "website": "None", "summary": "None", "logo": "None", "latitude": 53.450689432136905, "longitude": -113.43796552389044}, "129857983RR0001": {"name": "MILL WOODS MORAVIAN CHURCH", "designationCode": "C", "categoryCode": "39", "address": "2304-38 STREET", "city": "EDMONTON", "province": "AB", "country": "CA", "postalCode": "T6L4K9", "twitter": "None", "instagram": "None", "facebook": "None", "youtube": "None", "website": "None", "summary": "None", "logo": "None", "latitude": 53.45473869830919, "longitude": -113.3990652277682}, "119041234RR0001": {"name": "MILL WOODS SOCIETY FOR COMMUNITY LIVING", "designationCode": "C", "categoryCode": "09", "address": "1911 - 42 STREET", "city": "EDMONTON", "province": "AB", "country": "CA", "postalCode": "T6L5P8", "twitter": "None", "instagram": "None", "facebook": "None", "youtube": "None", "website": "None", "summary": "None", "logo": "None", "latitude": 53.451099, "longitude": -113.4060463623119}}