{"132587445RR0001": {"name": "THE EVERGREEN TAOIST CHURCH OF CANADA", "designationCode": "C", "categoryCode": "49", "address": "202-5678 GRANVILLE ST", "city": "VANCOUVER", "province": "BC", "country": "CA", "postalCode": "V6M3C5", "twitter": "None", "instagram": "None", "facebook": "None", "youtube": "None", "website": "None", "summary": "None", "logo": "None", "latitude": 49.23464207216227, "longitude": -123.13957203825984}, "107356008RR0001": {"name": "THE EVERGREENS FOUNDATION", "designationCode": "C", "categoryCode": "01", "address": "102 GOVERNMENT RD", "city": "HINTON", "province": "AB", "country": "CA", "postalCode": "T7V2A6", "twitter": "None", "instagram": "None", "facebook": "None", "youtube": "None", "website": "None", "summary": "None", "logo": "None", "latitude": 53.42438339700934, "longitude": -117.5469486382471}, "119232056RR0001": {"name": "THE EXTON CHARITABLE FOUNDATION", "designationCode": "B", "categoryCode": "03", "address": "509 2500 BATHURST STREET", "city": "TORONTO", "province": "ON", "country": "CA", "postalCode": "M6B2Y8", "twitter": "None", "instagram": "None", "facebook": "None", "youtube": "None", "website": "None", "summary": "None", "logo": "None", "latitude": 43.70583134831788, "longitude": -79.42655712326138}, "896482528RR0001": {"name": "THE EXTRA MILE MINISTRIES", "designationCode": "C", "categoryCode": "39", "address": "110 RIDGEWOOD ROAD", "city": "SCARBOROUGH", "province": "ON", "country": "CA", "postalCode": "M1C2X2", "twitter": "None", "instagram": "None", "facebook": "None", "youtube": "None", "website": "None", "summary": "None", "logo": "None", "latitude": 43.786157481245446, "longitude": -79.12646002553522}, "892213414RR0001": {"name": "THE EXTREME OUTREACH SOCIETY", "designationCode": "C", "categoryCode": "57", "address": "102 - 284 HELMCKEN RD", "city": "VICTORIA", "province": "BC", "country": "CA", "postalCode": "V9B1T2", "twitter": "None", "instagram": "None", "facebook": "None", "youtube": "None", "website": "None", "summary": "None", "logo": "None", "latitude": 48.4557040382885, "longitude": -123.44136115303844}, "128264173RR0001": {"name": "THE EXULTATE CHAMBER SINGERS", "designationCode": "C", "categoryCode": "22", "address": "383 HURON STREET", "city": "TORONTO", "province": "ON", "country": "CA", "postalCode": "M5S2G5", "twitter": "None", "instagram": "None", "facebook": "None", "youtube": "None", "website": "None", "summary": "None", "logo": "None"}, "891355273RR0001": {"name": "THE EYE FOUNDATION OF CANADA", "designationCode": "C", "categoryCode": "09", "address": "316-2115 FINCH AVENUE WEST", "city": "DOWNSVIEW", "province": "ON", "country": "CA", "postalCode": "M3N2V6", "twitter": "None", "instagram": "None", "facebook": "None", "youtube": "None", "website": "None", "summary": "None", "logo": "None", "latitude": 43.75521891303657, "longitude": -79.52688453540297}, "890812548RR0001": {"name": "THE EYFORD FOUNDATION", "designationCode": "B", "categoryCode": "03", "address": "215 - 2118 15TH AVE W", "city": "VANCOUVER", "province": "BC", "country": "CA", "postalCode": "V6K2Y5", "twitter": "None", "instagram": "None", "facebook": "None", "youtube": "None", "website": "None", "summary": "None", "logo": "None", "latitude": 49.25814036854674, "longitude": -123.15353663558179}, "838338259RR0001": {"name": "THE EZEKIEL'S PILLAR OF TRUTH OUTREACH MINISTRY", "designationCode": "C", "categoryCode": "39", "address": "25 OPERA PLACE,", "city": "WOODBRIDGE", "province": "ON", "country": "CA", "postalCode": "L4L8Y8", "twitter": "None", "instagram": "None", "facebook": "None", "youtube": "None", "website": "None", "summary": "None", "logo": "None", "latitude": 43.790596605891814, "longitude": -79.55640270604214}, "893096164RR0001": {"name": "THE F.G.T. PICKARD MEMORIAL SCHOLARSHIP FUND", "designationCode": "B", "categoryCode": "23", "address": "108 JOHN ST", "city": "BRACEBRIDGE", "province": "ON", "country": "CA", "postalCode": "P1L1R8", "twitter": "None", "instagram": "None", "facebook": "None", "youtube": "None", "website": "None", "summary": "None", "logo": "None", "latitude": 45.04225001359, "longitude": -79.31691110231377}, "863408936RR0001": {"name": "THE F.P.W. WAR MEMORIAL TRUST FUND", "designationCode": "C", "categoryCode": "59", "address": "8422 HWY 209                  RR 3", "city": "PARRSBORO", "province": "NS", "country": "CA", "postalCode": "B0M1S0", "twitter": "None", "instagram": "None", "facebook": "None", "youtube": "None", "website": "None", "summary": "None", "logo": "None", "latitude": 45.41357100338523, "longitude": -64.55002913270489}, "889492914RR0001": {"name": "THE F&R HAUER CHARITABLE FOUNDATION", "designationCode": "B", "categoryCode": "03", "address": "22 ST. CLAIR AVENUE EAST      SUITE 1200", "city": "TORONTO", "province": "ON", "country": "CA", "postalCode": "M4T2S3", "twitter": "None", "instagram": "None", "facebook": "None", "youtube": "None", "website": "None", "summary": "None", "logo": "None", "latitude": 43.688336132408, "longitude": -79.39301839967676}, "107369886RR0001": {"name": "THE FABRIQUE OF ST. PATRICK'S PARISH", "designationCode": "C", "categoryCode": "38", "address": "20 GORDON ST", "city": "SHERBROOKE", "province": "QC", "country": "CA", "postalCode": "J1H4Y5", "twitter": "None", "instagram": "None", "facebook": "None", "youtube": "None", "website": "None", "summary": "None", "logo": "None", "latitude": 45.40056397391653, "longitude": -71.89108186023444}, "131324782RR0001": {"name": "THE FABRIQUE OF THE PARISH OF ASCENSION OF OUR LORD, ARCHIDIOCESE DE MONTREAL", "designationCode": "C", "categoryCode": "38", "address": "375 KITCHENER AVE", "city": "WESTMOUNT", "province": "QC", "country": "CA", "postalCode": "H3Z2G1", "twitter": "None", "instagram": "None", "facebook": "None", "youtube": "None", "website": "None", "summary": "None", "logo": "None", "latitude": 45.485761232038705, "longitude": -73.59425015208616}, "889147849RR0001": {"name": "THE FABRIQUE OF THE PARISH OF CORPUS CHRISTI, ARCHIDIOCESE DE MONTREAL", "designationCode": "C", "categoryCode": "38", "address": "16 PACIFIC AVE", "city": "SENNEVILLE", "province": "QC", "country": "CA", "postalCode": "H9X1A3", "twitter": "None", "instagram": "None", "facebook": "None", "youtube": "None", "website": "None", "summary": "None", "logo": "None", "latitude": 45.412375313116435, "longitude": -73.95367050842545}, "119232122RR0001": {"name": "THE FABRIQUE OF THE PARISH OF HOLY CROSS", "designationCode": "C", "categoryCode": "38", "address": "555 RUE LEFRANCOIS", "city": "ROSEMERE", "province": "QC", "country": "CA", "postalCode": "J7A4R5", "twitter": "None", "instagram": "None", "facebook": "None", "youtube": "None", "website": "None", "summary": "None", "logo": "None", "latitude": 45.65264204079867, "longitude": -73.7858665634197}, "119232114RR0001": {"name": "THE FABRIQUE OF THE PARISH OF HOLY CROSS, ARCHIDIOCESE DE MONTREAL", "designationCode": "C", "categoryCode": "38", "address": "1960 RUE JOLICOEUR", "city": "MONTREAL", "province": "QC", "country": "CA", "postalCode": "H4E1X5", "twitter": "None", "instagram": "None", "facebook": "None", "youtube": "None", "website": "None", "summary": "None", "logo": "None", "latitude": 45.457047546742615, "longitude": -73.59166255689883}, "119232148RR0001": {"name": "THE FABRIQUE OF THE PARISH OF MOST HOLY TRINITY, ARCHIDIOCESE DE MONTREAL", "designationCode": "C", "categoryCode": "38", "address": "1660 CENTRE ST", "city": "MONTREAL", "province": "QC", "country": "CA", "postalCode": "H3K1H6", "twitter": "None", "instagram": "None", "facebook": "None", "youtube": "None", "website": "None", "summary": "None", "logo": "None", "latitude": 45.48426951843745, "longitude": -73.55980681277066}, "130114762RR0001": {"name": "THE FABRIQUE OF THE PARISH OF OUR LADY OF FATIMA", "designationCode": "C", "categoryCode": "38", "address": "875, MARCEL LAURIN BLVD.", "city": "ST. LAURENT", "province": "QC", "country": "CA", "postalCode": "H4M2M8", "twitter": "None", "instagram": "None", "facebook": "None", "youtube": "None", "website": "None", "summary": "None", "logo": "None", "latitude": 45.50828123342369, "longitude": -73.68499435469451}, "130294416RR0001": {"name": "THE FABRIQUE OF THE PARISH OF RESURRECTION OF OUR LORD, ARCHIDIOCESE DE MONTREAL", "designationCode": "C", "categoryCode": "38", "address": "34 - 34 AVENUE", "city": "LACHINE", "province": "QC", "country": "CA", "postalCode": "H8T1Z2", "twitter": "None", "instagram": "None", "facebook": "None", "youtube": "None", "website": "None", "summary": "None", "logo": "None", "latitude": 45.43347653317741, "longitude": -73.69390467603145}, "108002692RR0001": {"name": "THE FABRIQUE OF THE PARISH OF SAINT ALOYSIUS, ARCHIDIOCESE DE MONTREAL", "designationCode": "C", "categoryCode": "38", "address": "8402 RUE DE MARSEILLE", "city": "MONTREAL", "province": "QC", "country": "CA", "postalCode": "H1L1P9", "twitter": "None", "instagram": "None", "facebook": "None", "youtube": "None", "website": "None", "summary": "None", "logo": "None", "latitude": 45.599820883980655, "longitude": -73.52805339298301}, "130520984RR0001": {"name": "THE FABRIQUE OF THE PARISH OF SAINT BONIFACE, ARCHIDIOCESE DE MONTREAL", "designationCode": "C", "categoryCode": "38", "address": "3760 AV DE L'HOTEL-DE-VILLE", "city": "MONTREAL", "province": "QC", "country": "CA", "postalCode": "H2W2G4", "twitter": "None", "instagram": "None", "facebook": "None", "youtube": "None", "website": "None", "summary": "None", "logo": "None", "latitude": 45.51700970578234, "longitude": -73.57390415142233}, "888423894RR0001": {"name": "THE FABRIQUE OF THE PARISH OF SAINT CASIMIR, ARCHIDIOCESE DE MONTREAL", "designationCode": "C", "categoryCode": "38", "address": "3426 RUE PARTHENAIS", "city": "MONTREAL", "province": "QC", "country": "CA", "postalCode": "H2K3T7", "twitter": "None", "instagram": "None", "facebook": "None", "youtube": "None", "website": "None", "summary": "None", "logo": "None", "latitude": 45.53287774242608, "longitude": -73.56343381516525}, "108012899RR0001": {"name": "THE FABRIQUE OF THE PARISH OF SAINT EDMUND OF CANTERBURY, ARCHIDIOCESE DE MONTREAL", "designationCode": "C", "categoryCode": "38", "address": "105 BEACONSFIELD BLVD", "city": "BEACONSFIELD", "province": "QC", "country": "CA", "postalCode": "H9W3Z8", "twitter": "None", "instagram": "None", "facebook": "None", "youtube": "None", "website": "None", "summary": "None", "logo": "None", "latitude": 45.43089150960797, "longitude": -73.84656448906438}, "108018052RR0001": {"name": "THE FABRIQUE OF THE PARISH OF SAINT FRANCIS OF ASSISI, ARCHIDIOCESE DE MONTREAL", "designationCode": "C", "categoryCode": "38", "address": "7755A, AV. D'OUTREMONT", "city": "MONTR\u00c9AL", "province": "QC", "country": "CA", "postalCode": "H3N2M1", "twitter": "None", "instagram": "None", "facebook": "None", "youtube": "None", "website": "None", "summary": "None", "logo": "None", "latitude": 45.528243776766224, "longitude": -73.63120671185692}, "129999033RR0001": {"name": "THE FABRIQUE OF THE PARISH OF SAINT GABRIEL, ARCHIDIOCESE DE MONTREAL", "designationCode": "C", "categoryCode": "38", "address": "2157 RUE CENTRE", "city": "MONTREAL", "province": "QC", "country": "CA", "postalCode": "H3K1J5", "twitter": "None", "instagram": "None", "facebook": "None", "youtube": "None", "website": "None", "summary": "None", "logo": "None", "latitude": 45.480900161290094, "longitude": -73.56544730298889}, "119232247RR0001": {"name": "THE FABRIQUE OF THE PARISH OF SAINT IGNATIUS OF LOYOLA, ARCHIDIOCESE DE MONTREAL", "designationCode": "C", "categoryCode": "38", "address": "4455 WEST BROADWAY", "city": "MONTREAL", "province": "QC", "country": "CA", "postalCode": "H4A2B7", "twitter": "None", "instagram": "None", "facebook": "None", "youtube": "None", "website": "None", "summary": "None", "logo": "None", "latitude": 45.45750254177961, "longitude": -73.64264296335627}, "107362063RR0001": {"name": "THE FABRIQUE OF THE PARISH OF SAINT JOHN BREBEUF, ARCHIDIOCESE DE MONTREAL", "designationCode": "C", "categoryCode": "38", "address": "7777 GEORGE STREET", "city": "LASALLE", "province": "QC", "country": "CA", "postalCode": "H8P1C8", "twitter": "None", "instagram": "None", "facebook": "None", "youtube": "None", "website": "None", "summary": "None", "logo": "None", "latitude": 45.428579401350234, "longitude": -73.60579833143831}, "889509790RR0001": {"name": "THE FABRIQUE OF THE PARISH OF SAINT JOHN FISHER, ARCHIDIOCESE DE MONTREAL", "designationCode": "C", "categoryCode": "38", "address": "120 SUMMERHILL AVE", "city": "POINTE-CLAIRE", "province": "QC", "country": "CA", "postalCode": "H9R2L7", "twitter": "None", "instagram": "None", "facebook": "None", "youtube": "None", "website": "None", "summary": "None", "logo": "None", "latitude": 45.456066798199714, "longitude": -73.79481774534025}, "107369068RR0001": {"name": "THE FABRIQUE OF THE PARISH OF SAINT KEVIN, ARCHIDIOCESE DE MONTREAL", "designationCode": "C", "categoryCode": "38", "address": "5600 CH DE LA COTE-DES-NEIGES", "city": "MONTREAL", "province": "QC", "country": "CA", "postalCode": "H3T1Z1", "twitter": "None", "instagram": "None", "facebook": "None", "youtube": "None", "website": "None", "summary": "None", "logo": "None", "latitude": 45.49786374184915, "longitude": -73.62579176467173}, "887373595RR0001": {"name": "THE FABRIQUE OF THE PARISH OF SAINT LUKE-ARCHIDIOCESE DE MONTREAL", "designationCode": "C", "categoryCode": "38", "address": "106A AV ANSELME-LAVIGNE", "city": "DOLLARD-DES-ORMEAUX", "province": "QC", "country": "CA", "postalCode": "H9A1N8", "twitter": "None", "instagram": "None", "facebook": "None", "youtube": "None", "website": "None", "summary": "None", "logo": "None", "latitude": 45.49424145266446, "longitude": -73.83600336687495}, "130009418RR0001": {"name": "THE FABRIQUE OF THE PARISH OF SAINT PATRICK", "designationCode": "C", "categoryCode": "38", "address": "23 LAPERLE ST.", "city": "MESSINES", "province": "QC", "country": "CA", "postalCode": "J0X2J0", "twitter": "None", "instagram": "None", "facebook": "None", "youtube": "None", "website": "None", "summary": "None", "logo": "None", "latitude": 46.27795534499965, "longitude": -76.07183623708768}, "129141966RR0001": {"name": "THE FABRIQUE OF THE PARISH OF SAINT THOMAS A BECKET, ARCHIDIOCESE DE MONTREAL", "designationCode": "C", "categoryCode": "38", "address": "4320 ST. ANNE STREET", "city": "PIERREFONDS", "province": "QC", "country": "CA", "postalCode": "H9H4Y7", "twitter": "None", "instagram": "None", "facebook": "None", "youtube": "None", "website": "None", "summary": "None", "logo": "None", "latitude": 45.47178521951656, "longitude": -73.86632663203261}, "108044876RR0001": {"name": "THE FABRIQUE OF THE PARISH OF SAINT VERONICA, ARCHDIOCESE DE MONTREAL", "designationCode": "C", "categoryCode": "38", "address": "1300 CARSON AVENUE", "city": "DORVAL", "province": "QC", "country": "CA", "postalCode": "H9S1M6", "twitter": "None", "instagram": "None", "facebook": "None", "youtube": "None", "website": "None", "summary": "None", "logo": "None", "latitude": 45.44478666662847, "longitude": -73.75567527145239}, "130295413RR0001": {"name": "THE FABRIQUE OF THE PARISH OF SAINT WILLIBRORD, ARCHIDIOCESE DE MONTREAL", "designationCode": "C", "categoryCode": "38", "address": "351 RUE WILLIBRORD", "city": "VERDUN", "province": "QC", "country": "CA", "postalCode": "H4G2X8", "twitter": "None", "instagram": "None", "facebook": "None", "youtube": "None", "website": "None", "summary": "None", "logo": "None", "latitude": 45.45933649711448, "longitude": -73.56907066610884}, "119429843RR0001": {"name": "THE FABRIQUE OF THE PARISH OF SAINT-BRENDAN, ARCHIDIOCESE DE MONTREAL", "designationCode": "C", "categoryCode": "38", "address": "3542 BOUL. ROSEMONT", "city": "MONTREAL", "province": "QC", "country": "CA", "postalCode": "H1X1K8", "twitter": "None", "instagram": "None", "facebook": "None", "youtube": "None", "website": "None", "summary": "None", "logo": "None", "latitude": 45.555743410756634, "longitude": -73.57818666247351}, "125754457RR0001": {"name": "THE FABRIQUE OF THE PARISH OF SS CYRIL & METHOD, ARCHIDIOCESE DE MONTREAL", "designationCode": "C", "categoryCode": "38", "address": "7187-2ND AVE.", "city": "MONTREAL", "province": "QC", "country": "CA", "postalCode": "H2A3G8", "twitter": "None", "instagram": "None", "facebook": "None", "youtube": "None", "website": "None", "summary": "None", "logo": "None", "latitude": 45.55571522482535, "longitude": -73.60100871758333}, "129546586RR0001": {"name": "THE FABRIQUE OF THE PARISH OF ST MARY", "designationCode": "C", "categoryCode": "38", "address": "2-125 RUE GROVE", "city": "GREENFIELD PARK", "province": "QC", "country": "CA", "postalCode": "J4V2X2", "twitter": "None", "instagram": "None", "facebook": "None", "youtube": "None", "website": "None", "summary": "None", "logo": "None", "latitude": 45.48217926559538, "longitude": -73.47544385648351}, "131586216RR0001": {"name": "THE FABRIQUE OF THE PARISH OF ST MICHAEL THE ARCHANGEL, ARCHIDIOCESE DE MONTREAL", "designationCode": "C", "categoryCode": "38", "address": "3170 RUE DU MAJOR", "city": "LONGUEUIL", "province": "QC", "country": "CA", "postalCode": "J4L4L4", "twitter": "None", "instagram": "None", "facebook": "None", "youtube": "None", "website": "None", "summary": "None", "logo": "None", "latitude": 45.51960717456297, "longitude": -73.44859793202133}, "130341852RR0001": {"name": "THE FABRIQUE OF THE PARISH OF ST MONICA, ARCHIDIOCESE DE MONTREAL", "designationCode": "C", "categoryCode": "38", "address": "6405 RUE DE TERREBONNE", "city": "MONTREAL", "province": "QC", "country": "CA", "postalCode": "H4B1A8", "twitter": "None", "instagram": "None", "facebook": "None", "youtube": "None", "website": "None", "summary": "None", "logo": "None", "latitude": 45.46782827479929, "longitude": -73.63423352642926}, "108081746RR0001": {"name": "THE FABRIQUE OF THE PARISH OF ST. FRANCIS OF ASSISI", "designationCode": "C", "categoryCode": "38", "address": "844 NOTRE DAME", "city": "ST LAMBERT", "province": "QC", "country": "CA", "postalCode": "J4R1R8", "twitter": "None", "instagram": "None", "facebook": "None", "youtube": "None", "website": "None", "summary": "None", "logo": "None", "latitude": 45.49790188429776, "longitude": -73.5027239015527}, "896698677RR0001": {"name": "THE FABRIQUE OF THE PARISH OF ST. GABRIEL", "designationCode": "C", "categoryCode": "38", "address": "5070 RUE GILBERT", "city": "ST-HUBERT", "province": "QC", "country": "CA", "postalCode": "J3Y2K7", "twitter": "None", "instagram": "None", "facebook": "None", "youtube": "None", "website": "None", "summary": "None", "logo": "None", "latitude": 45.47812899030513, "longitude": -73.43544037275657}, "119232403RR0001": {"name": "THE FABRIQUE OF THE PARISH OF TRANSFIGURATION OF OUR LORD / La Fabrique de la Paroisse de la Transfiguration-De-Notre-Seigneur", "designationCode": "C", "categoryCode": "38", "address": "11775 FILION STREET", "city": "MONTREAL", "province": "QC", "country": "CA", "postalCode": "H4J1T4", "twitter": "None", "instagram": "None", "facebook": "None", "youtube": "None", "website": "None", "summary": "None", "logo": "None", "latitude": 45.53102914628645, "longitude": -73.6987046720528}, "827560871RR0001": {"name": "THE FABRYS CHARITY ASSOCIATION", "designationCode": "C", "categoryCode": "11", "address": "52 GLEN FOREST DR", "city": "HAMILTON", "province": "ON", "country": "CA", "postalCode": "L8K5V8", "twitter": "None", "instagram": "None", "facebook": "None", "youtube": "None", "website": "None", "summary": "None", "logo": "None", "latitude": 43.21291416126142, "longitude": -79.79840246491415}, "123533812RR0001": {"name": "THE FACTORY THEATRE LAB", "designationCode": "C", "categoryCode": "22", "address": "125 BATHURST ST", "city": "TORONTO", "province": "ON", "country": "CA", "postalCode": "M5V2R2", "twitter": "None", "instagram": "None", "facebook": "None", "youtube": "None", "website": "None", "summary": "None", "logo": "None", "latitude": 43.64535630226775, "longitude": -79.40323778429259}, "119232437RR0001": {"name": "THE FAIR HAVEN UNITED CHURCH HOMES", "designationCode": "C", "categoryCode": "09", "address": "2720 48TH AVENUE", "city": "VANCOUVER", "province": "BC", "country": "CA", "postalCode": "V5S1G7", "twitter": "None", "instagram": "None", "facebook": "None", "youtube": "None", "website": "None", "summary": "None", "logo": "None", "latitude": 49.225930516735325, "longitude": -123.05112041188181}, "879260362RR0001": {"name": "THE FAIRFIELD-GUTZEIT SOCIETY", "designationCode": "C", "categoryCode": "52", "address": "341 MAIN ST                   PO BOX 269", "city": "BATH", "province": "ON", "country": "CA", "postalCode": "K0H1G0", "twitter": "None", "instagram": "None", "facebook": "None", "youtube": "None", "website": "None", "summary": "None", "logo": "None", "latitude": 44.18295150481877, "longitude": -76.77539207643278}, "119232452RR0001": {"name": "THE FAIRMEDE UNITED CHURCH RESTORATION COMMITTEE", "designationCode": "C", "categoryCode": "52", "address": "BOX 440", "city": "WAWOTA", "province": "SK", "country": "CA", "postalCode": "S0G5A0", "twitter": "None", "instagram": "None", "facebook": "None", "youtube": "None", "website": "None", "summary": "None", "logo": "None", "latitude": 49.90003000000007, "longitude": -102.03426999999999}, "893762260RR0001": {"name": "THE FAIRVIEW CEMETERY COMPANY", "designationCode": "C", "categoryCode": "59", "address": "101 CALNEK BEACH RD", "city": "GRANVILLE FERRY", "province": "NS", "country": "CA", "postalCode": "B0S1K0", "twitter": "None", "instagram": "None", "facebook": "None", "youtube": "None", "website": "None", "summary": "None", "logo": "None", "latitude": 44.76225755980862, "longitude": -65.47655261659753}, "119232544RR0001": {"name": "THE FAITH MISSION (IN CANADA)", "designationCode": "C", "categoryCode": "47", "address": "P.O. BOX 376", "city": "CAMPBELLVILLE", "province": "ON", "country": "CA", "postalCode": "L0P1B0", "twitter": "None", "instagram": "None", "facebook": "None", "youtube": "None", "website": "None", "summary": "None", "logo": "None", "latitude": 43.530693000000056, "longitude": -80.04475699999993}, "871446340RR0001": {"name": "THE FAITHFUL REMNANT SPANISH PENTECOSTAL CHURCH", "designationCode": "C", "categoryCode": "36", "address": "96 SHORNCLIFFE ROAD", "city": "TORONTO", "province": "ON", "country": "CA", "postalCode": "M8Z5K5", "twitter": "None", "instagram": "None", "facebook": "None", "youtube": "None", "website": "None", "summary": "None", "logo": "None", "latitude": 43.62533479404477, "longitude": -79.54187402019684}, "890254576RR0001": {"name": "THE FALLS CEMETERY ASSOCIATION", "designationCode": "C", "categoryCode": "59", "address": "1954 BALMORAL RD.", "city": "TATAMAGOUCHE", "province": "NS", "country": "CA", "postalCode": "B0K1V0", "twitter": "None", "instagram": "None", "facebook": "None", "youtube": "None", "website": "None", "summary": "None", "logo": "None", "latitude": 45.64007516876855, "longitude": -63.250547248486505}, "107376055RR0001": {"name": "THE FAMILY CENTRE OF NORTHERN ALBERTA (ASSOCIATION)", "designationCode": "C", "categoryCode": "09", "address": "9912 - 106 STREET             ROOM 20", "city": "EDMONTON", "province": "AB", "country": "CA", "postalCode": "T5K1C5", "twitter": "None", "instagram": "None", "facebook": "None", "youtube": "None", "website": "None", "summary": "None", "logo": "None", "latitude": 53.537733, "longitude": -113.50299724372412}, "874929128RR0001": {"name": "THE FAMILY CHURCH", "designationCode": "C", "categoryCode": "39", "address": "887 DUFFERIN ST", "city": "WOODSTOCK", "province": "ON", "country": "CA", "postalCode": "N4S1Y8", "twitter": "None", "instagram": "None", "facebook": "None", "youtube": "None", "website": "None", "summary": "None", "logo": "None", "latitude": 43.128106478792596, "longitude": -80.73678180391252}, "107396905RR0049": {"name": "THE FAMILY CHURCH, A FOURSQUARE GOSPEL CHURCH OF CANADA", "designationCode": "C", "categoryCode": "39", "address": "PO BOX 2323 STN MAIN", "city": "DAWSON CREEK", "province": "BC", "country": "CA", "postalCode": "V1G4P2", "twitter": "None", "instagram": "None", "facebook": "None", "youtube": "None", "website": "None", "summary": "None", "logo": "None", "latitude": 55.76171100000006, "longitude": -120.23704249999994}, "895869063RR0001": {"name": "THE FAMILY DAY HOME ASSOCIATION OF LLOYDMINSTER", "designationCode": "C", "categoryCode": "01", "address": "2115 56 AVE", "city": "LLOYDMINSTER", "province": "AB", "country": "CA", "postalCode": "T9V2W2", "twitter": "None", "instagram": "None", "facebook": "None", "youtube": "None", "website": "None", "summary": "None", "logo": "None", "latitude": 53.25561907907894, "longitude": -110.02134861582276}, "107663403RR0001": {"name": "THE FAMILY EDUCATION AND SUPPORT CENTRE", "designationCode": "C", "categoryCode": "09", "address": "22554 LOUGHEED HWY", "city": "MAPLE RIDGE", "province": "BC", "country": "CA", "postalCode": "V2X2V1", "twitter": "None", "instagram": "None", "facebook": "None", "youtube": "None", "website": "None", "summary": "None", "logo": "None", "latitude": 49.2170065502284, "longitude": -122.59750569281022}, "119232627RR0001": {"name": "THE FAMILY LEISURE CENTRE ASSOCIATION OF SOUTHEAST CALGARY", "designationCode": "C", "categoryCode": "56", "address": "11150 BONAVENTURE DRIVE S.E.", "city": "CALGARY", "province": "AB", "country": "CA", "postalCode": "T2J6R9", "twitter": "None", "instagram": "None", "facebook": "None", "youtube": "None", "website": "None", "summary": "None", "logo": "None", "latitude": 50.9521990124935, "longitude": -114.06010078152262}, "869430728RR0003": {"name": "THE FAMILY LIFE CENTRE", "designationCode": "C", "categoryCode": "39", "address": "31 LAKECREST TRAIL", "city": "BRAMPTON", "province": "ON", "country": "CA", "postalCode": "L6Z1S2", "twitter": "None", "instagram": "None", "facebook": "None", "youtube": "None", "website": "None", "summary": "None", "logo": "None", "latitude": 43.723867715505854, "longitude": -79.80456596753987}, "101737401RR0001": {"name": "THE FAMILY PLACE-NORTH HALTON CHILD CARE AND FAMILY ENRICHMENT CENTRE", "designationCode": "C", "categoryCode": "01", "address": "1120 MAIN ST E", "city": "MILTON", "province": "ON", "country": "CA", "postalCode": "L9T6H7", "twitter": "None", "instagram": "None", "facebook": "None", "youtube": "None", "website": "None", "summary": "None", "logo": "None", "latitude": 43.53072958721607, "longitude": -79.86400471175709}, "891061541RR0001": {"name": "THE FAMILY SUPPORT GROUP OF EXTENDICARE GUILDWOOD", "designationCode": "C", "categoryCode": "09", "address": "60 GUILDWOOD PARKWAY", "city": "WEST HILL", "province": "ON", "country": "CA", "postalCode": "M1E1N9", "twitter": "None", "instagram": "None", "facebook": "None", "youtube": "None", "website": "None", "summary": "None", "logo": "None", "latitude": 43.74651743245402, "longitude": -79.20257143940758}, "876650961RR0001": {"name": "THE FAMILY SUPPORT GROUP OF EXTENDICARE MOOSE JAW", "designationCode": "C", "categoryCode": "09", "address": "1151 COTEAU ST W", "city": "MOOSE JAW", "province": "SK", "country": "CA", "postalCode": "S6H5G5", "twitter": "None", "instagram": "None", "facebook": "None", "youtube": "None", "website": "None", "summary": "None", "logo": "None", "latitude": 50.38231977682356, "longitude": -105.56730651134153}, "891320947RR0001": {"name": "THE FAMILY SUPPORT GROUP OF EXTENDICARE/STARWOOD", "designationCode": "C", "categoryCode": "09", "address": "114 STARWOOD ROAD", "city": "NEPEAN", "province": "ON", "country": "CA", "postalCode": "K2G3N5", "twitter": "None", "instagram": "None", "facebook": "None", "youtube": "None", "website": "None", "summary": "None", "logo": "None", "latitude": 45.3540876213864, "longitude": -75.75093897137769}, "885776765RR0001": {"name": "THE FAMILY/SUPPORT GROUP OF EXTENDICARE/PRESTON", "designationCode": "C", "categoryCode": "09", "address": "2225 EXTENDICARE PRESTON", "city": "SASKATOON", "province": "SK", "country": "CA", "postalCode": "S7J2E7", "twitter": "None", "instagram": "None", "facebook": "None", "youtube": "None", "website": "None", "summary": "None", "logo": "None", "latitude": 52.09428300000006, "longitude": -106.60963399999993}, "890507346RR0001": {"name": "THE FARANTATOS FAMILY FOUNDATION", "designationCode": "A", "categoryCode": "03", "address": "SUITE 4100                    66 WELLINGTON STREET WEST", "city": "TORONTO", "province": "ON", "country": "CA", "postalCode": "M5K1B7", "twitter": "None", "instagram": "None", "facebook": "None", "youtube": "None", "website": "None", "summary": "None", "logo": "None", "latitude": 43.647055248975605, "longitude": -79.38109901041601}, "823051412RR0001": {"name": "THE FARM AT CEDAR WOODS SOCIETY", "designationCode": "C", "categoryCode": "59", "address": "BOX 132", "city": "NANOOSE BAY", "province": "BC", "country": "CA", "postalCode": "V9P9J9", "twitter": "None", "instagram": "None", "facebook": "None", "youtube": "None", "website": "None", "summary": "None", "logo": "None", "latitude": 49.27547910292093, "longitude": -124.19736433832817}, "703996694RR0001": {"name": "THE FARMER FAMILY FOUNDATION", "designationCode": "B", "categoryCode": "03", "address": "300 - 261 DAVENPORT RD", "city": "TORONTO", "province": "ON", "country": "CA", "postalCode": "M5R1K3", "twitter": "None", "instagram": "None", "facebook": "None", "youtube": "None", "website": "None", "summary": "None", "logo": "None", "latitude": 43.67441980930822, "longitude": -79.39793879211153}, "890908049RR0001": {"name": "THE FATHER DAVID BAUER CHARITABLE TRUST", "designationCode": "B", "categoryCode": "03", "address": "250 GREY SQUIRREL PLACE", "city": "WATERLOO", "province": "ON", "country": "CA", "postalCode": "N2K3H9", "twitter": "None", "instagram": "None", "facebook": "None", "youtube": "None", "website": "None", "summary": "None", "logo": "None", "latitude": 43.50832537220832, "longitude": -80.52015569444269}, "135071264RR0001": {"name": "THE FATHER DAVID BAUER QUEST PROGRAM", "designationCode": "C", "categoryCode": "49", "address": "104 FREELAND DRIVE", "city": "STRATFORD", "province": "ON", "country": "CA", "postalCode": "N4Z1H1", "twitter": "None", "instagram": "None", "facebook": "None", "youtube": "None", "website": "None", "summary": "None", "logo": "None", "latitude": 43.36578210355454, "longitude": -81.00760385899368}, "890228976RR0001": {"name": "THE FATHER JUSTIN ROSARY HOUR INC.", "designationCode": "C", "categoryCode": "47", "address": "2487 BLOOR ST WEST            SUITE 6", "city": "TORONTO", "province": "ON", "country": "CA", "postalCode": "M6S1R5", "twitter": "None", "instagram": "None", "facebook": "None", "youtube": "None", "website": "None", "summary": "None", "logo": "None", "latitude": 43.64805682956333, "longitude": -79.48618830861572}, "888356268RR0001": {"name": "THE FATHER ROBERTS ST. BENEDICT'S CHARITY", "designationCode": "C", "categoryCode": "09", "address": "10 JEFFTON CRESCENT", "city": "TORONTO", "province": "ON", "country": "CA", "postalCode": "M1G2R5", "twitter": "None", "instagram": "None", "facebook": "None", "youtube": "None", "website": "None", "summary": "None", "logo": "None", "latitude": 43.77011672548919, "longitude": -79.22117798528481}, "871572202RR0001": {"name": "THE FATHER'S HEART LTD.", "designationCode": "C", "categoryCode": "47", "address": "4520 - 43 AVENUE", "city": "LACOMBE", "province": "AB", "country": "CA", "postalCode": "T4L1W3", "twitter": "None", "instagram": "None", "facebook": "None", "youtube": "None", "website": "None", "summary": "None", "logo": "None", "latitude": 52.452911859022336, "longitude": -113.7262936843734}, "858113541RR0001": {"name": "THE FATHER'S HOUSE - FAMILY WORSHIP CENTRE", "designationCode": "C", "categoryCode": "39", "address": "413 MANOR ROAD EAST", "city": "TORONTO", "province": "ON", "country": "CA", "postalCode": "M4S1T1", "twitter": "None", "instagram": "None", "facebook": "None", "youtube": "None", "website": "None", "summary": "None", "logo": "None", "latitude": 43.70627574381104, "longitude": -79.37865901082004}, "896115201RR0001": {"name": "THE FATHER'S HOUSE CHRISTIAN CENTRE", "designationCode": "C", "categoryCode": "39", "address": "1985 KNOX CRES", "city": "KELOWNA", "province": "BC", "country": "CA", "postalCode": "V1Y1K9", "twitter": "None", "instagram": "None", "facebook": "None", "youtube": "None", "website": "None", "summary": "None", "logo": "None", "latitude": 49.878266205955235, "longitude": -119.4940111930004}, "140833120RR0001": {"name": "THE FAY HOLOCAUST LIFE FOUNDATION / LA FONDATION DE VIE DE L'HOLOCAUSTE FAY", "designationCode": "B", "categoryCode": "03", "address": "5250 DECARIE BLVD VSUITE 604", "city": "MONTREAL", "province": "QC", "country": "CA", "postalCode": "H3X2H9", "twitter": "None", "instagram": "None", "facebook": "None", "youtube": "None", "website": "None", "summary": "None", "logo": "None", "latitude": 45.48477373853094, "longitude": -73.63222176798995}, "132137423RR0001": {"name": "THE FEDERATION OF CHINESE CANADIAN PROFESSIONALS (ONTARIO) EDUCATION FOUNDATION", "designationCode": "A", "categoryCode": "25", "address": "245 FAIRVIEW MALL DRIVE       SUITE 438", "city": "TORONTO", "province": "ON", "country": "CA", "postalCode": "M2J4T1", "twitter": "None", "instagram": "None", "facebook": "None", "youtube": "None", "website": "None", "summary": "None", "logo": "None", "latitude": 43.77998763056166, "longitude": -79.34193852386177}, "898839790RR0001": {"name": "THE FEDERATION OF COMMUNITY SOCIAL SERVICES SOCIETY OF BRITISH COLUMBIA", "designationCode": "C", "categoryCode": "09", "address": "102 - 739 KINGS RD", "city": "VICTORIA", "province": "BC", "country": "CA", "postalCode": "V8T1W4", "twitter": "None", "instagram": "None", "facebook": "None", "youtube": "None", "website": "None", "summary": "None", "logo": "None", "latitude": 48.436676948092824, "longitude": -123.36407316388716}, "119232734RR0001": {"name": "THE FEDERATION OF MUSIC FESTIVALS OF NOVA SCOTIA", "designationCode": "C", "categoryCode": "22", "address": "21 ST LAURENT PL", "city": "HALIFAX", "province": "NS", "country": "CA", "postalCode": "B3M4B8", "twitter": "None", "instagram": "None", "facebook": "None", "youtube": "None", "website": "None", "summary": "None", "logo": "None", "latitude": 44.68554136109981, "longitude": -63.66425643479129}, "854009768RR0001": {"name": "THE FELLOWSHIP BRIDGE INTERNATIONAL SOCIETY", "designationCode": "C", "categoryCode": "39", "address": "PO BOX 250 STATION MATSQUI", "city": "ABBOTSFORD", "province": "BC", "country": "CA", "postalCode": "V4X3R2", "twitter": "None", "instagram": "None", "facebook": "None", "youtube": "None", "website": "None", "summary": "None", "logo": "None", "latitude": 49.10382000000004, "longitude": -122.27286999999995}, "131220170RR0001": {"name": "THE FELLOWSHIP CENTRE", "designationCode": "C", "categoryCode": "09", "address": "472 RICHMOND STREET", "city": "LONDON", "province": "ON", "country": "CA", "postalCode": "N6A3E6", "twitter": "None", "instagram": "None", "facebook": "None", "youtube": "None", "website": "None", "summary": "None", "logo": "None", "latitude": 42.98583169331751, "longitude": -81.25056507386529}, "108082009RR0001": {"name": "THE FELLOWSHIP CHRISTIAN CENTRE (PETERBOROUGH COUNTY) INC.", "designationCode": "C", "categoryCode": "39", "address": "P.O. BOX 61", "city": "PETERBOROUGH", "province": "ON", "country": "CA", "postalCode": "K9J6Y5", "twitter": "None", "instagram": "None", "facebook": "None", "youtube": "None", "website": "None", "summary": "None", "logo": "None", "latitude": 44.30591700000005, "longitude": -78.31950199999993}, "889725685RR0001": {"name": "THE FELLOWSHIP CHRISTIAN CHURCH (OSHAWA)", "designationCode": "C", "categoryCode": "39", "address": "2878 TRULLS ROAD", "city": "COURTICE", "province": "ON", "country": "CA", "postalCode": "L1H2N4", "twitter": "None", "instagram": "None", "facebook": "None", "youtube": "None", "website": "None", "summary": "None", "logo": "None"}, "119232775RR0001": {"name": "THE FELLOWSHIP FOR REFORMATION AND PASTORAL STUDIES", "designationCode": "C", "categoryCode": "49", "address": "360 POPLAR ST", "city": "SUDBURY", "province": "ON", "country": "CA", "postalCode": "P3C2C3", "twitter": "None", "instagram": "None", "facebook": "None", "youtube": "None", "website": "None", "summary": "None", "logo": "None", "latitude": 46.49647343093368, "longitude": -81.00857532878133}, "108082025RR0001": {"name": "THE FELLOWSHIP OF EVANGELICAL BAPTIST CHURCHES IN CANADA", "designationCode": "C", "categoryCode": "31", "address": "P.O. BOX 457", "city": "GUELPH", "province": "ON", "country": "CA", "postalCode": "N1H6K9", "twitter": "None", "instagram": "None", "facebook": "None", "youtube": "None", "website": "None", "summary": "None", "logo": "None", "latitude": 43.54455300000005, "longitude": -80.24788249999993}, "867721524RR0001": {"name": "THE FELLOWSHIP OF EVANGELICAL BAPTIST CHURCHES IN CANADA - CENTRAL REGION", "designationCode": "C", "categoryCode": "39", "address": "175 HOLIDAY INN DRIVE", "city": "CAMBRIDGE", "province": "ON", "country": "CA", "postalCode": "N3C3T2", "twitter": "None", "instagram": "None", "facebook": "None", "youtube": "None", "website": "None", "summary": "None", "logo": "None", "latitude": 43.41700271665971, "longitude": -80.32373649371027}, "860590694RR0001": {"name": "THE FENELLA FOUNDATION", "designationCode": "B", "categoryCode": "03", "address": "130 KING STREET WEST, 20TH FLOBOX 430, STN FIRST CANADIAN PL", "city": "TORONTO", "province": "ON", "country": "CA", "postalCode": "M5X1K1", "twitter": "None", "instagram": "None", "facebook": "None", "youtube": "None", "website": "None", "summary": "None", "logo": "None", "latitude": 43.64868300000006, "longitude": -79.38544399999994}, "887208791RR0001": {"name": "THE FENELON FALLS SECONDARY SCHOOL MEMORIAL FUND", "designationCode": "C", "categoryCode": "21", "address": "BOX 460", "city": "FENELON FALLS", "province": "ON", "country": "CA", "postalCode": "K0M1N0", "twitter": "None", "instagram": "None", "facebook": "None", "youtube": "None", "website": "None", "summary": "None", "logo": "None", "latitude": 44.53769008050088, "longitude": -78.74108993782103}, "871150314RR0001": {"name": "THE FENNER FOUNDATION", "designationCode": "B", "categoryCode": "52", "address": "1776 DOURO FIRST LINE", "city": "DOURO-DUMMER", "province": "ON", "country": "CA", "postalCode": "K0L2H0", "twitter": "None", "instagram": "None", "facebook": "None", "youtube": "None", "website": "None", "summary": "None", "logo": "None", "latitude": 44.47264431993547, "longitude": -78.1875497737408}, "871025920RR0001": {"name": "THE FERGIE JENKINS FOUNDATION INC.", "designationCode": "A", "categoryCode": "03", "address": "67 COMMERCE PLACE             SUITE 3", "city": "ST CATHARINES", "province": "ON", "country": "CA", "postalCode": "L2R6P7", "twitter": "None", "instagram": "None", "facebook": "None", "youtube": "None", "website": "None", "summary": "None", "logo": "None", "latitude": 43.14549554954124, "longitude": -79.267108636476}, "889736997RR0001": {"name": "THE FERGUS-ELORA ROTARY FOUNDATION", "designationCode": "A", "categoryCode": "59", "address": "PO BOX 406", "city": "FERGUS", "province": "ON", "country": "CA", "postalCode": "N1M3E2", "twitter": "None", "instagram": "None", "facebook": "None", "youtube": "None", "website": "None", "summary": "None", "logo": "None", "latitude": 43.705428000000055, "longitude": -80.37816199999993}, "875654220RR0001": {"name": "THE FERRET AID SOCIETY", "designationCode": "C", "categoryCode": "54", "address": "983 THE QUEENSWAY", "city": "TORONTO", "province": "ON", "country": "CA", "postalCode": "M8Z1P3", "twitter": "None", "instagram": "None", "facebook": "None", "youtube": "None", "website": "None", "summary": "None", "logo": "None", "latitude": 43.623798874805395, "longitude": -79.5138959866698}, "119232858RR0001": {"name": "THE FERRYLAND HISTORICAL SOCIETY", "designationCode": "C", "categoryCode": "50", "address": "PO BOX 3", "city": "FERRYLAND", "province": "NL", "country": "CA", "postalCode": "A0A2H0", "twitter": "None", "instagram": "None", "facebook": "None", "youtube": "None", "website": "None", "summary": "None", "logo": "None", "latitude": 47.02203000000003, "longitude": -52.889899999999955}, "847655156RR0001": {"name": "THE FERTILIZER INSTITUTE OF ONTARIO FOUNDATION", "designationCode": "A", "categoryCode": "23", "address": "160 RESEARCH LANE             UNIT # 104", "city": "GUELPH", "province": "ON", "country": "CA", "postalCode": "N1G5B2", "twitter": "None", "instagram": "None", "facebook": "None", "youtube": "None", "website": "None", "summary": "None", "logo": "None", "latitude": 43.52181304492496, "longitude": -80.22921200095229}, "892888348RR0001": {"name": "THE FESA FOUNDATION - LA FONDATION FESA", "designationCode": "B", "categoryCode": "03", "address": "625 RENE LEVESQUE BLVD. WEST  SUITE 1100", "city": "MONTREAL", "province": "QC", "country": "CA", "postalCode": "H3B1R2", "twitter": "None", "instagram": "None", "facebook": "None", "youtube": "None", "website": "None", "summary": "None", "logo": "None", "latitude": 45.50243946878062, "longitude": -73.5669950229095}, "119232874RR0001": {"name": "THE FESTIVAL CHORUS", "designationCode": "C", "categoryCode": "22", "address": "205 8 AVENUE SE", "city": "CALGARY", "province": "AB", "country": "CA", "postalCode": "T2G0K9", "twitter": "None", "instagram": "None", "facebook": "None", "youtube": "None", "website": "None", "summary": "None", "logo": "None", "latitude": 51.04534220984015, "longitude": -114.05999708058519}, "119232882RR0001": {"name": "THE FESTIVAL OF THE TARTANS COMMITTEE", "designationCode": "C", "categoryCode": "22", "address": "75 LAVINIA STREET             SUITE 189", "city": "NEW GLASGOW", "province": "NS", "country": "CA", "postalCode": "B2H1N5", "twitter": "None", "instagram": "None", "facebook": "None", "youtube": "None", "website": "None", "summary": "None", "logo": "None", "latitude": 45.591291183302275, "longitude": -62.64838275911471}, "868223348RR0001": {"name": "THE FESTIVAL PLACE SOCIETY", "designationCode": "C", "categoryCode": "22", "address": "100 FESTIVAL WAY", "city": "SHERWOOD PARK", "province": "AB", "country": "CA", "postalCode": "T8A5T2", "twitter": "None", "instagram": "None", "facebook": "None", "youtube": "None", "website": "None", "summary": "None", "logo": "None", "latitude": 53.52685773160603, "longitude": -113.30275928284937}, "845534320RR0001": {"name": "THE FESTIVAL PLAYERS OF PRINCE EDWARD COUNTY", "designationCode": "C", "categoryCode": "22", "address": "289 MAIN ST", "city": "PICTON", "province": "ON", "country": "CA", "postalCode": "K0K2T0", "twitter": "None", "instagram": "None", "facebook": "None", "youtube": "None", "website": "None", "summary": "None", "logo": "None", "latitude": 44.19413477900494, "longitude": -77.05045357520731}, "119232890RR0001": {"name": "THE FF ARCHDEKIN MEMORIAL BURSARY", "designationCode": "C", "categoryCode": "25", "address": "23 INVERARAY CRT", "city": "BRACEBRIDGE", "province": "ON", "country": "CA", "postalCode": "P1L2H2", "twitter": "None", "instagram": "None", "facebook": "None", "youtube": "None", "website": "None", "summary": "None", "logo": "None", "latitude": 45.03482563866905, "longitude": -79.32458660439124}, "891372369RR0001": {"name": "THE FFCA CHARTER SCHOOL SOCIETY", "designationCode": "C", "categoryCode": "20", "address": "110 - 7000 RAILWAY ST SE", "city": "CALGARY", "province": "AB", "country": "CA", "postalCode": "T2H3A8", "twitter": "None", "instagram": "None", "facebook": "None", "youtube": "None", "website": "None", "summary": "None", "logo": "None", "latitude": 50.98943510648967, "longitude": -114.04239601996682}}