{"877632323RR0001": {"name": "ST GENEVIEVE CEMETERY FUND ORGANIZATION", "designationCode": "C", "categoryCode": "59", "address": "BOX 67 RR2", "city": "STE ANNE", "province": "MB", "country": "CA", "postalCode": "R5H1R2", "twitter": "None", "instagram": "None", "facebook": "None", "youtube": "None", "website": "None", "summary": "None", "logo": "None", "latitude": 49.67120400000006, "longitude": -96.65241199999993}, "132435322RR0001": {"name": "ST GEORGE AND ST REUISS COPTIC ORTHODOX CHURCH, TORONTO", "designationCode": "C", "categoryCode": "39", "address": "141 BOND AVENUE", "city": "NORTH YORK", "province": "ON", "country": "CA", "postalCode": "M3B1M1", "twitter": "None", "instagram": "None", "facebook": "None", "youtube": "None", "website": "None", "summary": "None", "logo": "None", "latitude": 43.74597883094831, "longitude": -79.3475055478678}, "889282844RR0001": {"name": "ST GEORGE CO-OPERATIVE NURSERY SCHOOL INCORPORATED", "designationCode": "C", "categoryCode": "20", "address": "50 BEVERLY STREET E           BOX 353", "city": "ST GEORGE", "province": "ON", "country": "CA", "postalCode": "N0E1N0", "twitter": "None", "instagram": "None", "facebook": "None", "youtube": "None", "website": "None", "summary": "None", "logo": "None", "latitude": 43.247118606959674, "longitude": -80.24832953647083}, "130635972RR0001": {"name": "ST GEORGE GREEK ORTHODOX COMMUNITY OF NORTH BAY", "designationCode": "C", "categoryCode": "39", "address": "169 CAMPBELL AVE", "city": "NORTH BAY", "province": "ON", "country": "CA", "postalCode": "P1A1W2", "twitter": "None", "instagram": "None", "facebook": "None", "youtube": "None", "website": "None", "summary": "None", "logo": "None", "latitude": 46.287991856483536, "longitude": -79.45432413970731}, "129351466RR0001": {"name": "ST GEORGE S ANGLICAN CHURCH", "designationCode": "C", "categoryCode": "30", "address": "227 WHARNCLIFFE RD N", "city": "LONDON", "province": "ON", "country": "CA", "postalCode": "N6H2B6", "twitter": "None", "instagram": "None", "facebook": "None", "youtube": "None", "website": "None", "summary": "None", "logo": "None", "latitude": 42.99119198528483, "longitude": -81.26440262946512}, "891094799RR0001": {"name": "ST GEORGE UKRAINIAN CATHOLIC CHURCH", "designationCode": "C", "categoryCode": "38", "address": "POST OFFICE BOX 37", "city": "ALONSA", "province": "MB", "country": "CA", "postalCode": "R0H0A0", "twitter": "None", "instagram": "None", "facebook": "None", "youtube": "None", "website": "None", "summary": "None", "logo": "None", "latitude": 50.87914000000006, "longitude": -99.08464999999995}, "867949935RR0001": {"name": "ST GEORGE UKRAINIAN CATHOLIC PARISH", "designationCode": "C", "categoryCode": "39", "address": "#104, 4814- 57 AVENUE", "city": "STONY PLAIN", "province": "AB", "country": "CA", "postalCode": "T7Z0H5", "twitter": "None", "instagram": "None", "facebook": "None", "youtube": "None", "website": "None", "summary": "None", "logo": "None", "latitude": 53.520797419398754, "longitude": -114.00294632930677}, "129117875RR0002": {"name": "ST GEORGE'S ANGLICAN CHURCH", "designationCode": "C", "categoryCode": "30", "address": "PO BOX 9", "city": "CLARKSBURG", "province": "ON", "country": "CA", "postalCode": "N0H1J0", "twitter": "None", "instagram": "None", "facebook": "None", "youtube": "None", "website": "None", "summary": "None", "logo": "None", "latitude": 38.41646000000003, "longitude": -121.52724999999998}, "129144549RR0030": {"name": "ST GEORGE'S ANGLICAN CHURCH", "designationCode": "C", "categoryCode": "30", "address": "3690 BROWN ROAD", "city": "WESTBANK", "province": "BC", "country": "CA", "postalCode": "V4T1Z1", "twitter": "None", "instagram": "None", "facebook": "None", "youtube": "None", "website": "None", "summary": "None", "logo": "None", "latitude": 49.83003083819031, "longitude": -119.62827307343167}, "130012891RR0001": {"name": "ST GEORGE'S ANGLICAN CHURCH", "designationCode": "C", "categoryCode": "30", "address": "BOX 699", "city": "STETTLER", "province": "AB", "country": "CA", "postalCode": "T0C2L0", "twitter": "None", "instagram": "None", "facebook": "None", "youtube": "None", "website": "None", "summary": "None", "logo": "None", "latitude": 52.32597900000006, "longitude": -112.70698099999993}, "130402019RR0021": {"name": "ST GEORGE'S ANGLICAN CHURCH", "designationCode": "C", "categoryCode": "30", "address": "P.O. BOX 81", "city": "CAMBRIDGE BAY", "province": "NU", "country": "CA", "postalCode": "X0B0C0", "twitter": "None", "instagram": "None", "facebook": "None", "youtube": "None", "website": "None", "summary": "None", "logo": "None", "latitude": 69.13891500000005, "longitude": -105.17166799999994}, "130946171RR0001": {"name": "ST GEORGE'S ANGLICAN CHURCH", "designationCode": "C", "categoryCode": "30", "address": "BOX 537", "city": "BATTLEFORD", "province": "SK", "country": "CA", "postalCode": "S0M0E0", "twitter": "None", "instagram": "None", "facebook": "None", "youtube": "None", "website": "None", "summary": "None", "logo": "None", "latitude": 52.736037700209145, "longitude": -108.26411792034625}, "140519554RR0001": {"name": "ST GEORGE'S ANGLICAN CHURCH", "designationCode": "C", "categoryCode": "30", "address": "BOX 404", "city": "TURNERVALLEY", "province": "AB", "country": "CA", "postalCode": "T0L2A0", "twitter": "None", "instagram": "None", "facebook": "None", "youtube": "None", "website": "None", "summary": "None", "logo": "None", "latitude": 50.67564000000006, "longitude": -114.27890299999993}, "890274145RR0001": {"name": "ST GEORGE'S ANGLICAN CHURCH", "designationCode": "C", "categoryCode": "30", "address": "#14 6009-62 AVE", "city": "OLDS", "province": "AB", "country": "CA", "postalCode": "T4H1W8", "twitter": "None", "instagram": "None", "facebook": "None", "youtube": "None", "website": "None", "summary": "None", "logo": "None", "latitude": 51.78185733997933, "longitude": -114.12624126374902}, "890317043RR0001": {"name": "ST GEORGE'S ANGLICAN CHURCH", "designationCode": "C", "categoryCode": "30", "address": "PO BOX 118", "city": "GRAFTON", "province": "ON", "country": "CA", "postalCode": "K0K2G0", "twitter": "None", "instagram": "None", "facebook": "None", "youtube": "None", "website": "None", "summary": "None", "logo": "None", "latitude": 43.99255000000005, "longitude": -78.02367999999996}, "890879760RR0001": {"name": "ST GEORGE'S ANGLICAN CHURCH", "designationCode": "C", "categoryCode": "30", "address": "BOX 859", "city": "KINISTINO", "province": "SK", "country": "CA", "postalCode": "S0J1H0", "twitter": "None", "instagram": "None", "facebook": "None", "youtube": "None", "website": "None", "summary": "None", "logo": "None", "latitude": 52.95167619052169, "longitude": -105.02926971926463}, "130318207RR0002": {"name": "ST GEORGE'S CHURCH", "designationCode": "C", "categoryCode": "30", "address": "PO BOX 188", "city": "ILDERTON", "province": "ON", "country": "CA", "postalCode": "N0M2A0", "twitter": "None", "instagram": "None", "facebook": "None", "youtube": "None", "website": "None", "summary": "None", "logo": "None", "latitude": 42.996924570878505, "longitude": -81.5264312436531}, "130809981RR0002": {"name": "ST GEORGE'S CHURCH", "designationCode": "C", "categoryCode": "30", "address": "3 BYRON STREET", "city": "NEW HAMBURG", "province": "ON", "country": "CA", "postalCode": "N3A1P1", "twitter": "None", "instagram": "None", "facebook": "None", "youtube": "None", "website": "None", "summary": "None", "logo": "None", "latitude": 43.37824262815662, "longitude": -80.71491431593853}, "131872608RR0001": {"name": "ST GEORGE'S CHURCH", "designationCode": "C", "categoryCode": "30", "address": "230 CH MAGOON POINT", "city": "GEORGEVILLE", "province": "QC", "country": "CA", "postalCode": "J0B1T0", "twitter": "None", "instagram": "None", "facebook": "None", "youtube": "None", "website": "None", "summary": "None", "logo": "None", "latitude": 45.12959733742975, "longitude": -72.25168193761711}, "132071606RR0002": {"name": "ST GEORGE'S CHURCH", "designationCode": "C", "categoryCode": "30", "address": "321 PANDORA AVE W", "city": "WINNIPEG", "province": "MB", "country": "CA", "postalCode": "R2C1M6", "twitter": "None", "instagram": "None", "facebook": "None", "youtube": "None", "website": "None", "summary": "None", "logo": "None", "latitude": 49.89341450432783, "longitude": -97.00933033236194}, "132142720RR0001": {"name": "ST GEORGE'S CHURCH", "designationCode": "C", "categoryCode": "38", "address": "1055 ROSEDALE AVE", "city": "SARNIA", "province": "ON", "country": "CA", "postalCode": "N7S1Z5", "twitter": "None", "instagram": "None", "facebook": "None", "youtube": "None", "website": "None", "summary": "None", "logo": "None", "latitude": 42.99209047945183, "longitude": -82.36939338521061}, "137003067RR0001": {"name": "ST GEORGE'S CHURCH", "designationCode": "C", "categoryCode": "30", "address": "250 MILL ST S", "city": "NEWCASTLE", "province": "ON", "country": "CA", "postalCode": "L1B1C5", "twitter": "None", "instagram": "None", "facebook": "None", "youtube": "None", "website": "None", "summary": "None", "logo": "None", "latitude": 43.91415059755327, "longitude": -78.58734553346973}, "140554858RR0002": {"name": "ST GEORGE'S CHURCH", "designationCode": "C", "categoryCode": "30", "address": "58 TOWN RD                    RR 1", "city": "FALMOUTH", "province": "NS", "country": "CA", "postalCode": "B0P1L0", "twitter": "None", "instagram": "None", "facebook": "None", "youtube": "None", "website": "None", "summary": "None", "logo": "None", "latitude": 44.99389513933288, "longitude": -64.15607833322731}, "870893039RR0001": {"name": "ST GEORGE'S CHURCH", "designationCode": "C", "categoryCode": "30", "address": "8700 JEROME ST", "city": "WINDSOR", "province": "ON", "country": "CA", "postalCode": "N8S1G8", "twitter": "None", "instagram": "None", "facebook": "None", "youtube": "None", "website": "None", "summary": "None", "logo": "None", "latitude": 42.33146249509525, "longitude": -82.9333305}, "890066640RR0001": {"name": "ST GEORGE'S CHURCH", "designationCode": "C", "categoryCode": "30", "address": "1023 ROYAL YORK RD", "city": "TORONTO", "province": "ON", "country": "CA", "postalCode": "M8X2G5", "twitter": "None", "instagram": "None", "facebook": "None", "youtube": "None", "website": "None", "summary": "None", "logo": "None", "latitude": 43.6520204207686, "longitude": -79.51335965580842}, "890779598RR0002": {"name": "ST GEORGE'S CHURCH", "designationCode": "C", "categoryCode": "30", "address": "213 TUDHOPE ST", "city": "ESPANOLA", "province": "ON", "country": "CA", "postalCode": "P5E1A2", "twitter": "None", "instagram": "None", "facebook": "None", "youtube": "None", "website": "None", "summary": "None", "logo": "None", "latitude": 46.26380442238054, "longitude": -81.77387472201012}, "129801098RR0001": {"name": "ST GEORGE'S CHURCH LENNOXVILLE", "designationCode": "C", "categoryCode": "30", "address": "84 QUEEN ST", "city": "LENNOXVILLE", "province": "QC", "country": "CA", "postalCode": "J1M1J4", "twitter": "None", "instagram": "None", "facebook": "None", "youtube": "None", "website": "None", "summary": "None", "logo": "None", "latitude": 45.36464445045877, "longitude": -71.85642290700571}, "125294678RR0001": {"name": "ST GEORGE'S CHURCH ON THE HILL ISLINGTON", "designationCode": "C", "categoryCode": "30", "address": "4600 DUNDAS ST. WEST", "city": "ETOBICOKE", "province": "ON", "country": "CA", "postalCode": "M9A1A5", "twitter": "None", "instagram": "None", "facebook": "None", "youtube": "None", "website": "None", "summary": "None", "logo": "None", "latitude": 43.65668553124803, "longitude": -79.52097189122266}, "887281087RR0001": {"name": "ST GEORGE'S COLLEGE FOUNDATION", "designationCode": "A", "categoryCode": "21", "address": "120 HOWLAND AVENUE", "city": "TORONTO", "province": "ON", "country": "CA", "postalCode": "M5R3B5", "twitter": "None", "instagram": "None", "facebook": "None", "youtube": "None", "website": "None", "summary": "None", "logo": "None", "latitude": 43.669602964193, "longitude": -79.41023491162198}, "132151085RR0001": {"name": "ST GEORGE'S HOUSING SOCIETY", "designationCode": "C", "categoryCode": "01", "address": "101-76 GORGE ROAD WEST", "city": "VICTORIA", "province": "BC", "country": "CA", "postalCode": "V9A1M1", "twitter": "None", "instagram": "None", "facebook": "None", "youtube": "None", "website": "None", "summary": "None", "logo": "None", "latitude": 48.44514401861033, "longitude": -123.39260434927016}, "888102845RR0001": {"name": "ST GEORGE'S MISSION MELKITE-GREEK CATHOLIC PARISH", "designationCode": "C", "categoryCode": "39", "address": "6610 BALMORAL STREET", "city": "BURNABY", "province": "BC", "country": "CA", "postalCode": "V5E1J1", "twitter": "None", "instagram": "None", "facebook": "None", "youtube": "None", "website": "None", "summary": "None", "logo": "None", "latitude": 49.22014596141712, "longitude": -122.96728664290512}, "128967353RR0013": {"name": "ST GEORGE'S PARISH", "designationCode": "C", "categoryCode": "38", "address": "415 PICCADILLY AVE", "city": "OTTAWA", "province": "ON", "country": "CA", "postalCode": "K1Y0H3", "twitter": "None", "instagram": "None", "facebook": "None", "youtube": "None", "website": "None", "summary": "None", "logo": "None", "latitude": 45.39601524369548, "longitude": -75.74000114775833}, "890683949RR0001": {"name": "ST GEORGE'S PASTORAL CHARGE", "designationCode": "C", "categoryCode": "44", "address": "4 CHURCHILL ST", "city": "STEPHENVILLE", "province": "NL", "country": "CA", "postalCode": "A2N2L2", "twitter": "None", "instagram": "None", "facebook": "None", "youtube": "None", "website": "None", "summary": "None", "logo": "None", "latitude": 48.5497468931628, "longitude": -58.58192922785941}, "874285547RR0001": {"name": "ST GEORGE'S PLACE SOCIETY", "designationCode": "C", "categoryCode": "09", "address": "410 - 1669 BROADWAY E", "city": "VANCOUVER", "province": "BC", "country": "CA", "postalCode": "V5N1V9", "twitter": "None", "instagram": "None", "facebook": "None", "youtube": "None", "website": "None", "summary": "None", "logo": "None", "latitude": 49.26235347879261, "longitude": -123.07054402553523}, "136491644RR0001": {"name": "ST GEORGE'S PRESBYTERIAN CHURCH", "designationCode": "C", "categoryCode": "37", "address": "40 CUMBERLAND CRES.", "city": "LONDON", "province": "ON", "country": "CA", "postalCode": "N5X1B6", "twitter": "None", "instagram": "None", "facebook": "None", "youtube": "None", "website": "None", "summary": "None", "logo": "None", "latitude": 43.03028922038195, "longitude": -81.26616618982641}, "893011577RR0001": {"name": "ST GEORGE'S SENIOR CITIZENS CLUB", "designationCode": "C", "categoryCode": "56", "address": "1235 20TH ST W", "city": "SASKATOON", "province": "SK", "country": "CA", "postalCode": "S7M5B6", "twitter": "None", "instagram": "None", "facebook": "None", "youtube": "None", "website": "None", "summary": "None", "logo": "None", "latitude": 52.12615652120741, "longitude": -106.68794319317328}, "892926981RR0001": {"name": "ST GEORGE'S WAKEFIELD CEMETERY", "designationCode": "C", "categoryCode": "59", "address": "BOX 219", "city": "CLANDEBOYE", "province": "MB", "country": "CA", "postalCode": "R0C0P0", "twitter": "None", "instagram": "None", "facebook": "None", "youtube": "None", "website": "None", "summary": "None", "logo": "None", "latitude": 50.24056236956417, "longitude": -96.97296586585428}, "134982339RR0001": {"name": "ST GEORGES ANGLICAN CHURCH", "designationCode": "C", "categoryCode": "30", "address": "BOX 484", "city": "BIRTLE", "province": "MB", "country": "CA", "postalCode": "R0M0C0", "twitter": "None", "instagram": "None", "facebook": "None", "youtube": "None", "website": "None", "summary": "None", "logo": "None", "latitude": 50.422120000000064, "longitude": -101.04440999999997}, "886303593RR0001": {"name": "ST GEORGES BY THE LAKE ANGLICAN CHURCH", "designationCode": "C", "categoryCode": "30", "address": "1108 LINCOLN DRIVE", "city": "KINGSTON", "province": "ON", "country": "CA", "postalCode": "K7M7P4", "twitter": "None", "instagram": "None", "facebook": "None", "youtube": "None", "website": "None", "summary": "None", "logo": "None", "latitude": 44.242731511541194, "longitude": -76.59686280391252}, "131431173RR0001": {"name": "ST GEORGES MEMORIAL CHURCH", "designationCode": "C", "categoryCode": "30", "address": "39 ATHOL STREET WEST", "city": "OSHAWA", "province": "ON", "country": "CA", "postalCode": "L1H1J5", "twitter": "None", "instagram": "None", "facebook": "None", "youtube": "None", "website": "None", "summary": "None", "logo": "None", "latitude": 43.8962796052975, "longitude": -78.86391884730915}, "130318405RR0003": {"name": "ST GEORGES OF FOREST HILL", "designationCode": "C", "categoryCode": "30", "address": "321 FISCHER-HALLMAN DR", "city": "KITCHENER", "province": "ON", "country": "CA", "postalCode": "N2M4X9", "twitter": "None", "instagram": "None", "facebook": "None", "youtube": "None", "website": "None", "summary": "None", "logo": "None", "latitude": 43.42397072188249, "longitude": -80.51961278590778}, "132077017RR0001": {"name": "ST GEORGES UKRAINIAN CATHOLIC CATHEDRAL", "designationCode": "C", "categoryCode": "38", "address": "210 AVENUE M S", "city": "SASKATOON", "province": "SK", "country": "CA", "postalCode": "S7M2K4", "twitter": "None", "instagram": "None", "facebook": "None", "youtube": "None", "website": "None", "summary": "None", "logo": "None", "latitude": 52.12757950493679, "longitude": -106.6887811381184}, "136861879RR0001": {"name": "ST GERARD EDUCATIONAL SOCIETY", "designationCode": "C", "categoryCode": "21", "address": "1204 96 AVENUE SW", "city": "CALGARY", "province": "AB", "country": "CA", "postalCode": "T2V0Y1", "twitter": "None", "instagram": "None", "facebook": "None", "youtube": "None", "website": "None", "summary": "None", "logo": "None", "latitude": 50.96835507022903, "longitude": -114.0888181058918}, "131056798RR0001": {"name": "ST GERMAIN DAY CARE CENTRE INC", "designationCode": "C", "categoryCode": "20", "address": "79 JOHN FORSYTH ROAD", "city": "WINNIPEG", "province": "MB", "country": "CA", "postalCode": "R2N1R3", "twitter": "None", "instagram": "None", "facebook": "None", "youtube": "None", "website": "None", "summary": "None", "logo": "None", "latitude": 49.81299331363605, "longitude": -97.10065348828498}, "892901562RR0001": {"name": "ST GERMAIN FOUNDATION OF CANADA", "designationCode": "B", "categoryCode": "49", "address": "2804 PARKDALE BLVD. NW.", "city": "CALGARY", "province": "AB", "country": "CA", "postalCode": "T2N3S8", "twitter": "None", "instagram": "None", "facebook": "None", "youtube": "None", "website": "None", "summary": "None", "logo": "None", "latitude": 51.0543219281262, "longitude": -114.12585297639802}, "123640062RR0001": {"name": "ST GILE'S PRESBYTERIAN CHURCH", "designationCode": "C", "categoryCode": "37", "address": "PO BOX 12068", "city": "PRINCE GEORGE", "province": "BC", "country": "CA", "postalCode": "V2L0A8", "twitter": "None", "instagram": "None", "facebook": "None", "youtube": "None", "website": "None", "summary": "None", "logo": "None", "latitude": 53.91241800000006, "longitude": -122.74463149999994}, "129951612RR0001": {"name": "ST GILES KINGSWAY PRESBYTERIAN CHURCH", "designationCode": "C", "categoryCode": "37", "address": "15 LAMBETH RD", "city": "ETOBICOKE", "province": "ON", "country": "CA", "postalCode": "M9A2Y6", "twitter": "None", "instagram": "None", "facebook": "None", "youtube": "None", "website": "None", "summary": "None", "logo": "None", "latitude": 43.66131611376901, "longitude": -79.52084494866975}, "130331184RR0001": {"name": "ST GILES PRESBYTERIAN CHURCH", "designationCode": "C", "categoryCode": "37", "address": "770 LAKESHORE RD", "city": "SARNIA", "province": "ON", "country": "CA", "postalCode": "N7V2T5", "twitter": "None", "instagram": "None", "facebook": "None", "youtube": "None", "website": "None", "summary": "None", "logo": "None", "latitude": 43.0117949959448, "longitude": -82.38206702333275}, "132542580RR0001": {"name": "ST GILES PRESBYTERIAN CHURCH", "designationCode": "C", "categoryCode": "37", "address": "174 FIRST AVE", "city": "OTTAWA", "province": "ON", "country": "CA", "postalCode": "K1S2G4", "twitter": "None", "instagram": "None", "facebook": "None", "youtube": "None", "website": "None", "summary": "None", "logo": "None", "latitude": 45.40459053814429, "longitude": -75.68866083997933}, "892679648RR0001": {"name": "ST GILES PRESBYTERIAN CHURCH", "designationCode": "C", "categoryCode": "37", "address": "61 SCRIVENS RD                RR 1", "city": "PORT DUFFERIN HFX", "province": "NS", "country": "CA", "postalCode": "B0J2R0", "twitter": "None", "instagram": "None", "facebook": "None", "youtube": "None", "website": "None", "summary": "None", "logo": "None", "latitude": 44.91133678795659, "longitude": -62.35193630541307}, "881884928RR0001": {"name": "ST HELEN'S ANGLICAN CHURCH", "designationCode": "C", "categoryCode": "30", "address": "BOX 52                        1 FIRST ST. SOUTH", "city": "HILBRE", "province": "MB", "country": "CA", "postalCode": "R0C1L0", "twitter": "None", "instagram": "None", "facebook": "None", "youtube": "None", "website": "None", "summary": "None", "logo": "None", "latitude": 50.6939767149301, "longitude": -98.03351210865047}, "132168170RR0001": {"name": "ST HELEN'S CHURCH", "designationCode": "C", "categoryCode": "38", "address": "BOX 102", "city": "SHOAL LAKE", "province": "MB", "country": "CA", "postalCode": "R0J1Z0", "twitter": "None", "instagram": "None", "facebook": "None", "youtube": "None", "website": "None", "summary": "None", "logo": "None", "latitude": 50.437670000000026, "longitude": -100.59073999999998}, "119176287RR0001": {"name": "ST HENRY'S PARISH", "designationCode": "C", "categoryCode": "38", "address": "P.O. BOX 186", "city": "FORT VERIMLION", "province": "AB", "country": "CA", "postalCode": "T0H1N0", "twitter": "None", "instagram": "None", "facebook": "None", "youtube": "None", "website": "None", "summary": "None", "logo": "None", "latitude": 58.387344000000056, "longitude": -116.01809449999993}, "891202145RR0001": {"name": "ST HILARY'S COMMUNITY CARE CENTRES INC", "designationCode": "C", "categoryCode": "01", "address": "2055 HURONTARIO STREET", "city": "MISSISSAUGA", "province": "ON", "country": "CA", "postalCode": "L5A2E6", "twitter": "None", "instagram": "None", "facebook": "None", "youtube": "None", "website": "None", "summary": "None", "logo": "None", "latitude": 43.569838000662294, "longitude": -79.60171643840677}, "119264174RR0020": {"name": "ST HILARY'S PARISH", "designationCode": "C", "categoryCode": "38", "address": "PO BOX 283", "city": "RED ROCK", "province": "ON", "country": "CA", "postalCode": "P0T2P0", "twitter": "None", "instagram": "None", "facebook": "None", "youtube": "None", "website": "None", "summary": "None", "logo": "None", "latitude": 48.944210000000055, "longitude": -88.25941999999998}, "889398772RR0001": {"name": "ST HILDA'S ANGLICAN CHURCH", "designationCode": "C", "categoryCode": "30", "address": "24315 TWP 352", "city": "RED DEER COUNTY", "province": "AB", "country": "CA", "postalCode": "T0M0Y0", "twitter": "None", "instagram": "None", "facebook": "None", "youtube": "None", "website": "None", "summary": "None", "logo": "None", "latitude": 51.99742251341711, "longitude": -113.365611}, "131929002RR0002": {"name": "ST HILDA'S-ST LUKE'S", "designationCode": "C", "categoryCode": "30", "address": "185 ELM STREET", "city": "ST THOMAS", "province": "ON", "country": "CA", "postalCode": "N5R1J4", "twitter": "None", "instagram": "None", "facebook": "None", "youtube": "None", "website": "None", "summary": "None", "logo": "None", "latitude": 42.76421435708736, "longitude": -81.18199978339806}, "889685863RR0001": {"name": "ST HUGH'S HOUSE", "designationCode": "C", "categoryCode": "20", "address": "2 - 15 HENDERSON ST", "city": "PORT HOPE", "province": "ON", "country": "CA", "postalCode": "L1A0C6", "twitter": "None", "instagram": "None", "facebook": "None", "youtube": "None", "website": "None", "summary": "None", "logo": "None", "latitude": 43.987713000000056, "longitude": -78.38746999999994}, "128967353RR0052": {"name": "ST HYACINTH'S PARISH", "designationCode": "C", "categoryCode": "38", "address": "201 LEBRETON STREET NORTH", "city": "OTTAWA", "province": "ON", "country": "CA", "postalCode": "K1R7H9", "twitter": "None", "instagram": "None", "facebook": "None", "youtube": "None", "website": "None", "summary": "None", "logo": "None", "latitude": 45.40505230197929, "longitude": -75.70644419161542}, "131167363RR0001": {"name": "ST IGNATIUS LOYOLA CHURCH", "designationCode": "C", "categoryCode": "38", "address": "255 STAFFORD STREET", "city": "WINNIPEG", "province": "MB", "country": "CA", "postalCode": "R3M2X2", "twitter": "None", "instagram": "None", "facebook": "None", "youtube": "None", "website": "None", "summary": "None", "logo": "None", "latitude": 49.86759250178901, "longitude": -97.16105801739823}, "899773105RR0001": {"name": "ST IGNATIUS OF ANTIOCH ANTIOCHIAN ORTHODOX CHURCH", "designationCode": "C", "categoryCode": "39", "address": "75 ROLLS AVE", "city": "ST CATHARINES", "province": "ON", "country": "CA", "postalCode": "L2N1W3", "twitter": "None", "instagram": "None", "facebook": "None", "youtube": "None", "website": "None", "summary": "None", "logo": "None", "latitude": 43.17762661809684, "longitude": -79.2326881392173}, "128967353RR0069": {"name": "ST ISIDORE'S PARISH", "designationCode": "C", "categoryCode": "38", "address": "1135 MARCH ROAD", "city": "KANATA", "province": "ON", "country": "CA", "postalCode": "K2K1X7", "twitter": "None", "instagram": "None", "facebook": "None", "youtube": "None", "website": "None", "summary": "None", "logo": "None", "latitude": 45.36875866028027, "longitude": -75.95009569457068}, "133526624RR0001": {"name": "ST JACOBS DAY CARE INC", "designationCode": "C", "categoryCode": "20", "address": "1386 KING ST.", "city": "ST. JACOBS", "province": "ON", "country": "CA", "postalCode": "N0B2N0", "twitter": "None", "instagram": "None", "facebook": "None", "youtube": "None", "website": "None", "summary": "None", "logo": "None", "latitude": 43.5383727461881, "longitude": -80.55369605346515}, "890005069RR0002": {"name": "ST JAME'S ANGLICAN CHURCH", "designationCode": "C", "categoryCode": "30", "address": "BOX 1238", "city": "ST MARYS", "province": "ON", "country": "CA", "postalCode": "N4X1B8", "twitter": "None", "instagram": "None", "facebook": "None", "youtube": "None", "website": "None", "summary": "None", "logo": "None", "latitude": 43.25948700000005, "longitude": -81.14143399999993}, "131639163RR0002": {"name": "ST JAMES", "designationCode": "C", "categoryCode": "30", "address": "41 MORINGTON ST", "city": "STRATFORD", "province": "ON", "country": "CA", "postalCode": "N5A5E4", "twitter": "None", "instagram": "None", "facebook": "None", "youtube": "None", "website": "None", "summary": "None", "logo": "None", "latitude": 43.37392208852223, "longitude": -80.98473597651359}, "122299035RR0001": {"name": "ST JAMES ANGLICAN CHURCH", "designationCode": "C", "categoryCode": "30", "address": "10 CARIBOU RD", "city": "THOMPSON", "province": "MB", "country": "CA", "postalCode": "R8N0L1", "twitter": "None", "instagram": "None", "facebook": "None", "youtube": "None", "website": "None", "summary": "None", "logo": "None", "latitude": 55.744629402911556, "longitude": -97.86085914914013}, "131893190RR0001": {"name": "ST JAMES ANGLICAN CHURCH", "designationCode": "C", "categoryCode": "30", "address": "BOX 74", "city": "KEMPTVILLE", "province": "ON", "country": "CA", "postalCode": "K0G1J0", "twitter": "None", "instagram": "None", "facebook": "None", "youtube": "None", "website": "None", "summary": "None", "logo": "None", "latitude": 44.98774800000005, "longitude": -75.69332899999993}, "892641614RR0001": {"name": "ST JAMES ANGLICAN CHURCH", "designationCode": "C", "categoryCode": "30", "address": "320 132 RTE", "city": "PORT-DANIEL", "province": "QC", "country": "CA", "postalCode": "G0C2N0", "twitter": "None", "instagram": "None", "facebook": "None", "youtube": "None", "website": "None", "summary": "None", "logo": "None", "latitude": 48.14008084228839, "longitude": -64.98958582940135}, "135138790RR0002": {"name": "ST JAMES ANGLICAN CHURCH PARKHILL", "designationCode": "C", "categoryCode": "30", "address": "155 BROADWAY ST.", "city": "PARKHILL", "province": "ON", "country": "CA", "postalCode": "N0M2K0", "twitter": "None", "instagram": "None", "facebook": "None", "youtube": "None", "website": "None", "summary": "None", "logo": "None", "latitude": 43.1615435185737, "longitude": -81.68773530869117}, "888566593RR0001": {"name": "ST JAMES CALEDON EAST", "designationCode": "C", "categoryCode": "30", "address": "6025 OLD CHURCH ROAD", "city": "CALEDON", "province": "ON", "country": "CA", "postalCode": "L7C1H8", "twitter": "None", "instagram": "None", "facebook": "None", "youtube": "None", "website": "None", "summary": "None", "logo": "None", "latitude": 43.87067181819501, "longitude": -79.86635002204412}, "890353378RR0001": {"name": "ST JAMES CEMETERY GROUNDS FUND", "designationCode": "C", "categoryCode": "59", "address": "BOX 192", "city": "FOXWARREN", "province": "MB", "country": "CA", "postalCode": "R0J0R0", "twitter": "None", "instagram": "None", "facebook": "None", "youtube": "None", "website": "None", "summary": "None", "logo": "None", "latitude": 50.520740000000046, "longitude": -101.15296999999998}, "132299363RR0002": {"name": "ST JAMES CHURCH", "designationCode": "C", "categoryCode": "30", "address": "PO BOX 94", "city": "PARIS", "province": "ON", "country": "CA", "postalCode": "N3L3E5", "twitter": "None", "instagram": "None", "facebook": "None", "youtube": "None", "website": "None", "summary": "None", "logo": "None", "latitude": 43.190664000000055, "longitude": -80.38167199999994}, "892428962RR0001": {"name": "ST JAMES CHURCH", "designationCode": "C", "categoryCode": "30", "address": "9 RUE ROBERT-PEEL", "city": "SHERBROOKE", "province": "QC", "country": "CA", "postalCode": "J1M1W9", "twitter": "None", "instagram": "None", "facebook": "None", "youtube": "None", "website": "None", "summary": "None", "logo": "None", "latitude": 45.36342052510253, "longitude": -71.86214249999999}, "899990766RR0001": {"name": "ST JAMES COMMUNITY SQUARE SOCIETY", "designationCode": "C", "categoryCode": "56", "address": "3214 WEST 10TH AVE", "city": "VANCOUVER", "province": "BC", "country": "CA", "postalCode": "V6K2L2", "twitter": "None", "instagram": "None", "facebook": "None", "youtube": "None", "website": "None", "summary": "None", "logo": "None", "latitude": 49.263310521207394, "longitude": -123.17650063780367}, "892207044RR0001": {"name": "ST JAMES EDUCATION SOCIETY OF CALGARY", "designationCode": "C", "categoryCode": "21", "address": "2227 58 AVE SW", "city": "CALGARY", "province": "AB", "country": "CA", "postalCode": "T3E1N6", "twitter": "None", "instagram": "None", "facebook": "None", "youtube": "None", "website": "None", "summary": "None", "logo": "None", "latitude": 51.00137247792724, "longitude": -114.11300152553522}, "132185109RR0001": {"name": "ST JAMES EVANGELICAL LUTHERAN CHURCH", "designationCode": "C", "categoryCode": "32", "address": "142 GORDON ST.                PO BOX 216", "city": "WILLIAMSFORD", "province": "ON", "country": "CA", "postalCode": "N0H2V0", "twitter": "None", "instagram": "None", "facebook": "None", "youtube": "None", "website": "None", "summary": "None", "logo": "None", "latitude": 44.38064366651852, "longitude": -80.87058312295501}, "889561049RR0001": {"name": "ST JAMES EVANGELICAL LUTHERAN CHURCH", "designationCode": "C", "categoryCode": "32", "address": "1000 KNECHTEL COURT RR #2", "city": "PETERSBURG", "province": "ON", "country": "CA", "postalCode": "N0B2H0", "twitter": "None", "instagram": "None", "facebook": "None", "youtube": "None", "website": "None", "summary": "None", "logo": "None", "latitude": 43.39923639165536, "longitude": -80.53813530128679}, "889169066RR0001": {"name": "ST JAMES HORTICULTURAL SOCIETY", "designationCode": "C", "categoryCode": "56", "address": "1881 PORTAGE AVE              P.O. BOX 42086", "city": "WINNIPEG", "province": "MB", "country": "CA", "postalCode": "R3J3X7", "twitter": "None", "instagram": "None", "facebook": "None", "youtube": "None", "website": "None", "summary": "None", "logo": "None", "latitude": 49.87872745441124, "longitude": -97.21935118887411}, "134883628RR0001": {"name": "ST JAMES LUTHERAN CHURCH", "designationCode": "C", "categoryCode": "32", "address": "66 ELGIN AVE E", "city": "RENFREW", "province": "ON", "country": "CA", "postalCode": "K7V3T5", "twitter": "None", "instagram": "None", "facebook": "None", "youtube": "None", "website": "None", "summary": "None", "logo": "None", "latitude": 45.47863106246741, "longitude": -76.69570999558526}, "125347518RR0001": {"name": "ST JAMES PARISH", "designationCode": "C", "categoryCode": "38", "address": "BOX 55", "city": "MANNING", "province": "AB", "country": "CA", "postalCode": "T0H2M0", "twitter": "None", "instagram": "None", "facebook": "None", "youtube": "None", "website": "None", "summary": "None", "logo": "None", "latitude": 56.92804794843537, "longitude": -117.62848367126821}, "119275154RR0001": {"name": "ST JAMES PRESBYTERIAN CHURCH", "designationCode": "C", "categoryCode": "37", "address": "486 SIMCOE ST SOUTH", "city": "OSHAWA", "province": "ON", "country": "CA", "postalCode": "L1H4J8", "twitter": "None", "instagram": "None", "facebook": "None", "youtube": "None", "website": "None", "summary": "None", "logo": "None", "latitude": 43.88481165583708, "longitude": -78.85783505900496}, "131930489RR0001": {"name": "ST JAMES PRESBYTERIAN CHURCH", "designationCode": "C", "categoryCode": "37", "address": "275 NEWCASTLE BLVD", "city": "MIRAMICHI", "province": "NB", "country": "CA", "postalCode": "E1V7N4", "twitter": "None", "instagram": "None", "facebook": "None", "youtube": "None", "website": "None", "summary": "None", "logo": "None", "latitude": 47.00470198852684, "longitude": -65.56824042737196}, "132207382RR0001": {"name": "ST JAMES PRESBYTERIAN CHURCH", "designationCode": "C", "categoryCode": "37", "address": "1991 HIGHWAY 640", "city": "HANWELL", "province": "NB", "country": "CA", "postalCode": "E3C1Z5", "twitter": "None", "instagram": "None", "facebook": "None", "youtube": "None", "website": "None", "summary": "None", "logo": "None", "latitude": 45.909366331161735, "longitude": -66.74548033508695}, "132488248RR0001": {"name": "ST JAMES PRESBYTERIAN CHURCH", "designationCode": "C", "categoryCode": "37", "address": "142 QUEEN ST", "city": "TRURO", "province": "NS", "country": "CA", "postalCode": "B2N2B5", "twitter": "None", "instagram": "None", "facebook": "None", "youtube": "None", "website": "None", "summary": "None", "logo": "None", "latitude": 45.366052612239784, "longitude": -63.27902672176692}, "133286203RR0001": {"name": "ST JAMES PRESBYTERIAN CHURCH", "designationCode": "C", "categoryCode": "37", "address": "6432 MAIN ST", "city": "STOUFFVILLE", "province": "ON", "country": "CA", "postalCode": "L4A1G3", "twitter": "None", "instagram": "None", "facebook": "None", "youtube": "None", "website": "None", "summary": "None", "logo": "None", "latitude": 43.972559136880044, "longitude": -79.24145856108242}, "887858066RR0001": {"name": "ST JAMES PRESBYTERIAN WOMEN", "designationCode": "C", "categoryCode": "47", "address": "6432 MAIN STREET", "city": "STOUFFVILLE", "province": "ON", "country": "CA", "postalCode": "L4A1G3", "twitter": "None", "instagram": "None", "facebook": "None", "youtube": "None", "website": "None", "summary": "None", "logo": "None", "latitude": 43.972559136880044, "longitude": -79.24145856108242}, "131442501RR0001": {"name": "ST JAMES UNITED CHURCH", "designationCode": "C", "categoryCode": "44", "address": "2230 VICTORIA ST WEST", "city": "INNISFIL", "province": "ON", "country": "CA", "postalCode": "L9S1K5", "twitter": "None", "instagram": "None", "facebook": "None", "youtube": "None", "website": "None", "summary": "None", "logo": "None", "latitude": 44.32400115462497, "longitude": -79.62105960825772}, "139520456RR0001": {"name": "ST JAMES UNITED CHURCH", "designationCode": "C", "categoryCode": "44", "address": "PO BOX 68", "city": "OSGOODE", "province": "ON", "country": "CA", "postalCode": "K0A2W0", "twitter": "None", "instagram": "None", "facebook": "None", "youtube": "None", "website": "None", "summary": "None", "logo": "None", "latitude": 45.14356518086365, "longitude": -75.59063555322211}, "890283187RR0001": {"name": "ST JAMES-ASSINIBOIA FOCUS ON YOUTH INCORPORATED", "designationCode": "C", "categoryCode": "09", "address": "443 THOMPSON DR", "city": "WINNIPEG", "province": "MB", "country": "CA", "postalCode": "R3J3E7", "twitter": "None", "instagram": "None", "facebook": "None", "youtube": "None", "website": "None", "summary": "None", "logo": "None", "latitude": 49.88550389425243, "longitude": -97.26621955658172}, "108020819RR0001": {"name": "ST JAMES-ASSINIBOIA MONTESSORI ASSOCIATION INC", "designationCode": "C", "categoryCode": "20", "address": "3180 MCBEY AVE", "city": "WINNIPEG", "province": "MB", "country": "CA", "postalCode": "R3K0T7", "twitter": "None", "instagram": "None", "facebook": "None", "youtube": "None", "website": "None", "summary": "None", "logo": "None", "latitude": 49.87821955669728, "longitude": -97.28842385221301}, "886369792RR0001": {"name": "ST JAMES' ANGLICAN CHURCH", "designationCode": "C", "categoryCode": "30", "address": "NANCY MARLOW, PEOPLE'S WARDEN 10 UNION ST. WEST", "city": "KINGSTON", "province": "ON", "country": "CA", "postalCode": "K7L2N7", "twitter": "None", "instagram": "None", "facebook": "None", "youtube": "None", "website": "None", "summary": "None", "logo": "None", "latitude": 44.23085700000006, "longitude": -76.49697499999994}, "124457821RR0001": {"name": "ST JAMES' CHURCH", "designationCode": "C", "categoryCode": "30", "address": "998392 MULMUR-TOSORONTIO      TOWN LINE", "city": "MULMUR", "province": "ON", "country": "CA", "postalCode": "L9V0N5", "twitter": "None", "instagram": "None", "facebook": "None", "youtube": "None", "website": "None", "summary": "None", "logo": "None", "latitude": 44.265911838462465, "longitude": -80.02674870149147}, "131851016RR0001": {"name": "ST JAMES' CHURCH", "designationCode": "C", "categoryCode": "30", "address": "PO BOX 448", "city": "NEEPAWA", "province": "MB", "country": "CA", "postalCode": "R0J1H0", "twitter": "None", "instagram": "None", "facebook": "None", "youtube": "None", "website": "None", "summary": "None", "logo": "None", "latitude": 50.22581100000005, "longitude": -99.48963949999994}, "131983314RR0002": {"name": "ST JAMES' CHURCH", "designationCode": "C", "categoryCode": "30", "address": "BOX 221", "city": "PORT CARLING", "province": "ON", "country": "CA", "postalCode": "P0B1J0", "twitter": "None", "instagram": "None", "facebook": "None", "youtube": "None", "website": "None", "summary": "None", "logo": "None", "latitude": 45.12709000000007, "longitude": -79.58558999999997}, "136979028RR0001": {"name": "ST JAMES' CHURCH", "designationCode": "C", "categoryCode": "30", "address": "404 10TH AVENUE", "city": "HANOVER", "province": "ON", "country": "CA", "postalCode": "N4N2N8", "twitter": "None", "instagram": "None", "facebook": "None", "youtube": "None", "website": "None", "summary": "None", "logo": "None", "latitude": 44.150790174851416, "longitude": -81.02613730241197}, "887860542RR0001": {"name": "ST JAMES' CHURCH", "designationCode": "C", "categoryCode": "30", "address": "PO BOX 279", "city": "RIVERS", "province": "MB", "country": "CA", "postalCode": "R0K1X0", "twitter": "None", "instagram": "None", "facebook": "None", "youtube": "None", "website": "None", "summary": "None", "logo": "None", "latitude": 49.55658299999999, "longitude": -99.0937665}, "888622396RR0002": {"name": "ST JAMES' CHURCH", "designationCode": "C", "categoryCode": "30", "address": "RR 1  63 CH BOULAIS", "city": "FARNHAM", "province": "QC", "country": "CA", "postalCode": "J2N2P9", "twitter": "None", "instagram": "None", "facebook": "None", "youtube": "None", "website": "None", "summary": "None", "logo": "None", "latitude": 45.26627301131206, "longitude": -72.94199078543289}, "889934444RR0001": {"name": "ST JAMES' CHURCH", "designationCode": "C", "categoryCode": "30", "address": "BOX 729", "city": "SWAN RIVER", "province": "MB", "country": "CA", "postalCode": "R0L1Z0", "twitter": "None", "instagram": "None", "facebook": "None", "youtube": "None", "website": "None", "summary": "None", "logo": "None", "latitude": 52.11672730414978, "longitude": -101.25989472758229}, "890254642RR0002": {"name": "ST JAMES' CHURCH", "designationCode": "C", "categoryCode": "30", "address": "19 CHURCH ST.", "city": "ORMSTOWN", "province": "QC", "country": "CA", "postalCode": "J0S1K0", "twitter": "None", "instagram": "None", "facebook": "None", "youtube": "None", "website": "None", "summary": "None", "logo": "None", "latitude": 45.12740235662775, "longitude": -73.99457768737356}, "890683998RR0002": {"name": "ST JAMES' CHURCH", "designationCode": "C", "categoryCode": "30", "address": "1036 MORTIMER'S PT. RD.", "city": "PORT CARLING", "province": "ON", "country": "CA", "postalCode": "P0B1J0", "twitter": "None", "instagram": "None", "facebook": "None", "youtube": "None", "website": "None", "summary": "None", "logo": "None", "latitude": 45.06825140664418, "longitude": -79.57326278013541}}