{"119109791RR0028": {"name": "ST. MARY OF THE ASSUMPTION CHURCH", "designationCode": "C", "categoryCode": "38", "address": "169 ST. PAUL CRES.", "city": "ST. CATHARINES", "province": "ON", "country": "CA", "postalCode": "L2S1N4", "twitter": "None", "instagram": "None", "facebook": "None", "youtube": "None", "website": "None", "summary": "None", "logo": "None", "latitude": 43.14786540267789, "longitude": -79.2517625750478}, "118787142RR0041": {"name": "ST. MARY OF THE INCARNATION", "designationCode": "C", "categoryCode": "30", "address": "4125 METCHOSIN RD", "city": "VICTORIA", "province": "BC", "country": "CA", "postalCode": "V9C3Z6", "twitter": "None", "instagram": "None", "facebook": "None", "youtube": "None", "website": "None", "summary": "None", "logo": "None", "latitude": 48.389125057966694, "longitude": -123.52625110066994}, "107910259RR0132": {"name": "ST. MARY OF THE PEOPLE PARISH", "designationCode": "C", "categoryCode": "38", "address": "570 MARION AVE", "city": "OSHAWA", "province": "ON", "country": "CA", "postalCode": "L1J3B9", "twitter": "None", "instagram": "None", "facebook": "None", "youtube": "None", "website": "None", "summary": "None", "logo": "None", "latitude": 43.906184158520134, "longitude": -78.8898596265796}, "108029729RR0001": {"name": "ST. MARY ROMANIAN ORTHODOX PARISH OF CALGARY", "designationCode": "C", "categoryCode": "39", "address": "3511 3RD AVE.S.W.", "city": "CALGARY", "province": "AB", "country": "CA", "postalCode": "T3C0A7", "twitter": "None", "instagram": "None", "facebook": "None", "youtube": "None", "website": "None", "summary": "None", "logo": "None", "latitude": 51.050312488458815, "longitude": -114.137883}, "108148263RR0049": {"name": "ST. MARY THE PROTECTRESS UKRAINIAN ORTHODOX CHURCH", "designationCode": "C", "categoryCode": "39", "address": "BOX 1942", "city": "MELLIVILLE", "province": "SK", "country": "CA", "postalCode": "S0A2P0", "twitter": "None", "instagram": "None", "facebook": "None", "youtube": "None", "website": "None", "summary": "None", "logo": "None", "latitude": 50.87164886256234, "longitude": -103.09293300498788}, "108029786RR0001": {"name": "ST. MARY THE VIRGIN", "designationCode": "C", "categoryCode": "30", "address": "PO BOX 15", "city": "VIRDEN", "province": "MB", "country": "CA", "postalCode": "R0M2C0", "twitter": "None", "instagram": "None", "facebook": "None", "youtube": "None", "website": "None", "summary": "None", "logo": "None", "latitude": 49.85688000000005, "longitude": -100.92262999999997}, "108030560RR0002": {"name": "ST. MARY' S LA PRAIRIE ANGLICAN CHURCH", "designationCode": "C", "categoryCode": "30", "address": "36 2ND ST S.W.", "city": "PORTAGE LA PRAIRIE", "province": "MB", "country": "CA", "postalCode": "R1N2A1", "twitter": "None", "instagram": "None", "facebook": "None", "youtube": "None", "website": "None", "summary": "None", "logo": "None", "latitude": 49.97228833927955, "longitude": -98.29371092776839}, "108029810RR0002": {"name": "ST. MARY'S ANGLICAN CHURCH", "designationCode": "C", "categoryCode": "30", "address": "BOX 5", "city": "EDGERTON", "province": "AB", "country": "CA", "postalCode": "T0B1K0", "twitter": "None", "instagram": "None", "facebook": "None", "youtube": "None", "website": "None", "summary": "None", "logo": "None", "latitude": 52.750140000000044, "longitude": -110.45159999999998}, "108029828RR0002": {"name": "ST. MARY'S ANGLICAN CHURCH", "designationCode": "C", "categoryCode": "30", "address": "11203 68 ST", "city": "EDMONTON", "province": "AB", "country": "CA", "postalCode": "T5B1N6", "twitter": "None", "instagram": "None", "facebook": "None", "youtube": "None", "website": "None", "summary": "None", "logo": "None", "latitude": 53.564060042472114, "longitude": -113.44222277973363}, "118787142RR0053": {"name": "ST. MARY'S ANGLICAN CHURCH", "designationCode": "C", "categoryCode": "30", "address": "2600 POWDER POINT ROAD", "city": "NANOOSE BAY", "province": "BC", "country": "CA", "postalCode": "V9P9E8", "twitter": "None", "instagram": "None", "facebook": "None", "youtube": "None", "website": "None", "summary": "None", "logo": "None", "latitude": 49.27351206638748, "longitude": -124.18425049077715}, "889375176RR0002": {"name": "ST. MARY'S ANGLICAN CHURCH", "designationCode": "C", "categoryCode": "30", "address": "PO BOX 726", "city": "NIPIGON", "province": "ON", "country": "CA", "postalCode": "P0T2J0", "twitter": "None", "instagram": "None", "facebook": "None", "youtube": "None", "website": "None", "summary": "None", "logo": "None", "latitude": 49.43220506449858, "longitude": -88.12945411505873}, "895143741RR0001": {"name": "ST. MARY'S ANTIOCHIAN ORTHODOX CHURCH (ONTARIO)", "designationCode": "C", "categoryCode": "39", "address": "280 TRADERS BLVD E", "city": "MISSISSAUGA", "province": "ON", "country": "CA", "postalCode": "L4Z1W7", "twitter": "None", "instagram": "None", "facebook": "None", "youtube": "None", "website": "None", "summary": "None", "logo": "None", "latitude": 43.62837341320946, "longitude": -79.66796037797937}, "119109833RR0001": {"name": "ST. MARY'S BASILICA", "designationCode": "C", "categoryCode": "38", "address": "1508 BARRINGTON", "city": "HALIFAX", "province": "NS", "country": "CA", "postalCode": "B3J1Z3", "twitter": "None", "instagram": "None", "facebook": "None", "youtube": "None", "website": "None", "summary": "None", "logo": "None", "latitude": 44.64440959172487, "longitude": -63.57267451944705}, "107909939RR0010": {"name": "ST. MARY'S CATHEDRAL", "designationCode": "C", "categoryCode": "38", "address": "219-18 AVE S W", "city": "CALGARY", "province": "AB", "country": "CA", "postalCode": "T2S0C2", "twitter": "None", "instagram": "None", "facebook": "None", "youtube": "None", "website": "None", "summary": "None", "logo": "None", "latitude": 51.03700852063048, "longitude": -114.06625199999999}, "119110443RR0033": {"name": "ST. MARY'S CATHEDRAL", "designationCode": "C", "categoryCode": "38", "address": "279 JOHNSON STREET", "city": "KINGSTON", "province": "ON", "country": "CA", "postalCode": "K7L1Y5", "twitter": "None", "instagram": "None", "facebook": "None", "youtube": "None", "website": "None", "summary": "None", "logo": "None", "latitude": 44.230890329476395, "longitude": -76.4904568889723}, "107307191RR0025": {"name": "ST. MARY'S CHURCH", "designationCode": "C", "categoryCode": "38", "address": "BOX 95", "city": "COLONSAY", "province": "SK", "country": "CA", "postalCode": "S0K0Z0", "twitter": "None", "instagram": "None", "facebook": "None", "youtube": "None", "website": "None", "summary": "None", "logo": "None", "latitude": 51.98154711201623, "longitude": -105.86010910112017}, "107909939RR0001": {"name": "ST. MARY'S CHURCH", "designationCode": "C", "categoryCode": "38", "address": "PO BOX 95", "city": "BEISEKER", "province": "AB", "country": "CA", "postalCode": "T0M0G0", "twitter": "None", "instagram": "None", "facebook": "None", "youtube": "None", "website": "None", "summary": "None", "logo": "None", "latitude": 51.386990000000026, "longitude": -113.52201999999994}, "107909939RR0035": {"name": "ST. MARY'S CHURCH", "designationCode": "C", "categoryCode": "38", "address": "PO BOX 578", "city": "BROOKS", "province": "AB", "country": "CA", "postalCode": "T1R1B5", "twitter": "None", "instagram": "None", "facebook": "None", "youtube": "None", "website": "None", "summary": "None", "logo": "None", "latitude": 50.56584900000006, "longitude": -111.89848399999994}, "107909939RR0038": {"name": "ST. MARY'S CHURCH", "designationCode": "C", "categoryCode": "38", "address": "10 RIVER HEIGHTS DR", "city": "COCHRANE", "province": "AB", "country": "CA", "postalCode": "T4C0N8", "twitter": "None", "instagram": "None", "facebook": "None", "youtube": "None", "website": "None", "summary": "None", "logo": "None", "latitude": 51.16343233990427, "longitude": -114.46898024964044}, "108031154RR0001": {"name": "ST. MARY'S CHURCH", "designationCode": "C", "categoryCode": "38", "address": "293 ST GEORGE'S AVE E", "city": "SAULT STE MARIE", "province": "ON", "country": "CA", "postalCode": "P6B6E8", "twitter": "None", "instagram": "None", "facebook": "None", "youtube": "None", "website": "None", "summary": "None", "logo": "None", "latitude": 46.52337580962532, "longitude": -84.32712916928286}, "118787142RR0002": {"name": "ST. MARY'S CHURCH", "designationCode": "C", "categoryCode": "30", "address": "1701 ELGIN ROAD", "city": "VICTORIA", "province": "BC", "country": "CA", "postalCode": "V8R5L7", "twitter": "None", "instagram": "None", "facebook": "None", "youtube": "None", "website": "None", "summary": "None", "logo": "None", "latitude": 48.42808007216229, "longitude": -123.31924068327687}, "119109791RR0042": {"name": "ST. MARY'S CHURCH", "designationCode": "C", "categoryCode": "38", "address": "90 GRIFFITH STREET", "city": "WELLAND", "province": "ON", "country": "CA", "postalCode": "L3B4G4", "twitter": "None", "instagram": "None", "facebook": "None", "youtube": "None", "website": "None", "summary": "None", "logo": "None", "latitude": 42.98850349711448, "longitude": -79.24759166472387}, "119109817RR0062": {"name": "ST. MARY'S CHURCH", "designationCode": "C", "categoryCode": "38", "address": "MARIARAJ IRUDAYAM, OFM CAP    PO BOX 580", "city": "BLENHEIM", "province": "ON", "country": "CA", "postalCode": "N0P1A0", "twitter": "None", "instagram": "None", "facebook": "None", "youtube": "None", "website": "None", "summary": "None", "logo": "None", "latitude": 42.33832800000006, "longitude": -81.91124899999993}, "119110443RR0024": {"name": "ST. MARY'S CHURCH", "designationCode": "C", "categoryCode": "38", "address": "P.O. BOX 612", "city": "MORRISBURG", "province": "ON", "country": "CA", "postalCode": "K0C1X0", "twitter": "None", "instagram": "None", "facebook": "None", "youtube": "None", "website": "None", "summary": "None", "logo": "None", "latitude": 44.89832000000007, "longitude": -75.19097999999997}, "119110443RR0054": {"name": "ST. MARY'S CHURCH", "designationCode": "C", "categoryCode": "38", "address": "28 HAWTHORNE AVE", "city": "CARLETON PLACE", "province": "ON", "country": "CA", "postalCode": "K7C3A9", "twitter": "None", "instagram": "None", "facebook": "None", "youtube": "None", "website": "None", "summary": "None", "logo": "None", "latitude": 45.135116695279855, "longitude": -76.14608353047396}, "119110443RR0056": {"name": "ST. MARY'S CHURCH", "designationCode": "C", "categoryCode": "38", "address": "P.O. BOX 730", "city": "CHESTERVILLE", "province": "ON", "country": "CA", "postalCode": "K0C1H0", "twitter": "None", "instagram": "None", "facebook": "None", "youtube": "None", "website": "None", "summary": "None", "logo": "None", "latitude": 45.103770000000054, "longitude": -75.23067999999995}, "869993444RR0001": {"name": "ST. MARY'S CHURCH", "designationCode": "C", "categoryCode": "30", "address": "75 KIRKLAND BLVD.", "city": "KIRKLAND", "province": "QC", "country": "CA", "postalCode": "H9J1N5", "twitter": "None", "instagram": "None", "facebook": "None", "youtube": "None", "website": "None", "summary": "None", "logo": "None", "latitude": 45.44238963832328, "longitude": -73.85945824121396}, "108014432RR0001": {"name": "ST. MARY'S COPTIC ORTHODOX CHURCH OF EDMONTON", "designationCode": "C", "categoryCode": "39", "address": "5803 11A AVE NW", "city": "EDMONTON", "province": "AB", "country": "CA", "postalCode": "T6L6A8", "twitter": "None", "instagram": "None", "facebook": "None", "youtube": "None", "website": "None", "summary": "None", "logo": "None", "latitude": 53.440425506203766, "longitude": -113.42906002553522}, "895137909RR0001": {"name": "ST. MARY'S COUNCIL NO. 3212 CHARITABLE WELFARE TRUST", "designationCode": "A", "categoryCode": "05", "address": "P.O. BOX 83", "city": "TILLSONBURG", "province": "ON", "country": "CA", "postalCode": "N4G4H3", "twitter": "None", "instagram": "None", "facebook": "None", "youtube": "None", "website": "None", "summary": "None", "logo": "None", "latitude": 42.86066100000005, "longitude": -80.72789299999994}, "119189082RR0001": {"name": "ST. MARY'S HOME", "designationCode": "C", "categoryCode": "01", "address": "780 DE L'EGLISE STREET", "city": "OTTAWA", "province": "ON", "country": "CA", "postalCode": "K1K3K7", "twitter": "None", "instagram": "None", "facebook": "None", "youtube": "None", "website": "None", "summary": "None", "logo": "None", "latitude": 45.43357496863641, "longitude": -75.64846013411007}, "853428043RR0001": {"name": "ST. MARY'S HOSPITAL, CAMROSE FOUNDATION", "designationCode": "A", "categoryCode": "15", "address": "9R- 11111 JASPER AVE", "city": "EDMONTON", "province": "AB", "country": "CA", "postalCode": "T5K0L4", "twitter": "None", "instagram": "None", "facebook": "None", "youtube": "None", "website": "None", "summary": "None", "logo": "None", "latitude": 53.54089750836813, "longitude": -113.51300302553523}, "887903839RR0001": {"name": "ST. MARY'S INTERNATIONAL CHARITABLE ORGANIZATION", "designationCode": "C", "categoryCode": "09", "address": "357 STROUDS LANE", "city": "PICKERING", "province": "ON", "country": "CA", "postalCode": "L1V7J2", "twitter": "None", "instagram": "None", "facebook": "None", "youtube": "None", "website": "None", "summary": "None", "logo": "None", "latitude": 43.8235058778638, "longitude": -79.13476329237133}, "894567650RR0001": {"name": "ST. MARY'S MACEDONIAN ORTHODOX CHURCH", "designationCode": "C", "categoryCode": "39", "address": "50 AUGUSTA STREET", "city": "CAMBRIDGE", "province": "ON", "country": "CA", "postalCode": "N1R1G1", "twitter": "None", "instagram": "None", "facebook": "None", "youtube": "None", "website": "None", "summary": "None", "logo": "None", "latitude": 43.37265223786711, "longitude": -80.31879890536092}, "872867304RR0001": {"name": "ST. MARY'S MALANKARA ORTHODOX CHURCH - CALGARY", "designationCode": "C", "categoryCode": "39", "address": "PO BOX 68112 CROWFOOT POST OFC28 CROWFOOT TERRACE NW", "city": "CALGARY", "province": "AB", "country": "CA", "postalCode": "T3G3N8", "twitter": "None", "instagram": "None", "facebook": "None", "youtube": "None", "website": "None", "summary": "None", "logo": "None", "latitude": 51.12768825150366, "longitude": -114.20133719680427}, "108030628RR0001": {"name": "ST. MARY'S MONTESSORI SCHOOL INC.", "designationCode": "C", "categoryCode": "20", "address": "150 PACIFIC AVENUE", "city": "WINNIPEG", "province": "MB", "country": "CA", "postalCode": "R3B3K8", "twitter": "None", "instagram": "None", "facebook": "None", "youtube": "None", "website": "None", "summary": "None", "logo": "None", "latitude": 49.90047622840338, "longitude": -97.1349309311846}, "108030669RR0001": {"name": "ST. MARY'S OF THE LAKE HOSPITAL", "designationCode": "C", "categoryCode": "10", "address": "PO BOX 3600 STN MAIN", "city": "KINGSTON", "province": "ON", "country": "CA", "postalCode": "K7L5A2", "twitter": "None", "instagram": "None", "facebook": "None", "youtube": "None", "website": "None", "summary": "None", "logo": "None", "latitude": 44.23153200000006, "longitude": -76.47933049999993}, "106880107RR0024": {"name": "ST. MARY'S PARISH", "designationCode": "C", "categoryCode": "38", "address": "3944 EAST BAY HWY", "city": "EAST BAY", "province": "NS", "country": "CA", "postalCode": "B1J1M5", "twitter": "None", "instagram": "None", "facebook": "None", "youtube": "None", "website": "None", "summary": "None", "logo": "None", "latitude": 46.011760580413906, "longitude": -60.38436381652064}, "107020331RR0046": {"name": "ST. MARY'S PARISH", "designationCode": "C", "categoryCode": "38", "address": "360 NEWCASTLE BLVD", "city": "MIRAMICHI", "province": "NB", "country": "CA", "postalCode": "E1V2J9", "twitter": "None", "instagram": "None", "facebook": "None", "youtube": "None", "website": "None", "summary": "None", "logo": "None", "latitude": 47.00638470740408, "longitude": -65.56987704531706}, "107307191RR0007": {"name": "ST. MARY'S PARISH", "designationCode": "C", "categoryCode": "38", "address": "211 AVENUE O SOUTH", "city": "SASKATOON", "province": "SK", "country": "CA", "postalCode": "S7M2R6", "twitter": "None", "instagram": "None", "facebook": "None", "youtube": "None", "website": "None", "summary": "None", "logo": "None", "latitude": 52.12755618434718, "longitude": -106.69221775724102}, "107307191RR0051": {"name": "ST. MARY'S PARISH", "designationCode": "C", "categoryCode": "38", "address": "BOX 40", "city": "MACKLIN", "province": "SK", "country": "CA", "postalCode": "S0L2C0", "twitter": "None", "instagram": "None", "facebook": "None", "youtube": "None", "website": "None", "summary": "None", "logo": "None", "latitude": 52.33280000000008, "longitude": -109.93590999999998}, "107307191RR0071": {"name": "ST. MARY'S PARISH", "designationCode": "C", "categoryCode": "38", "address": "BOX 120", "city": "RICHMOUND", "province": "SK", "country": "CA", "postalCode": "S0N2E0", "twitter": "None", "instagram": "None", "facebook": "None", "youtube": "None", "website": "None", "summary": "None", "logo": "None", "latitude": 50.45011000000005, "longitude": -109.75155999999998}, "107909939RR0069": {"name": "ST. MARY'S PARISH", "designationCode": "C", "categoryCode": "38", "address": "BOX 369", "city": "CLUNY", "province": "AB", "country": "CA", "postalCode": "T0J0S0", "twitter": "None", "instagram": "None", "facebook": "None", "youtube": "None", "website": "None", "summary": "None", "logo": "None", "latitude": 50.83859000000007, "longitude": -112.86685999999997}, "108030891RR0001": {"name": "ST. MARY'S PARISH", "designationCode": "C", "categoryCode": "38", "address": "4609 50 AVE", "city": "ST PAUL", "province": "AB", "country": "CA", "postalCode": "T0A3A3", "twitter": "None", "instagram": "None", "facebook": "None", "youtube": "None", "website": "None", "summary": "None", "logo": "None", "latitude": 53.99135148730496, "longitude": -111.28695202553523}, "108094392RR0010": {"name": "ST. MARY'S PARISH", "designationCode": "C", "categoryCode": "38", "address": "1100-14TH AVENUE SOUTH", "city": "CRANBROOK", "province": "BC", "country": "CA", "postalCode": "V1C2Y3", "twitter": "None", "instagram": "None", "facebook": "None", "youtube": "None", "website": "None", "summary": "None", "logo": "None", "latitude": 49.497487104155034, "longitude": -115.76197278467187}, "118849470RR0032": {"name": "ST. MARY'S PARISH", "designationCode": "C", "categoryCode": "38", "address": "5251 JOYCE ST", "city": "VANCOUVER", "province": "BC", "country": "CA", "postalCode": "V5R4G8", "twitter": "None", "instagram": "None", "facebook": "None", "youtube": "None", "website": "None", "summary": "None", "logo": "None", "latitude": 49.237062187003616, "longitude": -123.03313677427673}, "118849470RR0040": {"name": "ST. MARY'S PARISH", "designationCode": "C", "categoryCode": "38", "address": "8909 MARY ST", "city": "CHILLIWACK", "province": "BC", "country": "CA", "postalCode": "V2P4J4", "twitter": "None", "instagram": "None", "facebook": "None", "youtube": "None", "website": "None", "summary": "None", "logo": "None", "latitude": 49.16423025229383, "longitude": -121.96195050796318}, "119109817RR0006": {"name": "ST. MARY'S PARISH", "designationCode": "C", "categoryCode": "38", "address": "51 VENISON ST W", "city": "TILLSONBURG", "province": "ON", "country": "CA", "postalCode": "N4G1V1", "twitter": "None", "instagram": "None", "facebook": "None", "youtube": "None", "website": "None", "summary": "None", "logo": "None", "latitude": 42.86190179932489, "longitude": -80.7346065180334}, "119109817RR0019": {"name": "ST. MARY'S PARISH", "designationCode": "C", "categoryCode": "38", "address": "PO BOX 130", "city": "MAIDSTONE", "province": "ON", "country": "CA", "postalCode": "N0R1K0", "twitter": "None", "instagram": "None", "facebook": "None", "youtube": "None", "website": "None", "summary": "None", "logo": "None", "latitude": 42.1785118239756, "longitude": -82.84161067857266}, "119109817RR0081": {"name": "ST. MARY'S PARISH", "designationCode": "C", "categoryCode": "38", "address": "345 LYLE STREET", "city": "LONDON", "province": "ON", "country": "CA", "postalCode": "N5W3R3", "twitter": "None", "instagram": "None", "facebook": "None", "youtube": "None", "website": "None", "summary": "None", "logo": "None", "latitude": 42.9872604626638, "longitude": -81.22781241398792}, "119109817RR0124": {"name": "ST. MARY'S PARISH", "designationCode": "C", "categoryCode": "38", "address": "128 MAIN STREET", "city": "WEST LORNE", "province": "ON", "country": "CA", "postalCode": "N0L2P0", "twitter": "None", "instagram": "None", "facebook": "None", "youtube": "None", "website": "None", "summary": "None", "logo": "None", "latitude": 42.605887154562865, "longitude": -81.60341045698486}, "119110385RR0060": {"name": "ST. MARY'S PARISH", "designationCode": "C", "categoryCode": "38", "address": "PO BOX 40, 5 ST JOHN ST.", "city": "QUYON", "province": "QC", "country": "CA", "postalCode": "J0X2V0", "twitter": "None", "instagram": "None", "facebook": "None", "youtube": "None", "website": "None", "summary": "None", "logo": "None"}, "119110450RR0013": {"name": "ST. MARY'S PARISH", "designationCode": "C", "categoryCode": "38", "address": "146 PARK ST N", "city": "HAMILTON", "province": "ON", "country": "CA", "postalCode": "L8R2N3", "twitter": "None", "instagram": "None", "facebook": "None", "youtube": "None", "website": "None", "summary": "None", "logo": "None", "latitude": 43.26212650790584, "longitude": -79.87004976045947}, "119110450RR0059": {"name": "ST. MARY'S PARISH", "designationCode": "C", "categoryCode": "38", "address": "554 15TH ST E", "city": "OWEN SOUND", "province": "ON", "country": "CA", "postalCode": "N4K1X3", "twitter": "None", "instagram": "None", "facebook": "None", "youtube": "None", "website": "None", "summary": "None", "logo": "None", "latitude": 44.574329710831336, "longitude": -80.93399156336238}, "119110450RR0080": {"name": "ST. MARY'S PARISH", "designationCode": "C", "categoryCode": "38", "address": "16 COOPER ST", "city": "CAMBRIDGE", "province": "ON", "country": "CA", "postalCode": "N3C2N2", "twitter": "None", "instagram": "None", "facebook": "None", "youtube": "None", "website": "None", "summary": "None", "logo": "None", "latitude": 43.432098853165314, "longitude": -80.30762929753588}, "119110450RR0089": {"name": "ST. MARY'S PARISH", "designationCode": "C", "categoryCode": "38", "address": "56 DUKE ST. W", "city": "KITCHENER", "province": "ON", "country": "CA", "postalCode": "N2H3W7", "twitter": "None", "instagram": "None", "facebook": "None", "youtube": "None", "website": "None", "summary": "None", "logo": "None", "latitude": 43.451803476282464, "longitude": -80.49069966082874}, "119110450RR0094": {"name": "ST. MARY'S PARISH", "designationCode": "C", "categoryCode": "38", "address": "230 QUEEN ST. E.", "city": "MOUNT FOREST", "province": "ON", "country": "CA", "postalCode": "N0G2L0", "twitter": "None", "instagram": "None", "facebook": "None", "youtube": "None", "website": "None", "summary": "None", "logo": "None", "latitude": 43.97969758728148, "longitude": -80.72926976380634}, "119122778RR0009": {"name": "ST. MARY'S PARISH", "designationCode": "C", "categoryCode": "38", "address": "ST. MARY'S                    PO BOX 28", "city": "WILLIAMSTOWN", "province": "ON", "country": "CA", "postalCode": "K0C2J0", "twitter": "None", "instagram": "None", "facebook": "None", "youtube": "None", "website": "None", "summary": "None", "logo": "None", "latitude": 45.14540855982431, "longitude": -74.58335248894369}, "119122786RR0005": {"name": "ST. MARY'S PARISH", "designationCode": "C", "categoryCode": "38", "address": "6500 SOUTHRIDGE AVE", "city": "PRINCE GEORGE", "province": "BC", "country": "CA", "postalCode": "V2N5P9", "twitter": "None", "instagram": "None", "facebook": "None", "youtube": "None", "website": "None", "summary": "None", "logo": "None", "latitude": 53.86420563941114, "longitude": -122.78374828519728}, "119122786RR0018": {"name": "ST. MARY'S PARISH", "designationCode": "C", "categoryCode": "38", "address": "6500 SOUTHRIDGE AVE", "city": "PRINCE GEORGE", "province": "BC", "country": "CA", "postalCode": "V2N5P9", "twitter": "None", "instagram": "None", "facebook": "None", "youtube": "None", "website": "None", "summary": "None", "logo": "None", "latitude": 53.86420563941114, "longitude": -122.78374828519728}, "877294314RR0001": {"name": "ST. MARY'S PARISH", "designationCode": "C", "categoryCode": "38", "address": "BOX 302", "city": "PORT MCNEILL", "province": "BC", "country": "CA", "postalCode": "V0N2R0", "twitter": "None", "instagram": "None", "facebook": "None", "youtube": "None", "website": "None", "summary": "None", "logo": "None", "latitude": 50.58438000000007, "longitude": -127.08205999999996}, "119110450RR0052": {"name": "ST. MARY'S PARISH CAPE CROKER", "designationCode": "C", "categoryCode": "38", "address": "16 LIGHTHOUSE ROAD,           R.R. #5", "city": "WIARTON", "province": "ON", "country": "CA", "postalCode": "N0H2T0", "twitter": "None", "instagram": "None", "facebook": "None", "youtube": "None", "website": "None", "summary": "None", "logo": "None", "latitude": 44.932647695018936, "longitude": -81.02744312467131}, "119110450RR0090": {"name": "ST. MARY'S PARISH LINWOOD", "designationCode": "C", "categoryCode": "38", "address": "1039 ISABELLA STREET", "city": "LINWOOD", "province": "ON", "country": "CA", "postalCode": "N0B2A0", "twitter": "None", "instagram": "None", "facebook": "None", "youtube": "None", "website": "None", "summary": "None", "logo": "None", "latitude": 43.58048552397954, "longitude": -80.72569452453668}, "106880107RR0006": {"name": "ST. MARY'S PARISH, BIG POND", "designationCode": "C", "categoryCode": "38", "address": "21 WESLEY ST", "city": "SYDNEY", "province": "NS", "country": "CA", "postalCode": "B1N2M5", "twitter": "None", "instagram": "None", "facebook": "None", "youtube": "None", "website": "None", "summary": "None", "logo": "None", "latitude": 46.15793640550516, "longitude": -60.18402579017829}, "118849470RR0036": {"name": "ST. MARY'S PARISH, GIBSONS", "designationCode": "C", "categoryCode": "38", "address": "956 GIBSONS WAY", "city": "GIBSONS", "province": "BC", "country": "CA", "postalCode": "V0N1V7", "twitter": "None", "instagram": "None", "facebook": "None", "youtube": "None", "website": "None", "summary": "None", "logo": "None", "latitude": 49.40671646436588, "longitude": -123.52255047016561}, "106880107RR0012": {"name": "ST. MARY'S PARISH, MABOU", "designationCode": "C", "categoryCode": "38", "address": "PO BOX 69", "city": "MABOU", "province": "NS", "country": "CA", "postalCode": "B0E1X0", "twitter": "None", "instagram": "None", "facebook": "None", "youtube": "None", "website": "None", "summary": "None", "logo": "None", "latitude": 45.93925886245837, "longitude": -61.44986645485256}, "106880107RR0017": {"name": "ST. MARY'S PARISH, NORTH SYDNEY", "designationCode": "C", "categoryCode": "38", "address": "1769 FRENCHVALE RD", "city": "FRENCHVALE", "province": "NS", "country": "CA", "postalCode": "B2A4E8", "twitter": "None", "instagram": "None", "facebook": "None", "youtube": "None", "website": "None", "summary": "None", "logo": "None", "latitude": 46.10169113676541, "longitude": -60.39116319724225}, "106880107RR0014": {"name": "ST. MARY'S PARISH, PORT MORIEN", "designationCode": "C", "categoryCode": "38", "address": "32 BIRCH STREET", "city": "PORT MORIEN", "province": "NS", "country": "CA", "postalCode": "B1B1A3", "twitter": "None", "instagram": "None", "facebook": "None", "youtube": "None", "website": "None", "summary": "None", "logo": "None", "latitude": 46.1346564143633, "longitude": -59.87295427367409}, "106880107RR0079": {"name": "ST. MARY'S PARISH, SYDNEY", "designationCode": "C", "categoryCode": "38", "address": "21 WESLEY ST", "city": "SYDNEY", "province": "NS", "country": "CA", "postalCode": "B1N2M5", "twitter": "None", "instagram": "None", "facebook": "None", "youtube": "None", "website": "None", "summary": "None", "logo": "None", "latitude": 46.15793640550516, "longitude": -60.18402579017829}, "108030883RR0001": {"name": "ST. MARY'S POLISH NATIONAL CATHOLIC CHURCH", "designationCode": "C", "categoryCode": "39", "address": "365 BURROWS AVE", "city": "WINNIPEG", "province": "MB", "country": "CA", "postalCode": "R2W1Z9", "twitter": "None", "instagram": "None", "facebook": "None", "youtube": "None", "website": "None", "summary": "None", "logo": "None", "latitude": 49.91684394644806, "longitude": -97.13775226060369}, "891450975RR0001": {"name": "ST. MARY'S RIVER ASSOCIATION", "designationCode": "C", "categoryCode": "52", "address": "P.O. BOX 179", "city": "SHERBROOKE", "province": "NS", "country": "CA", "postalCode": "B0J3C0", "twitter": "None", "instagram": "None", "facebook": "None", "youtube": "None", "website": "None", "summary": "None", "logo": "None", "latitude": 44.62486683013651, "longitude": -64.54661386209058}, "119113660RR0001": {"name": "ST. MARY'S ROAD UNITED CHURCH", "designationCode": "C", "categoryCode": "44", "address": "613 ST MARY'S RD", "city": "WINNIPEG", "province": "MB", "country": "CA", "postalCode": "R2M3L8", "twitter": "None", "instagram": "None", "facebook": "None", "youtube": "None", "website": "None", "summary": "None", "logo": "None", "latitude": 49.862716135437736, "longitude": -97.11123164897042}, "886102193RR0001": {"name": "ST. MARY'S ROAD UNITED CHURCH FOUNDATION INC.", "designationCode": "A", "categoryCode": "45", "address": "613 ST MARY'S RD", "city": "WINNIPEG", "province": "MB", "country": "CA", "postalCode": "R2M3L8", "twitter": "None", "instagram": "None", "facebook": "None", "youtube": "None", "website": "None", "summary": "None", "logo": "None", "latitude": 49.862716135437736, "longitude": -97.11123164897042}, "107307191RR0066": {"name": "ST. MARY'S ROMAN CATHOLIC CHURCH", "designationCode": "C", "categoryCode": "38", "address": "BOX 70", "city": "FOX VALLEY", "province": "SK", "country": "CA", "postalCode": "S0N0V0", "twitter": "None", "instagram": "None", "facebook": "None", "youtube": "None", "website": "None", "summary": "None", "logo": "None", "latitude": 50.46387000000004, "longitude": -109.48692999999997}, "812236800RR0001": {"name": "ST. MARY'S ROMAN CATHOLIC PARISH (MONTAGUE) INC.", "designationCode": "C", "categoryCode": "38", "address": "BOX 209", "city": "MONTAGUE", "province": "PE", "country": "CA", "postalCode": "C0A1R0", "twitter": "None", "instagram": "None", "facebook": "None", "youtube": "None", "website": "None", "summary": "None", "logo": "None", "latitude": 46.14343222329997, "longitude": -62.75594020244682}, "817127517RR0001": {"name": "ST. MARY'S ROMAN CATHOLIC PARISH (SOURIS) INC.", "designationCode": "C", "categoryCode": "38", "address": "PO BOX 399", "city": "SOURIS", "province": "PE", "country": "CA", "postalCode": "C0A2B0", "twitter": "None", "instagram": "None", "facebook": "None", "youtube": "None", "website": "None", "summary": "None", "logo": "None", "latitude": 46.35451000000006, "longitude": -62.25295999999997}, "870738408RR0001": {"name": "ST. MARY'S TROCHU FOUNDATION", "designationCode": "A", "categoryCode": "11", "address": "451 DE CHAUNEY AVENUE", "city": "TROCHU", "province": "AB", "country": "CA", "postalCode": "T0M2C0", "twitter": "None", "instagram": "None", "facebook": "None", "youtube": "None", "website": "None", "summary": "None", "logo": "None", "latitude": 51.819935521503595, "longitude": -113.2302908252231}, "108031162RR0001": {"name": "ST. MARY'S UKRAINIAN CATHOLIC PARISH", "designationCode": "C", "categoryCode": "38", "address": "933 ASSINIBOINE AVE", "city": "BRANDON", "province": "MB", "country": "CA", "postalCode": "R7A0G7", "twitter": "None", "instagram": "None", "facebook": "None", "youtube": "None", "website": "None", "summary": "None", "logo": "None", "latitude": 49.850597460470745, "longitude": -99.9510615}, "893978874RR0001": {"name": "ST. MARY'S VILLA FOUNDATION INC.", "designationCode": "A", "categoryCode": "13", "address": "BOX 1743", "city": "HUMBOLDT", "province": "SK", "country": "CA", "postalCode": "S0K2A0", "twitter": "None", "instagram": "None", "facebook": "None", "youtube": "None", "website": "None", "summary": "None", "logo": "None", "latitude": 51.7871843348964, "longitude": -104.71638483007007}, "812232601RR0001": {"name": "ST. MARY'S-HOLY FAMILY ROMAN CATHOLIC PARISH INC.", "designationCode": "C", "categoryCode": "38", "address": "P.O. BOX 458", "city": "KENSINGTON", "province": "PE", "country": "CA", "postalCode": "C0B1M0", "twitter": "None", "instagram": "None", "facebook": "None", "youtube": "None", "website": "None", "summary": "None", "logo": "None", "latitude": 46.53816900000005, "longitude": -63.71270899999993}, "886826486RR0001": {"name": "ST. MARYS AND AREA MOBILITY SERVICE", "designationCode": "C", "categoryCode": "09", "address": "317 JAMES ST. S               P.O. BOX 2918", "city": "ST. MARYS", "province": "ON", "country": "CA", "postalCode": "N4X1A6", "twitter": "None", "instagram": "None", "facebook": "None", "youtube": "None", "website": "None", "summary": "None", "logo": "None", "latitude": 43.251627753127465, "longitude": -81.13518326183888}, "119257822RR0001": {"name": "ST. MARYS CHILDREN'S CHOIR", "designationCode": "C", "categoryCode": "22", "address": "49 DAWSON ST", "city": "STRATFORD", "province": "ON", "country": "CA", "postalCode": "N5A5M3", "twitter": "None", "instagram": "None", "facebook": "None", "youtube": "None", "website": "None", "summary": "None", "logo": "None", "latitude": 43.37939903274859, "longitude": -80.96624671161071}, "878914316RR0001": {"name": "ST. MATHEW'S MAR THOMA CHURCH, TORONTO", "designationCode": "C", "categoryCode": "39", "address": "9238 REGIONAL ROAD 25", "city": "MILTON", "province": "ON", "country": "CA", "postalCode": "L9T2X7", "twitter": "None", "instagram": "None", "facebook": "None", "youtube": "None", "website": "None", "summary": "None", "logo": "None", "latitude": 43.54487475069049, "longitude": -79.92798202593204}, "107649980RR0001": {"name": "ST. MATTHEW EVANGELICAL LUTHERAN CHURCH", "designationCode": "C", "categoryCode": "32", "address": "1039 REGENT STREET", "city": "FREDERICTON", "province": "NB", "country": "CA", "postalCode": "E3B3Y9", "twitter": "None", "instagram": "None", "facebook": "None", "youtube": "None", "website": "None", "summary": "None", "logo": "None", "latitude": 45.94187121593854, "longitude": -66.65535540440864}, "108031410RR0001": {"name": "ST. MATTHEW LUTHERAN CHURCH", "designationCode": "C", "categoryCode": "32", "address": "BOX 374", "city": "MILK RIVER", "province": "AB", "country": "CA", "postalCode": "T0K1M0", "twitter": "None", "instagram": "None", "facebook": "None", "youtube": "None", "website": "None", "summary": "None", "logo": "None", "latitude": 49.14831000000004, "longitude": -112.08642999999995}, "108031428RR0001": {"name": "ST. MATTHEW LUTHERAN CHURCH", "designationCode": "C", "categoryCode": "32", "address": "66-7TH ST. N. E.,", "city": "CALGARY", "province": "AB", "country": "CA", "postalCode": "T2E4B7", "twitter": "None", "instagram": "None", "facebook": "None", "youtube": "None", "website": "None", "summary": "None", "logo": "None", "latitude": 51.05192459353343, "longitude": -114.04562543052441}, "107020331RR0007": {"name": "ST. MATTHEW PARISH", "designationCode": "C", "categoryCode": "38", "address": "279 NEREPIS RD", "city": "GRAND BAY-WESTFIELD", "province": "NB", "country": "CA", "postalCode": "E5K2Z9", "twitter": "None", "instagram": "None", "facebook": "None", "youtube": "None", "website": "None", "summary": "None", "logo": "None", "latitude": 45.35899729623338, "longitude": -66.238866}, "119110450RR0067": {"name": "ST. MATTHEW PARISH", "designationCode": "C", "categoryCode": "38", "address": "1150 MONKS PASSAGE", "city": "OAKVILLE", "province": "ON", "country": "CA", "postalCode": "L6M1M2", "twitter": "None", "instagram": "None", "facebook": "None", "youtube": "None", "website": "None", "summary": "None", "logo": "None", "latitude": 43.440957367736246, "longitude": -79.71736071331281}, "118862135RR0001": {"name": "ST. MATTHEW THE APOSTLE ORIOLE", "designationCode": "C", "categoryCode": "30", "address": "80 GEORGE HENRY BLVD.", "city": "NORTH YORK", "province": "ON", "country": "CA", "postalCode": "M2J1E7", "twitter": "None", "instagram": "None", "facebook": "None", "youtube": "None", "website": "None", "summary": "None", "logo": "None", "latitude": 43.773208760516795, "longitude": -79.3505280501468}, "108031592RR0001": {"name": "ST. MATTHEW' S DAY CARE SOCIETY", "designationCode": "C", "categoryCode": "01", "address": "7355 CANADA WAY               RM 103", "city": "BURNABY", "province": "BC", "country": "CA", "postalCode": "V3N4Z6", "twitter": "None", "instagram": "None", "facebook": "None", "youtube": "None", "website": "None", "summary": "None", "logo": "None", "latitude": 49.223568039673474, "longitude": -122.94047069028775}, "108031451RR0001": {"name": "ST. MATTHEW'S ANGLICAN CHURCH", "designationCode": "C", "categoryCode": "30", "address": "BOX 84", "city": "BOISSEVAIN", "province": "MB", "country": "CA", "postalCode": "R0K0E0", "twitter": "None", "instagram": "None", "facebook": "None", "youtube": "None", "website": "None", "summary": "None", "logo": "None", "latitude": 49.23156000000006, "longitude": -100.05945999999994}, "108031485RR0001": {"name": "ST. MATTHEW'S ANGLICAN CHURCH", "designationCode": "C", "categoryCode": "30", "address": "2161 WINNIPEG ST", "city": "REGINA", "province": "SK", "country": "CA", "postalCode": "S4P1G9", "twitter": "None", "instagram": "None", "facebook": "None", "youtube": "None", "website": "None", "summary": "None", "logo": "None", "latitude": 50.44439700000001, "longitude": -104.5951178759019}, "868942491RR0001": {"name": "ST. MATTHEW'S ANGLICAN CHURCH", "designationCode": "C", "categoryCode": "30", "address": "RR 1 LAKE CHARLOTTE", "city": "OWLS HEAD HALIFAX CO", "province": "NS", "country": "CA", "postalCode": "B0J1Y0", "twitter": "None", "instagram": "None", "facebook": "None", "youtube": "None", "website": "None", "summary": "None", "logo": "None", "latitude": 44.74500900000005, "longitude": -62.83939399999993}, "888303476RR0002": {"name": "ST. MATTHEW'S ANGLICAN CHURCH EDWARDSTOWN", "designationCode": "C", "categoryCode": "30", "address": "1213 ROUTE 209", "city": "STE CLOTILDE", "province": "QC", "country": "CA", "postalCode": "J0L1W0", "twitter": "None", "instagram": "None", "facebook": "None", "youtube": "None", "website": "None", "summary": "None", "logo": "None", "latitude": 45.16947505352331, "longitude": -73.70293752977707}, "108031295RR0001": {"name": "ST. MATTHEW'S BRACONDALE HOUSE", "designationCode": "C", "categoryCode": "09", "address": "707 ST CLAIR AVE W", "city": "TORONTO", "province": "ON", "country": "CA", "postalCode": "M6C4A1", "twitter": "None", "instagram": "None", "facebook": "None", "youtube": "None", "website": "None", "summary": "None", "logo": "None"}, "122647001RR0001": {"name": "ST. MATTHEW'S CATHEDRAL (CAMBRIDGE)", "designationCode": "C", "categoryCode": "30", "address": "7701 LUNDY'S LANE", "city": "NIAGARA FALLS", "province": "ON", "country": "CA", "postalCode": "L2H1H3", "twitter": "None", "instagram": "None", "facebook": "None", "youtube": "None", "website": "None", "summary": "None", "logo": "None", "latitude": 43.08902949379625, "longitude": -79.12540252553522}, "108031303RR0001": {"name": "ST. MATTHEW'S CHURCH", "designationCode": "C", "categoryCode": "30", "address": "135-109TH STREET", "city": "SASKATOON", "province": "SK", "country": "CA", "postalCode": "S7N1R3", "twitter": "None", "instagram": "None", "facebook": "None", "youtube": "None", "website": "None", "summary": "None", "logo": "None", "latitude": 52.13759649567218, "longitude": -106.6035015}, "108031378RR0002": {"name": "ST. MATTHEW'S CHURCH", "designationCode": "C", "categoryCode": "30", "address": "1600 NORFOLK", "city": "WINDSOR", "province": "ON", "country": "CA", "postalCode": "N9E1H5", "twitter": "None", "instagram": "None", "facebook": "None", "youtube": "None", "website": "None", "summary": "None", "logo": "None", "latitude": 42.26280953514316, "longitude": -83.02885363255221}, "892462763RR0001": {"name": "ST. MATTHEW'S CHURCH, KINGARF", "designationCode": "C", "categoryCode": "30", "address": "RR 5", "city": "KINCARDINE", "province": "ON", "country": "CA", "postalCode": "N2Z2X6", "twitter": "None", "instagram": "None", "facebook": "None", "youtube": "None", "website": "None", "summary": "None", "logo": "None", "latitude": 44.17146600000005, "longitude": -81.41159149999993}, "108031337RR0001": {"name": "ST. MATTHEW'S EVANGELICAL LUTHERAN CHURCH", "designationCode": "C", "categoryCode": "32", "address": "57 GRIFFITH ST", "city": "WELLAND", "province": "ON", "country": "CA", "postalCode": "L3B4G6", "twitter": "None", "instagram": "None", "facebook": "None", "youtube": "None", "website": "None", "summary": "None", "logo": "None", "latitude": 42.98846647403208, "longitude": -79.24894233527613}, "108031642RR0001": {"name": "ST. MATTHEW'S EVANGELICAL LUTHERAN CHURCH", "designationCode": "C", "categoryCode": "39", "address": "PO BOX 330", "city": "THORSBY", "province": "AB", "country": "CA", "postalCode": "T0C2P0", "twitter": "None", "instagram": "None", "facebook": "None", "youtube": "None", "website": "None", "summary": "None", "logo": "None", "latitude": 53.07519149999999, "longitude": -113.99293349999999}}