{"132269572RR0001": {"name": "METRO TORONTO MOVEMENT FOR LITERACY / LE RASSEMBLEMENT POUR L'ALPHABETISATION DE LA COMMUNAUTE URBAINE DE TORONTO", "designationCode": "C", "categoryCode": "21", "address": "344 BLOOR STREET WEST         SUITE 405", "city": "TORONTO", "province": "ON", "country": "CA", "postalCode": "M5S3A7", "twitter": "None", "instagram": "None", "facebook": "None", "youtube": "None", "website": "None", "summary": "None", "logo": "None", "latitude": 43.666567165156565, "longitude": -79.40447667805408}, "131559163RR0001": {"name": "METRO VANCOUVER CRIME STOPPERS ASSOCIATION", "designationCode": "C", "categoryCode": "59", "address": "3585 GRAVELEY ST", "city": "VANCOUVER", "province": "BC", "country": "CA", "postalCode": "V5K5J5", "twitter": "None", "instagram": "None", "facebook": "None", "youtube": "None", "website": "None", "summary": "None", "logo": "None", "latitude": 49.2702894838416, "longitude": -123.02619372300768}, "891423162RR0001": {"name": "METRO WESLEYAN CHURCH", "designationCode": "C", "categoryCode": "39", "address": "21 ROXHAM CLOSE", "city": "HALIFAX", "province": "NS", "country": "CA", "postalCode": "B3S1G2", "twitter": "None", "instagram": "None", "facebook": "None", "youtube": "None", "website": "None", "summary": "None", "logo": "None", "latitude": 44.66335356535293, "longitude": -63.66944540579362}, "130069123RR0001": {"name": "METROPOLITAN ACTION COMMITTEE ON VIOLENCE AGAINST WOMEN AND CHILDREN", "designationCode": "C", "categoryCode": "59", "address": "158 SPADINA RD", "city": "TORONTO", "province": "ON", "country": "CA", "postalCode": "M5R2T8", "twitter": "None", "instagram": "None", "facebook": "None", "youtube": "None", "website": "None", "summary": "None", "logo": "None", "latitude": 43.67379637745979, "longitude": -79.40673403248877}, "891475972RR0001": {"name": "METROPOLITAN ANDREY SHEPTYTSKY INSTITUTE FOUNDATION", "designationCode": "A", "categoryCode": "23", "address": "81 ST MARY ST", "city": "TORONTO", "province": "ON", "country": "CA", "postalCode": "M5S1J4", "twitter": "None", "instagram": "None", "facebook": "None", "youtube": "None", "website": "None", "summary": "None", "logo": "None", "latitude": 43.66710080094103, "longitude": -79.38988605118602}, "833844566RR0001": {"name": "METROPOLITAN BIBLE BAPTIST CHURCH TORONTO", "designationCode": "C", "categoryCode": "31", "address": "415 DREWRY AVE.", "city": "NORTH YORK", "province": "ON", "country": "CA", "postalCode": "M2R2K3", "twitter": "None", "instagram": "None", "facebook": "None", "youtube": "None", "website": "None", "summary": "None", "logo": "None", "latitude": 43.782768860378674, "longitude": -79.43686753774024}, "872612874RR0001": {"name": "METROPOLITAN BIBLE CHURCH MINISTRY CORPORATION", "designationCode": "C", "categoryCode": "39", "address": "2176 PRINCE OF WALES DRIVE", "city": "OTTAWA", "province": "ON", "country": "CA", "postalCode": "K2E0A1", "twitter": "None", "instagram": "None", "facebook": "None", "youtube": "None", "website": "None", "summary": "None", "logo": "None", "latitude": 45.331850188470085, "longitude": -75.70118821311034}, "132530650RR0001": {"name": "METROPOLITAN BIBLE CHURCH PROPERTY CORPORATION", "designationCode": "C", "categoryCode": "39", "address": "2176 PRINCE OF WALES DR", "city": "OTTAWA", "province": "ON", "country": "CA", "postalCode": "K2E0A1", "twitter": "None", "instagram": "None", "facebook": "None", "youtube": "None", "website": "None", "summary": "None", "logo": "None", "latitude": 45.331850188470085, "longitude": -75.70118821311034}, "107487043RR0001": {"name": "METROPOLITAN COMMUNITY CHURCH LONDON", "designationCode": "C", "categoryCode": "39", "address": "482 DUNDAS ST", "city": "LONDON", "province": "ON", "country": "CA", "postalCode": "N6B1W6", "twitter": "None", "instagram": "None", "facebook": "None", "youtube": "None", "website": "None", "summary": "None", "logo": "None", "latitude": 42.98743489595452, "longitude": -81.23660132849545}, "130353469RR0001": {"name": "METROPOLITAN COMMUNITY CHURCH OF TORONTO", "designationCode": "C", "categoryCode": "39", "address": "115 SIMPSON AVENUE", "city": "TORONTO", "province": "ON", "country": "CA", "postalCode": "M4K1A1", "twitter": "None", "instagram": "None", "facebook": "None", "youtube": "None", "website": "None", "summary": "None", "logo": "None", "latitude": 43.667252845375025, "longitude": -79.34796433345845}, "889030649RR0001": {"name": "METROPOLITAN COMMUNITY CHURCHES IN CANADA", "designationCode": "C", "categoryCode": "39", "address": "115 SIMPSON AVE", "city": "TORONTO", "province": "ON", "country": "CA", "postalCode": "M4K1A1", "twitter": "None", "instagram": "None", "facebook": "None", "youtube": "None", "website": "None", "summary": "None", "logo": "None", "latitude": 43.667252845375025, "longitude": -79.34796433345845}, "119039436RR0001": {"name": "METROPOLITAN GENERAL HOSPITAL AUXILIARY", "designationCode": "A", "categoryCode": "19", "address": "1995 LENS AVENUE", "city": "WINDSOR", "province": "ON", "country": "CA", "postalCode": "N8W1L9", "twitter": "None", "instagram": "None", "facebook": "None", "youtube": "None", "website": "None", "summary": "None", "logo": "None", "latitude": 42.300943799556045, "longitude": -82.99658151032911}, "888141991RR0001": {"name": "METROPOLITAN ORTHODOX FOUNDATION", "designationCode": "C", "categoryCode": "43", "address": "12414 28 AVENUE NW", "city": "EDMONTON", "province": "AB", "country": "CA", "postalCode": "T6J4E4", "twitter": "None", "instagram": "None", "facebook": "None", "youtube": "None", "website": "None", "summary": "None", "logo": "None", "latitude": 53.45834819040333, "longitude": -113.54228568489206}, "890271844RR0001": {"name": "METROPOLITAN TORONTO REGION SCIENCE FAIR", "designationCode": "C", "categoryCode": "21", "address": "196 BROOKE AVENUE", "city": "TORONTO", "province": "ON", "country": "CA", "postalCode": "M5M2K6", "twitter": "None", "instagram": "None", "facebook": "None", "youtube": "None", "website": "None", "summary": "None", "logo": "None", "latitude": 43.733641157943204, "longitude": -79.41767798058162}, "119039600RR0001": {"name": "METROPOLITAN UNITED CHURCH", "designationCode": "C", "categoryCode": "44", "address": "468 WELLINGTON STREET", "city": "LONDON", "province": "ON", "country": "CA", "postalCode": "N6A3P8", "twitter": "None", "instagram": "None", "facebook": "None", "youtube": "None", "website": "None", "summary": "None", "logo": "None", "latitude": 42.9871101751399, "longitude": -81.24631020549387}, "129946588RR0001": {"name": "METROPOLITAN UNITED CHURCH", "designationCode": "C", "categoryCode": "44", "address": "56 QUEEN STREET EAST", "city": "TORONTO", "province": "ON", "country": "CA", "postalCode": "M5C2Z3", "twitter": "None", "instagram": "None", "facebook": "None", "youtube": "None", "website": "None", "summary": "None", "logo": "None", "latitude": 43.65307221036676, "longitude": -79.37651649078298}, "883151730RR0001": {"name": "METROPOLITAN UNITED CHURCH FOUNDATION (LONDON, ONTARIO)", "designationCode": "A", "categoryCode": "45", "address": "468 WELLINGTON STREET", "city": "LONDON", "province": "ON", "country": "CA", "postalCode": "N6A3P8", "twitter": "None", "instagram": "None", "facebook": "None", "youtube": "None", "website": "None", "summary": "None", "logo": "None", "latitude": 42.9871101751399, "longitude": -81.24631020549387}, "119039667RR0001": {"name": "METZ PASTORAL CHARGE", "designationCode": "C", "categoryCode": "44", "address": "6958 WELLINGTON ROAD 16       RR#1", "city": "BELWOOD", "province": "ON", "country": "CA", "postalCode": "N0B1J0", "twitter": "None", "instagram": "None", "facebook": "None", "youtube": "None", "website": "None", "summary": "None", "logo": "None", "latitude": 43.79751772378223, "longitude": -80.40146758402975}, "891062242RR0001": {"name": "MEWASSIN UNITED CHURCH", "designationCode": "C", "categoryCode": "44", "address": "RR #1", "city": "DUFFIELD", "province": "AB", "country": "CA", "postalCode": "T0E0N0", "twitter": "None", "instagram": "None", "facebook": "None", "youtube": "None", "website": "None", "summary": "None", "logo": "None", "latitude": 53.526591670885814, "longitude": -114.34178614677539}, "119039725RR0001": {"name": "MEYWASIN COMMUNITY SERVICE ASSOCIATION", "designationCode": "C", "categoryCode": "56", "address": "8306-160 ST", "city": "EDMONTON", "province": "AB", "country": "CA", "postalCode": "T5R2H3", "twitter": "None", "instagram": "None", "facebook": "None", "youtube": "None", "website": "None", "summary": "None", "logo": "None", "latitude": 53.51733899999999, "longitude": -113.5982996959719}, "821092673RR0001": {"name": "MFC-FEDERATION QUEBEC-METRO/PORTNEUF", "designationCode": "C", "categoryCode": "49", "address": "625-1300 CH. STE-FOY", "city": "QU\u00c9BEC", "province": "QC", "country": "CA", "postalCode": "G1S0A6", "twitter": "None", "instagram": "None", "facebook": "None", "youtube": "None", "website": "None", "summary": "None", "logo": "None", "latitude": 46.79539915543306, "longitude": -71.25295274147378}, "103660809RR0001": {"name": "MFL OCCUPATIONAL HEALTH & SAFETY CENTRE INC.", "designationCode": "C", "categoryCode": "09", "address": "102 - 275 BROADWAY AVENUE", "city": "WINNIPEG", "province": "MB", "country": "CA", "postalCode": "R3C4M6", "twitter": "None", "instagram": "None", "facebook": "None", "youtube": "None", "website": "None", "summary": "None", "logo": "None", "latitude": 49.888115201800304, "longitude": -97.13855716654155}, "841527914RR0001": {"name": "MGM Canada", "designationCode": "C", "categoryCode": "01", "address": "6610 SIDEROAD 17              RR #2", "city": "WALLENSTEIN", "province": "ON", "country": "CA", "postalCode": "N0B2S0", "twitter": "None", "instagram": "None", "facebook": "None", "youtube": "None", "website": "None", "summary": "None", "logo": "None", "latitude": 43.65561675671209, "longitude": -80.69684064416543}, "871363396RR0001": {"name": "MHG FOUNDATION", "designationCode": "B", "categoryCode": "05", "address": "2600 - 700 WEST GEORGIA STREET", "city": "VANCOUVER", "province": "BC", "country": "CA", "postalCode": "V7Y1B3", "twitter": "None", "instagram": "None", "facebook": "None", "youtube": "None", "website": "None", "summary": "None", "logo": "None", "latitude": 49.28277258451152, "longitude": -123.11866899500833}, "826140592RR0001": {"name": "MHL Play-More Program", "designationCode": "C", "categoryCode": "09", "address": "14 - 3615 LAIRD RD", "city": "MISSISSAUGA", "province": "ON", "country": "CA", "postalCode": "L5L5Z8", "twitter": "None", "instagram": "None", "facebook": "None", "youtube": "None", "website": "None", "summary": "None", "logo": "None", "latitude": 43.520128854059344, "longitude": -79.70393004685819}, "840211973RR0001": {"name": "MI Corazon Foundation / Fondation MI Corazon", "designationCode": "B", "categoryCode": "03", "address": "2653 BOUL JACQUES-CARTIER E   APP 205", "city": "LONGUEUIL", "province": "QC", "country": "CA", "postalCode": "J4N1L7", "twitter": "None", "instagram": "None", "facebook": "None", "youtube": "None", "website": "None", "summary": "None", "logo": "None", "latitude": 45.56465964363206, "longitude": -73.45049921129267}, "120390521RR0001": {"name": "MI-CHEMIN DE GASPE INC", "designationCode": "C", "categoryCode": "01", "address": "189 RUE JACQUES CARTIER #11", "city": "GASPE", "province": "QC", "country": "CA", "postalCode": "G4X2P8", "twitter": "None", "instagram": "None", "facebook": "None", "youtube": "None", "website": "None", "summary": "None", "logo": "None", "latitude": 48.82981524283011, "longitude": -64.48918363431255}, "891266793RR0001": {"name": "MI-ZE-VIE INC", "designationCode": "C", "categoryCode": "09", "address": "670 RUE BRASSARD", "city": "ST MICHEL DES SAINTS", "province": "QC", "country": "CA", "postalCode": "J0K3B0", "twitter": "None", "instagram": "None", "facebook": "None", "youtube": "None", "website": "None", "summary": "None", "logo": "None", "latitude": 46.679998662502186, "longitude": -73.91674500525146}, "892481656RR0001": {"name": "MI'KMAQ FAMILY & CHILDREN'S SERVICES OF NOVA SCOTIA", "designationCode": "C", "categoryCode": "01", "address": "PO BOX 179", "city": "SHUBENACADIE", "province": "NS", "country": "CA", "postalCode": "B0N2H0", "twitter": "None", "instagram": "None", "facebook": "None", "youtube": "None", "website": "None", "summary": "None", "logo": "None", "latitude": 45.08345000000003, "longitude": -63.39868999999999}, "119039899RR0001": {"name": "MI'KMAW NATIVE FRIENDSHIP SOCIETY", "designationCode": "C", "categoryCode": "09", "address": "2158 GOTTINGEN ST.", "city": "HALIFAX", "province": "NS", "country": "CA", "postalCode": "B3K3B4", "twitter": "None", "instagram": "None", "facebook": "None", "youtube": "None", "website": "None", "summary": "None", "logo": "None", "latitude": 44.652537367736244, "longitude": -63.584197683478415}, "867004517RR0001": {"name": "MI'KMAWEY DEBERT CULTURAL CENTRE", "designationCode": "C", "categoryCode": "22", "address": "P.O. BOX 1590                 57 MARTIN CRESCENT", "city": "TRURO", "province": "NS", "country": "CA", "postalCode": "B2N5V3", "twitter": "None", "instagram": "None", "facebook": "None", "youtube": "None", "website": "None", "summary": "None", "logo": "None", "latitude": 45.33207733585306, "longitude": -63.29217692879002}, "136623378RR0001": {"name": "MIAG CENTRE FOR DIVERSE WOMEN & FAMILIES", "designationCode": "C", "categoryCode": "59", "address": "3034 PALSTAN RD               SUITE M3", "city": "MISSISSAUGA", "province": "ON", "country": "CA", "postalCode": "L4Y2Z6", "twitter": "None", "instagram": "None", "facebook": "None", "youtube": "None", "website": "None", "summary": "None", "logo": "None", "latitude": 43.60501197749454, "longitude": -79.59044670416623}, "888543097RR0001": {"name": "MIALTA CHARITABLE TRUST", "designationCode": "B", "categoryCode": "39", "address": "3425 2ND AVE S", "city": "LETHBRIDGE", "province": "AB", "country": "CA", "postalCode": "T1J4V1", "twitter": "None", "instagram": "None", "facebook": "None", "youtube": "None", "website": "None", "summary": "None", "logo": "None", "latitude": 49.696839530439966, "longitude": -112.78914308381903}, "141049700RR0001": {"name": "MIAMI CHARITABLE TRUST", "designationCode": "B", "categoryCode": "39", "address": "3425 2 AVE S", "city": "LETHBRIDGE", "province": "AB", "country": "CA", "postalCode": "T1J4V1", "twitter": "None", "instagram": "None", "facebook": "None", "youtube": "None", "website": "None", "summary": "None", "logo": "None", "latitude": 49.696839530439966, "longitude": -112.78914308381903}, "891071227RR0001": {"name": "MIAMI CHILDREN'S FACILITY INC", "designationCode": "C", "categoryCode": "01", "address": "BOX 117", "city": "MIAMI", "province": "MB", "country": "CA", "postalCode": "R0G1H0", "twitter": "None", "instagram": "None", "facebook": "None", "youtube": "None", "website": "None", "summary": "None", "logo": "None", "latitude": 49.37108000000006, "longitude": -98.24341999999996}, "119039758RR0001": {"name": "MIAMI MUSEUM INC.", "designationCode": "C", "categoryCode": "50", "address": "PO BOX 153", "city": "MIAMI", "province": "MB", "country": "CA", "postalCode": "R0G1H0", "twitter": "None", "instagram": "None", "facebook": "None", "youtube": "None", "website": "None", "summary": "None", "logo": "None", "latitude": 49.37108000000006, "longitude": -98.24341999999996}, "873442065RR0001": {"name": "MIAO FA BUDDHIST SOCIETY", "designationCode": "C", "categoryCode": "35", "address": "5270 IMPERIAL ST", "city": "BURNABY", "province": "BC", "country": "CA", "postalCode": "V5J1E4", "twitter": "None", "instagram": "None", "facebook": "None", "youtube": "None", "website": "None", "summary": "None", "logo": "None", "latitude": 49.22188553231591, "longitude": -122.98753277699231}, "870690005RR0001": {"name": "MIBREN FOUNDATION", "designationCode": "C", "categoryCode": "48", "address": "46 ACARA COURT", "city": "TORONTO", "province": "ON", "country": "CA", "postalCode": "M1T3X1", "twitter": "None", "instagram": "None", "facebook": "None", "youtube": "None", "website": "None", "summary": "None", "logo": "None", "latitude": 43.783449370246416, "longitude": -79.31482507966409}, "823830542RR0001": {"name": "MICAH HOUSE REFUGEE RECEPTION SERVICES INC.", "designationCode": "C", "categoryCode": "09", "address": "205 HOLTON AVE S", "city": "HAMILTON", "province": "ON", "country": "CA", "postalCode": "L8M2L8", "twitter": "None", "instagram": "None", "facebook": "None", "youtube": "None", "website": "None", "summary": "None", "logo": "None", "latitude": 43.24554037745978, "longitude": -79.84406120785981}, "800963415RR0001": {"name": "MICAH 6:8 CHARITABLE TRUST", "designationCode": "B", "categoryCode": "05", "address": "23 NORM FAULKNER DR", "city": "STOUFFVILLE", "province": "ON", "country": "CA", "postalCode": "L4A0M2", "twitter": "None", "instagram": "None", "facebook": "None", "youtube": "None", "website": "None", "summary": "None", "logo": "None", "latitude": 43.98027921233189, "longitude": -79.23104607591317}, "894205236RR0001": {"name": "MICAH 6:8 FOUNDATION", "designationCode": "B", "categoryCode": "03", "address": "706-1155 ROBSON STREET", "city": "VANCOUVER", "province": "BC", "country": "CA", "postalCode": "V6E1B5", "twitter": "None", "instagram": "None", "facebook": "None", "youtube": "None", "website": "None", "summary": "None", "logo": "None", "latitude": 49.285490237318825, "longitude": -123.12614575004345}, "891792541RR0001": {"name": "MICHAEL A KOSTEK EDUCATIONAL FUNDRAISING SOCIETY", "designationCode": "C", "categoryCode": "21", "address": "5303 190 STREET", "city": "EDMONTON", "province": "AB", "country": "CA", "postalCode": "T6M2L2", "twitter": "None", "instagram": "None", "facebook": "None", "youtube": "None", "website": "None", "summary": "None", "logo": "None", "latitude": 53.489005929251384, "longitude": -113.65123951610109}, "864574629RR0001": {"name": "MICHAEL AND IRENE BARON FOUNDATION INC.", "designationCode": "B", "categoryCode": "03", "address": "1375 MOLSON STREET", "city": "WINNIPEG", "province": "MB", "country": "CA", "postalCode": "R2K4K8", "twitter": "None", "instagram": "None", "facebook": "None", "youtube": "None", "website": "None", "summary": "None", "logo": "None", "latitude": 49.92150552091894, "longitude": -97.05431936542857}, "893329367RR0001": {"name": "MICHAEL AND NANCY CZORNY CHARITABLE TRUST", "designationCode": "B", "categoryCode": "15", "address": "320 - 8700 200 ST", "city": "LANGLEY", "province": "BC", "country": "CA", "postalCode": "V2Y0G4", "twitter": "None", "instagram": "None", "facebook": "None", "youtube": "None", "website": "None", "summary": "None", "logo": "None", "latitude": 49.16035732944775, "longitude": -122.6677109733396}, "893962068RR0001": {"name": "MICHAEL CUCCIONE FOUNDATION", "designationCode": "B", "categoryCode": "13", "address": "1482 CADENA CRT", "city": "COQUITLAM", "province": "BC", "country": "CA", "postalCode": "V3E0E5", "twitter": "None", "instagram": "None", "facebook": "None", "youtube": "None", "website": "None", "summary": "None", "logo": "None", "latitude": 49.30338409522515, "longitude": -122.75305802715145}, "854734837RR0001": {"name": "MICHAEL H. LAWEE CHARITABLE TRUST", "designationCode": "B", "categoryCode": "03", "address": "TD PRIVATE CLIENT SERVICES    PO BOX 10085", "city": "VANCOUVER", "province": "BC", "country": "CA", "postalCode": "V7Y1B6", "twitter": "None", "instagram": "None", "facebook": "None", "youtube": "None", "website": "None", "summary": "None", "logo": "None", "latitude": 49.26037200000006, "longitude": -123.11336149999994}, "859909137RR0001": {"name": "MICHAEL HOUSE PREGNANCY CARE CENTRE", "designationCode": "C", "categoryCode": "09", "address": "187 BRISTOL ST.", "city": "GUELPH", "province": "ON", "country": "CA", "postalCode": "N1H3M2", "twitter": "None", "instagram": "None", "facebook": "None", "youtube": "None", "website": "None", "summary": "None", "logo": "None", "latitude": 43.535462442662464, "longitude": -80.25420856668495}, "119039790RR0001": {"name": "MICHAEL J. MURRAY CHARITABLE FOUNDATION INC.", "designationCode": "C", "categoryCode": "09", "address": "2011 PAUGH LAKE RD.           PO BOX 304", "city": "BARRY'S BAY", "province": "ON", "country": "CA", "postalCode": "K0J1B0", "twitter": "None", "instagram": "None", "facebook": "None", "youtube": "None", "website": "None", "summary": "None", "logo": "None", "latitude": 45.57013573447321, "longitude": -77.66349374629696}, "888452398RR0001": {"name": "MICHAEL MUTCHESON MEMORIAL SCHOLARSHIP FUND", "designationCode": "B", "categoryCode": "25", "address": "11 LESLIE DRIVE", "city": "MORDEN", "province": "MB", "country": "CA", "postalCode": "R6M1P7", "twitter": "None", "instagram": "None", "facebook": "None", "youtube": "None", "website": "None", "summary": "None", "logo": "None", "latitude": 49.1997605115412, "longitude": -98.10504386081135}, "863601951RR0001": {"name": "MICHAEL MUTCHESON MEMORIAL TRUST", "designationCode": "A", "categoryCode": "03", "address": "4 KING STREET WEST,           SUITE 1010", "city": "TORONTO", "province": "ON", "country": "CA", "postalCode": "M5H1B6", "twitter": "None", "instagram": "None", "facebook": "None", "youtube": "None", "website": "None", "summary": "None", "logo": "None", "latitude": 43.649080165156576, "longitude": -79.37829592951117}, "839299161RR0001": {"name": "MICHAEL O'BRIAN FAMILY FOUNDATION", "designationCode": "A", "categoryCode": "03", "address": "1500 WEST GEORGIA STREET      SUITE 1250   BOX 62", "city": "VANCOUVER", "province": "BC", "country": "CA", "postalCode": "V6G2Z6", "twitter": "None", "instagram": "None", "facebook": "None", "youtube": "None", "website": "None", "summary": "None", "logo": "None"}, "119123545RR0001": {"name": "MICHAEL ROSENBERG CHARITY FOUNDATION", "designationCode": "B", "categoryCode": "25", "address": "405 WISEMAN AVE", "city": "OUTREMONT", "province": "QC", "country": "CA", "postalCode": "H2V3J9", "twitter": "None", "instagram": "None", "facebook": "None", "youtube": "None", "website": "None", "summary": "None", "logo": "None", "latitude": 45.516852082722515, "longitude": -73.60726852149584}, "888674710RR0001": {"name": "MICHAEL SMITH FOUNDATION FOR HEALTH RESEARCH", "designationCode": "C", "categoryCode": "13", "address": "200 - 1285 WEST BROADWAY", "city": "VANCOUVER", "province": "BC", "country": "CA", "postalCode": "V6H3X8", "twitter": "None", "instagram": "None", "facebook": "None", "youtube": "None", "website": "None", "summary": "None", "logo": "None", "latitude": 49.26351346104767, "longitude": -123.13324044601535}, "864820816RR0001": {"name": "MICHAEL'S BAY HISTORICAL SOCIETY", "designationCode": "C", "categoryCode": "50", "address": "P.O. BOX 7                    113 CHURCH STREET", "city": "SOUTH BAYMOUTH", "province": "ON", "country": "CA", "postalCode": "P0P1Z0", "twitter": "None", "instagram": "None", "facebook": "None", "youtube": "None", "website": "None", "summary": "None", "logo": "None", "latitude": 45.559574194616395, "longitude": -82.01105432269631}, "893497610RR0001": {"name": "MICHEAL ALBERT GARRON FOUNDATION", "designationCode": "B", "categoryCode": "03", "address": "4100 YONGE STREET             SUITE 200", "city": "TORONTO", "province": "ON", "country": "CA", "postalCode": "M5H2Y4", "twitter": "None", "instagram": "None", "facebook": "None", "youtube": "None", "website": "None", "summary": "None", "logo": "None", "latitude": 43.746120335824386, "longitude": -79.40722757236381}, "107700221RR0001": {"name": "MICHENER PARK EDUCATION SOCIETY", "designationCode": "C", "categoryCode": "20", "address": "THE DAY CARE CENTRE           UNIVERSITY OF ALBERTA", "city": "EDMONTON", "province": "AB", "country": "CA", "postalCode": "T6G2E1", "twitter": "None", "instagram": "None", "facebook": "None", "youtube": "None", "website": "None", "summary": "None", "logo": "None", "latitude": 53.52503000000007, "longitude": -113.52540999999997}, "878453190RR0001": {"name": "MICHIF HISTORICAL AND CULTURAL PRESERVATION SOCIETY", "designationCode": "C", "categoryCode": "50", "address": "337 BERNARD RD                PO BOX 126", "city": "VAVENBY", "province": "BC", "country": "CA", "postalCode": "V0E3A0", "twitter": "None", "instagram": "None", "facebook": "None", "youtube": "None", "website": "None", "summary": "None", "logo": "None", "latitude": 51.58276205410021, "longitude": -119.71812162730075}, "866483753RR0001": {"name": "MICHIPICOTEN MUSEUM SOCIETY", "designationCode": "C", "categoryCode": "50", "address": "PO BOX 257", "city": "WAWA", "province": "ON", "country": "CA", "postalCode": "P0S1K0", "twitter": "None", "instagram": "None", "facebook": "None", "youtube": "None", "website": "None", "summary": "None", "logo": "None", "latitude": 47.99670182883135, "longitude": -84.76954309189294}, "889902631RR0001": {"name": "MICHIPICOTEN VOLUNTEER FIREFIGHTERS ASSOCIATION EQUIPMENT FU", "designationCode": "C", "categoryCode": "59", "address": "BOX 1029", "city": "WAWA", "province": "ON", "country": "CA", "postalCode": "P0S1K0", "twitter": "None", "instagram": "None", "facebook": "None", "youtube": "None", "website": "None", "summary": "None", "logo": "None", "latitude": 47.99670182883135, "longitude": -84.76954309189294}, "887662799RR0001": {"name": "MICKNAH MINISTRIES", "designationCode": "C", "categoryCode": "39", "address": "3-15860 82ND AVENUE", "city": "SURREY", "province": "BC", "country": "CA", "postalCode": "V4N0S8", "twitter": "None", "instagram": "None", "facebook": "None", "youtube": "None", "website": "None", "summary": "None", "logo": "None", "latitude": 49.15180852510253, "longitude": -122.78279135789717}, "857506349RR0001": {"name": "MICKSBURG UNITED CHURCH CEMETERY", "designationCode": "C", "categoryCode": "59", "address": "108 SHEA AVE", "city": "PEMBROKE", "province": "ON", "country": "CA", "postalCode": "K8A7W8", "twitter": "None", "instagram": "None", "facebook": "None", "youtube": "None", "website": "None", "summary": "None", "logo": "None", "latitude": 45.81130050678069, "longitude": -77.10225269608748}, "119039881RR0001": {"name": "MICMAC BENEVOLENT SOCIETY", "designationCode": "C", "categoryCode": "59", "address": "PO BOX 1738", "city": "TRURO", "province": "NS", "country": "CA", "postalCode": "B2N5Z5", "twitter": "None", "instagram": "None", "facebook": "None", "youtube": "None", "website": "None", "summary": "None", "logo": "None", "latitude": 45.36602700000006, "longitude": -63.289042999999936}, "875129611RR0001": {"name": "MICRO-RECYC COOPERATION", "designationCode": "C", "categoryCode": "20", "address": "CP 35704 LEO PARISEAU", "city": "MONTREAL", "province": "QC", "country": "CA", "postalCode": "H2X0A4", "twitter": "None", "instagram": "None", "facebook": "None", "youtube": "None", "website": "None", "summary": "None", "logo": "None", "latitude": 45.51148579362259, "longitude": -73.57684898315996}, "887449999RR0001": {"name": "MICROSCOPICAL SOCIETY OF CANADA - ATLANTIC SECTION PAUL ODENSE MEMORIAL TRUST", "designationCode": "C", "categoryCode": "21", "address": "17 GRIMES AVE", "city": "DARTMOUTH", "province": "NS", "country": "CA", "postalCode": "B2W3L8", "twitter": "None", "instagram": "None", "facebook": "None", "youtube": "None", "website": "None", "summary": "None", "logo": "None", "latitude": 44.68390930143104, "longitude": -63.5103032467539}, "841952708RR0001": {"name": "MICS Healthcare Foundation", "designationCode": "A", "categoryCode": "13", "address": "241 EIGHT STREET              POST OFFICE BOX 4000", "city": "COCHRANE", "province": "ON", "country": "CA", "postalCode": "P0L1C0", "twitter": "None", "instagram": "None", "facebook": "None", "youtube": "None", "website": "None", "summary": "None", "logo": "None", "latitude": 49.069768721031885, "longitude": -81.02002614258073}, "829602606RR0001": {"name": "MICYRN / RRSEM", "designationCode": "C", "categoryCode": "11", "address": "950 28TH AVE W", "city": "VANCOUVER", "province": "BC", "country": "CA", "postalCode": "V5Z4H4", "twitter": "None", "instagram": "None", "facebook": "None", "youtube": "None", "website": "None", "summary": "None", "logo": "None", "latitude": 49.24622545508387, "longitude": -123.12628591302983}, "869805929RR0001": {"name": "MID ISLAND KIDNEY ASSOCIATION", "designationCode": "C", "categoryCode": "11", "address": "8932 FABER RD", "city": "PORT ALBERNI", "province": "BC", "country": "CA", "postalCode": "V9Y9B9", "twitter": "None", "instagram": "None", "facebook": "None", "youtube": "None", "website": "None", "summary": "None", "logo": "None", "latitude": 49.27683058586785, "longitude": -124.9284725777891}, "107701237RR0001": {"name": "MID LAURENTIAN PASTORAL CHARGE", "designationCode": "C", "categoryCode": "44", "address": "3253- 4TH AVE.", "city": "RAWDON", "province": "QC", "country": "CA", "postalCode": "J0K1S0", "twitter": "None", "instagram": "None", "facebook": "None", "youtube": "None", "website": "None", "summary": "None", "logo": "None", "latitude": 46.0422547743666, "longitude": -73.70493724176224}, "119040442RR0001": {"name": "MID PRAIRIE SCRIPTURE MISSION INC.", "designationCode": "C", "categoryCode": "49", "address": "PO BOX 56", "city": "CHRISTOPHER LAKE", "province": "SK", "country": "CA", "postalCode": "S0J0N0", "twitter": "None", "instagram": "None", "facebook": "None", "youtube": "None", "website": "None", "summary": "None", "logo": "None", "latitude": 53.533390000000054, "longitude": -105.80098999999996}, "119020980RR0001": {"name": "MID SUMMER'S ART FESTIVAL INC.", "designationCode": "C", "categoryCode": "22", "address": "PO BOX 604", "city": "FORT QU'APPELLE", "province": "SK", "country": "CA", "postalCode": "S0G1S0", "twitter": "None", "instagram": "None", "facebook": "None", "youtube": "None", "website": "None", "summary": "None", "logo": "None", "latitude": 50.76964000000004, "longitude": -103.79339999999996}, "119040467RR0001": {"name": "MID TORONTO COMMUNITY SERVICES INC.", "designationCode": "C", "categoryCode": "01", "address": "58 SUMACH ST", "city": "TORONTO", "province": "ON", "country": "CA", "postalCode": "M5A3J7", "twitter": "None", "instagram": "None", "facebook": "None", "youtube": "None", "website": "None", "summary": "None", "logo": "None", "latitude": 43.65622046710718, "longitude": -79.35871431239529}, "119040475RR0001": {"name": "MID VALLEY SENIOR APARTMENTS OF PETROLIA INC.", "designationCode": "C", "categoryCode": "01", "address": "4335 PETROLIA LINE APT 104", "city": "PETROLIA", "province": "ON", "country": "CA", "postalCode": "N0N1R0", "twitter": "None", "instagram": "None", "facebook": "None", "youtube": "None", "website": "None", "summary": "None", "logo": "None", "latitude": 42.881560537033096, "longitude": -82.13584179938279}, "132637877RR0001": {"name": "MID-ISLAND PENSIONERS & HOBBYISTS ASSOCIATION", "designationCode": "C", "categoryCode": "09", "address": "BOX 177", "city": "COOMBS", "province": "BC", "country": "CA", "postalCode": "V0R1M0", "twitter": "None", "instagram": "None", "facebook": "None", "youtube": "None", "website": "None", "summary": "None", "logo": "None", "latitude": 49.306405694074456, "longitude": -124.43092128704372}, "129105268RR0001": {"name": "MID-MAIN COMMUNITY HEALTH CENTRE ASSOCIATION", "designationCode": "C", "categoryCode": "11", "address": "3998 MAIN ST", "city": "VANCOUVER", "province": "BC", "country": "CA", "postalCode": "V5V3P2", "twitter": "None", "instagram": "None", "facebook": "None", "youtube": "None", "website": "None", "summary": "None", "logo": "None", "latitude": 49.24948245406546, "longitude": -123.10101027529021}, "132043787RR0001": {"name": "MID-SCARBOROUGH CHILD CARE INC", "designationCode": "C", "categoryCode": "20", "address": "2460 EGLINTON AVE E", "city": "SCARBOROUGH", "province": "ON", "country": "CA", "postalCode": "M1K5J7", "twitter": "None", "instagram": "None", "facebook": "None", "youtube": "None", "website": "None", "summary": "None", "logo": "None", "latitude": 43.73390064920063, "longitude": -79.26186476291137}, "891268146RR0001": {"name": "MID-VALLEY PALLIATIVE CARE VOLUNTEER SERVICE", "designationCode": "C", "categoryCode": "11", "address": "SOLDIERS MEMORIAL HOSPITAL", "city": "MIDDLETONN", "province": "NS", "country": "CA", "postalCode": "B0S1P0", "twitter": "None", "instagram": "None", "facebook": "None", "youtube": "None", "website": "None", "summary": "None", "logo": "None", "latitude": 44.946840000000066, "longitude": -65.05974999999995}, "885165027RR0001": {"name": "MID-VANCOUVER ISLAND HABITAT ENHANCEMENT SOCIETY", "designationCode": "C", "categoryCode": "52", "address": "P.O BOX 935", "city": "PARKSVILLE", "province": "BC", "country": "CA", "postalCode": "V9P2G9", "twitter": "None", "instagram": "None", "facebook": "None", "youtube": "None", "website": "None", "summary": "None", "logo": "None", "latitude": 49.31968200000006, "longitude": -124.31365099999994}, "118875202RR0001": {"name": "MID-WAY CHRISTIAN LEADERSHIP INC.", "designationCode": "C", "categoryCode": "47", "address": "PO BOX 559", "city": "CROSSFIELD", "province": "AB", "country": "CA", "postalCode": "T0M0S0", "twitter": "None", "instagram": "None", "facebook": "None", "youtube": "None", "website": "None", "summary": "None", "logo": "None", "latitude": 51.42954000000003, "longitude": -114.02704999999997}, "864147632RR0001": {"name": "MID-WEST ARTS COUNCIL INC.", "designationCode": "C", "categoryCode": "23", "address": "39 MAPLE AVE E                PO BOX 375", "city": "HAMIOTA", "province": "MB", "country": "CA", "postalCode": "R0M0T0", "twitter": "None", "instagram": "None", "facebook": "None", "youtube": "None", "website": "None", "summary": "None", "logo": "None", "latitude": 50.17972505190717, "longitude": -100.59890205161871}, "119039923RR0001": {"name": "MIDADE-QUEBEC", "designationCode": "C", "categoryCode": "49", "address": "3115 RUE MONSABRE", "city": "MONTREAL", "province": "QC", "country": "CA", "postalCode": "H1N2L3", "twitter": "None", "instagram": "None", "facebook": "None", "youtube": "None", "website": "None", "summary": "None", "logo": "None", "latitude": 45.573139727739544, "longitude": -73.54546391811421}, "119039931RR0001": {"name": "MIDALE BETHLEHEM LUTHERAN CHURCH", "designationCode": "C", "categoryCode": "32", "address": "BOX 223", "city": "MIDALE", "province": "SK", "country": "CA", "postalCode": "S0C1S0", "twitter": "None", "instagram": "None", "facebook": "None", "youtube": "None", "website": "None", "summary": "None", "logo": "None", "latitude": 49.40006000000005, "longitude": -103.40099999999995}, "869585026RR0001": {"name": "MIDALE FIRST RESPONDERS", "designationCode": "C", "categoryCode": "59", "address": "BOX 90", "city": "MIDALE", "province": "SK", "country": "CA", "postalCode": "S0C1S0", "twitter": "None", "instagram": "None", "facebook": "None", "youtube": "None", "website": "None", "summary": "None", "logo": "None", "latitude": 49.40006000000005, "longitude": -103.40099999999995}, "889350443RR0001": {"name": "MIDAYNTA COMMUNITY SERVICES", "designationCode": "C", "categoryCode": "09", "address": "1541 JANE ST", "city": "NORTH YORK", "province": "ON", "country": "CA", "postalCode": "M9N2R3", "twitter": "None", "instagram": "None", "facebook": "None", "youtube": "None", "website": "None", "summary": "None", "logo": "None", "latitude": 43.69851100528014, "longitude": -79.50258709818843}, "892572173RR0001": {"name": "MIDDLE EAST BAPTIST CHURCH", "designationCode": "C", "categoryCode": "39", "address": "3066 GIVEN ROAD", "city": "MISSISSAUGA", "province": "ON", "country": "CA", "postalCode": "L5A2N3", "twitter": "None", "instagram": "None", "facebook": "None", "youtube": "None", "website": "None", "summary": "None", "logo": "None", "latitude": 43.587311240060146, "longitude": -79.61178814060229}, "119039980RR0001": {"name": "MIDDLE EAST CHRISTIAN OUTREACH (CANADA)", "designationCode": "C", "categoryCode": "47", "address": "PO BOX 610", "city": "BURLINGTON", "province": "ON", "country": "CA", "postalCode": "L7R3Y5", "twitter": "None", "instagram": "None", "facebook": "None", "youtube": "None", "website": "None", "summary": "None", "logo": "None", "latitude": 43.326195000000055, "longitude": -79.79863399999994}, "890851058RR0001": {"name": "MIDDLE EAST REFORMED FELLOWSHIP (CANADA) INC", "designationCode": "A", "categoryCode": "43", "address": "1225 DUNDAS ST                RR#1", "city": "BURLINGTON", "province": "ON", "country": "CA", "postalCode": "L7P0S9", "twitter": "None", "instagram": "None", "facebook": "None", "youtube": "None", "website": "None", "summary": "None", "logo": "None", "latitude": 43.35842302585233, "longitude": -79.86176324167532}, "119040004RR0001": {"name": "MIDDLE LAHAVE CEMETERY COMPANY", "designationCode": "C", "categoryCode": "59", "address": "1250 OAKLAND ROAD             RR 2", "city": "MAHONE BAY", "province": "NS", "country": "CA", "postalCode": "B0J2E0", "twitter": "None", "instagram": "None", "facebook": "None", "youtube": "None", "website": "None", "summary": "None", "logo": "None", "latitude": 44.45009252654482, "longitude": -64.35044083236194}, "107700692RR0001": {"name": "MIDDLE LAKE GOSPEL CHURCH", "designationCode": "C", "categoryCode": "39", "address": "BOX 46", "city": "MIDDLE LAKE", "province": "SK", "country": "CA", "postalCode": "S0K2X0", "twitter": "None", "instagram": "None", "facebook": "None", "youtube": "None", "website": "None", "summary": "None", "logo": "None", "latitude": 52.48226400000006, "longitude": -105.30167299999994}, "897006490RR0001": {"name": "MIDDLE RIVER (VICTORIA COUNTY) WATERSHED SOCIETY", "designationCode": "A", "categoryCode": "52", "address": "RR 3", "city": "BADDECK", "province": "NS", "country": "CA", "postalCode": "B0E1B0", "twitter": "None", "instagram": "None", "facebook": "None", "youtube": "None", "website": "None", "summary": "None", "logo": "None", "latitude": 46.087500000000034, "longitude": -60.780119999999954}, "140726886RR0001": {"name": "MIDDLE RIVER PRESBYTERIAN CHURCH", "designationCode": "C", "categoryCode": "37", "address": "59 E. FRASER CROSS RD.        RR2", "city": "WESTVILLE", "province": "NS", "country": "CA", "postalCode": "B0K2A0", "twitter": "None", "instagram": "None", "facebook": "None", "youtube": "None", "website": "None", "summary": "None", "logo": "None", "latitude": 45.49734124363236, "longitude": -62.780450990093804}, "892206244RR0001": {"name": "MIDDLE RIVER UNITED CHURCH", "designationCode": "C", "categoryCode": "44", "address": "RR#3", "city": "BADDECK", "province": "NS", "country": "CA", "postalCode": "B0E1B0", "twitter": "None", "instagram": "None", "facebook": "None", "youtube": "None", "website": "None", "summary": "None", "logo": "None", "latitude": 46.087500000000034, "longitude": -60.780119999999954}, "865571673RR0001": {"name": "MIDDLE RIVER VOLUNTEER FIRE DEPARTMENT", "designationCode": "C", "categoryCode": "55", "address": "1989 CABOT TRAIL", "city": "BADDECK", "province": "NS", "country": "CA", "postalCode": "B0E1B0", "twitter": "None", "instagram": "None", "facebook": "None", "youtube": "None", "website": "None", "summary": "None", "logo": "None", "latitude": 46.158154639448455, "longitude": -60.92528093758991}, "107700726RR0001": {"name": "MIDDLE SACKVILLE BAPTIST CHURCH", "designationCode": "C", "categoryCode": "31", "address": "14 CHURCH STREET", "city": "SACKVILLE", "province": "NB", "country": "CA", "postalCode": "E4L1H5", "twitter": "None", "instagram": "None", "facebook": "None", "youtube": "None", "website": "None", "summary": "None", "logo": "None", "latitude": 45.92705490844801, "longitude": -64.35388722269056}, "891518573RR0001": {"name": "MIDDLE SOUTH CEMETERY COMPANY OF LUNENBURG COUNTY", "designationCode": "C", "categoryCode": "59", "address": "RR #1 ROSE BAY", "city": "LUNENBURG CO", "province": "NS", "country": "CA", "postalCode": "B0J2X0", "twitter": "None", "instagram": "None", "facebook": "None", "youtube": "None", "website": "None", "summary": "None", "logo": "None", "latitude": 44.31816665239037, "longitude": -64.2665868261952}, "140830183RR0001": {"name": "MIDDLE SOUTHAMPTON COMMUNITY HALL INC", "designationCode": "C", "categoryCode": "56", "address": "1782 CAMPBELL SETTLEMENT ROAD", "city": "SOUTH HAMPTON", "province": "NB", "country": "CA", "postalCode": "E6G1L8", "twitter": "None", "instagram": "None", "facebook": "None", "youtube": "None", "website": "None", "summary": "None", "logo": "None", "latitude": 46.022942006044254, "longitude": -67.3053773430355}, "119040129RR0001": {"name": "MIDDLE SOUTHAMPTON UNITED BAPTIST CHURCH", "designationCode": "C", "categoryCode": "31", "address": "1462 ROUTE 105", "city": "SOUTHAMPTON", "province": "NB", "country": "CA", "postalCode": "E6G1L8", "twitter": "None", "instagram": "None", "facebook": "None", "youtube": "None", "website": "None", "summary": "None", "logo": "None", "latitude": 45.9767056072002, "longitude": -67.39849194593886}, "864757638RR0001": {"name": "MIDDLE STEWIACKE RECREATION ASSOCIATION", "designationCode": "C", "categoryCode": "56", "address": "2395 HWY 289                  RR 3", "city": "BROOKFIELD", "province": "NS", "country": "CA", "postalCode": "B0N1C0", "twitter": "None", "instagram": "None", "facebook": "None", "youtube": "None", "website": "None", "summary": "None", "logo": "None", "latitude": 45.25477861754059, "longitude": -63.274957519396864}, "894293554RR0001": {"name": "MIDDLEBRO CHRISTIAN FAMILY CHURCH INC.", "designationCode": "C", "categoryCode": "39", "address": "PO BOX 46", "city": "MIDDLEBRO", "province": "MB", "country": "CA", "postalCode": "R0A1B0", "twitter": "None", "instagram": "None", "facebook": "None", "youtube": "None", "website": "None", "summary": "None", "logo": "None", "latitude": 49.02289176071431, "longitude": -95.43806550179175}, "119040111RR0001": {"name": "MIDDLESEX BAPTIST CHURCH", "designationCode": "C", "categoryCode": "31", "address": "170 LEWIS ROAD", "city": "COLPITTS SETTLEMENT", "province": "NB", "country": "CA", "postalCode": "E4J1G5", "twitter": "None", "instagram": "None", "facebook": "None", "youtube": "None", "website": "None", "summary": "None", "logo": "None", "latitude": 45.95191669304033, "longitude": -64.99370264042368}, "108040791RR0001": {"name": "MIDDLESEX COMMUNITY LIVING", "designationCode": "C", "categoryCode": "11", "address": "82 FRONT STREET WEST", "city": "STRATHROY", "province": "ON", "country": "CA", "postalCode": "N7G1X7", "twitter": "None", "instagram": "None", "facebook": "None", "youtube": "None", "website": "None", "summary": "None", "logo": "None", "latitude": 42.9572763291593, "longitude": -81.62648959227315}}