{"876004318RR0001": {"name": "LE GROUPE D'ENTRAIDE SOREL-TRACY", "designationCode": "C", "categoryCode": "09", "address": "144 RUE DAUPLAISE", "city": "SOREL-TRACY", "province": "QC", "country": "CA", "postalCode": "J3P8A8", "twitter": "None", "instagram": "None", "facebook": "None", "youtube": "None", "website": "None", "summary": "None", "logo": "None", "latitude": 46.027244728230485, "longitude": -73.09662938216297}, "119012946RR0001": {"name": "LE GROUPE DANSE PARTOUT INC.", "designationCode": "C", "categoryCode": "22", "address": "310, BOUL. LANGELIER          BUREAU 214", "city": "QUEBEC", "province": "QC", "country": "CA", "postalCode": "G1K5N3", "twitter": "None", "instagram": "None", "facebook": "None", "youtube": "None", "website": "None", "summary": "None", "logo": "None", "latitude": 46.81331749624909, "longitude": -71.23192445533486}, "103036760RR0001": {"name": "LE GROUPE DE LA VEILL\u00c9E", "designationCode": "C", "categoryCode": "22", "address": "1371 ONTARIO EST", "city": "MONTREAL", "province": "QC", "country": "CA", "postalCode": "H2L1S2", "twitter": "None", "instagram": "None", "facebook": "None", "youtube": "None", "website": "None", "summary": "None", "logo": "None", "latitude": 45.52330505190717, "longitude": -73.56111182434051}, "107614182RR0001": {"name": "LE GROUPE DE PERSONNES HANDICAPEES LES ALCYONS INC.", "designationCode": "C", "categoryCode": "59", "address": "1237 RUE THIBAULT", "city": "MONT-JOLI", "province": "QC", "country": "CA", "postalCode": "G5H2M2", "twitter": "None", "instagram": "None", "facebook": "None", "youtube": "None", "website": "None", "summary": "None", "logo": "None", "latitude": 48.5935596236654, "longitude": -68.19761742642409}, "137026878RR0001": {"name": "LE GROUPE DES DEUX-COEURS", "designationCode": "C", "categoryCode": "47", "address": "146D AVE CHEVRIER-LOCAL 127   ATTN: ASST DIRECTEUR", "city": "CORNWALL", "province": "ON", "country": "CA", "postalCode": "K6H1S1", "twitter": "None", "instagram": "None", "facebook": "None", "youtube": "None", "website": "None", "summary": "None", "logo": "None", "latitude": 45.02019013230777, "longitude": -74.71295848430628}, "119012979RR0001": {"name": "LE GROUPE DEZIEL INC.", "designationCode": "C", "categoryCode": "29", "address": "51A RUE D\u00c9ZIEL                CP 46035", "city": "L\u00c9VIS", "province": "QC", "country": "CA", "postalCode": "G6V8S3", "twitter": "None", "instagram": "None", "facebook": "None", "youtube": "None", "website": "None", "summary": "None", "logo": "None", "latitude": 46.809866380308996, "longitude": -71.18471881168793}, "868402546RR0001": {"name": "LE GROUPE JASPE", "designationCode": "C", "categoryCode": "09", "address": "302 - 1065 RUE MERRY N", "city": "MAGOG", "province": "QC", "country": "CA", "postalCode": "J1X2G9", "twitter": "None", "instagram": "None", "facebook": "None", "youtube": "None", "website": "None", "summary": "None", "logo": "None", "latitude": 45.281168926657664, "longitude": -72.15387918979195}, "139313647RR0001": {"name": "LE GROUPE MARRAINE TENDRESSE INC", "designationCode": "C", "categoryCode": "09", "address": "3 RUE BLAINVILLE EST", "city": "STE-THERESE", "province": "QC", "country": "CA", "postalCode": "J7E1L4", "twitter": "None", "instagram": "None", "facebook": "None", "youtube": "None", "website": "None", "summary": "None", "logo": "None", "latitude": 45.63939267162977, "longitude": -73.84132072232342}, "118948652RR0001": {"name": "LE GROUPE SCOUT DE LAVALTRIE (DISTRICT DE LANAUDIERE) INC.", "designationCode": "C", "categoryCode": "29", "address": "C.P. 106", "city": "LAVALTRIE", "province": "QC", "country": "CA", "postalCode": "J5T4A9", "twitter": "None", "instagram": "None", "facebook": "None", "youtube": "None", "website": "None", "summary": "None", "logo": "None", "latitude": 45.89611061204615, "longitude": -73.29994646490951}, "107448953RR0001": {"name": "LE GROUPEMENT DES ARTS VISUELS DE VICTORIAVILLE", "designationCode": "C", "categoryCode": "22", "address": "17 DES FORGES", "city": "VICTORIAVILLE", "province": "QC", "country": "CA", "postalCode": "G6P1N5", "twitter": "None", "instagram": "None", "facebook": "None", "youtube": "None", "website": "None", "summary": "None", "logo": "None", "latitude": 46.0548670665937, "longitude": -71.9607145108487}, "140797721RR0001": {"name": "LE GYROSCOPE DU BASSIN DE MASKINONGE", "designationCode": "C", "categoryCode": "09", "address": "121 RANG PETITE RIVIERE       LOCAL 28", "city": "LOUISEVILLE", "province": "QC", "country": "CA", "postalCode": "J5V2H3", "twitter": "None", "instagram": "None", "facebook": "None", "youtube": "None", "website": "None", "summary": "None", "logo": "None", "latitude": 46.25360541159335, "longitude": -72.95106513154259}, "877231803RR0001": {"name": "LE HAVRE A NOUS / OUR HARBOUR", "designationCode": "C", "categoryCode": "09", "address": "440 AV NOTRE-DAME", "city": "SAINT-LAMBERT", "province": "QC", "country": "CA", "postalCode": "J4P2K4", "twitter": "None", "instagram": "None", "facebook": "None", "youtube": "None", "website": "None", "summary": "None", "logo": "None", "latitude": 45.50276464060229, "longitude": -73.51233163431255}, "119013043RR0001": {"name": "LE HAVRE DES FEMMES", "designationCode": "C", "categoryCode": "09", "address": "C.P 2008", "city": "L'ISLET-SUR-MER", "province": "QC", "country": "CA", "postalCode": "G0R2B0", "twitter": "None", "instagram": "None", "facebook": "None", "youtube": "None", "website": "None", "summary": "None", "logo": "None", "latitude": 47.125671000000054, "longitude": -70.31649049999993}, "107610636RR0001": {"name": "LE HAVRE DU FJORD INC.", "designationCode": "C", "categoryCode": "10", "address": "2187 BONNEAU", "city": "JONQUIERE", "province": "QC", "country": "CA", "postalCode": "G7S4B3", "twitter": "None", "instagram": "None", "facebook": "None", "youtube": "None", "website": "None", "summary": "None", "logo": "None", "latitude": 48.435949824023396, "longitude": -71.13722499795118}, "891672040RR0001": {"name": "LE HAVRE DU LAC ST-JEAN", "designationCode": "C", "categoryCode": "11", "address": "923 RUE MCNICOLL", "city": "ROBERVAL", "province": "QC", "country": "CA", "postalCode": "G8H1X2", "twitter": "None", "instagram": "None", "facebook": "None", "youtube": "None", "website": "None", "summary": "None", "logo": "None", "latitude": 48.51863769360598, "longitude": -72.22711753531605}, "893907378RR0002": {"name": "LE JARDIN DU COIN, CHICOUTIMI", "designationCode": "C", "categoryCode": "01", "address": "230, RUE DU DIAMANT", "city": "CHICOUTIMI", "province": "QC", "country": "CA", "postalCode": "G7G3Z5", "twitter": "None", "instagram": "None", "facebook": "None", "youtube": "None", "website": "None", "summary": "None", "logo": "None", "latitude": 48.44656042382703, "longitude": -71.04129527852152}, "135406106RR0001": {"name": "LE JARDIN EDUCATIF DU PONTIAC", "designationCode": "C", "categoryCode": "09", "address": "3, RUE MC CUAIG               C,P, 29", "city": "CAMPBELL'S BAY", "province": "QC", "country": "CA", "postalCode": "J0X1K0", "twitter": "None", "instagram": "None", "facebook": "None", "youtube": "None", "website": "None", "summary": "None", "logo": "None", "latitude": 45.650531343438026, "longitude": -76.56389415210394}, "887461838RR0001": {"name": "LE JAZZ HOT DANCE COMPANY OF CANADA", "designationCode": "C", "categoryCode": "22", "address": "6 PHEASANT RUN DR", "city": "NEPEAN", "province": "ON", "country": "CA", "postalCode": "K2J2R2", "twitter": "None", "instagram": "None", "facebook": "None", "youtube": "None", "website": "None", "summary": "None", "logo": "None"}, "892131764RR0001": {"name": "LE JEUNE BALLET DU QUEBEC", "designationCode": "C", "categoryCode": "22", "address": "4816 RUE RIVARD", "city": "MONTREAL", "province": "QC", "country": "CA", "postalCode": "H2J2N6", "twitter": "None", "instagram": "None", "facebook": "None", "youtube": "None", "website": "None", "summary": "None", "logo": "None", "latitude": 45.5264037352127, "longitude": -73.58675557092153}, "880788153RR0001": {"name": "LE LIEN DE VIE INC.", "designationCode": "C", "categoryCode": "09", "address": "CP 54051 RUE MARIE DE         L'INCARNATION", "city": "QUEBEC", "province": "QC", "country": "CA", "postalCode": "G1N4T1", "twitter": "None", "instagram": "None", "facebook": "None", "youtube": "None", "website": "None", "summary": "None", "logo": "None", "latitude": 46.80818424442407, "longitude": -71.24535145597613}, "898438213RR0001": {"name": "LE LIEN MAISON DE LA FAMILLE", "designationCode": "C", "categoryCode": "09", "address": "81 RUE MAURAULT", "city": "PIERREVILLE", "province": "QC", "country": "CA", "postalCode": "J0G1J0", "twitter": "None", "instagram": "None", "facebook": "None", "youtube": "None", "website": "None", "summary": "None", "logo": "None", "latitude": 46.07141176715324, "longitude": -72.81112976008409}, "869144774RR0001": {"name": "LE MAGNIFIQUE INC.", "designationCode": "C", "categoryCode": "59", "address": "11174 AVE. ROYALE", "city": "BEAUPR\u00c9", "province": "QC", "country": "CA", "postalCode": "G0A1E0", "twitter": "None", "instagram": "None", "facebook": "None", "youtube": "None", "website": "None", "summary": "None", "logo": "None", "latitude": 47.045847456027346, "longitude": -70.88901821567875}, "130488778RR0001": {"name": "LE MAILLON \"REGROUPEMENT DE PARENTS ET AMIS DE LA PERSONNE ATTEINTE DE MALADIE MENTALE DU SAGUENAY\"", "designationCode": "C", "categoryCode": "09", "address": "232 TESSIER", "city": "CHICOUTIMI", "province": "QC", "country": "CA", "postalCode": "G7H4Z6", "twitter": "None", "instagram": "None", "facebook": "None", "youtube": "None", "website": "None", "summary": "None", "logo": "None", "latitude": 48.42878604302038, "longitude": -71.06695514129478}, "119013100RR0001": {"name": "LE MANOIR LAURE GAUDREAULT", "designationCode": "C", "categoryCode": "01", "address": "815 RUE DE VILLERS", "city": "QUEBEC", "province": "QC", "country": "CA", "postalCode": "G1V4M4", "twitter": "None", "instagram": "None", "facebook": "None", "youtube": "None", "website": "None", "summary": "None", "logo": "None", "latitude": 46.7819675923018, "longitude": -71.29207399997134}, "135048288RR0001": {"name": "LE MASHADO", "designationCode": "C", "categoryCode": "09", "address": "8 CH DES OPTIMISTES", "city": "SAINTE-CECILE-DE-MASHAM", "province": "QC", "country": "CA", "postalCode": "J0X2W0", "twitter": "None", "instagram": "None", "facebook": "None", "youtube": "None", "website": "None", "summary": "None", "logo": "None", "latitude": 45.64201557700971, "longitude": -76.03517617317799}, "887878825RR0001": {"name": "LE MIEUX-ETRE DES IMMIGRANTS", "designationCode": "C", "categoryCode": "09", "address": "204-2120 RUE BOIVIN", "city": "SAINTE-FOY", "province": "QC", "country": "CA", "postalCode": "G1V1N7", "twitter": "None", "instagram": "None", "facebook": "None", "youtube": "None", "website": "None", "summary": "None", "logo": "None", "latitude": 46.79009700000006, "longitude": -71.27149849999994}, "119013159RR0001": {"name": "LE MODULE D'EPANOUISSEMENT A LA VIE DE SEPT-ILES", "designationCode": "C", "categoryCode": "01", "address": "350, RUE SMITH                LOCAL 256", "city": "SEPT-ILES", "province": "QC", "country": "CA", "postalCode": "G4R3X2", "twitter": "None", "instagram": "None", "facebook": "None", "youtube": "None", "website": "None", "summary": "None", "logo": "None", "latitude": 50.219786452940276, "longitude": -66.38196762098235}, "896548203RR0001": {"name": "LE MOIS DE LA PHOTO A MONTREAL", "designationCode": "C", "categoryCode": "22", "address": "5445 AV DE GASPE , SUITE 335", "city": "MONTREAL", "province": "QC", "country": "CA", "postalCode": "H2T3B2", "twitter": "None", "instagram": "None", "facebook": "None", "youtube": "None", "website": "None", "summary": "None", "logo": "None", "latitude": 45.52683526146908, "longitude": -73.59551934136431}, "119013175RR0001": {"name": "LE MONASTERE DE N D DE MISTASSINI", "designationCode": "C", "categoryCode": "46", "address": "100, ROUTE DES TRAPPISTES", "city": "DOLBEAU-MISTASSINI", "province": "QC", "country": "CA", "postalCode": "G8L5E5", "twitter": "None", "instagram": "None", "facebook": "None", "youtube": "None", "website": "None", "summary": "None", "logo": "None", "latitude": 48.94926334390314, "longitude": -72.22555752386178}, "103047411RR0001": {"name": "LE MOULIN A MUSIQUE INC.", "designationCode": "C", "categoryCode": "22", "address": "5350 RUE LAFOND               BUREAU R210", "city": "MONTREAL", "province": "QC", "country": "CA", "postalCode": "H1X2X2", "twitter": "None", "instagram": "None", "facebook": "None", "youtube": "None", "website": "None", "summary": "None", "logo": "None", "latitude": 45.55238905297504, "longitude": -73.5710193212821}, "119013217RR0001": {"name": "LE MOUVEMENT \"PERSONNE D'ABORD\" DU QUEBEC METROPOLITAIN", "designationCode": "C", "categoryCode": "09", "address": "2101 1ERE AVENUE", "city": "QUEBEC", "province": "QC", "country": "CA", "postalCode": "G1L3M6", "twitter": "None", "instagram": "None", "facebook": "None", "youtube": "None", "website": "None", "summary": "None", "logo": "None", "latitude": 46.83191557256632, "longitude": -71.23965680616288}, "124412800RR0001": {"name": "LE MOUVEMENT D'ANIMATION ARTISTIQUE DE CAP-ROUGE", "designationCode": "C", "categoryCode": "22", "address": "4473 ST-F\u00c9LIX", "city": "QUEBEC", "province": "QC", "country": "CA", "postalCode": "G1Y3A6", "twitter": "None", "instagram": "None", "facebook": "None", "youtube": "None", "website": "None", "summary": "None", "logo": "None", "latitude": 46.741389298892194, "longitude": -71.35496781995536}, "136218666RR0001": {"name": "LE MOUVEMENT D'INFORMATION, D'EDUCATION ET D'ENTRAIDE DANS LA LUTTE CONTRE LE SIDA (M I E N S )", "designationCode": "C", "categoryCode": "59", "address": "1073 BOUL DU SAGUENAY E", "city": "CHICOUTIMI", "province": "QC", "country": "CA", "postalCode": "G7H1L6", "twitter": "None", "instagram": "None", "facebook": "None", "youtube": "None", "website": "None", "summary": "None", "logo": "None", "latitude": 48.42996643493553, "longitude": -71.03490309409082}, "119013183RR0001": {"name": "LE MOUVEMENT DES CURSILLOS DU DIOCESE DE ST-HYACINTHE INC.", "designationCode": "C", "categoryCode": "49", "address": "650, GIROUARD EST", "city": "ST-HYACINTHE", "province": "QC", "country": "CA", "postalCode": "J2S2Y2", "twitter": "None", "instagram": "None", "facebook": "None", "youtube": "None", "website": "None", "summary": "None", "logo": "None", "latitude": 45.63261623495506, "longitude": -72.94180957057556}, "889442778RR0001": {"name": "LE MOUVEMENT DES CURSILLOS SAGUENAY-LAC-ST-JEAN INC.", "designationCode": "C", "categoryCode": "49", "address": "1250 RANG DES CH\u00dbTES", "city": "ST-AMBROISE", "province": "QC", "country": "CA", "postalCode": "G7P2V4", "twitter": "None", "instagram": "None", "facebook": "None", "youtube": "None", "website": "None", "summary": "None", "logo": "None", "latitude": 48.58095287650749, "longitude": -71.3003501975011}, "119048650RR0001": {"name": "LE MOUVEMENT DES CURSILLOS SECTEUR DE SHERBROOKE INC.", "designationCode": "C", "categoryCode": "49", "address": "92 RUE OZIAS-LEDUC", "city": "SHERBROOKE", "province": "QC", "country": "CA", "postalCode": "J1H1M7", "twitter": "None", "instagram": "None", "facebook": "None", "youtube": "None", "website": "None", "summary": "None", "logo": "None", "latitude": 45.40249669025911, "longitude": -71.89206585607948}, "103047510RR0001": {"name": "LE MOUVEMENT MUSICAL MITCHELL-MONTCALM INC.", "designationCode": "C", "categoryCode": "22", "address": "2050 RUE PORTLAND", "city": "SHERBROOKE", "province": "QC", "country": "CA", "postalCode": "J1J1T9", "twitter": "None", "instagram": "None", "facebook": "None", "youtube": "None", "website": "None", "summary": "None", "logo": "None", "latitude": 45.40365952784385, "longitude": -71.92403999999999}, "891719247RR0001": {"name": "LE MOUVEMENT SCOUTS ET GUIDES DE DRUMMOND INC", "designationCode": "C", "categoryCode": "29", "address": "106 SUTHERLAND BROOK RD", "city": "DSL DE DRUMMOND", "province": "NB", "country": "CA", "postalCode": "E3Y2M4", "twitter": "None", "instagram": "None", "facebook": "None", "youtube": "None", "website": "None", "summary": "None", "logo": "None", "latitude": 47.04419703545937, "longitude": -67.60764273371309}, "103806154RR0001": {"name": "LE MURIER INC.", "designationCode": "C", "categoryCode": "59", "address": "2615 BOUL. PIE IX", "city": "MONTREAL", "province": "QC", "country": "CA", "postalCode": "H1V2E8", "twitter": "None", "instagram": "None", "facebook": "None", "youtube": "None", "website": "None", "summary": "None", "logo": "None", "latitude": 45.55322482266707, "longitude": -73.55010323506846}, "139614184RR0001": {"name": "LE MURMURE, GROUPE D'ENTRAIDE DE PERSONNES AYANT OU AYANT EU UN PROBL\u00c8ME DE SANT\u00c9 MENTALE", "designationCode": "C", "categoryCode": "09", "address": "673 BOUL RENAULT", "city": "BEAUCEVILLE", "province": "QC", "country": "CA", "postalCode": "G5X1L9", "twitter": "None", "instagram": "None", "facebook": "None", "youtube": "None", "website": "None", "summary": "None", "logo": "None", "latitude": 46.20255726559536, "longitude": -70.77215786222499}, "119049427RR0001": {"name": "LE MUSEE AMERINDIEN ET INUIT DE GODBOUT INC.", "designationCode": "C", "categoryCode": "50", "address": "1381 RUE ROUSSEL", "city": "CHICOUTIMI", "province": "QC", "country": "CA", "postalCode": "G7G1T3", "twitter": "None", "instagram": "None", "facebook": "None", "youtube": "None", "website": "None", "summary": "None", "logo": "None", "latitude": 48.43754188311528, "longitude": -71.03774895037279}, "103811303RR0001": {"name": "LE MUSEE DES MAITRES ET ARTISANS DU QUEBEC", "designationCode": "C", "categoryCode": "50", "address": "615 AVENUE STE CROIX", "city": "VILLE SAINT LAURENT", "province": "QC", "country": "CA", "postalCode": "H4L3X6", "twitter": "None", "instagram": "None", "facebook": "None", "youtube": "None", "website": "None", "summary": "None", "logo": "None", "latitude": 45.51212421178362, "longitude": -73.67324543793661}, "891593477RR0001": {"name": "LE MUSEE DU SKI DE QUEBEC", "designationCode": "C", "categoryCode": "59", "address": "112 RUE DES CAROUGES", "city": "SAINT-FERREOL-LES-NEIGES", "province": "QC", "country": "CA", "postalCode": "G0A3R0", "twitter": "None", "instagram": "None", "facebook": "None", "youtube": "None", "website": "None", "summary": "None", "logo": "None", "latitude": 47.073733366351284, "longitude": -70.88530419666439}, "107756066RR0001": {"name": "LE MUSEE HISTORIQUE DE TRACADIE, INC.", "designationCode": "C", "categoryCode": "50", "address": "399-222 RUE DU COUVENT", "city": "TRACADIE-SHEILA", "province": "NB", "country": "CA", "postalCode": "E1X1E1", "twitter": "None", "instagram": "None", "facebook": "None", "youtube": "None", "website": "None", "summary": "None", "logo": "None", "latitude": 47.513435947599, "longitude": -64.90642939532898}, "118793249RR0001": {"name": "LE MUSEE MARITIME DU QUEBEC INC.", "designationCode": "C", "categoryCode": "50", "address": "55, CH. DES PIONNIERS E", "city": "L'ISLET", "province": "QC", "country": "CA", "postalCode": "G0R2B0", "twitter": "None", "instagram": "None", "facebook": "None", "youtube": "None", "website": "None", "summary": "None", "logo": "None", "latitude": 47.128490873997315, "longitude": -70.37105414599799}, "103047676RR0001": {"name": "LE MUSEE MCCORD D'HISTOIRE CANADIENNE/THE MCCORD MUSEUM OF CANADIAN HISTORY", "designationCode": "C", "categoryCode": "50", "address": "690 RUE SHERBROOKE WEST", "city": "MONTREAL", "province": "QC", "country": "CA", "postalCode": "H3A1E9", "twitter": "None", "instagram": "None", "facebook": "None", "youtube": "None", "website": "None", "summary": "None", "logo": "None", "latitude": 45.50452147763876, "longitude": -73.57388750259707}, "107611584RR0001": {"name": "LE MUSEE REGIONAL DE KAMOURASKA INC.", "designationCode": "C", "categoryCode": "50", "address": "69 AVE MOREL", "city": "KAMOURASKA", "province": "QC", "country": "CA", "postalCode": "G0L1M0", "twitter": "None", "instagram": "None", "facebook": "None", "youtube": "None", "website": "None", "summary": "None", "logo": "None", "latitude": 47.566257769346265, "longitude": -69.86842723382772}, "119013423RR0001": {"name": "LE NOEL DU BONHEUR INC.", "designationCode": "C", "categoryCode": "09", "address": "1411 BOUL. P\u00c8RE-LELI\u00c8VRE", "city": "QU\u00c9BEC", "province": "QC", "country": "CA", "postalCode": "G1M1N7", "twitter": "None", "instagram": "None", "facebook": "None", "youtube": "None", "website": "None", "summary": "None", "logo": "None", "latitude": 46.811550583674816, "longitude": -71.27760965777031}, "119013431RR0001": {"name": "LE NOEL DU PAUVRE COEUR DU QUEBEC INC.", "designationCode": "C", "categoryCode": "09", "address": "C.P. 141", "city": "TROIS-RIVIERES", "province": "QC", "country": "CA", "postalCode": "G9A5J9", "twitter": "None", "instagram": "None", "facebook": "None", "youtube": "None", "website": "None", "summary": "None", "logo": "None", "latitude": 46.34016900000006, "longitude": -72.54503449999993}, "119013456RR0001": {"name": "LE NOUVEAU PENSER", "designationCode": "C", "categoryCode": "39", "address": "21A RUE DION", "city": "SALABERRY-DE-VALLEYFIELD", "province": "QC", "country": "CA", "postalCode": "J6S3C6", "twitter": "None", "instagram": "None", "facebook": "None", "youtube": "None", "website": "None", "summary": "None", "logo": "None", "latitude": 45.262259629788495, "longitude": -74.13906006433525}, "119013464RR0001": {"name": "LE NOUVEAU THEATRE EXPERIMENTAL", "designationCode": "C", "categoryCode": "22", "address": "1945 FULLUM", "city": "MONTREAL", "province": "QC", "country": "CA", "postalCode": "H2K3N3", "twitter": "None", "instagram": "None", "facebook": "None", "youtube": "None", "website": "None", "summary": "None", "logo": "None", "latitude": 45.53015310825773, "longitude": -73.5544206891339}, "891098840RR0001": {"name": "LE ORATOIRE FRENCH BAPTIST CHURCH", "designationCode": "C", "categoryCode": "31", "address": "4863 RUE CARTIER", "city": "MONTREAL", "province": "QC", "country": "CA", "postalCode": "H2H1X3", "twitter": "None", "instagram": "None", "facebook": "None", "youtube": "None", "website": "None", "summary": "None", "logo": "None", "latitude": 45.53559423203871, "longitude": -73.57811887800803}, "107613564RR0001": {"name": "LE P\u00c9RISCOPE DES BASSES-LAURENTIDES INC.", "designationCode": "C", "categoryCode": "01", "address": "2 DE LA MARINA", "city": "OKA", "province": "QC", "country": "CA", "postalCode": "J0N1E0", "twitter": "None", "instagram": "None", "facebook": "None", "youtube": "None", "website": "None", "summary": "None", "logo": "None", "latitude": 45.49720253952926, "longitude": -74.16998760629583}, "100892959RR0001": {"name": "LE P'TIT BONHEUR INC.", "designationCode": "C", "categoryCode": "01", "address": "300 AUBERT ST", "city": "WINNIPEG", "province": "MB", "country": "CA", "postalCode": "R2H2B6", "twitter": "None", "instagram": "None", "facebook": "None", "youtube": "None", "website": "None", "summary": "None", "logo": "None", "latitude": 49.89676289644548, "longitude": -97.11950531652157}, "892497421RR0001": {"name": "LE PACTE DE RUE INC", "designationCode": "C", "categoryCode": "09", "address": "107 JACQUES-CARTIER           SUITE 11", "city": "SALABERRY-DE-VALLEYFIELD", "province": "QC", "country": "CA", "postalCode": "J6T4R8", "twitter": "None", "instagram": "None", "facebook": "None", "youtube": "None", "website": "None", "summary": "None", "logo": "None", "latitude": 45.25214297307979, "longitude": -74.12728874104107}, "133059766RR0001": {"name": "LE PARADOS INC", "designationCode": "C", "categoryCode": "09", "address": "C.P.34052", "city": "LACHINE", "province": "QC", "country": "CA", "postalCode": "H8S4H4", "twitter": "None", "instagram": "None", "facebook": "None", "youtube": "None", "website": "None", "summary": "None", "logo": "None", "latitude": 45.43296900000006, "longitude": -73.68112249999993}, "884954512RR0001": {"name": "LE PARENFANT MONT\u00c9R\u00c9GIE", "designationCode": "C", "categoryCode": "09", "address": "302 RUE ALBERT", "city": "COWANSVILLE", "province": "QC", "country": "CA", "postalCode": "J2K2W7", "twitter": "None", "instagram": "None", "facebook": "None", "youtube": "None", "website": "None", "summary": "None", "logo": "None", "latitude": 45.21080534361468, "longitude": -72.75140827335699}, "873187108RR0001": {"name": "LE PAS DE LA RUE", "designationCode": "C", "categoryCode": "09", "address": "CP 284 SUCC C", "city": "MONTREAL", "province": "QC", "country": "CA", "postalCode": "H2L4K1", "twitter": "None", "instagram": "None", "facebook": "None", "youtube": "None", "website": "None", "summary": "None", "logo": "None", "latitude": 45.51239400000006, "longitude": -73.55469049999994}, "871249249RR0001": {"name": "LE PASSAGE, CENTRE DE THERAPIE FAMILIALE EN TOXICOMANIE", "designationCode": "C", "categoryCode": "57", "address": "2860 CH DES QUATRE-BOURGEOIS  BUREAU 210", "city": "QUEBEC", "province": "QC", "country": "CA", "postalCode": "G1V1Y3", "twitter": "None", "instagram": "None", "facebook": "None", "youtube": "None", "website": "None", "summary": "None", "logo": "None", "latitude": 46.77422904804069, "longitude": -71.29970894411078}, "119013738RR0001": {"name": "LE PATRO DE JONQUIERE INC.", "designationCode": "C", "categoryCode": "09", "address": "2565, RUE SAINT-DOMINIQUE", "city": "JONQUIERE", "province": "QC", "country": "CA", "postalCode": "G7X6J6", "twitter": "None", "instagram": "None", "facebook": "None", "youtube": "None", "website": "None", "summary": "None", "logo": "None", "latitude": 48.40766702689154, "longitude": -71.25830102986399}, "119013746RR0001": {"name": "LE PATRO DE LEVIS INC.", "designationCode": "C", "categoryCode": "49", "address": "6150 ST-GEORGES", "city": "LEVIS", "province": "QC", "country": "CA", "postalCode": "G6V4J8", "twitter": "None", "instagram": "None", "facebook": "None", "youtube": "None", "website": "None", "summary": "None", "logo": "None", "latitude": 46.80785820483004, "longitude": -71.17824999708581}, "107613473RR0001": {"name": "LE PATRO LE PREVOST", "designationCode": "C", "categoryCode": "49", "address": "7355, RUE CHRISTOPHE-COLOMB", "city": "MONTREAL", "province": "QC", "country": "CA", "postalCode": "H2R2S5", "twitter": "None", "instagram": "None", "facebook": "None", "youtube": "None", "website": "None", "summary": "None", "logo": "None", "latitude": 45.543334250937505, "longitude": -73.61387196125015}, "119013795RR0001": {"name": "LE PATRO ROC-AMADOUR(1978) INC.", "designationCode": "C", "categoryCode": "49", "address": "2301, 1ERE AVENUE", "city": "QUEBEC", "province": "QC", "country": "CA", "postalCode": "G1L3M9", "twitter": "None", "instagram": "None", "facebook": "None", "youtube": "None", "website": "None", "summary": "None", "logo": "None", "latitude": 46.83305526187793, "longitude": -71.24104108555136}, "131049736RR0001": {"name": "LE PAYS DE LA SAGOUINE INC", "designationCode": "C", "categoryCode": "22", "address": "57 RUE ACADIE", "city": "BOUCTOUCHE", "province": "NB", "country": "CA", "postalCode": "E4S2T7", "twitter": "None", "instagram": "None", "facebook": "None", "youtube": "None", "website": "None", "summary": "None", "logo": "None", "latitude": 46.46600856650861, "longitude": -64.70850486722014}, "879975712RR0001": {"name": "LE PELERIN-CENTRE D'ACCOMPAGNEMENT DE LA RECHERCHE SPIRITUELLE", "designationCode": "C", "categoryCode": "47", "address": "3774 QUEEN MARY", "city": "MONTREAL", "province": "QC", "country": "CA", "postalCode": "H3V1A6", "twitter": "None", "instagram": "None", "facebook": "None", "youtube": "None", "website": "None", "summary": "None", "logo": "None", "latitude": 45.49398420647483, "longitude": -73.6199380410298}, "132867243RR0001": {"name": "LE PERISCOPE, ASSOCIATION DES FAMILLES ET DES PROCHES DES PERSONNES ATTEINTES DE MALADIE MENTALE DU CENTRE MAURICIE ET SECTEUR MEKINAC (AFFPAMM)", "designationCode": "C", "categoryCode": "09", "address": "1530 6E AVENUE", "city": "GRAND-M\u00c8RE", "province": "QC", "country": "CA", "postalCode": "G9T2K1", "twitter": "None", "instagram": "None", "facebook": "None", "youtube": "None", "website": "None", "summary": "None", "logo": "None", "latitude": 46.62046643050379, "longitude": -72.68127208481523}, "886968593RR0001": {"name": "LE PETIT CHAPERON ROUGE GARDERIE FRANCOPHONE", "designationCode": "C", "categoryCode": "01", "address": "419 COXWELL AVE", "city": "TORONTO", "province": "ON", "country": "CA", "postalCode": "M4L3B9", "twitter": "None", "instagram": "None", "facebook": "None", "youtube": "None", "website": "None", "summary": "None", "logo": "None", "latitude": 43.6771368012868, "longitude": -79.32097113067722}, "891540122RR0001": {"name": "LE PETIT DOMICILE DE CHARNY PHASE II", "designationCode": "C", "categoryCode": "09", "address": "2223 RUE DU RAIL", "city": "CHARNY", "province": "QC", "country": "CA", "postalCode": "G6X3L7", "twitter": "None", "instagram": "None", "facebook": "None", "youtube": "None", "website": "None", "summary": "None", "logo": "None", "latitude": 46.711077171793015, "longitude": -71.27315064527683}, "119013829RR0001": {"name": "LE PETIT DOMICILE ST-LAMBERT INC.", "designationCode": "C", "categoryCode": "01", "address": "1297 DES ERABLES", "city": "SAINT-LAMBERT", "province": "QC", "country": "CA", "postalCode": "G0S2W0", "twitter": "None", "instagram": "None", "facebook": "None", "youtube": "None", "website": "None", "summary": "None", "logo": "None", "latitude": 46.58548129306383, "longitude": -71.21008132200323}, "862808086RR0001": {"name": "LE PETIT HIBOU PRESCHOOL", "designationCode": "C", "categoryCode": "01", "address": "125 ADVENTURE RD", "city": "KELOWNA", "province": "BC", "country": "CA", "postalCode": "V1X1N3", "twitter": "None", "instagram": "None", "facebook": "None", "youtube": "None", "website": "None", "summary": "None", "logo": "None", "latitude": 49.88227471498626, "longitude": -119.38835365681707}, "878676014RR0001": {"name": "LE PETIT PEUPLE", "designationCode": "C", "categoryCode": "09", "address": "500 BOUL LABELLE", "city": "BLAINVILLE", "province": "QC", "country": "CA", "postalCode": "J7C2L5", "twitter": "None", "instagram": "None", "facebook": "None", "youtube": "None", "website": "None", "summary": "None", "logo": "None", "latitude": 45.6552470624674, "longitude": -73.85176733677667}, "895103489RR0001": {"name": "LE PETIT PONT", "designationCode": "C", "categoryCode": "09", "address": "2465, AV. SAINTE-ANNE", "city": "SAINT-HYACINTHE", "province": "QC", "country": "CA", "postalCode": "J2S5J1", "twitter": "None", "instagram": "None", "facebook": "None", "youtube": "None", "website": "None", "summary": "None", "logo": "None", "latitude": 45.63123409074394, "longitude": -72.95658920609945}, "869736561RR0001": {"name": "LE PETIT REPIT", "designationCode": "C", "categoryCode": "09", "address": "325 DES OBLATS", "city": "QUEBEC", "province": "QC", "country": "CA", "postalCode": "G1K1R9", "twitter": "None", "instagram": "None", "facebook": "None", "youtube": "None", "website": "None", "summary": "None", "logo": "None", "latitude": 46.81066745294027, "longitude": -71.23685863791924}, "123045510RR0001": {"name": "LE PETIT THEATRE DE SHERBROOKE INC", "designationCode": "C", "categoryCode": "22", "address": "230 - 250 RUE DU D\u00c9P\u00d4T", "city": "SHERBROOKE", "province": "QC", "country": "CA", "postalCode": "J1H5G1", "twitter": "None", "instagram": "None", "facebook": "None", "youtube": "None", "website": "None", "summary": "None", "logo": "None", "latitude": 45.39807494806416, "longitude": -71.88814775238072}, "866457781RR0001": {"name": "LE PHARE DE LONGUEUIL", "designationCode": "C", "categoryCode": "39", "address": "740, BOUL.ST-FOY", "city": "LONGUEUIL", "province": "QC", "country": "CA", "postalCode": "J4J1Z3", "twitter": "None", "instagram": "None", "facebook": "None", "youtube": "None", "website": "None", "summary": "None", "logo": "None", "latitude": 45.52391010794063, "longitude": -73.49585410600737}, "107613689RR0001": {"name": "LE PHARE DES SERVICES COMMUNAUTAIRES INC.", "designationCode": "C", "categoryCode": "01", "address": "68, AVENUE DE LA RIVI\u00c8RE", "city": "BOUCTOUCHE", "province": "NB", "country": "CA", "postalCode": "E4S3A7", "twitter": "None", "instagram": "None", "facebook": "None", "youtube": "None", "website": "None", "summary": "None", "logo": "None", "latitude": 46.46828202155684, "longitude": -64.72544398738498}, "872109764RR0001": {"name": "LE PHARE SOURCE D'ENTRAIDE", "designationCode": "C", "categoryCode": "11", "address": "525 RUE ST-EDOUARD            BUREAU 103", "city": "FARNHAM", "province": "QC", "country": "CA", "postalCode": "J2N1G6", "twitter": "None", "instagram": "None", "facebook": "None", "youtube": "None", "website": "None", "summary": "None", "logo": "None", "latitude": 45.28669669582767, "longitude": -72.97262011209556}, "878089721RR0001": {"name": "LE PHARE, ENFANTS ET FAMILLES - THE LIGHTHOUSE, CHILDREN AND FAMILIES", "designationCode": "C", "categoryCode": "09", "address": "2725 AVE DU MONT-ROYAL EST", "city": "MONTR\u00c9AL", "province": "QC", "country": "CA", "postalCode": "H1Y0A1", "twitter": "None", "instagram": "None", "facebook": "None", "youtube": "None", "website": "None", "summary": "None", "logo": "None", "latitude": 45.54447272635456, "longitude": -73.56734402337084}, "131849358RR0001": {"name": "LE PHARE, SAINT-HYACINTHE ET R\u00c9GIONS INC.", "designationCode": "C", "categoryCode": "09", "address": "620 RUE ROBERT", "city": "SAINT-HYACINTHE", "province": "QC", "country": "CA", "postalCode": "J2S4L8", "twitter": "None", "instagram": "None", "facebook": "None", "youtube": "None", "website": "None", "summary": "None", "logo": "None", "latitude": 45.62745653012286, "longitude": -72.94391463154258}, "133617670RR0001": {"name": "LE PHENIX - SERVICE D'INTEGRATION SOCIALE", "designationCode": "C", "categoryCode": "09", "address": "P.O. BOX 399                  330 ST-PHILIPPE ST.", "city": "ALFRED", "province": "ON", "country": "CA", "postalCode": "K0B1A0", "twitter": "None", "instagram": "None", "facebook": "None", "youtube": "None", "website": "None", "summary": "None", "logo": "None", "latitude": 45.55918197530149, "longitude": -74.87828022967277}, "133753178RR0001": {"name": "LE PIGNON BLEU, LA MAISON POUR GRANDIR", "designationCode": "C", "categoryCode": "09", "address": "271 RUE SAINT-VALLIER OUEST", "city": "QUEBEC", "province": "QC", "country": "CA", "postalCode": "G1K1K4", "twitter": "None", "instagram": "None", "facebook": "None", "youtube": "None", "website": "None", "summary": "None", "logo": "None", "latitude": 46.81208055785113, "longitude": -71.2368345328928}, "882582588RR0001": {"name": "LE PILIER L'ASSOCIATION DES TRAUMATISES CRANIENS DE L'ABITIBI-TEMISCAMINGUE", "designationCode": "C", "categoryCode": "11", "address": "3 9E RUE", "city": "ROUYN-NORANDA", "province": "QC", "country": "CA", "postalCode": "J9X2A9", "twitter": "None", "instagram": "None", "facebook": "None", "youtube": "None", "website": "None", "summary": "None", "logo": "None", "latitude": 48.24374030004604, "longitude": -79.02018258667496}, "126032762RR0001": {"name": "LE PIOLET", "designationCode": "C", "categoryCode": "59", "address": "103 RUE RACINE", "city": "LORETTEVILLE", "province": "QC", "country": "CA", "postalCode": "G2B1C9", "twitter": "None", "instagram": "None", "facebook": "None", "youtube": "None", "website": "None", "summary": "None", "logo": "None", "latitude": 46.85418189757065, "longitude": -71.35595518746048}, "100876531RR0001": {"name": "LE PIVOT", "designationCode": "C", "categoryCode": "56", "address": "4551 BOULEVARD SAINTE-ANNE", "city": "QU\u00c9BEC", "province": "QC", "country": "CA", "postalCode": "G1C2H8", "twitter": "None", "instagram": "None", "facebook": "None", "youtube": "None", "website": "None", "summary": "None", "logo": "None", "latitude": 46.87193926092083, "longitude": -71.16054945536351}, "894374297RR0001": {"name": "LE PIVOT DES ILES INC.", "designationCode": "C", "categoryCode": "56", "address": "364 AV GAMACHE", "city": "SEPT-ILES", "province": "QC", "country": "CA", "postalCode": "G4R2H7", "twitter": "None", "instagram": "None", "facebook": "None", "youtube": "None", "website": "None", "summary": "None", "logo": "None", "latitude": 50.20712857397995, "longitude": -66.37716260058302}, "896580545RR0001": {"name": "LE PLAISIR DES MOTS", "designationCode": "C", "categoryCode": "21", "address": "200H BOUL. PERRON OUEST", "city": "NEW RICHMOND", "province": "QC", "country": "CA", "postalCode": "G0C2B0", "twitter": "None", "instagram": "None", "facebook": "None", "youtube": "None", "website": "None", "summary": "None", "logo": "None", "latitude": 48.166119203893466, "longitude": -65.86739815827617}, "140749979RR0001": {"name": "LE PONT DU SUROIT", "designationCode": "C", "categoryCode": "59", "address": "88, RUE ALEXANDRE", "city": "SALABERRY DE VALLEYFIELD", "province": "QC", "country": "CA", "postalCode": "J6S3J9", "twitter": "None", "instagram": "None", "facebook": "None", "youtube": "None", "website": "None", "summary": "None", "logo": "None", "latitude": 45.263191263950596, "longitude": -74.13453265707781}, "129556254RR0001": {"name": "LE PONT, ORGANISME DE JUSTICE ALTERNATIVE", "designationCode": "C", "categoryCode": "59", "address": "437 WELLINGTON SUD", "city": "SHERBROOKE", "province": "QC", "country": "CA", "postalCode": "J1H5E2", "twitter": "None", "instagram": "None", "facebook": "None", "youtube": "None", "website": "None", "summary": "None", "logo": "None", "latitude": 45.39563821925678, "longitude": -71.88706134015221}, "144393378RR0001": {"name": "LE PORTAIL", "designationCode": "C", "categoryCode": "09", "address": "489 AVE LARIVIERE", "city": "ROUYN-NORANDA", "province": "QC", "country": "CA", "postalCode": "J9X4H9", "twitter": "None", "instagram": "None", "facebook": "None", "youtube": "None", "website": "None", "summary": "None", "logo": "None", "latitude": 48.229572960038055, "longitude": -79.01423352648752}, "888306669RR0001": {"name": "LE PRECIEUX FONDS INCORPOREE", "designationCode": "C", "categoryCode": "52", "address": "200 RUE KENNY", "city": "SAINT-BONIFACE", "province": "MB", "country": "CA", "postalCode": "R2H2E4", "twitter": "None", "instagram": "None", "facebook": "None", "youtube": "None", "website": "None", "summary": "None", "logo": "None", "latitude": 49.877687828755256, "longitude": -97.11991101604283}, "107613788RR0001": {"name": "LE PRISME CULTUREL INC.", "designationCode": "C", "categoryCode": "22", "address": "565 AVENUE DE LA COOPERATIVE", "city": "ST-BRUNO", "province": "QC", "country": "CA", "postalCode": "G0W2L0", "twitter": "None", "instagram": "None", "facebook": "None", "youtube": "None", "website": "None", "summary": "None", "logo": "None", "latitude": 48.46936977768482, "longitude": -71.64680946987716}, "107613796RR0001": {"name": "LE PRIX DU DUC D'EDINBOURG AU CANADA (DIVISION DU QUEBEC)/THE DUKE OF EDINBURG'S AWARD IN CANADA (QUEBEC DIVISION)", "designationCode": "C", "categoryCode": "29", "address": "4765, 1RE AVENUE BUREAU S-90", "city": "QU\u00c9BEC", "province": "QC", "country": "CA", "postalCode": "G1H2T3", "twitter": "None", "instagram": "None", "facebook": "None", "youtube": "None", "website": "None", "summary": "None", "logo": "None", "latitude": 46.845665708004034, "longitude": -71.25221754584764}, "108092545RR0001": {"name": "LE PROJET PELERIN/THE PILGRIM PROJECT", "designationCode": "C", "categoryCode": "09", "address": "2520 LIONEL-GROULX AVENUE     3RD FLOOR", "city": "MONTREAL", "province": "QC", "country": "CA", "postalCode": "H3J1J8", "twitter": "None", "instagram": "None", "facebook": "None", "youtube": "None", "website": "None", "summary": "None", "logo": "None", "latitude": 45.48405188314393, "longitude": -73.5773841942698}, "890317589RR0001": {"name": "LE PROJET SAHLE O PROJECT", "designationCode": "C", "categoryCode": "47", "address": "890 RG ST.JACQUES", "city": "STE-SOPHIE-DE-L\u00c9VRARD", "province": "QC", "country": "CA", "postalCode": "G0X3C0", "twitter": "None", "instagram": "None", "facebook": "None", "youtube": "None", "website": "None", "summary": "None", "logo": "None", "latitude": 46.36192000715765, "longitude": -72.09394100463776}, "859666653RR0001": {"name": "LE PUITS DE JACOB INC.", "designationCode": "C", "categoryCode": "09", "address": "8025 ROUTE 17", "city": "KEDGWICK", "province": "NB", "country": "CA", "postalCode": "E8B1W8", "twitter": "None", "instagram": "None", "facebook": "None", "youtube": "None", "website": "None", "summary": "None", "logo": "None", "latitude": 47.657860146139875, "longitude": -67.3358065416907}, "136099157RR0001": {"name": "LE RAPPEL GROUPE D'ENTRAIDE DE PERSONNES ATTEINTES D'UNE MALADIE MENTALE", "designationCode": "C", "categoryCode": "11", "address": "9120 22EME AVENUE", "city": "ST GEORGES", "province": "QC", "country": "CA", "postalCode": "G5Y7R6", "twitter": "None", "instagram": "None", "facebook": "None", "youtube": "None", "website": "None", "summary": "None", "logo": "None", "latitude": 46.14167440380306, "longitude": -70.67734968696954}, "890485766RR0001": {"name": "LE RECHAUD BUS", "designationCode": "C", "categoryCode": "59", "address": "8845 BLVD. ST-LAURENT", "city": "MONTREAL", "province": "QC", "country": "CA", "postalCode": "H2N1M3", "twitter": "None", "instagram": "None", "facebook": "None", "youtube": "None", "website": "None", "summary": "None", "logo": "None", "latitude": 45.542526935339545, "longitude": -73.6440235516187}, "133388694RR0001": {"name": "LE REFUGE LA PIAULE DU CENTRE DU QUEBEC INC", "designationCode": "C", "categoryCode": "01", "address": "165 RUE MARCHAND, C.P.801", "city": "DRUMMONDVILLE", "province": "QC", "country": "CA", "postalCode": "J2B6X1", "twitter": "None", "instagram": "None", "facebook": "None", "youtube": "None", "website": "None", "summary": "None", "logo": "None", "latitude": 45.88306043715722, "longitude": -72.48934062063564}, "891284697RR0001": {"name": "LE REGROUPEMENT DES CLUBS D'AGE D'OR DE LA VALLEE DE LA GATINEAU ET DES COLLINES", "designationCode": "C", "categoryCode": "09", "address": "104 - 198 RUE NOTRE-DAME", "city": "MANIWAKI", "province": "QC", "country": "CA", "postalCode": "J9E2J5", "twitter": "None", "instagram": "None", "facebook": "None", "youtube": "None", "website": "None", "summary": "None", "logo": "None", "latitude": 46.376105887327526, "longitude": -75.97824048268774}, "119008902RR0001": {"name": "LE REGROUPEMENT POUR LA TRISOMIE 21", "designationCode": "C", "categoryCode": "09", "address": "1A- 3250 BOUL. ST-JOSEPH E", "city": "MONTREAL", "province": "QC", "country": "CA", "postalCode": "H1Y3G2", "twitter": "None", "instagram": "None", "facebook": "None", "youtube": "None", "website": "None", "summary": "None", "logo": "None", "latitude": 45.54137273244338, "longitude": -73.57342026755663}}