{"866219298RR0001": {"name": "CHURCH OF GOD A CHRISTIAN FELLOWSHIP", "designationCode": "C", "categoryCode": "39", "address": "BOX 1480", "city": "SUMMERLAND", "province": "BC", "country": "CA", "postalCode": "V0H1Z0", "twitter": "None", "instagram": "None", "facebook": "None", "youtube": "None", "website": "None", "summary": "None", "logo": "None", "latitude": 49.60131900000006, "longitude": -119.67899299999993}, "129539839RR0001": {"name": "CHURCH OF GOD AT ERWOOD SASKATCHEWAN", "designationCode": "C", "categoryCode": "39", "address": "P.O. BOX 685", "city": "HUDSON BAY", "province": "SK", "country": "CA", "postalCode": "S0E0Y0", "twitter": "None", "instagram": "None", "facebook": "None", "youtube": "None", "website": "None", "summary": "None", "logo": "None", "latitude": 52.862685000000056, "longitude": -102.38924149999994}, "130636335RR0001": {"name": "CHURCH OF GOD AT FONTHILL, ONTARIO", "designationCode": "C", "categoryCode": "39", "address": "50 ELM DRIVE EAST             UNIT 1002", "city": "MISSISSAUGA", "province": "ON", "country": "CA", "postalCode": "L5A3X2", "twitter": "None", "instagram": "None", "facebook": "None", "youtube": "None", "website": "None", "summary": "None", "logo": "None", "latitude": 43.59158676331295, "longitude": -79.6293802108228}, "107724015RR0001": {"name": "CHURCH OF GOD AT MORDEN", "designationCode": "C", "categoryCode": "39", "address": "141 6TH STREET", "city": "MORDEN", "province": "MB", "country": "CA", "postalCode": "R6M1E1", "twitter": "None", "instagram": "None", "facebook": "None", "youtube": "None", "website": "None", "summary": "None", "logo": "None", "latitude": 49.19024831706767, "longitude": -98.09894539086528}, "118860451RR0001": {"name": "CHURCH OF GOD DELIVERANCE CENTRE", "designationCode": "C", "categoryCode": "39", "address": "7 INGRAM DR                   BOX 120", "city": "NORTH YORK", "province": "ON", "country": "CA", "postalCode": "M6M2L7", "twitter": "None", "instagram": "None", "facebook": "None", "youtube": "None", "website": "None", "summary": "None", "logo": "None", "latitude": 43.69957885316529, "longitude": -79.47507597945643}, "859441313RR0001": {"name": "CHURCH OF GOD FELLOWSHIP, CANADA", "designationCode": "C", "categoryCode": "39", "address": "1821 10TH AVENUE NORTH", "city": "LETHBRIDGE", "province": "AB", "country": "CA", "postalCode": "T1H1L6", "twitter": "None", "instagram": "None", "facebook": "None", "youtube": "None", "website": "None", "summary": "None", "logo": "None", "latitude": 49.713707482110834, "longitude": -112.8151622514571}, "118860477RR0001": {"name": "CHURCH OF GOD HOUSE OF PRAYER", "designationCode": "C", "categoryCode": "39", "address": "56 LILAC AVE", "city": "CHARLOTTETOWN", "province": "PE", "country": "CA", "postalCode": "C1A6L6", "twitter": "None", "instagram": "None", "facebook": "None", "youtube": "None", "website": "None", "summary": "None", "logo": "None", "latitude": 46.27443541271852, "longitude": -63.133176200530876}, "817997703RR0001": {"name": "CHURCH OF GOD IN CANADA", "designationCode": "C", "categoryCode": "39", "address": "PO BOX 77274", "city": "MISSISSAUGA", "province": "ON", "country": "CA", "postalCode": "L5T2P4", "twitter": "None", "instagram": "None", "facebook": "None", "youtube": "None", "website": "None", "summary": "None", "logo": "None", "latitude": 43.65335400000005, "longitude": -79.67402899999993}, "118860493RR0001": {"name": "CHURCH OF GOD IN CHRIST", "designationCode": "C", "categoryCode": "34", "address": "BOX 93", "city": "KLEEFELD", "province": "MB", "country": "CA", "postalCode": "R0A0V0", "twitter": "None", "instagram": "None", "facebook": "None", "youtube": "None", "website": "None", "summary": "None", "logo": "None", "latitude": 49.50258000000008, "longitude": -96.87267999999995}, "118860543RR0001": {"name": "CHURCH OF GOD IN CHRIST (MENNONITE)", "designationCode": "C", "categoryCode": "39", "address": "BOX 87", "city": "CARTWRIGHT", "province": "MB", "country": "CA", "postalCode": "R0K0L0", "twitter": "None", "instagram": "None", "facebook": "None", "youtube": "None", "website": "None", "summary": "None", "logo": "None", "latitude": 49.09414000000004, "longitude": -99.34137999999996}, "118860592RR0001": {"name": "CHURCH OF GOD IN CHRIST (MENNONITE)", "designationCode": "C", "categoryCode": "34", "address": "29623 DOWNES RD.", "city": "ABBOTSFORD", "province": "BC", "country": "CA", "postalCode": "V4X1Z8", "twitter": "None", "instagram": "None", "facebook": "None", "youtube": "None", "website": "None", "summary": "None", "logo": "None", "latitude": 49.075033512118104, "longitude": -122.4024615}, "118860535RR0001": {"name": "CHURCH OF GOD IN CHRIST MENNONITE", "designationCode": "C", "categoryCode": "34", "address": "BOX 783", "city": "BEAUSEJOUR", "province": "MB", "country": "CA", "postalCode": "R0E0C0", "twitter": "None", "instagram": "None", "facebook": "None", "youtube": "None", "website": "None", "summary": "None", "logo": "None", "latitude": 50.061750000000075, "longitude": -96.50519999999995}, "118860568RR0001": {"name": "CHURCH OF GOD IN CHRIST MENNONITE", "designationCode": "C", "categoryCode": "34", "address": "BOX 545", "city": "FORT VERMILION", "province": "AB", "country": "CA", "postalCode": "T0H1N0", "twitter": "None", "instagram": "None", "facebook": "None", "youtube": "None", "website": "None", "summary": "None", "logo": "None", "latitude": 58.38988995946117, "longitude": -116.02071999942302}, "118860576RR0001": {"name": "CHURCH OF GOD IN CHRIST MENNONITE", "designationCode": "C", "categoryCode": "34", "address": "BOX 1984", "city": "PINCHER CREEK", "province": "AB", "country": "CA", "postalCode": "T0K1W0", "twitter": "None", "instagram": "None", "facebook": "None", "youtube": "None", "website": "None", "summary": "None", "logo": "None", "latitude": 49.48739000000006, "longitude": -113.9366800732874}, "886454198RR0001": {"name": "CHURCH OF GOD IN CHRIST MENNONITE", "designationCode": "C", "categoryCode": "34", "address": "BOX 189", "city": "EDBERG", "province": "AB", "country": "CA", "postalCode": "T0B1J0", "twitter": "None", "instagram": "None", "facebook": "None", "youtube": "None", "website": "None", "summary": "None", "logo": "None", "latitude": 52.78510990737663, "longitude": -112.79210260458059}, "812431542RR0001": {"name": "CHURCH OF GOD IN CHRIST MENNONITE ALASKA HIGHWAY CONGREGATION", "designationCode": "C", "categoryCode": "39", "address": "3872 97 HWY", "city": "PEACE RIVER REGIONAL DISTRICT", "province": "BC", "country": "CA", "postalCode": "V1G0J4", "twitter": "None", "instagram": "None", "facebook": "None", "youtube": "None", "website": "None", "summary": "None", "logo": "None", "latitude": 55.82157000000005, "longitude": -120.35623849999993}, "118860618RR0001": {"name": "CHURCH OF GOD IN CHRIST MENNONITE MAPLEVIEW CONGREGATION", "designationCode": "C", "categoryCode": "34", "address": "5112 LINE 10                  RR 1", "city": "ST MARYS", "province": "ON", "country": "CA", "postalCode": "N4X1C4", "twitter": "None", "instagram": "None", "facebook": "None", "youtube": "None", "website": "None", "summary": "None", "logo": "None", "latitude": 43.25955000000006, "longitude": -81.16295299999993}, "118860501RR0001": {"name": "CHURCH OF GOD IN CHRIST MENNONITE OF SINCLAIR INC.", "designationCode": "C", "categoryCode": "39", "address": "P.O. BOX 23", "city": "CROMER", "province": "MB", "country": "CA", "postalCode": "R0M0J0", "twitter": "None", "instagram": "None", "facebook": "None", "youtube": "None", "website": "None", "summary": "None", "logo": "None", "latitude": 49.73090000000008, "longitude": -101.23581999999999}, "131520215RR0001": {"name": "CHURCH OF GOD IN CHRIST MENNONITE ROSEDALE CONGREGATION", "designationCode": "C", "categoryCode": "34", "address": "RR1", "city": "CROOKED CREEK", "province": "AB", "country": "CA", "postalCode": "T0H0Y0", "twitter": "None", "instagram": "None", "facebook": "None", "youtube": "None", "website": "None", "summary": "None", "logo": "None", "latitude": 55.18115000000006, "longitude": -117.88770999999997}, "123067407RR0001": {"name": "CHURCH OF GOD IN CHRIST MENNONITE,", "designationCode": "C", "categoryCode": "34", "address": "BOX 28 GROUP 15 RR 1", "city": "STE ANNE", "province": "MB", "country": "CA", "postalCode": "R5H1R1", "twitter": "None", "instagram": "None", "facebook": "None", "youtube": "None", "website": "None", "summary": "None", "logo": "None", "latitude": 49.67120400000006, "longitude": -96.65241199999993}, "118860584RR0001": {"name": "CHURCH OF GOD IN CHRIST, MENNONITE", "designationCode": "C", "categoryCode": "34", "address": "BOX 32", "city": "LINDEN", "province": "AB", "country": "CA", "postalCode": "T0M1J0", "twitter": "None", "instagram": "None", "facebook": "None", "youtube": "None", "website": "None", "summary": "None", "logo": "None", "latitude": 51.59595000000007, "longitude": -113.49754999999999}, "118860600RR0001": {"name": "CHURCH OF GOD IN CHRIST, MENNONITE (ENDERBY)", "designationCode": "C", "categoryCode": "34", "address": "24 GARDOM LAKE RD", "city": "ENDERBY", "province": "BC", "country": "CA", "postalCode": "V0E1V3", "twitter": "None", "instagram": "None", "facebook": "None", "youtube": "None", "website": "None", "summary": "None", "logo": "None", "latitude": 50.61892641560265, "longitude": -119.18179647857829}, "889147666RR0001": {"name": "CHURCH OF GOD IN HAMILTON", "designationCode": "C", "categoryCode": "39", "address": "379 DEVONSHIRE TERR", "city": "ANCASTER", "province": "ON", "country": "CA", "postalCode": "L9G4R2", "twitter": "None", "instagram": "None", "facebook": "None", "youtube": "None", "website": "None", "summary": "None", "logo": "None", "latitude": 43.205500521207405, "longitude": -79.99579319608748}, "818847287RR0001": {"name": "CHURCH OF GOD IN ONTARIO", "designationCode": "C", "categoryCode": "39", "address": "P.O. BOX 2036", "city": "BRAMPTON", "province": "ON", "country": "CA", "postalCode": "L6T3S3", "twitter": "None", "instagram": "None", "facebook": "None", "youtube": "None", "website": "None", "summary": "None", "logo": "None", "latitude": 43.68430500000005, "longitude": -79.75872349999993}, "118860667RR0001": {"name": "CHURCH OF GOD IN TORONTO", "designationCode": "C", "categoryCode": "39", "address": "32 FINCHLEY RD", "city": "ETOBICOKE", "province": "ON", "country": "CA", "postalCode": "M9A2X5", "twitter": "None", "instagram": "None", "facebook": "None", "youtube": "None", "website": "None", "summary": "None", "logo": "None", "latitude": 43.657363487102494, "longitude": -79.52701677964671}, "106924301RR0001": {"name": "CHURCH OF GOD IN WESTERN CANADA", "designationCode": "C", "categoryCode": "39", "address": "401 TRINITY LANE", "city": "MOOSE JAW", "province": "SK", "country": "CA", "postalCode": "S6H0E3", "twitter": "None", "instagram": "None", "facebook": "None", "youtube": "None", "website": "None", "summary": "None", "logo": "None", "latitude": 50.38505432707176, "longitude": -105.52509645250873}, "894294990RR0001": {"name": "CHURCH OF GOD INTERNATIONAL CANADA", "designationCode": "C", "categoryCode": "39", "address": "PO BOX 32009 RPO NORTHLAND", "city": "LONDON", "province": "ON", "country": "CA", "postalCode": "N5V5K4", "twitter": "None", "instagram": "None", "facebook": "None", "youtube": "None", "website": "None", "summary": "None", "logo": "None", "latitude": 42.98689500000006, "longitude": -81.24624349999993}, "118805340RR0001": {"name": "CHURCH OF GOD MARITIMES INC.", "designationCode": "C", "categoryCode": "39", "address": "13 FERRIS ROAD", "city": "MILL COVE", "province": "NB", "country": "CA", "postalCode": "E4C3C7", "twitter": "None", "instagram": "None", "facebook": "None", "youtube": "None", "website": "None", "summary": "None", "logo": "None", "latitude": 45.87781983955712, "longitude": -66.00666841146658}, "118860709RR0001": {"name": "CHURCH OF GOD OF ANDERSON, INDIANA IN ONTARIO", "designationCode": "C", "categoryCode": "39", "address": "PO BOX 225", "city": "GRAND BEND", "province": "ON", "country": "CA", "postalCode": "N0M1T0", "twitter": "None", "instagram": "None", "facebook": "None", "youtube": "None", "website": "None", "summary": "None", "logo": "None"}, "118860717RR0001": {"name": "CHURCH OF GOD OF ANDERSON, INDIANA, IN ONTARIO AT LONDON", "designationCode": "C", "categoryCode": "39", "address": "157 WHARCLIFFE ROAD NORTH", "city": "LONDON", "province": "ON", "country": "CA", "postalCode": "N6H2B1", "twitter": "None", "instagram": "None", "facebook": "None", "youtube": "None", "website": "None", "summary": "None", "logo": "None", "latitude": 42.98789046211553, "longitude": -81.2629437399159}, "118860725RR0001": {"name": "CHURCH OF GOD OF PROPHECY", "designationCode": "C", "categoryCode": "39", "address": "8-2424 FINCH AVE WEST", "city": "NORTH YORK", "province": "ON", "country": "CA", "postalCode": "M9M2E3", "twitter": "None", "instagram": "None", "facebook": "None", "youtube": "None", "website": "None", "summary": "None", "logo": "None", "latitude": 43.751034965354734, "longitude": -79.5473056559037}, "118860733RR0001": {"name": "CHURCH OF GOD OF PROPHECY", "designationCode": "C", "categoryCode": "39", "address": "64 1/2 WENTWORTH ST NORTH", "city": "HAMILTON", "province": "ON", "country": "CA", "postalCode": "L8L5V4", "twitter": "None", "instagram": "None", "facebook": "None", "youtube": "None", "website": "None", "summary": "None", "logo": "None", "latitude": 43.254495881734066, "longitude": -79.84786071982032}, "118860741RR0001": {"name": "CHURCH OF GOD OF PROPHECY", "designationCode": "C", "categoryCode": "39", "address": "30 MOUNTAIN RD", "city": "COLLINGWOOD", "province": "ON", "country": "CA", "postalCode": "L9Y5H7", "twitter": "None", "instagram": "None", "facebook": "None", "youtube": "None", "website": "None", "summary": "None", "logo": "None", "latitude": 44.501499837093796, "longitude": -80.2390816918179}, "118860774RR0001": {"name": "CHURCH OF GOD OF PROPHECY", "designationCode": "C", "categoryCode": "39", "address": "3200 DUNDAS STREET WEST", "city": "TORONTO", "province": "ON", "country": "CA", "postalCode": "M6P2A3", "twitter": "None", "instagram": "None", "facebook": "None", "youtube": "None", "website": "None", "summary": "None", "logo": "None", "latitude": 43.66556248600597, "longitude": -79.47656002553522}, "118860808RR0002": {"name": "CHURCH OF GOD OF PROPHECY", "designationCode": "C", "categoryCode": "39", "address": "5 GRIZZLY WAY", "city": "COCHRANE", "province": "AB", "country": "CA", "postalCode": "T4C0B5", "twitter": "None", "instagram": "None", "facebook": "None", "youtube": "None", "website": "None", "summary": "None", "logo": "None", "latitude": 51.195007956202154, "longitude": -114.33398864349275}, "118860824RR0001": {"name": "CHURCH OF GOD OF PROPHECY", "designationCode": "C", "categoryCode": "39", "address": "4300 BELLA VISTA ROAD", "city": "VERNON", "province": "BC", "country": "CA", "postalCode": "V1T2N4", "twitter": "None", "instagram": "None", "facebook": "None", "youtube": "None", "website": "None", "summary": "None", "logo": "None", "latitude": 50.26322072823048, "longitude": -119.29727811238402}, "131952376RR0001": {"name": "CHURCH OF GOD OF PROPHECY", "designationCode": "C", "categoryCode": "39", "address": "6780 PACIFIC CIRCLE UNIT 2", "city": "MISSISSAUGA", "province": "ON", "country": "CA", "postalCode": "L5T1N8", "twitter": "None", "instagram": "None", "facebook": "None", "youtube": "None", "website": "None", "summary": "None", "logo": "None", "latitude": 43.6599018883954, "longitude": -79.6801892337408}, "888915394RR0001": {"name": "CHURCH OF GOD OF PROPHECY", "designationCode": "C", "categoryCode": "47", "address": "5145 TOMKEN RD", "city": "MISSISSAUGA", "province": "ON", "country": "CA", "postalCode": "L4W1P1", "twitter": "None", "instagram": "None", "facebook": "None", "youtube": "None", "website": "None", "summary": "None", "logo": "None", "latitude": 43.629042738299795, "longitude": -79.6354268810378}, "890756992RR0001": {"name": "CHURCH OF GOD OF PROPHECY CAMPING ASSOCIATION", "designationCode": "C", "categoryCode": "47", "address": "5407 38 ST", "city": "ROCKY MOUNTAIN HOUSE", "province": "AB", "country": "CA", "postalCode": "T4T1V5", "twitter": "None", "instagram": "None", "facebook": "None", "youtube": "None", "website": "None", "summary": "None", "logo": "None", "latitude": 52.38197044463038, "longitude": -114.89182897807144}, "131952376RR0004": {"name": "CHURCH OF GOD OF PROPHECY FRANCOPHONE", "designationCode": "C", "categoryCode": "39", "address": "235 POPLAR RD", "city": "SCARBOROUGH", "province": "ON", "country": "CA", "postalCode": "M1E1Z9", "twitter": "None", "instagram": "None", "facebook": "None", "youtube": "None", "website": "None", "summary": "None", "logo": "None", "latitude": 43.76534034277794, "longitude": -79.19074887743112}, "131952376RR0006": {"name": "CHURCH OF GOD OF PROPHECY SPANISH", "designationCode": "C", "categoryCode": "39", "address": "110 - 5255 RUE DE SOREL", "city": "MONTREAL", "province": "QC", "country": "CA", "postalCode": "H4P1G8", "twitter": "None", "instagram": "None", "facebook": "None", "youtube": "None", "website": "None", "summary": "None", "logo": "None", "latitude": 45.50058627451081, "longitude": -73.66162631432853}, "130627789RR0001": {"name": "CHURCH OF GOD OF PROPHECY,", "designationCode": "C", "categoryCode": "39", "address": "414 TWEED AVENUE", "city": "WINNIPEG", "province": "MB", "country": "CA", "postalCode": "R2L0V7", "twitter": "None", "instagram": "None", "facebook": "None", "youtube": "None", "website": "None", "summary": "None", "logo": "None", "latitude": 49.908206725489194, "longitude": -97.10409578449413}, "889246849RR0001": {"name": "CHURCH OF GOD OXBOW", "designationCode": "C", "categoryCode": "39", "address": "BOX 840", "city": "OXBOW", "province": "SK", "country": "CA", "postalCode": "S0C2B0", "twitter": "None", "instagram": "None", "facebook": "None", "youtube": "None", "website": "None", "summary": "None", "logo": "None", "latitude": 49.23346331645773, "longitude": -102.17827573496838}, "106924285RR0001": {"name": "CHURCH OF GOD PILLAR AND GROUND OF THE TRUTH", "designationCode": "C", "categoryCode": "39", "address": "89 SPRINGVIEW AVE", "city": "TORONTO", "province": "ON", "country": "CA", "postalCode": "M6L3B3", "twitter": "None", "instagram": "None", "facebook": "None", "youtube": "None", "website": "None", "summary": "None", "logo": "None", "latitude": 43.71707553289283, "longitude": -79.50242920203142}, "118860881RR0001": {"name": "CHURCH OF GOD SEVENTH DAY CALGARY CONGREGATION", "designationCode": "C", "categoryCode": "39", "address": "110 REDSTONE PK NE", "city": "CALGARY", "province": "AB", "country": "CA", "postalCode": "T3N0P7", "twitter": "None", "instagram": "None", "facebook": "None", "youtube": "None", "website": "None", "summary": "None", "logo": "None", "latitude": 51.17017479142921, "longitude": -113.957271469715}, "888753993RR0001": {"name": "CHURCH OF GOD SEVENTH DAY EASTERN CANADA DISTRICT", "designationCode": "C", "categoryCode": "39", "address": "1011 UPPER MIDDLE ROAD EAST   SUITE 1462-", "city": "OAKVILLE", "province": "ON", "country": "CA", "postalCode": "L6H5Z9", "twitter": "None", "instagram": "None", "facebook": "None", "youtube": "None", "website": "None", "summary": "None", "logo": "None", "latitude": 43.48225804806933, "longitude": -79.69387215843321}, "118860964RR0001": {"name": "CHURCH OF GOD THE LAST CALL", "designationCode": "C", "categoryCode": "39", "address": "15219 47 ST NW", "city": "EDMONTON", "province": "AB", "country": "CA", "postalCode": "T5Y3B7", "twitter": "None", "instagram": "None", "facebook": "None", "youtube": "None", "website": "None", "summary": "None", "logo": "None", "latitude": 53.615212271163955, "longitude": -113.41170423074064}, "882480973RR0001": {"name": "CHURCH OF GOD TRUST FUND", "designationCode": "B", "categoryCode": "39", "address": "405 CHARRINGTON AVE", "city": "OSHAWA", "province": "ON", "country": "CA", "postalCode": "L1G6W5", "twitter": "None", "instagram": "None", "facebook": "None", "youtube": "None", "website": "None", "summary": "None", "logo": "None", "latitude": 43.92629592587584, "longitude": -78.85998434886613}, "118860972RR0001": {"name": "CHURCH OF GOD WEST DEVON", "designationCode": "C", "categoryCode": "39", "address": "447 DIVERSION RD., RR#1", "city": "ELLERSLIE", "province": "PE", "country": "CA", "postalCode": "C0B1H0", "twitter": "None", "instagram": "None", "facebook": "None", "youtube": "None", "website": "None", "summary": "None", "logo": "None", "latitude": 46.60115757285476, "longitude": -64.02275199904771}, "118860220RR0001": {"name": "CHURCH OF GOD, AT CAMROSE", "designationCode": "C", "categoryCode": "39", "address": "4722-55TH ST", "city": "CAMROSE", "province": "AB", "country": "CA", "postalCode": "T4V2B6", "twitter": "None", "instagram": "None", "facebook": "None", "youtube": "None", "website": "None", "summary": "None", "logo": "None", "latitude": 53.01747973327945, "longitude": -112.83415646554838}, "887586667RR0001": {"name": "CHURCH OF JESUS CHRIST", "designationCode": "C", "categoryCode": "39", "address": "1003 COLDSTREAM DRIVE", "city": "OSHAWA", "province": "ON", "country": "CA", "postalCode": "L1K0J8", "twitter": "None", "instagram": "None", "facebook": "None", "youtube": "None", "website": "None", "summary": "None", "logo": "None", "latitude": 43.94447024672525, "longitude": -78.85513133042869}, "887280196RR0001": {"name": "CHURCH OF JESUS CHRIST APOSTOLIC OF CANADA", "designationCode": "C", "categoryCode": "39", "address": "151 BRIMLEY ROAD", "city": "SCARBOROUGH", "province": "ON", "country": "CA", "postalCode": "M1M3J1", "twitter": "None", "instagram": "None", "facebook": "None", "youtube": "None", "website": "None", "summary": "None", "logo": "None", "latitude": 43.727683085492465, "longitude": -79.24425086049423}, "106924657RR0001": {"name": "CHURCH OF OUR LADY", "designationCode": "C", "categoryCode": "38", "address": "BOX 310", "city": "CARLYLE", "province": "SK", "country": "CA", "postalCode": "S0C0R0", "twitter": "None", "instagram": "None", "facebook": "None", "youtube": "None", "website": "None", "summary": "None", "logo": "None", "latitude": 49.628016, "longitude": -102.26315694795335}, "106924673RR0001": {"name": "CHURCH OF OUR LADY", "designationCode": "C", "categoryCode": "38", "address": "566 VAUGHAN ST", "city": "MOOSE JAW", "province": "SK", "country": "CA", "postalCode": "S6H6L3", "twitter": "None", "instagram": "None", "facebook": "None", "youtube": "None", "website": "None", "summary": "None", "logo": "None", "latitude": 50.37988439063903, "longitude": -105.5486798029445}, "119110450RR0006": {"name": "CHURCH OF OUR LADY", "designationCode": "C", "categoryCode": "38", "address": "28 NORFOLK STREET", "city": "GUELPH", "province": "ON", "country": "CA", "postalCode": "N1H4H8", "twitter": "None", "instagram": "None", "facebook": "None", "youtube": "None", "website": "None", "summary": "None", "logo": "None", "latitude": 43.54278722851944, "longitude": -80.24963732880269}, "890261241RR0001": {"name": "CHURCH OF OUR LADY OF THE ROSARY,", "designationCode": "C", "categoryCode": "38", "address": "BOX 51", "city": "GLENAVON", "province": "SK", "country": "CA", "postalCode": "S0G1Y0", "twitter": "None", "instagram": "None", "facebook": "None", "youtube": "None", "website": "None", "summary": "None", "logo": "None", "latitude": 50.194980000000044, "longitude": -103.14260999999999}, "875358806RR0001": {"name": "CHURCH OF OUR LORD MISSION SOCIETY, COMOX VALLEY", "designationCode": "C", "categoryCode": "47", "address": "4955 PROSPECT LAKE ROAD", "city": "VICTORIA", "province": "BC", "country": "CA", "postalCode": "V9E1J5", "twitter": "None", "instagram": "None", "facebook": "None", "youtube": "None", "website": "None", "summary": "None", "logo": "None", "latitude": 48.51634719175966, "longitude": -123.44615121715064}, "896227972RR0001": {"name": "CHURCH OF PENTECOST CANADA INC.", "designationCode": "C", "categoryCode": "36", "address": "2256 SHEPPARD AVE W", "city": "TORONTO", "province": "ON", "country": "CA", "postalCode": "M9M1L7", "twitter": "None", "instagram": "None", "facebook": "None", "youtube": "None", "website": "None", "summary": "None", "logo": "None", "latitude": 43.7355352018003, "longitude": -79.53029702873788}, "108077504RR0001": {"name": "CHURCH OF PERFECT LIBERTY (CANADA)", "designationCode": "C", "categoryCode": "39", "address": "1010 HUNT CLUB ROAD", "city": "OTTAWA", "province": "ON", "country": "CA", "postalCode": "K1V8S9", "twitter": "None", "instagram": "None", "facebook": "None", "youtube": "None", "website": "None", "summary": "None", "logo": "None", "latitude": 45.34891552314065, "longitude": -75.6577809087947}, "858953086RR0001": {"name": "CHURCH OF PRAISE FULL GOSPEL FELLOWSHIP", "designationCode": "C", "categoryCode": "39", "address": "91 LOWCREST BLVD", "city": "SCARBOROUGH", "province": "ON", "country": "CA", "postalCode": "M1T1K7", "twitter": "None", "instagram": "None", "facebook": "None", "youtube": "None", "website": "None", "summary": "None", "logo": "None", "latitude": 43.77347695060298, "longitude": -79.30625872228653}, "891551640RR0001": {"name": "CHURCH OF PRINCE OF PEACE,", "designationCode": "C", "categoryCode": "30", "address": "565 MOSLEY ST", "city": "WASAGA BEACH", "province": "ON", "country": "CA", "postalCode": "L9Z2J4", "twitter": "None", "instagram": "None", "facebook": "None", "youtube": "None", "website": "None", "summary": "None", "logo": "None", "latitude": 44.50872146459702, "longitude": -80.03389348831458}, "889686101RR0001": {"name": "CHURCH OF SAINT MARY MAGDALENE", "designationCode": "B", "categoryCode": "39", "address": "2 AUBURN AVENUE", "city": "HALIFAX", "province": "NS", "country": "CA", "postalCode": "B3R1K4", "twitter": "None", "instagram": "None", "facebook": "None", "youtube": "None", "website": "None", "summary": "None", "logo": "None", "latitude": 44.60377265197058, "longitude": -63.61348265087406}, "108041591RR0001": {"name": "CHURCH OF SAINTS CONSTANTINE AND HELEN", "designationCode": "C", "categoryCode": "39", "address": "1 BROOKHAVEN DRIVE", "city": "TORONTO", "province": "ON", "country": "CA", "postalCode": "M6M2P3", "twitter": "None", "instagram": "None", "facebook": "None", "youtube": "None", "website": "None", "summary": "None", "logo": "None", "latitude": 43.697194732442746, "longitude": -79.49376396956002}, "130141864RR0002": {"name": "CHURCH OF ST ALBAN THE MARTYR", "designationCode": "C", "categoryCode": "30", "address": "1350 HURON STREET", "city": "LONDON", "province": "ON", "country": "CA", "postalCode": "N5V2E2", "twitter": "None", "instagram": "None", "facebook": "None", "youtube": "None", "website": "None", "summary": "None", "logo": "None", "latitude": 43.02055684488409, "longitude": -81.21330057995256}, "890249584RR0001": {"name": "CHURCH OF ST ANDREW-BY-THE-LAKE", "designationCode": "C", "categoryCode": "30", "address": "102 LAKESHORE AVE             WARD'S ISLAND", "city": "TORONTO", "province": "ON", "country": "CA", "postalCode": "M5J1X8", "twitter": "None", "instagram": "None", "facebook": "None", "youtube": "None", "website": "None", "summary": "None", "logo": "None", "latitude": 43.6273042625656, "longitude": -79.35606723301966}, "132361023RR0001": {"name": "CHURCH OF ST BRIDE", "designationCode": "C", "categoryCode": "30", "address": "1516 CLARKSON RD NORTH", "city": "MISSISSAUGA", "province": "ON", "country": "CA", "postalCode": "L5J2W9", "twitter": "None", "instagram": "None", "facebook": "None", "youtube": "None", "website": "None", "summary": "None", "logo": "None", "latitude": 43.526925724652465, "longitude": -79.63710179242864}, "119208031RR0009": {"name": "CHURCH OF ST CHRISTOPHER", "designationCode": "C", "categoryCode": "30", "address": "BOX 5321", "city": "HAINES JUNCTION", "province": "YT", "country": "CA", "postalCode": "Y0B1L0", "twitter": "None", "instagram": "None", "facebook": "None", "youtube": "None", "website": "None", "summary": "None", "logo": "None", "latitude": 60.38227062907158, "longitude": -137.05080733938465}, "867601767RR0001": {"name": "CHURCH OF ST JAMES THE APOSTLE", "designationCode": "C", "categoryCode": "30", "address": "19 MAPLE STREET", "city": "STANBRIDGE EAST", "province": "QC", "country": "CA", "postalCode": "J0J2H0", "twitter": "None", "instagram": "None", "facebook": "None", "youtube": "None", "website": "None", "summary": "None", "logo": "None", "latitude": 45.1233412037653, "longitude": -72.91574882710107}, "891805681RR0001": {"name": "CHURCH OF ST JAMES THE APOSTLE", "designationCode": "C", "categoryCode": "30", "address": "3420 RUE GALT O", "city": "SHERBROOKE", "province": "QC", "country": "CA", "postalCode": "J1H0A5", "twitter": "None", "instagram": "None", "facebook": "None", "youtube": "None", "website": "None", "summary": "None", "logo": "None", "latitude": 45.377805358658314, "longitude": -71.95350913054752}, "130332620RR0001": {"name": "CHURCH OF ST JOHN THE DIVINE", "designationCode": "C", "categoryCode": "30", "address": "161 ALFRED STREET", "city": "THETFORD MINES", "province": "QC", "country": "CA", "postalCode": "G6G3M2", "twitter": "None", "instagram": "None", "facebook": "None", "youtube": "None", "website": "None", "summary": "None", "logo": "None", "latitude": 46.0763186630791, "longitude": -71.3032408423166}, "129748216RR0002": {"name": "CHURCH OF ST JOHN THE EVANGELIST", "designationCode": "C", "categoryCode": "30", "address": "34 HEAD ST. N", "city": "STRATHROY", "province": "ON", "country": "CA", "postalCode": "N7G2J7", "twitter": "None", "instagram": "None", "facebook": "None", "youtube": "None", "website": "None", "summary": "None", "logo": "None", "latitude": 42.95911406826712, "longitude": -81.62020321553452}, "130493737RR0001": {"name": "CHURCH OF ST JOHN THE EVANGELIST", "designationCode": "C", "categoryCode": "30", "address": "33 PINE ST. N", "city": "PORT HOPE", "province": "ON", "country": "CA", "postalCode": "L1A3G5", "twitter": "None", "instagram": "None", "facebook": "None", "youtube": "None", "website": "None", "summary": "None", "logo": "None", "latitude": 43.95326258927883, "longitude": -78.29853890237325}, "853949808RR0001": {"name": "CHURCH OF ST JOHN THE EVANGELIST", "designationCode": "C", "categoryCode": "39", "address": "11111-57 AVE", "city": "EDMONTON", "province": "AB", "country": "CA", "postalCode": "T6H0Z6", "twitter": "None", "instagram": "None", "facebook": "None", "youtube": "None", "website": "None", "summary": "None", "logo": "None", "latitude": 53.49404951731225, "longitude": -113.5181234701656}, "888624798RR0002": {"name": "CHURCH OF ST JOSEPH OF NAZARETH", "designationCode": "C", "categoryCode": "30", "address": "725 PROVENCHER BLVD", "city": "BROSSARD", "province": "QC", "country": "CA", "postalCode": "J4W1Y5", "twitter": "None", "instagram": "None", "facebook": "None", "youtube": "None", "website": "None", "summary": "None", "logo": "None", "latitude": 45.47144992449087, "longitude": -73.49047041935495}, "131908949RR0001": {"name": "CHURCH OF ST LUKE DIXIE SOUTH", "designationCode": "C", "categoryCode": "30", "address": "1513 DIXIE RD", "city": "MISSISSAUGA", "province": "ON", "country": "CA", "postalCode": "L5E2P7", "twitter": "None", "instagram": "None", "facebook": "None", "youtube": "None", "website": "None", "summary": "None", "logo": "None", "latitude": 43.594012975907084, "longitude": -79.56461810540179}, "889734760RR0002": {"name": "CHURCH OF ST MARGARET OF ANTIOCH", "designationCode": "C", "categoryCode": "30", "address": "5345 RUE HUBERT-GUERTIN", "city": "SAINT-HUBERT", "province": "QC", "country": "CA", "postalCode": "J3Y2J5", "twitter": "None", "instagram": "None", "facebook": "None", "youtube": "None", "website": "None", "summary": "None", "logo": "None", "latitude": 45.47602577961805, "longitude": -73.44056494266847}, "137723730RR0001": {"name": "CHURCH OF ST MARK LUTHERAN", "designationCode": "C", "categoryCode": "32", "address": "130 MINEOLA RD E", "city": "MISSISSAUGA", "province": "ON", "country": "CA", "postalCode": "L5G2E5", "twitter": "None", "instagram": "None", "facebook": "None", "youtube": "None", "website": "None", "summary": "None", "logo": "None", "latitude": 43.56420604022176, "longitude": -79.58787906962345}, "131040206RR0001": {"name": "CHURCH OF ST MARTIN IN THE FIELDS", "designationCode": "C", "categoryCode": "30", "address": "151 GLENLAKE AV", "city": "TORONTO", "province": "ON", "country": "CA", "postalCode": "M6P1E8", "twitter": "None", "instagram": "None", "facebook": "None", "youtube": "None", "website": "None", "summary": "None", "logo": "None", "latitude": 43.65843674323412, "longitude": -79.46058514181438}, "889404190RR0002": {"name": "CHURCH OF ST MARY THE PROTECTRESS", "designationCode": "C", "categoryCode": "39", "address": "2246 ROSEMOUNT BLVD", "city": "MONTREAL", "province": "QC", "country": "CA", "postalCode": "H2G1T5", "twitter": "None", "instagram": "None", "facebook": "None", "youtube": "None", "website": "None", "summary": "None", "logo": "None", "latitude": 45.544212545646104, "longitude": -73.58818787826783}, "889222444RR0002": {"name": "CHURCH OF ST MICHAEL AND ALL ANGELS", "designationCode": "C", "categoryCode": "30", "address": "675 RED RIVER RD", "city": "THUNDER BAY", "province": "ON", "country": "CA", "postalCode": "P7B1J1", "twitter": "None", "instagram": "None", "facebook": "None", "youtube": "None", "website": "None", "summary": "None", "logo": "None", "latitude": 48.44074749567216, "longitude": -89.24391338926077}, "130062490RR0001": {"name": "CHURCH OF ST PETER", "designationCode": "C", "categoryCode": "30", "address": "1175 CEDAR ST", "city": "OSHAWA", "province": "ON", "country": "CA", "postalCode": "L1J3R8", "twitter": "None", "instagram": "None", "facebook": "None", "youtube": "None", "website": "None", "summary": "None", "logo": "None", "latitude": 43.86718051846609, "longitude": -78.85002907377839}, "887094084RR0001": {"name": "CHURCH OF ST STEPHEN", "designationCode": "C", "categoryCode": "30", "address": "2259 JANE ST", "city": "NORTH YORK", "province": "ON", "country": "CA", "postalCode": "M3M1A6", "twitter": "None", "instagram": "None", "facebook": "None", "youtube": "None", "website": "None", "summary": "None", "logo": "None", "latitude": 43.726654812106844, "longitude": -79.50998497108924}, "108084658RR0047": {"name": "CHURCH OF ST. ALBAN THE MARTYR", "designationCode": "C", "categoryCode": "30", "address": "454 KING EDWARD AVE", "city": "OTTAWA", "province": "ON", "country": "CA", "postalCode": "K1N7M8", "twitter": "None", "instagram": "None", "facebook": "None", "youtube": "None", "website": "None", "summary": "None", "logo": "None", "latitude": 45.427655997489836, "longitude": -75.68490872678726}, "118861368RR0002": {"name": "CHURCH OF ST. ALBAN THE MARTYR", "designationCode": "C", "categoryCode": "30", "address": "34 DENNIE ST", "city": "CAPREOL", "province": "ON", "country": "CA", "postalCode": "P0M1H0", "twitter": "None", "instagram": "None", "facebook": "None", "youtube": "None", "website": "None", "summary": "None", "logo": "None", "latitude": 46.70610658422305, "longitude": -80.92113372061308}, "118861376RR0002": {"name": "CHURCH OF ST. AMBROSE", "designationCode": "C", "categoryCode": "30", "address": "BOX 71", "city": "BAYSVILLE", "province": "ON", "country": "CA", "postalCode": "P0B1A0", "twitter": "None", "instagram": "None", "facebook": "None", "youtube": "None", "website": "None", "summary": "None", "logo": "None", "latitude": 45.150649922985714, "longitude": -79.11215748074642}, "118861384RR0001": {"name": "CHURCH OF ST. ANDREW AND ST. GEORGE", "designationCode": "C", "categoryCode": "30", "address": "34 AV CARLETON", "city": "BAIE-COMEAU", "province": "QC", "country": "CA", "postalCode": "G4Z1L7", "twitter": "None", "instagram": "None", "facebook": "None", "youtube": "None", "website": "None", "summary": "None", "logo": "None", "latitude": 49.21842126778841, "longitude": -68.14469152005262}, "106924962RR0001": {"name": "CHURCH OF ST. AUGUSTINE OF CANTERBURY", "designationCode": "C", "categoryCode": "30", "address": "1847 BAYVIEW AVE", "city": "TORONTO", "province": "ON", "country": "CA", "postalCode": "M4G3E4", "twitter": "None", "instagram": "None", "facebook": "None", "youtube": "None", "website": "None", "summary": "None", "logo": "None"}, "108084658RR0049": {"name": "CHURCH OF ST. COLUMBA", "designationCode": "C", "categoryCode": "30", "address": "24 SANDRIDGE ROAD", "city": "OTTAWA", "province": "ON", "country": "CA", "postalCode": "K1K0A8", "twitter": "None", "instagram": "None", "facebook": "None", "youtube": "None", "website": "None", "summary": "None", "logo": "None", "latitude": 45.455899509521984, "longitude": -75.65945184234525}, "108099771RR0097": {"name": "CHURCH OF ST. COLUMBA", "designationCode": "C", "categoryCode": "30", "address": "7 ST COLUMBA DR", "city": "ST CATHARINES", "province": "ON", "country": "CA", "postalCode": "L2N3G4", "twitter": "None", "instagram": "None", "facebook": "None", "youtube": "None", "website": "None", "summary": "None", "logo": "None", "latitude": 43.19608955006084, "longitude": -79.24285091756595}, "108099771RR0005": {"name": "CHURCH OF ST. DAVID & ST. PATRICK", "designationCode": "C", "categoryCode": "30", "address": "210 SILVERCREEK PKY N", "city": "GUELPH", "province": "ON", "country": "CA", "postalCode": "N1H7P8", "twitter": "None", "instagram": "None", "facebook": "None", "youtube": "None", "website": "None", "summary": "None", "logo": "None", "latitude": 43.54254165857837, "longitude": -80.28405165090273}, "118861509RR0002": {"name": "CHURCH OF ST. FRANCIS OF ASSISI", "designationCode": "C", "categoryCode": "30", "address": "PO BOX 166", "city": "MINDEMOYA", "province": "ON", "country": "CA", "postalCode": "P0P1S0", "twitter": "None", "instagram": "None", "facebook": "None", "youtube": "None", "website": "None", "summary": "None", "logo": "None", "latitude": 45.741940000000056, "longitude": -82.14143999999999}, "867602963RR0001": {"name": "CHURCH OF ST. FRANCIS OF THE BIRDS", "designationCode": "C", "categoryCode": "30", "address": "94 RUE ST DENIS", "city": "ST-SAUVEUR", "province": "QC", "country": "CA", "postalCode": "J0R1R3", "twitter": "None", "instagram": "None", "facebook": "None", "youtube": "None", "website": "None", "summary": "None", "logo": "None", "latitude": 45.88940504025042, "longitude": -74.15440570967748}, "106925076RR0001": {"name": "CHURCH OF ST. GEORGE THE MARTYR", "designationCode": "C", "categoryCode": "30", "address": "197 JOHN ST", "city": "TORONTO", "province": "ON", "country": "CA", "postalCode": "M5T1X6", "twitter": "None", "instagram": "None", "facebook": "None", "youtube": "None", "website": "None", "summary": "None", "logo": "None", "latitude": 43.6512022151305, "longitude": -79.39160822932699}, "118787142RR0020": {"name": "CHURCH OF ST. GEORGE THE MARTYR", "designationCode": "C", "categoryCode": "30", "address": "3909 ST. GEORGE'S LANE", "city": "VICTORIA", "province": "BC", "country": "CA", "postalCode": "V8N4E3", "twitter": "None", "instagram": "None", "facebook": "None", "youtube": "None", "website": "None", "summary": "None", "logo": "None", "latitude": 48.46280928977426, "longitude": -123.2939599138437}, "118861525RR0001": {"name": "CHURCH OF ST. GEORGE THE MARTYR", "designationCode": "C", "categoryCode": "30", "address": "BOX 89", "city": "APSLEY", "province": "ON", "country": "CA", "postalCode": "K0L1A0", "twitter": "None", "instagram": "None", "facebook": "None", "youtube": "None", "website": "None", "summary": "None", "logo": "None", "latitude": 44.74924000000004, "longitude": -78.09319999999997}, "108021569RR0002": {"name": "CHURCH OF ST. JAMES THE APOSTLE", "designationCode": "C", "categoryCode": "30", "address": "53 PHAIR AVE", "city": "WALLACEBURG", "province": "ON", "country": "CA", "postalCode": "N8A2M4", "twitter": "None", "instagram": "None", "facebook": "None", "youtube": "None", "website": "None", "summary": "None", "logo": "None", "latitude": 42.5909705115412, "longitude": -82.40285272009349}, "108099771RR0028": {"name": "CHURCH OF ST. JAMES THE APOSTLE", "designationCode": "C", "categoryCode": "30", "address": "86 GLASGOW ST NORTH", "city": "GUELPH", "province": "ON", "country": "CA", "postalCode": "N1H4W2", "twitter": "None", "instagram": "None", "facebook": "None", "youtube": "None", "website": "None", "summary": "None", "logo": "None", "latitude": 43.54336124311857, "longitude": -80.2561961712734}, "118861632RR0001": {"name": "CHURCH OF ST. JAMES UNITED CHURCH", "designationCode": "C", "categoryCode": "44", "address": "181 PORTLAND STREET", "city": "DARTMOUTH", "province": "NS", "country": "CA", "postalCode": "B2Y1J5", "twitter": "None", "instagram": "None", "facebook": "None", "youtube": "None", "website": "None", "summary": "None", "logo": "None", "latitude": 44.66773923454886, "longitude": -63.56325536539898}, "106925134RR0002": {"name": "CHURCH OF ST. JOHN", "designationCode": "C", "categoryCode": "30", "address": "BOX 575", "city": "CARMAN", "province": "MB", "country": "CA", "postalCode": "R0G0J0", "twitter": "None", "instagram": "None", "facebook": "None", "youtube": "None", "website": "None", "summary": "None", "logo": "None", "latitude": 49.50860000000006, "longitude": -98.00231999999994}, "118861657RR0002": {"name": "CHURCH OF ST. JOHN THE BAPTIST", "designationCode": "C", "categoryCode": "30", "address": "233 ST-CLAIRE AVE", "city": "POINTE CLAIRE", "province": "QC", "country": "CA", "postalCode": "H9S4E3", "twitter": "None", "instagram": "None", "facebook": "None", "youtube": "None", "website": "None", "summary": "None", "logo": "None", "latitude": 45.43450312908977, "longitude": -73.82202957842334}}