{"126761410RR0001": {"name": "ABOUTFACE CRANIOFACIAL FAMILY SOCIETY", "designationCode": "C", "categoryCode": "11", "address": "51 WOLSELEY ST", "city": "TORONTO", "province": "ON", "country": "CA", "postalCode": "M5T1A4", "twitter": "None", "instagram": "None", "facebook": "None", "youtube": "None", "website": "None", "summary": "None", "logo": "None", "latitude": 43.64834680930822, "longitude": -79.40242529211153}, "806652145RR0001": {"name": "ABOVE & BEYOND MINISTRIES ASSOCIATION", "designationCode": "C", "categoryCode": "39", "address": "99 - 2080 GLADWIN RD", "city": "ABBOTSFORD", "province": "BC", "country": "CA", "postalCode": "V2S4P8", "twitter": "None", "instagram": "None", "facebook": "None", "youtube": "None", "website": "None", "summary": "None", "logo": "None", "latitude": 49.03974254228481, "longitude": -122.31558347761911}, "854346905RR0001": {"name": "ABOVE ALL CHRISTIAN GATHERING", "designationCode": "C", "categoryCode": "39", "address": "22 BENTON ROAD", "city": "TORONTO", "province": "ON", "country": "CA", "postalCode": "M6M3G4", "twitter": "None", "instagram": "None", "facebook": "None", "youtube": "None", "website": "None", "summary": "None", "logo": "None", "latitude": 43.708693107680816, "longitude": -79.47126336542763}, "852621523RR0001": {"name": "ABRAHAM AND MALKA GREEN CHARITABLE FOUNDATION", "designationCode": "B", "categoryCode": "05", "address": "64 MERTON STREET", "city": "TORONTO", "province": "ON", "country": "CA", "postalCode": "M4S1A1", "twitter": "None", "instagram": "None", "facebook": "None", "youtube": "None", "website": "None", "summary": "None", "logo": "None", "latitude": 43.696549191268716, "longitude": -79.39413654705973}, "123780751RR0001": {"name": "ABRAHAM BLEEMAN FOUNDATION", "designationCode": "B", "categoryCode": "03", "address": "304-970 LAWRENCE AVE W", "city": "TORONTO", "province": "ON", "country": "CA", "postalCode": "M6A3B6", "twitter": "None", "instagram": "None", "facebook": "None", "youtube": "None", "website": "None", "summary": "None", "logo": "None", "latitude": 43.713414238444024, "longitude": -79.45809593770547}, "135501195RR0001": {"name": "ABRAHAM'S LODGE AND CARE SOCIETY", "designationCode": "C", "categoryCode": "01", "address": "505 WOTZKE DRIVE              P.O. BOX 4272 STATION MAIN", "city": "WILLIAMS LAKE", "province": "BC", "country": "CA", "postalCode": "V2G2V3", "twitter": "None", "instagram": "None", "facebook": "None", "youtube": "None", "website": "None", "summary": "None", "logo": "None", "latitude": 52.11120064530551, "longitude": -122.14227923593386}, "852411446RR0001": {"name": "ABRAZOS CANADA", "designationCode": "C", "categoryCode": "01", "address": "204 WILLOWDALE AVE", "city": "WATERLOO", "province": "ON", "country": "CA", "postalCode": "N2J3M1", "twitter": "None", "instagram": "None", "facebook": "None", "youtube": "None", "website": "None", "summary": "None", "logo": "None", "latitude": 43.47761762366541, "longitude": -80.5106962786371}, "873202642RR0001": {"name": "ABREAST IN A BOAT SOCIETY", "designationCode": "C", "categoryCode": "11", "address": "15411 RUSSELL AVE", "city": "WHITE ROCK", "province": "BC", "country": "CA", "postalCode": "V4B2R5", "twitter": "None", "instagram": "None", "facebook": "None", "youtube": "None", "website": "None", "summary": "None", "logo": "None", "latitude": 49.0293921254405, "longitude": -122.79546970564377}, "808163075RR0001": {"name": "ABREAST IN THE ROCKIES DRAGONBOAT ASSOC.", "designationCode": "C", "categoryCode": "11", "address": "2901 SILVER SPRING DR", "city": "CRANBROOK", "province": "BC", "country": "CA", "postalCode": "V1C6X7", "twitter": "None", "instagram": "None", "facebook": "None", "youtube": "None", "website": "None", "summary": "None", "logo": "None", "latitude": 49.48057800000001, "longitude": -115.80443629990087}, "889903324RR0001": {"name": "ABRI DE LA RIVE-SUD", "designationCode": "C", "categoryCode": "09", "address": "885, STE-HELENE", "city": "LONGUEUIL", "province": "QC", "country": "CA", "postalCode": "J4K3R7", "twitter": "None", "instagram": "None", "facebook": "None", "youtube": "None", "website": "None", "summary": "None", "logo": "None", "latitude": 45.520640862629016, "longitude": -73.50720181167415}, "129515284RR0001": {"name": "ABRIGO CENTRE", "designationCode": "C", "categoryCode": "09", "address": "1645 DUFFERIN STREET", "city": "TORONTO", "province": "ON", "country": "CA", "postalCode": "M6H3L9", "twitter": "None", "instagram": "None", "facebook": "None", "youtube": "None", "website": "None", "summary": "None", "logo": "None", "latitude": 43.67718667361068, "longitude": -79.44272953632661}, "894824051RR0001": {"name": "ABRITATION", "designationCode": "C", "categoryCode": "01", "address": "5980 BLVD ST-MICHEL #3", "city": "MONTR\u00c9AL", "province": "QC", "country": "CA", "postalCode": "H1Y2E5", "twitter": "None", "instagram": "None", "facebook": "None", "youtube": "None", "website": "None", "summary": "None", "logo": "None", "latitude": 45.553770075192034, "longitude": -73.58205164544971}, "143833499RR0001": {"name": "ABSOLUTHEATRE", "designationCode": "C", "categoryCode": "22", "address": "4701, ONTARIO EST", "city": "MONTR\u00c9AL", "province": "QC", "country": "CA", "postalCode": "H1V1L3", "twitter": "None", "instagram": "None", "facebook": "None", "youtube": "None", "website": "None", "summary": "None", "logo": "None", "latitude": 45.556527341941226, "longitude": -73.53727323509712}, "772958328RR0001": {"name": "ABU BAKR SOCIETY", "designationCode": "C", "categoryCode": "60", "address": "13476 68A AVE", "city": "SURREY", "province": "BC", "country": "CA", "postalCode": "V3W2H6", "twitter": "None", "instagram": "None", "facebook": "None", "youtube": "None", "website": "None", "summary": "None", "logo": "None", "latitude": 49.12713651788917, "longitude": -122.84892338926076}, "865949614RR0001": {"name": "ABU HURAIRA CENTER", "designationCode": "C", "categoryCode": "60", "address": "270 YORKLAND BLVD", "city": "NORTH YORK", "province": "ON", "country": "CA", "postalCode": "M2J5C9", "twitter": "None", "instagram": "None", "facebook": "None", "youtube": "None", "website": "None", "summary": "None", "logo": "None", "latitude": 43.77320685980175, "longitude": -79.33464555938033}, "885412403RR0001": {"name": "ABUNDANCE BAPTIST CHURCH", "designationCode": "C", "categoryCode": "31", "address": "8280 FRANCIS RD", "city": "RICHMOND", "province": "BC", "country": "CA", "postalCode": "V6Y1A4", "twitter": "None", "instagram": "None", "facebook": "None", "youtube": "None", "website": "None", "summary": "None", "logo": "None", "latitude": 49.148216488458814, "longitude": -123.13261277699232}, "853226942RR0001": {"name": "ABUNDANCE INSTITUTE", "designationCode": "C", "categoryCode": "02", "address": "1500 WEST GEORGIA ST.         SUITE 1250, BOX 62", "city": "VANCOUVER", "province": "BC", "country": "CA", "postalCode": "V6G2Z6", "twitter": "None", "instagram": "None", "facebook": "None", "youtube": "None", "website": "None", "summary": "None", "logo": "None", "latitude": 49.2900638104334, "longitude": -123.12989899362336}, "865521942RR0001": {"name": "ABUNDANT JOY! BREAKTHROUGH MINISTRIES", "designationCode": "C", "categoryCode": "39", "address": "407 - 140 PLAINS RD W", "city": "BURLINGTON", "province": "ON", "country": "CA", "postalCode": "L7T0A9", "twitter": "None", "instagram": "None", "facebook": "None", "youtube": "None", "website": "None", "summary": "None", "logo": "None", "latitude": 43.30309333496393, "longitude": -79.85737496965744}, "119138469RR0001": {"name": "ABUNDANT KINGDOM LIVING ASSOCIATION", "designationCode": "C", "categoryCode": "47", "address": "211 CILAIRE DRIVE", "city": "NANAIMO", "province": "BC", "country": "CA", "postalCode": "V9S3E5", "twitter": "None", "instagram": "None", "facebook": "None", "youtube": "None", "website": "None", "summary": "None", "logo": "None", "latitude": 49.19724506968076, "longitude": -123.96919718737357}, "106680820RR0001": {"name": "ABUNDANT LIFE ASSEMBLY", "designationCode": "C", "categoryCode": "36", "address": "145 DIXON ROAD", "city": "TORONTO", "province": "ON", "country": "CA", "postalCode": "M9P2L7", "twitter": "None", "instagram": "None", "facebook": "None", "youtube": "None", "website": "None", "summary": "None", "logo": "None", "latitude": 43.69873886759201, "longitude": -79.53902398666979}, "859800849RR0001": {"name": "ABUNDANT LIFE ASSEMBLY WINDSOR INCORPORATED", "designationCode": "C", "categoryCode": "39", "address": "1457 DROUILLARD RD.", "city": "WINDSOR", "province": "ON", "country": "CA", "postalCode": "N8Y2R8", "twitter": "None", "instagram": "None", "facebook": "None", "youtube": "None", "website": "None", "summary": "None", "logo": "None", "latitude": 42.313066858445424, "longitude": -82.99474848892015}, "132947466RR0001": {"name": "ABUNDANT LIFE BAPTIST CHURCH", "designationCode": "C", "categoryCode": "31", "address": "1396 PLESSIS ROAD", "city": "WINNIPEG", "province": "MB", "country": "CA", "postalCode": "R2C4L1", "twitter": "None", "instagram": "None", "facebook": "None", "youtube": "None", "website": "None", "summary": "None", "logo": "None", "latitude": 49.8969084970858, "longitude": -97.02554667946771}, "118776459RR0001": {"name": "ABUNDANT LIFE CENTRE", "designationCode": "C", "categoryCode": "36", "address": "404 10 STREET NE", "city": "CALGARY", "province": "AB", "country": "CA", "postalCode": "T2E4M3", "twitter": "None", "instagram": "None", "facebook": "None", "youtube": "None", "website": "None", "summary": "None", "logo": "None", "latitude": 51.05486009547579, "longitude": -114.03768040631323}, "891757841RR0001": {"name": "ABUNDANT LIFE CENTRE", "designationCode": "C", "categoryCode": "39", "address": "P.O. BOX 430", "city": "CANSO", "province": "NS", "country": "CA", "postalCode": "B0H1H0", "twitter": "None", "instagram": "None", "facebook": "None", "youtube": "None", "website": "None", "summary": "None", "logo": "None", "latitude": 45.643443709263856, "longitude": -61.4208012834455}, "106680861RR0001": {"name": "ABUNDANT LIFE CHAPEL", "designationCode": "C", "categoryCode": "36", "address": "BOX 35", "city": "LAC DU BONNET", "province": "MB", "country": "CA", "postalCode": "R0E1A0", "twitter": "None", "instagram": "None", "facebook": "None", "youtube": "None", "website": "None", "summary": "None", "logo": "None", "latitude": 50.257340000000056, "longitude": -96.06097999999997}, "118776475RR0001": {"name": "ABUNDANT LIFE CHRISTIAN CENTER INC.", "designationCode": "C", "categoryCode": "39", "address": "110 RTE 165", "city": "MEDUCTIC", "province": "NB", "country": "CA", "postalCode": "E6H1B4", "twitter": "None", "instagram": "None", "facebook": "None", "youtube": "None", "website": "None", "summary": "None", "logo": "None", "latitude": 45.986262112840905, "longitude": -67.47016715193107}, "107293607RR0001": {"name": "ABUNDANT LIFE CHRISTIAN FELLOWSHIP", "designationCode": "C", "categoryCode": "36", "address": "13 ASH ST.", "city": "KAPUSKASING", "province": "ON", "country": "CA", "postalCode": "P5N2C7", "twitter": "None", "instagram": "None", "facebook": "None", "youtube": "None", "website": "None", "summary": "None", "logo": "None", "latitude": 49.42728665897027, "longitude": -82.4172235659577}, "131341893RR0001": {"name": "ABUNDANT LIFE CHRISTIAN FELLOWSHIP OF OTTAWA-CARLETON", "designationCode": "C", "categoryCode": "39", "address": "2103-3360 SOUTHGATE ROAD", "city": "OTTAWA", "province": "ON", "country": "CA", "postalCode": "K1V9A6", "twitter": "None", "instagram": "None", "facebook": "None", "youtube": "None", "website": "None", "summary": "None", "logo": "None", "latitude": 45.35741813676539, "longitude": -75.65073716786827}, "850841446RR0001": {"name": "ABUNDANT LIFE CHRISTIAN MINITRIES INC.", "designationCode": "C", "categoryCode": "39", "address": "100 - 87 IRONDALE DR", "city": "NORTH YORK", "province": "ON", "country": "CA", "postalCode": "M9L2S6", "twitter": "None", "instagram": "None", "facebook": "None", "youtube": "None", "website": "None", "summary": "None", "logo": "None", "latitude": 43.768823479052415, "longitude": -79.54925068134364}, "118860857RR0001": {"name": "ABUNDANT LIFE CHURCH OF GOD", "designationCode": "C", "categoryCode": "39", "address": "39 GURNEY CRESCENT", "city": "NORTH YORK", "province": "ON", "country": "CA", "postalCode": "M6B1S9", "twitter": "None", "instagram": "None", "facebook": "None", "youtube": "None", "website": "None", "summary": "None", "logo": "None", "latitude": 43.70230221703507, "longitude": -79.46674343813817}, "133537035RR0001": {"name": "ABUNDANT LIFE COMMUNITY CHURCH", "designationCode": "C", "categoryCode": "36", "address": "640 GROSVENOR ST", "city": "LONDON", "province": "ON", "country": "CA", "postalCode": "N5Y3T4", "twitter": "None", "instagram": "None", "facebook": "None", "youtube": "None", "website": "None", "summary": "None", "logo": "None", "latitude": 43.00472491369946, "longitude": -81.23728993395457}, "118818491RR0073": {"name": "ABUNDANT LIFE COMMUNITY SEVENTH-DAY ADVENTIST CHURCH", "designationCode": "C", "categoryCode": "41", "address": "PO 1000", "city": "ABBOTSFORD", "province": "BC", "country": "CA", "postalCode": "V2S4P5", "twitter": "None", "instagram": "None", "facebook": "None", "youtube": "None", "website": "None", "summary": "None", "logo": "None", "latitude": 49.03851300000005, "longitude": -122.29441549999993}, "132441999RR0001": {"name": "ABUNDANT LIFE FAITH CHURCH INTERNATIONAL INCORPORATED", "designationCode": "C", "categoryCode": "39", "address": "5675 UPPER LACHINE RD", "city": "MONTREAL", "province": "QC", "country": "CA", "postalCode": "H4A2A9", "twitter": "None", "instagram": "None", "facebook": "None", "youtube": "None", "website": "None", "summary": "None", "logo": "None", "latitude": 45.46853912934955, "longitude": -73.6101614109295}, "884905522RR0001": {"name": "ABUNDANT LIFE FAMILY CHURCH", "designationCode": "C", "categoryCode": "39", "address": "310 MAIN STREET PO BOX 1527", "city": "GERALDTON", "province": "ON", "country": "CA", "postalCode": "P0T1M0", "twitter": "None", "instagram": "None", "facebook": "None", "youtube": "None", "website": "None", "summary": "None", "logo": "None", "latitude": 49.72435710350228, "longitude": -86.94886987342795}, "873687115RR0001": {"name": "ABUNDANT LIFE LUTHERAN CHURCH INC.", "designationCode": "C", "categoryCode": "32", "address": "3486 RALEIGH ST.", "city": "EAST PAUL", "province": "MB", "country": "CA", "postalCode": "R2E1B9", "twitter": "None", "instagram": "None", "facebook": "None", "youtube": "None", "website": "None", "summary": "None", "logo": "None", "latitude": 49.96382128645496, "longitude": -97.02789461439349}, "860427392RR0001": {"name": "ABUNDANT LIFE MINISTRIES", "designationCode": "C", "categoryCode": "39", "address": "13 DILDO ST, BOX 1417", "city": "LEWISPORTE", "province": "NL", "country": "CA", "postalCode": "A0G3A0", "twitter": "None", "instagram": "None", "facebook": "None", "youtube": "None", "website": "None", "summary": "None", "logo": "None", "latitude": 49.25317584441407, "longitude": -55.04822889599176}, "131273252RR0001": {"name": "ABUNDANT LIFE MINISTRIES OF EDMONTON INTERDENOMINATIONAL", "designationCode": "C", "categoryCode": "39", "address": "PO BOX 42061 RPO MILLBOURNE", "city": "EDMONTON", "province": "AB", "country": "CA", "postalCode": "T6K4C4", "twitter": "None", "instagram": "None", "facebook": "None", "youtube": "None", "website": "None", "summary": "None", "logo": "None", "latitude": 53.46036600000005, "longitude": -113.44548049999993}, "840492946RR0001": {"name": "ABUNDANT LIFE PENTECOSTAL ASSEMBLY", "designationCode": "C", "categoryCode": "36", "address": "501-11TH AVE AVE S", "city": "CRANBROOK", "province": "BC", "country": "CA", "postalCode": "V1C2R3", "twitter": "None", "instagram": "None", "facebook": "None", "youtube": "None", "website": "None", "summary": "None", "logo": "None", "latitude": 49.50306900000001, "longitude": -115.7663143003345}, "107833394RR0099": {"name": "ABUNDANT LIFE PENTECOSTAL TABERNACLE", "designationCode": "C", "categoryCode": "36", "address": "BOX 13 SITE 5 RR2", "city": "BOTWOOD", "province": "NL", "country": "CA", "postalCode": "A0H1E0", "twitter": "None", "instagram": "None", "facebook": "None", "youtube": "None", "website": "None", "summary": "None", "logo": "None", "latitude": 49.12576868009626, "longitude": -55.37020900602628}, "870562832RR0001": {"name": "ABUNDANT LIFE UNITED PENTECOSTAL CHURCH INC.", "designationCode": "C", "categoryCode": "39", "address": "489 MAIN STREET", "city": "SUSSEX", "province": "NB", "country": "CA", "postalCode": "E4E2S3", "twitter": "None", "instagram": "None", "facebook": "None", "youtube": "None", "website": "None", "summary": "None", "logo": "None", "latitude": 45.72366161945316, "longitude": -65.51300630267177}, "132521543RR0001": {"name": "ABUNDANT LIFE VICTORY CHURCH", "designationCode": "C", "categoryCode": "39", "address": "54 DUNROMIN AVE", "city": "BIBLE HILL", "province": "NS", "country": "CA", "postalCode": "B2N4M5", "twitter": "None", "instagram": "None", "facebook": "None", "youtube": "None", "website": "None", "summary": "None", "logo": "None", "latitude": 45.37721274741774, "longitude": -63.245526017022854}, "106680838RR0001": {"name": "ABUNDANT LIFE WORSHIP CENTRE", "designationCode": "C", "categoryCode": "36", "address": "PO BOX 685", "city": "SLAVE LAKE", "province": "AB", "country": "CA", "postalCode": "T0G2A0", "twitter": "None", "instagram": "None", "facebook": "None", "youtube": "None", "website": "None", "summary": "None", "logo": "None", "latitude": 55.28284800000006, "longitude": -114.77156299999993}, "861552792RR0001": {"name": "ABUNDANT LIFE WORSHIP CENTRE", "designationCode": "C", "categoryCode": "39", "address": "2478 ELGINFIELD RD.", "city": "PARKHILL", "province": "ON", "country": "CA", "postalCode": "N0M2K0", "twitter": "None", "instagram": "None", "facebook": "None", "youtube": "None", "website": "None", "summary": "None", "logo": "None", "latitude": 43.15054629398652, "longitude": -81.67035910808484}, "118776541RR0001": {"name": "ABUNDANT LIVING MINISTRIES INC.", "designationCode": "C", "categoryCode": "39", "address": "PO BOX 219", "city": "PANGMAN", "province": "SK", "country": "CA", "postalCode": "S0C2C0", "twitter": "None", "instagram": "None", "facebook": "None", "youtube": "None", "website": "None", "summary": "None", "logo": "None", "latitude": 49.65007000000003, "longitude": -104.66778999999997}, "891876914RR0001": {"name": "ABUNDANTLY BLESSED MINISTRIES", "designationCode": "C", "categoryCode": "49", "address": "21 STROUD CRESCENT", "city": "LONDON", "province": "ON", "country": "CA", "postalCode": "N6E1Z5", "twitter": "None", "instagram": "None", "facebook": "None", "youtube": "None", "website": "None", "summary": "None", "logo": "None", "latitude": 42.927354608921554, "longitude": -81.22463107354724}, "892221805RR0001": {"name": "ABUSED WOMEN ASSISTANCE & JUSTICE - \"AWAJ\"", "designationCode": "C", "categoryCode": "09", "address": "3735, MACKENZIE", "city": "MONTREAL", "province": "QC", "country": "CA", "postalCode": "H3S1E4", "twitter": "None", "instagram": "None", "facebook": "None", "youtube": "None", "website": "None", "summary": "None", "logo": "None", "latitude": 45.50302204830047, "longitude": -73.63928746990581}, "815500558RR0001": {"name": "ABWE GLOBAL INC.", "designationCode": "C", "categoryCode": "47", "address": "34-980 ADELAIDE ST. S.", "city": "LONDON", "province": "ON", "country": "CA", "postalCode": "N6E1R3", "twitter": "None", "instagram": "None", "facebook": "None", "youtube": "None", "website": "None", "summary": "None", "logo": "None", "latitude": 42.94036756923187, "longitude": -81.21156035965923}, "106680978RR0001": {"name": "ACACIAVILLE UNITED BAPTIST CHURCH", "designationCode": "C", "categoryCode": "31", "address": "PO BOX 275", "city": "DIGBY", "province": "NS", "country": "CA", "postalCode": "B0V1A0", "twitter": "None", "instagram": "None", "facebook": "None", "youtube": "None", "website": "None", "summary": "None", "logo": "None", "latitude": 44.39616000000005, "longitude": -66.20374249999993}, "839613924RR0001": {"name": "ACAD\u00c9MIE DE TORAH DE LAVAL / TORAH ACADEMY OF LAVAL", "designationCode": "B", "categoryCode": "49", "address": "5026 AV CHARLEVOIX", "city": "LAVAL", "province": "QC", "country": "CA", "postalCode": "H7W1J9", "twitter": "None", "instagram": "None", "facebook": "None", "youtube": "None", "website": "None", "summary": "None", "logo": "None", "latitude": 45.53376165999203, "longitude": -73.77414787745978}, "890697295RR0001": {"name": "ACAD\u00c9MIE MARIA-MONTESSORI DE MONTR\u00c9AL", "designationCode": "C", "categoryCode": "20", "address": "12755, 16E AVENUE", "city": "MONTR\u00c9AL", "province": "QC", "country": "CA", "postalCode": "H1E1T3", "twitter": "None", "instagram": "None", "facebook": "None", "youtube": "None", "website": "None", "summary": "None", "logo": "None", "latitude": 45.63824326562403, "longitude": -73.60412896805947}, "106681364RR0001": {"name": "ACAD\u00c9MIE ST-LOUIS (QU\u00c9BEC)", "designationCode": "C", "categoryCode": "20", "address": "1500, RUE DE LA RIVE-BOISEE S", "city": "QUEBEC", "province": "QC", "country": "CA", "postalCode": "G2C2B3", "twitter": "None", "instagram": "None", "facebook": "None", "youtube": "None", "website": "None", "summary": "None", "logo": "None", "latitude": 46.82927935227032, "longitude": -71.31517859951515}, "106681059RR0001": {"name": "ACADEMIE ANTOINE MANSEAU", "designationCode": "C", "categoryCode": "20", "address": "20 ST-CHARLES BORROMEE S      CP 410", "city": "JOLIETTE", "province": "QC", "country": "CA", "postalCode": "J6E3Z9", "twitter": "None", "instagram": "None", "facebook": "None", "youtube": "None", "website": "None", "summary": "None", "logo": "None", "latitude": 46.02611159006534, "longitude": -73.4378227121386}, "893294066RR0001": {"name": "ACADEMIE BETH ESTHER INC. / BETH ESTHER ACADEMY INC.", "designationCode": "C", "categoryCode": "20", "address": "1239 VAN HORNE AVE", "city": "OUTREMONT", "province": "QC", "country": "CA", "postalCode": "H2V1K4", "twitter": "None", "instagram": "None", "facebook": "None", "youtube": "None", "website": "None", "summary": "None", "logo": "None", "latitude": 45.52223434499965, "longitude": -73.61340524551314}, "870523016RR0001": {"name": "ACADEMIE CHRETIENNE RIVE NORD INC.", "designationCode": "C", "categoryCode": "20", "address": "790, 18IEME AVENUE", "city": "LAVAL", "province": "QC", "country": "CA", "postalCode": "H7R4P3", "twitter": "None", "instagram": "None", "facebook": "None", "youtube": "None", "website": "None", "summary": "None", "logo": "None", "latitude": 45.55888039771488, "longitude": -73.8516348475098}, "118776582RR0001": {"name": "ACADEMIE DE DANSE DE L'OUTAOUAIS", "designationCode": "C", "categoryCode": "22", "address": "855 BOUL DE LA GAPPE", "city": "GATINEAU", "province": "QC", "country": "CA", "postalCode": "J8T8H9", "twitter": "None", "instagram": "None", "facebook": "None", "youtube": "None", "website": "None", "summary": "None", "logo": "None", "latitude": 45.48385346883796, "longitude": -75.68197212490615}, "131950248RR0001": {"name": "ACADEMIE DES LETTRES DU QUEBEC", "designationCode": "C", "categoryCode": "22", "address": "2275 RUE HOLT BUREAU  R-75", "city": "MONTR\u00c9AL", "province": "QC", "country": "CA", "postalCode": "H2G3H1", "twitter": "None", "instagram": "None", "facebook": "None", "youtube": "None", "website": "None", "summary": "None", "logo": "None", "latitude": 45.543219306970954, "longitude": -73.58511493034788}, "118776590RR0001": {"name": "ACADEMIE DES RETRAITES DE L'OUTAOUAIS", "designationCode": "C", "categoryCode": "21", "address": "331, BOUL. CITE-DES-JEUNES", "city": "HULL", "province": "QC", "country": "CA", "postalCode": "J8Y6T3", "twitter": "None", "instagram": "None", "facebook": "None", "youtube": "None", "website": "None", "summary": "None", "logo": "None", "latitude": 45.45790048153392, "longitude": -75.76677589266497}, "138521620RR0001": {"name": "ACADEMIE FRANCOIS-LABELLE", "designationCode": "C", "categoryCode": "20", "address": "1227 RUE NOTRE-DAME", "city": "REPENTIGNY", "province": "QC", "country": "CA", "postalCode": "J5Y3H2", "twitter": "None", "instagram": "None", "facebook": "None", "youtube": "None", "website": "None", "summary": "None", "logo": "None", "latitude": 45.777911771048366, "longitude": -73.4074682240173}, "118955384RR0001": {"name": "ACADEMIE HEBRAIQUE INC./ HEBREW ACADEMY INC.", "designationCode": "C", "categoryCode": "20", "address": "5700 AVE KELLERT", "city": "COTE-SAINT-LUC", "province": "QC", "country": "CA", "postalCode": "H4W1T4", "twitter": "None", "instagram": "None", "facebook": "None", "youtube": "None", "website": "None", "summary": "None", "logo": "None", "latitude": 45.472863417681516, "longitude": -73.66141036568744}, "100021237RR0001": {"name": "ACADEMIE LAFONTAINE INC.", "designationCode": "C", "categoryCode": "20", "address": "2171, BOUL. MAURICE", "city": "ST-J\u00c9R\u00d4ME", "province": "QC", "country": "CA", "postalCode": "J7Y4M7", "twitter": "None", "instagram": "None", "facebook": "None", "youtube": "None", "website": "None", "summary": "None", "logo": "None", "latitude": 45.804216388305086, "longitude": -74.00836908707872}, "100021252RR0001": {"name": "ACADEMIE LAURENTIENNE (1986) INC.", "designationCode": "C", "categoryCode": "20", "address": "1200 14E AVENUE", "city": "VAL-MORIN", "province": "QC", "country": "CA", "postalCode": "J0T2R0", "twitter": "None", "instagram": "None", "facebook": "None", "youtube": "None", "website": "None", "summary": "None", "logo": "None", "latitude": 46.01289375823448, "longitude": -74.19569457965265}, "141001883RR0001": {"name": "ACADEMIE LOUIS PASTEUR", "designationCode": "C", "categoryCode": "20", "address": "7220, RUE MARIE-VICTORIN", "city": "MONTREAL", "province": "QC", "country": "CA", "postalCode": "H1G2J5", "twitter": "None", "instagram": "None", "facebook": "None", "youtube": "None", "website": "None", "summary": "None", "logo": "None", "latitude": 45.617276032748585, "longitude": -73.60339298574709}, "118776616RR0001": {"name": "ACADEMIE MICHELE PROVOST INC.", "designationCode": "C", "categoryCode": "20", "address": "1517 AVE DES PINS OUEST", "city": "MONTREAL", "province": "QC", "country": "CA", "postalCode": "H3G1B3", "twitter": "None", "instagram": "None", "facebook": "None", "youtube": "None", "website": "None", "summary": "None", "logo": "None", "latitude": 45.49834530642269, "longitude": -73.58642048407273}, "106681182RR0001": {"name": "ACADEMIE MUSIQUE PLUS INC.", "designationCode": "C", "categoryCode": "22", "address": "405, CHEMIN SIR LOMER-GOUIN", "city": "DESCHAMBAULT-GRONDINES", "province": "QC", "country": "CA", "postalCode": "G0A1W0", "twitter": "None", "instagram": "None", "facebook": "None", "youtube": "None", "website": "None", "summary": "None", "logo": "None", "latitude": 46.59305556174626, "longitude": -72.03847871426511}, "133727313RR0001": {"name": "ACADEMIE ORION", "designationCode": "C", "categoryCode": "29", "address": "2200 RUE FRONTENAC", "city": "MONTR\u00c9AL", "province": "QC", "country": "CA", "postalCode": "H2K2Z3", "twitter": "None", "instagram": "None", "facebook": "None", "youtube": "None", "website": "None", "summary": "None", "logo": "None", "latitude": 45.5342466330718, "longitude": -73.55565281225105}, "118776624RR0001": {"name": "ACADEMIE OUR LADY OF THE YOUTH", "designationCode": "C", "categoryCode": "20", "address": "3059 ESTELLE ST", "city": "FABREVILLE LAVAL", "province": "QC", "country": "CA", "postalCode": "H7P2N3", "twitter": "None", "instagram": "None", "facebook": "None", "youtube": "None", "website": "None", "summary": "None", "logo": "None", "latitude": 45.574559391078445, "longitude": -73.7900980088868}, "107992851RR0001": {"name": "ACADEMIE SOLOMON SCHECHTER SOLOMON SCHECHTER ACADEMY", "designationCode": "C", "categoryCode": "21", "address": "5555 CH DE LA COTE-SAINT-LUC", "city": "MONTREAL", "province": "QC", "country": "CA", "postalCode": "H3X2C9", "twitter": "None", "instagram": "None", "facebook": "None", "youtube": "None", "website": "None", "summary": "None", "logo": "None", "latitude": 45.478539300622955, "longitude": -73.62844588080665}, "896685336RR0001": {"name": "ACADEMIE STE. CECILE INTERNATIONAL SCHOOL", "designationCode": "C", "categoryCode": "20", "address": "925 COUSINEAU RD.", "city": "WINDSOR", "province": "ON", "country": "CA", "postalCode": "N9G1V8", "twitter": "None", "instagram": "None", "facebook": "None", "youtube": "None", "website": "None", "summary": "None", "logo": "None", "latitude": 42.243634979094104, "longitude": -83.00564072825736}, "107869786RR0001": {"name": "ACADEMIE YESHIVA TORAS MOSHE DE MONTREAL", "designationCode": "C", "categoryCode": "20", "address": "5669 CASGRAIN ST", "city": "MONTREAL", "province": "QC", "country": "CA", "postalCode": "H2T1Y1", "twitter": "None", "instagram": "None", "facebook": "None", "youtube": "None", "website": "None", "summary": "None", "logo": "None", "latitude": 45.52792610493952, "longitude": -73.59955863416832}, "106681471RR0001": {"name": "ACADEMY OF CANADIAN CINEMA AND TELEVISION ACADEMIE CANADIENNE DU CINEMA ET DE LA TELEVISION", "designationCode": "C", "categoryCode": "22", "address": "501-49 ONTARIO ST", "city": "TORONTO", "province": "ON", "country": "CA", "postalCode": "M5A2V1", "twitter": "None", "instagram": "None", "facebook": "None", "youtube": "None", "website": "None", "summary": "None", "logo": "None", "latitude": 43.653057505972626, "longitude": -79.36632791254563}, "876371410RR0001": {"name": "ACADEMY OF CANADIAN CINEMA AND TELEVISION FOUNDATION/FONDATION DE L'ACADEMIE CANADIENNE DU CINEMA ET DE LA TELEVISION", "designationCode": "A", "categoryCode": "23", "address": "501-49 ONTARIO STREET", "city": "TORONTO", "province": "ON", "country": "CA", "postalCode": "M5A2V1", "twitter": "None", "instagram": "None", "facebook": "None", "youtube": "None", "website": "None", "summary": "None", "logo": "None", "latitude": 43.653057505972626, "longitude": -79.36632791254563}, "898382205RR0001": {"name": "ACADEMY OF CHRIST ASSOCIATION", "designationCode": "C", "categoryCode": "47", "address": "2483 KINGSWAY", "city": "VANCOUVER", "province": "BC", "country": "CA", "postalCode": "V5R5G8", "twitter": "None", "instagram": "None", "facebook": "None", "youtube": "None", "website": "None", "summary": "None", "logo": "None", "latitude": 49.240392299921375, "longitude": -123.05469152093472}, "881782700RR0001": {"name": "ACADEMY OF SCIENCE FOR EDUCATIONAL PROGRAMS", "designationCode": "C", "categoryCode": "29", "address": "2113 HIGHWAY 7", "city": "CONCORD", "province": "ON", "country": "CA", "postalCode": "L4K1V6", "twitter": "None", "instagram": "None", "facebook": "None", "youtube": "None", "website": "None", "summary": "None", "logo": "None", "latitude": 43.8012595305779, "longitude": -79.49503354096565}, "119482719RR0001": {"name": "ACADEMY THEATRE FOUNDATION", "designationCode": "C", "categoryCode": "22", "address": "2 LINDSAY ST. S.", "city": "LINDSAY", "province": "ON", "country": "CA", "postalCode": "K9V2L6", "twitter": "None", "instagram": "None", "facebook": "None", "youtube": "None", "website": "None", "summary": "None", "logo": "None", "latitude": 44.355522226176205, "longitude": -78.73467215377583}, "886240191RR0001": {"name": "ACADEMY THEATRE FOUNDATION ENDOWMENT FUND", "designationCode": "A", "categoryCode": "25", "address": "1402 - 1 KING ST W", "city": "HAMILTON", "province": "ON", "country": "CA", "postalCode": "L8P1A4", "twitter": "None", "instagram": "None", "facebook": "None", "youtube": "None", "website": "None", "summary": "None", "logo": "None", "latitude": 43.26019321073324, "longitude": -79.88135629363086}, "139024830RR0001": {"name": "ACADIA CHARITABLE TRUST", "designationCode": "B", "categoryCode": "39", "address": "3425 2 AVENUE SOUTH", "city": "LETHBRIDGE", "province": "AB", "country": "CA", "postalCode": "T1J4V1", "twitter": "None", "instagram": "None", "facebook": "None", "youtube": "None", "website": "None", "summary": "None", "logo": "None", "latitude": 49.696839530439966, "longitude": -112.78914308381903}, "118776723RR0001": {"name": "ACADIA DIVINITY COLLEGE", "designationCode": "C", "categoryCode": "20", "address": "15 UNIVERSITY AVENUE", "city": "WOLFVILLE", "province": "NS", "country": "CA", "postalCode": "B4P2R6", "twitter": "None", "instagram": "None", "facebook": "None", "youtube": "None", "website": "None", "summary": "None", "logo": "None", "latitude": 45.089266975812755, "longitude": -64.36815717559146}, "864556790RR0001": {"name": "ACADIA STUDENTS EDUCATION ENHANCEMENT SOCIETY", "designationCode": "C", "categoryCode": "21", "address": "ASU BOX 6002", "city": "WOLFVILLE", "province": "NS", "country": "CA", "postalCode": "B4P2R5", "twitter": "None", "instagram": "None", "facebook": "None", "youtube": "None", "website": "None", "summary": "None", "logo": "None", "latitude": 45.09137400000006, "longitude": -64.36303099999994}, "106681893RR0001": {"name": "ACADIA UNIVERSITY", "designationCode": "C", "categoryCode": "20", "address": "15 UNIVERSITY AVE             BUSINESS OFFICE", "city": "WOLFVILLE", "province": "NS", "country": "CA", "postalCode": "B4P2R6", "twitter": "None", "instagram": "None", "facebook": "None", "youtube": "None", "website": "None", "summary": "None", "logo": "None", "latitude": 45.089266975812755, "longitude": -64.36815717559146}, "118776798RR0001": {"name": "ACADIA VALLEY SUNSET CLUB", "designationCode": "C", "categoryCode": "56", "address": "BOX 63", "city": "ACADIA VALLEY", "province": "AB", "country": "CA", "postalCode": "T0J0A0", "twitter": "None", "instagram": "None", "facebook": "None", "youtube": "None", "website": "None", "summary": "None", "logo": "None", "latitude": 49.66182815579481, "longitude": -110.27855850097112}, "888960572RR0001": {"name": "ACADIAN PENINSULA COMPANY", "designationCode": "C", "categoryCode": "41", "address": "121 SALISBURY ROAD", "city": "MONCTON", "province": "NB", "country": "CA", "postalCode": "E1E1A6", "twitter": "None", "instagram": "None", "facebook": "None", "youtube": "None", "website": "None", "summary": "None", "logo": "None", "latitude": 46.0711640413756, "longitude": -64.82144086984238}, "889172243RR0001": {"name": "ACADIAN SCHOLARSHIPS TRUST FOUNDATION", "designationCode": "C", "categoryCode": "21", "address": "5, AVE. MARIS STELLA", "city": "SUMMERSIDE", "province": "PE", "country": "CA", "postalCode": "C1N6M9", "twitter": "None", "instagram": "None", "facebook": "None", "youtube": "None", "website": "None", "summary": "None", "logo": "None", "latitude": 46.41903009463906, "longitude": -63.80898949734561}, "120496344RR0001": {"name": "ACC\u00c8S CONDITIONS VIE LAC-SAINT-JEAN-EST", "designationCode": "C", "categoryCode": "09", "address": "409 RUE COLLARD OUEST", "city": "ALMA", "province": "QC", "country": "CA", "postalCode": "G8B1N1", "twitter": "None", "instagram": "None", "facebook": "None", "youtube": "None", "website": "None", "summary": "None", "logo": "None", "latitude": 48.5479916708407, "longitude": -71.64882770731155}, "137239208RR0001": {"name": "ACC\u00c8S TRANSPORTS VIABLES-REGROUPEMENT DES UTILISATEURS ET UTILISATRICES DES TRANSPORTS COLLECTIFS ET ALTERNATIFS DU QU\u00c9BEC M\u00c9TROPOLITAIN", "designationCode": "C", "categoryCode": "59", "address": "870, AVE DE SALABERRY         BUREAU 307", "city": "QUEBEC", "province": "QC", "country": "CA", "postalCode": "G1R2T9", "twitter": "None", "instagram": "None", "facebook": "None", "youtube": "None", "website": "None", "summary": "None", "logo": "None", "latitude": 46.80589182679337, "longitude": -71.22672208246271}, "132898776RR0001": {"name": "ACC\u00c8S-TRAVAIL DE MONTR\u00c9AL", "designationCode": "C", "categoryCode": "59", "address": "1935 RUE CUVILLIER", "city": "MONTR\u00c9AL", "province": "QC", "country": "CA", "postalCode": "H1W3A4", "twitter": "None", "instagram": "None", "facebook": "None", "youtube": "None", "website": "None", "summary": "None", "logo": "None", "latitude": 45.54356987705575, "longitude": -73.54545194226445}, "854117017RR0001": {"name": "ACCA Leadership Foundation", "designationCode": "C", "categoryCode": "21", "address": "202-5013 48 ST", "city": "STONY PLAIN", "province": "AB", "country": "CA", "postalCode": "T7Z1L8", "twitter": "None", "instagram": "None", "facebook": "None", "youtube": "None", "website": "None", "summary": "None", "logo": "None", "latitude": 53.52915641909516, "longitude": -114.00181480287425}, "845411271RR0001": {"name": "ACCALMIE ACCOMPAGNEMENT ET HEBERGEMENT POUR PERSONNES SUICIDAIRES", "designationCode": "C", "categoryCode": "09", "address": "1905 ROYALE", "city": "TROIS-RIVIERES", "province": "QC", "country": "CA", "postalCode": "G9A4K8", "twitter": "None", "instagram": "None", "facebook": "None", "youtube": "None", "website": "None", "summary": "None", "logo": "None", "latitude": 46.338407916729224, "longitude": -72.54652048110121}, "869930560RR0001": {"name": "ACCENT ON ABILITY", "designationCode": "C", "categoryCode": "59", "address": "2168 DANFORTH AVENUE", "city": "TORONTO", "province": "ON", "country": "CA", "postalCode": "M4C1K3", "twitter": "None", "instagram": "None", "facebook": "None", "youtube": "None", "website": "None", "summary": "None", "logo": "None", "latitude": 43.68628008855088, "longitude": -79.31039029032252}, "133027862RR0001": {"name": "ACCENT ON KIDS EARLY LEARNING AND CHILDCARE CENTRE INC.", "designationCode": "C", "categoryCode": "01", "address": "250 INDEPENDENT ST", "city": "YORKTON", "province": "SK", "country": "CA", "postalCode": "S3N0S9", "twitter": "None", "instagram": "None", "facebook": "None", "youtube": "None", "website": "None", "summary": "None", "logo": "None", "latitude": 51.20632683691682, "longitude": -102.47866449784992}, "855581443RR0001": {"name": "ACCEPTIONAL RIDERS", "designationCode": "C", "categoryCode": "56", "address": "837 GREGORY DRIVE EAST        RR 7", "city": "CHATHAM", "province": "ON", "country": "CA", "postalCode": "N7M5J7", "twitter": "None", "instagram": "None", "facebook": "None", "youtube": "None", "website": "None", "summary": "None", "logo": "None", "latitude": 42.44410466558927, "longitude": -82.18250840414883}, "897443461RR0001": {"name": "ACCES ENTRAIDE FAMILLES LAC ST-JEAN EST", "designationCode": "C", "categoryCode": "09", "address": "275, BOUL DEQUEN NORD", "city": "ALMA", "province": "QC", "country": "CA", "postalCode": "G8B5N8", "twitter": "None", "instagram": "None", "facebook": "None", "youtube": "None", "website": "None", "summary": "None", "logo": "None", "latitude": 48.55645500000006, "longitude": -71.64824749999994}, "138057245RR0001": {"name": "ACCES PLEIN AIR", "designationCode": "C", "categoryCode": "56", "address": "2615, BOUL. PIE IX", "city": "MONTR\u00c9AL", "province": "QC", "country": "CA", "postalCode": "H1V2E8", "twitter": "None", "instagram": "None", "facebook": "None", "youtube": "None", "website": "None", "summary": "None", "logo": "None", "latitude": 45.55322482266707, "longitude": -73.55010323506846}, "129114963RR0001": {"name": "ACCES TRAVAIL", "designationCode": "C", "categoryCode": "09", "address": "49, RUE DE COURVAL, BUREAU 200", "city": "VICTORIAVILLE", "province": "QC", "country": "CA", "postalCode": "G6P1W6", "twitter": "None", "instagram": "None", "facebook": "None", "youtube": "None", "website": "None", "summary": "None", "logo": "None", "latitude": 46.0609340707773, "longitude": -71.94832661223978}, "813454345RR0001": {"name": "ACCES-LOISIRS QUEBEC", "designationCode": "C", "categoryCode": "09", "address": "3055 2E AV", "city": "QUEBEC", "province": "QC", "country": "CA", "postalCode": "G1L3G1", "twitter": "None", "instagram": "None", "facebook": "None", "youtube": "None", "website": "None", "summary": "None", "logo": "None", "latitude": 46.83967693669587, "longitude": -71.2431754373301}, "892291501RR0001": {"name": "ACCESO INTERNATIONAL", "designationCode": "C", "categoryCode": "21", "address": "P.O. BOX 11395", "city": "OTTAWA", "province": "ON", "country": "CA", "postalCode": "K2H7V1", "twitter": "None", "instagram": "None", "facebook": "None", "youtube": "None", "website": "None", "summary": "None", "logo": "None", "latitude": 45.34429200000005, "longitude": -75.76434349999994}, "123636664RR0001": {"name": "ACCESS ALLIANCE MULTICULTURAL HEALTH AND COMMUNITY SERVICES", "designationCode": "C", "categoryCode": "11", "address": "340 COLLEGE STREET            SUITE#500", "city": "TORONTO", "province": "ON", "country": "CA", "postalCode": "M5T3A9", "twitter": "None", "instagram": "None", "facebook": "None", "youtube": "None", "website": "None", "summary": "None", "logo": "None", "latitude": 43.657760809308215, "longitude": -79.40354707048883}, "129600565RR0001": {"name": "ACCESS BETTER LIVING INC./VIE INDEPENDANTE ET ENRICHIE INC.", "designationCode": "C", "categoryCode": "01", "address": "3 - 733 ROSS AVE E", "city": "TIMMINS", "province": "ON", "country": "CA", "postalCode": "P4N8S8", "twitter": "None", "instagram": "None", "facebook": "None", "youtube": "None", "website": "None", "summary": "None", "logo": "None", "latitude": 48.485925952652714, "longitude": -81.31351966007911}, "892440165RR0001": {"name": "ACCESS COMMUNICATIONS CHILDREN'S FUND", "designationCode": "C", "categoryCode": "09", "address": "2250 PARK ST", "city": "REGINA", "province": "SK", "country": "CA", "postalCode": "S4P7K7", "twitter": "None", "instagram": "None", "facebook": "None", "youtube": "None", "website": "None", "summary": "None", "logo": "None", "latitude": 50.443334748542895, "longitude": -104.57242660750698}, "868066911RR0001": {"name": "ACCESS COMMUNITY CAPITAL FUND", "designationCode": "C", "categoryCode": "59", "address": "252 - 401 RICHMOND ST W", "city": "TORONTO", "province": "ON", "country": "CA", "postalCode": "M5V3A8", "twitter": "None", "instagram": "None", "facebook": "None", "youtube": "None", "website": "None", "summary": "None", "logo": "None", "latitude": 43.64792255983254, "longitude": -79.39538964100468}, "118860907RR0001": {"name": "ACCESS COMMUNITY CHURCH OF GOD 7TH DAY", "designationCode": "C", "categoryCode": "39", "address": "140 HUNTER STREET EAST", "city": "HAMILTON", "province": "ON", "country": "CA", "postalCode": "L8N4H1", "twitter": "None", "instagram": "None", "facebook": "None", "youtube": "None", "website": "None", "summary": "None", "logo": "None", "latitude": 43.25215003523009, "longitude": -79.86483957022902}}