{"131109746RR0001": {"name": "CORPORATION AUGUSTIN-CHENIER INC.", "designationCode": "C", "categoryCode": "22", "address": "42 RUE STE-ANNE", "city": "VILLE-MARIE", "province": "QC", "country": "CA", "postalCode": "J9V2B7", "twitter": "None", "instagram": "None", "facebook": "None", "youtube": "None", "website": "None", "summary": "None", "logo": "None", "latitude": 47.33134914790257, "longitude": -79.43871406353527}, "880285804RR0001": {"name": "CORPORATION AUXILIA-CANADA", "designationCode": "C", "categoryCode": "09", "address": "43 BALLYMORE AVE", "city": "OTTAWA", "province": "ON", "country": "CA", "postalCode": "K1T4A9", "twitter": "None", "instagram": "None", "facebook": "None", "youtube": "None", "website": "None", "summary": "None", "logo": "None", "latitude": 45.37049088787579, "longitude": -75.62736828507106}, "857211486RR0001": {"name": "CORPORATION CAPA INC.", "designationCode": "C", "categoryCode": "09", "address": "104, RUE ROBICHAUD", "city": "NEW RICHMOND", "province": "QC", "country": "CA", "postalCode": "G0C2B0", "twitter": "None", "instagram": "None", "facebook": "None", "youtube": "None", "website": "None", "summary": "None", "logo": "None", "latitude": 48.16329139771488, "longitude": -65.86060948623711}, "883390213RR0001": {"name": "CORPORATION CONCEPT ALPHA DE ROUYN-NORANDA", "designationCode": "C", "categoryCode": "21", "address": "206 9E RUE 2E \u00c9TAGE           2E \u00c9TAGE", "city": "ROUYN-NORANDA", "province": "QC", "country": "CA", "postalCode": "J9X2C2", "twitter": "None", "instagram": "None", "facebook": "None", "youtube": "None", "website": "None", "summary": "None", "logo": "None", "latitude": 48.24936401304175, "longitude": -79.01880145749922}, "131901340RR0001": {"name": "CORPORATION CULTURELLE LATINO-AMERICAINE DE L'AMITIE (C.O.C.L.A.)", "designationCode": "C", "categoryCode": "09", "address": "1357, RUE ST-LOUIS", "city": "ST-LAURENT", "province": "QC", "country": "CA", "postalCode": "H4L2P4", "twitter": "None", "instagram": "None", "facebook": "None", "youtube": "None", "website": "None", "summary": "None", "logo": "None", "latitude": 45.50944175160133, "longitude": -73.67107564322802}, "118876465RR0001": {"name": "CORPORATION D'ANIMATION L'OUVRE-BOITE DU QUARTIER", "designationCode": "C", "categoryCode": "59", "address": "290 RUE CHENIER               ERIC LEMOYNE", "city": "QUEBEC", "province": "QC", "country": "CA", "postalCode": "G1K1R2", "twitter": "None", "instagram": "None", "facebook": "None", "youtube": "None", "website": "None", "summary": "None", "logo": "None", "latitude": 46.81168149653756, "longitude": -71.237124}, "143476687RR0001": {"name": "CORPORATION D'HEBERGEMENT DE MONT-JOLI", "designationCode": "C", "categoryCode": "09", "address": "212-75 AVENUE DES RETRAITES", "city": "MONT-JOLI", "province": "QC", "country": "CA", "postalCode": "G5H1H7", "twitter": "None", "instagram": "None", "facebook": "None", "youtube": "None", "website": "None", "summary": "None", "logo": "None", "latitude": 48.589263137919254, "longitude": -68.19827468924947}, "877673772RR0001": {"name": "CORPORATION DE CONSERVATION DU BOISE DE JOHNVILLE INC.", "designationCode": "C", "categoryCode": "53", "address": "CP 87                         SUCC LENNOXVILLE", "city": "SHERBROOKE", "province": "QC", "country": "CA", "postalCode": "J1M1Z3", "twitter": "None", "instagram": "None", "facebook": "None", "youtube": "None", "website": "None", "summary": "None", "logo": "None", "latitude": 45.36752000000007, "longitude": -71.85659999999996}, "119048676RR0001": {"name": "CORPORATION DE DEFENSE DE DROITS SOCIAUX DE LOTBINIERE INC.", "designationCode": "C", "categoryCode": "09", "address": "372 ST-JOSEPH LOCAL 1", "city": "LAURIER-STATION", "province": "QC", "country": "CA", "postalCode": "G0S1N0", "twitter": "None", "instagram": "None", "facebook": "None", "youtube": "None", "website": "None", "summary": "None", "logo": "None", "latitude": 46.5386654404468, "longitude": -71.63131043453149}, "133555300RR0001": {"name": "CORPORATION DE DEVELOPPEMENT COMMUNAUTAIRE DE LAVAL", "designationCode": "C", "categoryCode": "59", "address": "1450, BOUL. PIE X, BUREAU 28", "city": "LAVAL", "province": "QC", "country": "CA", "postalCode": "H7V3C1", "twitter": "None", "instagram": "None", "facebook": "None", "youtube": "None", "website": "None", "summary": "None", "logo": "None", "latitude": 45.550369488747265, "longitude": -73.7492840079345}, "899109037RR0001": {"name": "CORPORATION DE DEVELOPPEMENT DE LA MAISON DU GRANIT (CDMG)", "designationCode": "C", "categoryCode": "50", "address": "301 ROUTE DU MORNE", "city": "LAC DROLET", "province": "QC", "country": "CA", "postalCode": "G0Y1C0", "twitter": "None", "instagram": "None", "facebook": "None", "youtube": "None", "website": "None", "summary": "None", "logo": "None", "latitude": 45.75205662075402, "longitude": -70.91992167781339}, "868896879RR0001": {"name": "CORPORATION DE DEVELOPPEMENT DES ARTS ET DE LA CULTURE DE VILLE DE LA TUQUE", "designationCode": "C", "categoryCode": "22", "address": "725, BOUL DUCHARME", "city": "LA TUQUE", "province": "QC", "country": "CA", "postalCode": "G9X3B4", "twitter": "None", "instagram": "None", "facebook": "None", "youtube": "None", "website": "None", "summary": "None", "logo": "None", "latitude": 47.4338350896474, "longitude": -72.78509254402996}, "118876499RR0001": {"name": "CORPORATION DE GESTION COMMUNAUTAIRE DE L'OUTAOUAIS INC.", "designationCode": "C", "categoryCode": "59", "address": "109, RUE WRIGHT", "city": "GATINEAU", "province": "QC", "country": "CA", "postalCode": "J8X2G7", "twitter": "None", "instagram": "None", "facebook": "None", "youtube": "None", "website": "None", "summary": "None", "logo": "None", "latitude": 45.42702050432782, "longitude": -75.71872264071786}, "884016221RR0001": {"name": "CORPORATION DE GESTION ET DE MISE EN VALEUR DU MONT ST-JOSEPH INC.", "designationCode": "C", "categoryCode": "52", "address": "629, BOULEVARD PERRON", "city": "CARLETON", "province": "QC", "country": "CA", "postalCode": "G0C1J0", "twitter": "None", "instagram": "None", "facebook": "None", "youtube": "None", "website": "None", "summary": "None", "logo": "None", "latitude": 48.101826060765305, "longitude": -66.12189951056024}, "101159564RR0001": {"name": "CORPORATION DE L'ANCIEN PALAIS DE JUSTICE DE KAMOURASKA INC.", "designationCode": "C", "categoryCode": "52", "address": "111, AVENUE MOREL", "city": "KAMOURASKA", "province": "QC", "country": "CA", "postalCode": "G0L1M0", "twitter": "None", "instagram": "None", "facebook": "None", "youtube": "None", "website": "None", "summary": "None", "logo": "None", "latitude": 47.56217613568858, "longitude": -69.8718394434935}, "107278905RR0001": {"name": "CORPORATION DE L'ECOLE DES HAUTES ETUDES COMMERCIALES DE MONTREAL", "designationCode": "C", "categoryCode": "20", "address": "3000, CH. COTE STE-CATHERINE", "city": "MONTREAL", "province": "QC", "country": "CA", "postalCode": "H3T2A7", "twitter": "None", "instagram": "None", "facebook": "None", "youtube": "None", "website": "None", "summary": "None", "logo": "None", "latitude": 45.5039313852214, "longitude": -73.62266572075731}, "144568698RR0001": {"name": "CORPORATION DE L'EXTERNAT ST-JEAN-BERCHMANS", "designationCode": "C", "categoryCode": "20", "address": "2303 CHEMIN ST-LOUIS", "city": "QU\u00c9BEC", "province": "QC", "country": "CA", "postalCode": "G1T1R5", "twitter": "None", "instagram": "None", "facebook": "None", "youtube": "None", "website": "None", "summary": "None", "logo": "None", "latitude": 46.77132685394471, "longitude": -71.25999770962015}, "142252394RR0001": {"name": "CORPORATION DE L'OBSERVATOIRE MONT COSMOS", "designationCode": "C", "categoryCode": "25", "address": "4347 RUE DE LA REMONTEE", "city": "QUEBEC", "province": "QC", "country": "CA", "postalCode": "G1Y2L7", "twitter": "None", "instagram": "None", "facebook": "None", "youtube": "None", "website": "None", "summary": "None", "logo": "None", "latitude": 46.75460077378968, "longitude": -71.36010636620705}, "106980105RR0001": {"name": "CORPORATION DE LA BIBLIOTHEQUE MUNICIPALE DE ROUYN-NORANDA", "designationCode": "C", "categoryCode": "50", "address": "201 AV DALLAIRE", "city": "ROUYN-NORANDA", "province": "QC", "country": "CA", "postalCode": "J9X4T5", "twitter": "None", "instagram": "None", "facebook": "None", "youtube": "None", "website": "None", "summary": "None", "logo": "None", "latitude": 48.237029580904846, "longitude": -79.0225797559874}, "888296399RR0001": {"name": "CORPORATION DE LA CHAPELLE NOTRE-DAME DE LORETTE", "designationCode": "C", "categoryCode": "52", "address": "1562 JANDOMIEN", "city": "ANCIENNE-LORETTE", "province": "QC", "country": "CA", "postalCode": "G2E1T8", "twitter": "None", "instagram": "None", "facebook": "None", "youtube": "None", "website": "None", "summary": "None", "logo": "None", "latitude": 46.80270856090954, "longitude": -71.35327255011815}, "865943088RR0001": {"name": "CORPORATION DE LA CHAPELLE NOTRE-DAME-DE-BON-SECOURS ET DU MUSEE MARGUERITE-BOURGEOYS NOTRE-DAME-DE-BON-SECOURS CHAPEL AND MARGUERITE BOURGEOYS MUSEUM CORPORATION", "designationCode": "C", "categoryCode": "50", "address": "400 RUE SAINT-PAUL EST", "city": "MONTREAL", "province": "QC", "country": "CA", "postalCode": "H2Y1H4", "twitter": "None", "instagram": "None", "facebook": "None", "youtube": "None", "website": "None", "summary": "None", "logo": "None", "latitude": 45.50989901304175, "longitude": -73.55136389644547}, "137998191RR0001": {"name": "CORPORATION DE LA CONSERVATION DU PATRIMOINE DE SAINT-SIMON-LES-MINES INC", "designationCode": "C", "categoryCode": "52", "address": "3394 DES ERABLES", "city": "ST-SIMON", "province": "QC", "country": "CA", "postalCode": "G0M1K0", "twitter": "None", "instagram": "None", "facebook": "None", "youtube": "None", "website": "None", "summary": "None", "logo": "None", "latitude": 46.20585961120057, "longitude": -70.67429976415211}, "879228005RR0001": {"name": "CORPORATION DE LA MAISON DES CITOYENS DE LA VILLE DE DEUX-MONTAGNES", "designationCode": "C", "categoryCode": "09", "address": "202, HENRI-DUNANT", "city": "DEUX-MONTAGNES", "province": "QC", "country": "CA", "postalCode": "J7R4W6", "twitter": "None", "instagram": "None", "facebook": "None", "youtube": "None", "website": "None", "summary": "None", "logo": "None", "latitude": 45.547393138496176, "longitude": -73.89185391104508}, "118876515RR0001": {"name": "CORPORATION DE LA MAISON DUMULON", "designationCode": "C", "categoryCode": "52", "address": "191 AVE DU LAC                CP 242", "city": "ROUYN-NORANDA", "province": "QC", "country": "CA", "postalCode": "J9X4N6", "twitter": "None", "instagram": "None", "facebook": "None", "youtube": "None", "website": "None", "summary": "None", "logo": "None", "latitude": 48.23894346494281, "longitude": -79.01568055536961}, "866393887RR0001": {"name": "CORPORATION DE LA RESIDENCE POUR PERSONNES AGEES DE L'ANGE-GARDIEN", "designationCode": "C", "categoryCode": "09", "address": "32, DU TRICENTENAIRE", "city": "L'ANGE-GARDIEN", "province": "QC", "country": "CA", "postalCode": "G0A2K0", "twitter": "None", "instagram": "None", "facebook": "None", "youtube": "None", "website": "None", "summary": "None", "logo": "None", "latitude": 46.91448928815815, "longitude": -71.09091582021424}, "132629353RR0001": {"name": "CORPORATION DE LA VIEILLE FROMAGERIE PERRON DE ST-PRIME", "designationCode": "C", "categoryCode": "50", "address": "148 AVENUE ALBERT PERRON", "city": "SAINT-PRIME", "province": "QC", "country": "CA", "postalCode": "G8J1L4", "twitter": "None", "instagram": "None", "facebook": "None", "youtube": "None", "website": "None", "summary": "None", "logo": "None", "latitude": 48.592320075509164, "longitude": -72.33779607634587}, "890813140RR0001": {"name": "CORPORATION DE LA VILLA DES ANGES", "designationCode": "C", "categoryCode": "09", "address": "2138 RUE PALARDY", "city": "SAINTE-MADELEINE", "province": "QC", "country": "CA", "postalCode": "J0H1S0", "twitter": "None", "instagram": "None", "facebook": "None", "youtube": "None", "website": "None", "summary": "None", "logo": "None", "latitude": 45.59654677127952, "longitude": -73.00455171758333}, "107585820RR0001": {"name": "CORPORATION DE RECHERCHE ET D'ACTION SUR LES MALADIES HEREDITAIRES (CORAMH)", "designationCode": "C", "categoryCode": "11", "address": "305, RUE SAINT-VALLIER        C.P. 257", "city": "CHICOUTIMI", "province": "QC", "country": "CA", "postalCode": "G7H5H6", "twitter": "None", "instagram": "None", "facebook": "None", "youtube": "None", "website": "None", "summary": "None", "logo": "None", "latitude": 48.426379384607515, "longitude": -71.0502546240482}, "797890886RR0001": {"name": "CORPORATION DE SERVICES MALLET", "designationCode": "C", "categoryCode": "49", "address": "2655 RUE GUILLAUME-LEPELLETIER", "city": "QU\u00c9BEC", "province": "QC", "country": "CA", "postalCode": "G1C3X7", "twitter": "None", "instagram": "None", "facebook": "None", "youtube": "None", "website": "None", "summary": "None", "logo": "None", "latitude": 46.85926404426508, "longitude": -71.23502774585275}, "141307322RR0001": {"name": "CORPORATION DE SERVICES SAINT-VALLIER", "designationCode": "A", "categoryCode": "13", "address": "305, RUE ST-VALLIER", "city": "CHICOUTIMI", "province": "QC", "country": "CA", "postalCode": "G7H5H6", "twitter": "None", "instagram": "None", "facebook": "None", "youtube": "None", "website": "None", "summary": "None", "logo": "None", "latitude": 48.426379384607515, "longitude": -71.0502546240482}, "861339216RR0001": {"name": "CORPORATION DE SOUTIEN DU CENTRE MARIA-CHAPDELAINE", "designationCode": "A", "categoryCode": "13", "address": "201, BOULEVARD DES PERES", "city": "DOLBEAU-MISTASSINI", "province": "QC", "country": "CA", "postalCode": "G8L5K6", "twitter": "None", "instagram": "None", "facebook": "None", "youtube": "None", "website": "None", "summary": "None", "logo": "None", "latitude": 48.88921396334465, "longitude": -72.22443144501699}, "864980297RR0001": {"name": "CORPORATION DES AINES(ES) DE ST-APOLLINAIRE", "designationCode": "C", "categoryCode": "09", "address": "52 RUE DE L'EGLISE", "city": "ST-APOLLINAIRE", "province": "QC", "country": "CA", "postalCode": "G0S2E0", "twitter": "None", "instagram": "None", "facebook": "None", "youtube": "None", "website": "None", "summary": "None", "logo": "None", "latitude": 46.613969520370674, "longitude": -71.50815234309506}, "890881261RR0001": {"name": "CORPORATION DES BENEVOLES DE LA VILLA ALPHONSE BONENFANT", "designationCode": "C", "categoryCode": "09", "address": "1395, CH. ROYAL", "city": "SAINT-PIERRE-ILE-D'ORLEANS", "province": "QC", "country": "CA", "postalCode": "G0A4E0", "twitter": "None", "instagram": "None", "facebook": "None", "youtube": "None", "website": "None", "summary": "None", "logo": "None", "latitude": 46.89248065667091, "longitude": -71.06848969298748}, "145090007RR0001": {"name": "CORPORATION DES CIMETIERES CATHOLIQUES DE LA BAIE", "designationCode": "C", "categoryCode": "59", "address": "1236 5E AV", "city": "LA BAIE", "province": "QC", "country": "CA", "postalCode": "G7B4J6", "twitter": "None", "instagram": "None", "facebook": "None", "youtube": "None", "website": "None", "summary": "None", "logo": "None", "latitude": 48.32984426177705, "longitude": -70.87999638254202}, "101160604RR0001": {"name": "CORPORATION DES HABITATIONS ADAPTEES DE CHARLEVOIX", "designationCode": "C", "categoryCode": "09", "address": "85 RUE TREMSIM", "city": "BAIE ST-PAUL", "province": "QC", "country": "CA", "postalCode": "G3Z2T8", "twitter": "None", "instagram": "None", "facebook": "None", "youtube": "None", "website": "None", "summary": "None", "logo": "None", "latitude": 47.452077826273765, "longitude": -70.51120621334148}, "118876622RR0001": {"name": "CORPORATION DES LOISIRS DE STE-MARIE INC", "designationCode": "A", "categoryCode": "03", "address": "270 AV MARGUERITE BOURGEOIS", "city": "SAINTE-MARIE", "province": "QC", "country": "CA", "postalCode": "G6E3Z3", "twitter": "None", "instagram": "None", "facebook": "None", "youtube": "None", "website": "None", "summary": "None", "logo": "None", "latitude": 46.43844182817835, "longitude": -71.02173481845482}, "860689249RR0001": {"name": "CORPORATION DES PARENTS ET AMIS DE L'\u00c9COLE COMMUNAUTAIRE L'EAU VIVE", "designationCode": "C", "categoryCode": "21", "address": "7, RUE ALICE", "city": "VICTORIAVILLE", "province": "QC", "country": "CA", "postalCode": "G6P3H3", "twitter": "None", "instagram": "None", "facebook": "None", "youtube": "None", "website": "None", "summary": "None", "logo": "None", "latitude": 46.059301434647075, "longitude": -71.96786687595922}, "869249722RR0001": {"name": "CORPORATION DES PATRIOTES INC", "designationCode": "C", "categoryCode": "09", "address": "208-21 RUE VERMONT", "city": "CLERMONT", "province": "QC", "country": "CA", "postalCode": "G4A1H7", "twitter": "None", "instagram": "None", "facebook": "None", "youtube": "None", "website": "None", "summary": "None", "logo": "None", "latitude": 47.69327048156257, "longitude": -70.23131754007751}, "134092881RR0001": {"name": "CORPORATION DES SERVICES BENEVOLES DE TRANSPORT ET D'ACCUEIL DE LA DORE INC", "designationCode": "C", "categoryCode": "09", "address": "4725 RUE DES SAULES", "city": "LA DORE", "province": "QC", "country": "CA", "postalCode": "G8J1G8", "twitter": "None", "instagram": "None", "facebook": "None", "youtube": "None", "website": "None", "summary": "None", "logo": "None", "latitude": 48.70976099443142, "longitude": -72.64682070875384}, "139274633RR0001": {"name": "CORPORATION DES SERVICES DE GARDE D'ENFANTS DE NIPISSING OUEST/WEST NIPISSING CHILD CARE CORPORATION", "designationCode": "C", "categoryCode": "09", "address": "131 RUE MICHAUD", "city": "STURGEON FALLS", "province": "ON", "country": "CA", "postalCode": "P2B1B9", "twitter": "None", "instagram": "None", "facebook": "None", "youtube": "None", "website": "None", "summary": "None", "logo": "None", "latitude": 46.37080468547457, "longitude": -79.92098881452543}, "118876663RR0001": {"name": "CORPORATION DES SYNDICS APOSTOLIQUES DES FRERES MINEURS OU FRANCISCAINS", "designationCode": "C", "categoryCode": "46", "address": "5750 BOUL.ROSEMONT", "city": "MONTREAL", "province": "QC", "country": "CA", "postalCode": "H1T2H2", "twitter": "None", "instagram": "None", "facebook": "None", "youtube": "None", "website": "None", "summary": "None", "logo": "None", "latitude": 45.57786483429518, "longitude": -73.56045483954664}, "872161013RR0001": {"name": "CORPORATION DES SYNDICS APOSTOLIQUES DES FRERES MINEURS OU FRANCISCAINS DE LA PROVINCE DE SAINT-JOSEPH DU CANADA", "designationCode": "C", "categoryCode": "46", "address": "5750 BOUL ROSEMONT", "city": "MONTREAL", "province": "QC", "country": "CA", "postalCode": "H1T2H2", "twitter": "None", "instagram": "None", "facebook": "None", "youtube": "None", "website": "None", "summary": "None", "logo": "None", "latitude": 45.57786483429518, "longitude": -73.56045483954664}, "125623611RR0001": {"name": "CORPORATION DOMAINE LES PELERINS", "designationCode": "C", "categoryCode": "09", "address": "122 RUE PRINCIPALE C.P.66", "city": "ST-ANDRE", "province": "QC", "country": "CA", "postalCode": "G0L2H0", "twitter": "None", "instagram": "None", "facebook": "None", "youtube": "None", "website": "None", "summary": "None", "logo": "None", "latitude": 47.67432919781917, "longitude": -69.72826376490286}, "129665311RR0001": {"name": "CORPORATION DU BASSIN DE LA JACQUES-CARTIER", "designationCode": "C", "categoryCode": "52", "address": "5090 ROUTE FOSSAMBAULT", "city": "STE-CATHERINE-DE-LA-J.-CARTIER", "province": "QC", "country": "CA", "postalCode": "G3N1V4", "twitter": "None", "instagram": "None", "facebook": "None", "youtube": "None", "website": "None", "summary": "None", "logo": "None", "latitude": 46.85399106437198, "longitude": -71.61753776403748}, "118876697RR0001": {"name": "CORPORATION DU BOURG DE PABOS INC.", "designationCode": "C", "categoryCode": "21", "address": "75 CHEMIN DE LA PLAGE", "city": "PABOS MILLS", "province": "QC", "country": "CA", "postalCode": "G0C2J0", "twitter": "None", "instagram": "None", "facebook": "None", "youtube": "None", "website": "None", "summary": "None", "logo": "None", "latitude": 48.32244140218694, "longitude": -64.69696552507294}, "101161123RR0001": {"name": "CORPORATION DU CENTRE \u00c9VANGELIQUE DE CH\u00c2TEAUGUAY INC.", "designationCode": "C", "categoryCode": "36", "address": "75 BOUL D'ANJOU", "city": "CHATEAUGUAY", "province": "QC", "country": "CA", "postalCode": "J6J2R1", "twitter": "None", "instagram": "None", "facebook": "None", "youtube": "None", "website": "None", "summary": "None", "logo": "None", "latitude": 45.36057236222501, "longitude": -73.73376830376829}, "869422444RR0001": {"name": "CORPORATION DU CENTRE D'ARCHIVES REGIONAL DE CHARLEVOIX", "designationCode": "C", "categoryCode": "50", "address": "9-101 RUE FORGET", "city": "BAIE ST-PAUL", "province": "QC", "country": "CA", "postalCode": "G3Z1T4", "twitter": "None", "instagram": "None", "facebook": "None", "youtube": "None", "website": "None", "summary": "None", "logo": "None"}, "130799661RR0001": {"name": "CORPORATION DU CENTRE DES AINES DE VILLERAY", "designationCode": "C", "categoryCode": "01", "address": "124-7378 LAJEUNESSE", "city": "MONTREAL", "province": "QC", "country": "CA", "postalCode": "H2R2H8", "twitter": "None", "instagram": "None", "facebook": "None", "youtube": "None", "website": "None", "summary": "None", "logo": "None", "latitude": 45.5405610824054, "longitude": -73.61735839399262}, "141283093RR0001": {"name": "CORPORATION DU CENTRE JEAN-CLAUDE-MALEPART", "designationCode": "C", "categoryCode": "56", "address": "2633 ONTARIO EST", "city": "MONTREAL", "province": "QC", "country": "CA", "postalCode": "H2K1W8", "twitter": "None", "instagram": "None", "facebook": "None", "youtube": "None", "website": "None", "summary": "None", "logo": "None", "latitude": 45.53401812184775, "longitude": -73.55188072205539}, "133930941RR0001": {"name": "CORPORATION DU CENTRE R\u00c9GIONAL D'ARCHIVES DE LANAUDI\u00c8RE INC.", "designationCode": "C", "categoryCode": "50", "address": "270 BOUL DE L'ANGE GARDIEN", "city": "L'ASSOMPTION", "province": "QC", "country": "CA", "postalCode": "J5W1R7", "twitter": "None", "instagram": "None", "facebook": "None", "youtube": "None", "website": "None", "summary": "None", "logo": "None", "latitude": 45.829080916702104, "longitude": -73.42142456060286}, "127632313RR0001": {"name": "CORPORATION DU CIMETI\u00c8RE CATHOLIQUE DE ROBERVAL", "designationCode": "C", "categoryCode": "59", "address": "485, BOUL. SAINT-JOSEPH", "city": "ROBERVAL", "province": "QC", "country": "CA", "postalCode": "G8H2K5", "twitter": "None", "instagram": "None", "facebook": "None", "youtube": "None", "website": "None", "summary": "None", "logo": "None", "latitude": 48.50952496029785, "longitude": -72.21891850744358}, "128033560RR0001": {"name": "CORPORATION DU CIMETIERE CATHOLIQUE DE SEPT-ILES INC", "designationCode": "C", "categoryCode": "59", "address": "5-331 AV DEQUEN", "city": "SEPT-ILES", "province": "QC", "country": "CA", "postalCode": "G4R2P7", "twitter": "None", "instagram": "None", "facebook": "None", "youtube": "None", "website": "None", "summary": "None", "logo": "None", "latitude": 50.20522800000006, "longitude": -66.38035849999993}, "136560372RR0001": {"name": "CORPORATION DU CIMETIERE DE MONTMAGNY", "designationCode": "C", "categoryCode": "59", "address": "300 12E RUE", "city": "MONTMAGNY", "province": "QC", "country": "CA", "postalCode": "G5V0H1", "twitter": "None", "instagram": "None", "facebook": "None", "youtube": "None", "website": "None", "summary": "None", "logo": "None", "latitude": 46.96957078074324, "longitude": -70.58491533605552}, "129482378RR0001": {"name": "CORPORATION DU CIMETIERE DE VAL D'OR", "designationCode": "C", "categoryCode": "59", "address": "C.P. 144", "city": "VAL-D'OR", "province": "QC", "country": "CA", "postalCode": "J9P4N9", "twitter": "None", "instagram": "None", "facebook": "None", "youtube": "None", "website": "None", "summary": "None", "logo": "None", "latitude": 48.10161300000006, "longitude": -77.78872249999993}, "118876747RR0001": {"name": "CORPORATION DU CIMETIERE MONT-MARIE", "designationCode": "C", "categoryCode": "59", "address": "152 RUE DU MONT-MARIE", "city": "LEVIS", "province": "QC", "country": "CA", "postalCode": "G6V8X1", "twitter": "None", "instagram": "None", "facebook": "None", "youtube": "None", "website": "None", "summary": "None", "logo": "None", "latitude": 46.81664000142596, "longitude": -71.17188235441769}, "890650831RR0001": {"name": "CORPORATION DU COMITE JEUNESSE 1997", "designationCode": "C", "categoryCode": "09", "address": "132 RUE DE L'\u00c9GLISE           CP 181", "city": "ST-CYPRIEN", "province": "QC", "country": "CA", "postalCode": "G0L2P0", "twitter": "None", "instagram": "None", "facebook": "None", "youtube": "None", "website": "None", "summary": "None", "logo": "None", "latitude": 47.89496334277795, "longitude": -69.01801738954923}, "137551206RR0001": {"name": "CORPORATION DU MOULIN DES JESUITES", "designationCode": "C", "categoryCode": "50", "address": "7960 BOUL HENRI-BOURASSA", "city": "CHARLESBOURG", "province": "QC", "country": "CA", "postalCode": "G1H3G3", "twitter": "None", "instagram": "None", "facebook": "None", "youtube": "None", "website": "None", "summary": "None", "logo": "None", "latitude": 46.86230655761999, "longitude": -71.2675718060769}, "118876788RR0001": {"name": "CORPORATION DU MOULIN LEGARE INC.", "designationCode": "A", "categoryCode": "22", "address": "232 RUE ST-EUSTACHE", "city": "ST-EUSTACHE", "province": "QC", "country": "CA", "postalCode": "J7R2L7", "twitter": "None", "instagram": "None", "facebook": "None", "youtube": "None", "website": "None", "summary": "None", "logo": "None", "latitude": 45.558116466818724, "longitude": -73.89604349999999}, "856292206RR0001": {"name": "CORPORATION DU NOEL DES ENFANTS 2002", "designationCode": "A", "categoryCode": "03", "address": "2225 BOULEVARD HENRI-BOURASSA", "city": "QUEBEC", "province": "QC", "country": "CA", "postalCode": "G1J3X1", "twitter": "None", "instagram": "None", "facebook": "None", "youtube": "None", "website": "None", "summary": "None", "logo": "None", "latitude": 46.838440258382015, "longitude": -71.22966915364402}, "862095213RR0001": {"name": "CORPORATION DU PARC DE LA FALAISE ET DE LA CHUTE KABIR KOUBA", "designationCode": "C", "categoryCode": "50", "address": "14 RUE SAINT-AMAND", "city": "QUEBEC", "province": "QC", "country": "CA", "postalCode": "G2A2K9", "twitter": "None", "instagram": "None", "facebook": "None", "youtube": "None", "website": "None", "summary": "None", "logo": "None", "latitude": 46.85452957397995, "longitude": -71.35925387619037}, "877678011RR0001": {"name": "CORPORATION DU PATRIMOINE DE NOUVELLE/NOUVELLE HERITAGE CORPORATION", "designationCode": "C", "categoryCode": "52", "address": "470 RUE FRANCOEUR             C.P. 57", "city": "NOUVELLE", "province": "QC", "country": "CA", "postalCode": "G0C2E0", "twitter": "None", "instagram": "None", "facebook": "None", "youtube": "None", "website": "None", "summary": "None", "logo": "None", "latitude": 48.13860460644008, "longitude": -66.31315451457095}, "855807186RR0001": {"name": "CORPORATION DU PATRIMOINE DE RIVI\u00c8RE-BLEUE", "designationCode": "C", "categoryCode": "52", "address": "85 RUE SAINT-JOSEPH N", "city": "RIVIERE-BLEUE", "province": "QC", "country": "CA", "postalCode": "G0L2B0", "twitter": "None", "instagram": "None", "facebook": "None", "youtube": "None", "website": "None", "summary": "None", "logo": "None", "latitude": 47.43915478377699, "longitude": -69.04374727029968}, "139219067RR0001": {"name": "CORPORATION DU PATRIMOINE DU CANTON DE LEEDS", "designationCode": "C", "categoryCode": "52", "address": "230, RUE PRINCIPALE", "city": "ST-JACQUES DE LEEDS", "province": "QC", "country": "CA", "postalCode": "G0N1J0", "twitter": "None", "instagram": "None", "facebook": "None", "youtube": "None", "website": "None", "summary": "None", "logo": "None", "latitude": 46.29102701030415, "longitude": -71.3359035589072}, "118876812RR0001": {"name": "CORPORATION DU SEMINAIRE DE SAINT GERMAIN DE RIMOUSKI", "designationCode": "C", "categoryCode": "20", "address": "49 RUE ST-JEAN BAPTISTE O.", "city": "RIMOUSKI", "province": "QC", "country": "CA", "postalCode": "G5L4J2", "twitter": "None", "instagram": "None", "facebook": "None", "youtube": "None", "website": "None", "summary": "None", "logo": "None", "latitude": 48.4472260155639, "longitude": -68.52486508765837}, "104790282RR0001": {"name": "CORPORATION DU SERVICE DES B\u00c9N\u00c9VOLES DU CENTRE DE SANT\u00c9 ET DE SERVICES SOCIAUX DE RIMOUSKI-NEIGETTE", "designationCode": "C", "categoryCode": "19", "address": "150 AV ROULEAU", "city": "RIMOUSKI", "province": "QC", "country": "CA", "postalCode": "G5L5T1", "twitter": "None", "instagram": "None", "facebook": "None", "youtube": "None", "website": "None", "summary": "None", "logo": "None", "latitude": 48.446824833411064, "longitude": -68.5319686278583}, "873280127RR0001": {"name": "CORPORATION DU SITE HISTORIQUE ENFANT-J\u00c9SUS HERITAGE SITE CORPORATION", "designationCode": "C", "categoryCode": "52", "address": "P.O. BOX 216", "city": "RICHER", "province": "MB", "country": "CA", "postalCode": "R0E1S0", "twitter": "None", "instagram": "None", "facebook": "None", "youtube": "None", "website": "None", "summary": "None", "logo": "None", "latitude": 49.65641000000005, "longitude": -96.45680999999996}, "865932503RR0001": {"name": "CORPORATION DU SITE HISTORIQUE MONSEIGNEUR-TACHE", "designationCode": "C", "categoryCode": "52", "address": "C.P. 97, GROUPE 20            ROUTE RURALE 2", "city": "SAINTE-ANNE", "province": "MB", "country": "CA", "postalCode": "R5H1R2", "twitter": "None", "instagram": "None", "facebook": "None", "youtube": "None", "website": "None", "summary": "None", "logo": "None", "latitude": 49.67120400000006, "longitude": -96.65241199999993}, "130636350RR0001": {"name": "CORPORATION DU TRANSPORT ADAPTE DU TEMISCAMINGUE", "designationCode": "C", "categoryCode": "09", "address": "3 RUE INDUSTRIELLE BUREAU 2", "city": "VILLE-MARIE", "province": "QC", "country": "CA", "postalCode": "J9V1S3", "twitter": "None", "instagram": "None", "facebook": "None", "youtube": "None", "website": "None", "summary": "None", "logo": "None", "latitude": 47.32957209965941, "longitude": -79.43485671397664}, "125506246RR0001": {"name": "CORPORATION DU VIEUX MOULIN D'ULVERTON INC", "designationCode": "C", "categoryCode": "52", "address": "210 CH PORTER", "city": "ULVERTON", "province": "QC", "country": "CA", "postalCode": "J0B2B0", "twitter": "None", "instagram": "None", "facebook": "None", "youtube": "None", "website": "None", "summary": "None", "logo": "None", "latitude": 45.690290308355934, "longitude": -72.26968711766413}, "118876846RR0001": {"name": "CORPORATION EPISCOPALE CATHOLIQUE ROMAINE (C.E.C.R. DE CHICOUTIMI)", "designationCode": "C", "categoryCode": "38", "address": "602 RUE RACINE EST", "city": "CHICOUTIMI", "province": "QC", "country": "CA", "postalCode": "G7H1V1", "twitter": "None", "instagram": "None", "facebook": "None", "youtube": "None", "website": "None", "summary": "None", "logo": "None", "latitude": 48.42955548009162, "longitude": -71.04963086081135}, "130816127RR0001": {"name": "CORPORATION EPISCOPALE CATHOLIQUE ROMAINE DE LA BAIE JAMES/ROMAN CATHOLIC EPISCOPAL CORPORATION OF JAMES BAY", "designationCode": "C", "categoryCode": "38", "address": "DIOCESE DE MOOSONEE CP.40", "city": "MOOSONEE", "province": "ON", "country": "CA", "postalCode": "P0L1Y0", "twitter": "None", "instagram": "None", "facebook": "None", "youtube": "None", "website": "None", "summary": "None", "logo": "None", "latitude": 51.27353700000006, "longitude": -80.64089449999993}, "107585515RR0004": {"name": "CORPORATION EPISCOPALE DU DIOCESE DE HEARST", "designationCode": "C", "categoryCode": "38", "address": "\u00c9V\u00caCH\u00c9 DE HEARST              CP 1330", "city": "HEARST", "province": "ON", "country": "CA", "postalCode": "P0L1N0", "twitter": "None", "instagram": "None", "facebook": "None", "youtube": "None", "website": "None", "summary": "None", "logo": "None", "latitude": 49.68503700000005, "longitude": -83.65433749999994}, "830672747RR0001": {"name": "CORPORATION EUPHRASIA-WALSH/EUPHRASIA WALSH CORPORATION", "designationCode": "C", "categoryCode": "47", "address": "9467 BOULEVARD GOUIN OUEST", "city": "MONTR\u00c9AL", "province": "QC", "country": "CA", "postalCode": "H8Y1T2", "twitter": "None", "instagram": "None", "facebook": "None", "youtube": "None", "website": "None", "summary": "None", "logo": "None", "latitude": 45.50717986984239, "longitude": -73.77231086026309}, "875814055RR0001": {"name": "CORPORATION FRANCOIS-REGIS", "designationCode": "C", "categoryCode": "39", "address": "57 AMBROISE FAFARD", "city": "BAIE SAINT PAUL", "province": "QC", "country": "CA", "postalCode": "G3Z2J7", "twitter": "None", "instagram": "None", "facebook": "None", "youtube": "None", "website": "None", "summary": "None", "logo": "None", "latitude": 47.438978857608696, "longitude": -70.50655014648892}, "123341414RR0001": {"name": "CORPORATION HECTOR-CHARLAND", "designationCode": "C", "categoryCode": "22", "address": "225, BOUL. L'ANGE-GARDIEN", "city": "L'ASSOMPTION", "province": "QC", "country": "CA", "postalCode": "J5W4M6", "twitter": "None", "instagram": "None", "facebook": "None", "youtube": "None", "website": "None", "summary": "None", "logo": "None", "latitude": 45.82893378605202, "longitude": -73.42184055695614}, "863664355RR0001": {"name": "CORPORATION JEAN-CHARLES-DAIGNEAULT", "designationCode": "C", "categoryCode": "43", "address": "129 FR\u00c8RE TH\u00c9ODE", "city": "SHERBROOKE", "province": "QC", "country": "CA", "postalCode": "J1C0S3", "twitter": "None", "instagram": "None", "facebook": "None", "youtube": "None", "website": "None", "summary": "None", "logo": "None", "latitude": 45.472621968446404, "longitude": -71.95136015854378}, "864429816RR0001": {"name": "CORPORATION JEAN-PAUL MORIN", "designationCode": "C", "categoryCode": "59", "address": "CP 52007                      CSP FABREVILLE", "city": "LAVAL", "province": "QC", "country": "CA", "postalCode": "H7P5S1", "twitter": "None", "instagram": "None", "facebook": "None", "youtube": "None", "website": "None", "summary": "None", "logo": "None", "latitude": 45.568170000000066, "longitude": -73.83966999999996}, "890304272RR0001": {"name": "CORPORATION JEUNESSE L'EVASION L'ORMIERE", "designationCode": "C", "categoryCode": "09", "address": "CASE POSTALE 69007", "city": "NEUFCHATEL", "province": "QC", "country": "CA", "postalCode": "G2C2C3", "twitter": "None", "instagram": "None", "facebook": "None", "youtube": "None", "website": "None", "summary": "None", "logo": "None", "latitude": 46.831729999999936, "longitude": -71.32802052380953}, "140705948RR0001": {"name": "CORPORATION JEUNESSE MEMPHREMAGOG INC", "designationCode": "C", "categoryCode": "09", "address": "95, JEAN-PAUL II              SUITE 100", "city": "MAGOG", "province": "QC", "country": "CA", "postalCode": "J1X1E4", "twitter": "None", "instagram": "None", "facebook": "None", "youtube": "None", "website": "None", "summary": "None", "logo": "None", "latitude": 45.272480026400615, "longitude": -72.1393753289864}, "130637499RR0001": {"name": "CORPORATION JEUNESSE ST-SAUVEUR", "designationCode": "C", "categoryCode": "56", "address": "215 DES OBLATS", "city": "QUEBEC", "province": "QC", "country": "CA", "postalCode": "G1K9A4", "twitter": "None", "instagram": "None", "facebook": "None", "youtube": "None", "website": "None", "summary": "None", "logo": "None", "latitude": 46.81156664611354, "longitude": -71.23534685801273}, "137164323RR0001": {"name": "CORPORATION LE ZEPHIR CHIBOUGAMAU-CHAPAIS INC", "designationCode": "C", "categoryCode": "01", "address": "105 AVE DU PARC", "city": "CHIBOUGAMAU", "province": "QC", "country": "CA", "postalCode": "G8P3A5", "twitter": "None", "instagram": "None", "facebook": "None", "youtube": "None", "website": "None", "summary": "None", "logo": "None", "latitude": 49.915296063823746, "longitude": -74.36933360133283}, "899511463RR0001": {"name": "CORPORATION LES ADOLESCENTS ET LA VIE DE QUARTIER DE CHICOUTIMI", "designationCode": "C", "categoryCode": "09", "address": "36 RUE JACQUES-CARTIER EST", "city": "CHICOUTIMI", "province": "QC", "country": "CA", "postalCode": "G7H1W2", "twitter": "None", "instagram": "None", "facebook": "None", "youtube": "None", "website": "None", "summary": "None", "logo": "None", "latitude": 48.42660855785111, "longitude": -71.06746375298631}, "136504743RR0001": {"name": "CORPORATION LES ENFANTS DE MA RUE", "designationCode": "C", "categoryCode": "09", "address": "688 BOUL MANSEAU", "city": "JOLIETTE", "province": "QC", "country": "CA", "postalCode": "J6E3E6", "twitter": "None", "instagram": "None", "facebook": "None", "youtube": "None", "website": "None", "summary": "None", "logo": "None", "latitude": 46.02262884375891, "longitude": -73.44338100141364}, "128971645RR0001": {"name": "CORPORATION LUCIE GREGOIRE DANSE", "designationCode": "C", "categoryCode": "22", "address": "6811 RUE DE LANAUDI\u00c8RE", "city": "MONTR\u00c9AL", "province": "QC", "country": "CA", "postalCode": "H2G3B2", "twitter": "None", "instagram": "None", "facebook": "None", "youtube": "None", "website": "None", "summary": "None", "logo": "None", "latitude": 45.5431783086444, "longitude": -73.60436138522138}, "118876911RR0001": {"name": "CORPORATION MAGHEN ABRAHAM INC.", "designationCode": "C", "categoryCode": "39", "address": "CP 111 SNOWDON", "city": "MONTREAL", "province": "QC", "country": "CA", "postalCode": "H3X3T3", "twitter": "None", "instagram": "None", "facebook": "None", "youtube": "None", "website": "None", "summary": "None", "logo": "None", "latitude": 45.48034331254028, "longitude": -73.62887745429128}, "101161792RR0001": {"name": "CORPORATION MAISON LUCIEN-L'ALLIER, MONTREAL", "designationCode": "C", "categoryCode": "09", "address": "106-720 RUE LUCIEN-L'ALLIER", "city": "MONTREAL", "province": "QC", "country": "CA", "postalCode": "H3C1Z8", "twitter": "None", "instagram": "None", "facebook": "None", "youtube": "None", "website": "None", "summary": "None", "logo": "None", "latitude": 45.49357800109653, "longitude": -73.56872275549645}, "140195181RR0001": {"name": "CORPORATION MARIE-LUCIE", "designationCode": "C", "categoryCode": "46", "address": "6670 RUE SAINT-LOUIS-DE-FRANCE", "city": "LEVIS", "province": "QC", "country": "CA", "postalCode": "G6V1P3", "twitter": "None", "instagram": "None", "facebook": "None", "youtube": "None", "website": "None", "summary": "None", "logo": "None", "latitude": 46.818434173409145, "longitude": -71.17884370543656}, "107407264RR0001": {"name": "CORPORATION MAURICE-RATTE", "designationCode": "C", "categoryCode": "46", "address": "129 RUE DU FR\u00c8RE-TH\u00c9ODE", "city": "SHERBROOKE", "province": "QC", "country": "CA", "postalCode": "J1C0S3", "twitter": "None", "instagram": "None", "facebook": "None", "youtube": "None", "website": "None", "summary": "None", "logo": "None", "latitude": 45.472621968446404, "longitude": -71.95136015854378}, "106979271RR0001": {"name": "CORPORATION NOTRE-DAME DE BON-SECOURS", "designationCode": "C", "categoryCode": "01", "address": "990 RUE GERARD-MORISSET", "city": "QUEBEC", "province": "QC", "country": "CA", "postalCode": "G1S1X6", "twitter": "None", "instagram": "None", "facebook": "None", "youtube": "None", "website": "None", "summary": "None", "logo": "None", "latitude": 46.788283416844806, "longitude": -71.25638213563929}, "135323723RR0002": {"name": "CORPORATION OF CHRIST CHURCH", "designationCode": "C", "categoryCode": "30", "address": "PO BOX 573", "city": "DRESDEN", "province": "ON", "country": "CA", "postalCode": "N0P1M0", "twitter": "None", "instagram": "None", "facebook": "None", "youtube": "None", "website": "None", "summary": "None", "logo": "None", "latitude": 42.58952000000005, "longitude": -82.17963999999995}, "108078684RR0001": {"name": "CORPORATION OF QUEENS COLLEGE", "designationCode": "C", "categoryCode": "20", "address": "3000-210 PRINCE PHILIP DR", "city": "ST JOHN'S", "province": "NL", "country": "CA", "postalCode": "A1B3R6", "twitter": "None", "instagram": "None", "facebook": "None", "youtube": "None", "website": "None", "summary": "None", "logo": "None", "latitude": 47.577932439906284, "longitude": -52.728482562232635}, "132409996RR0001": {"name": "CORPORATION OF THE ANGLICAN PARISH OF NEW MARYLAND", "designationCode": "C", "categoryCode": "30", "address": "1224 RTE 101 HWY", "city": "NASONWORTH", "province": "NB", "country": "CA", "postalCode": "E3C2C4", "twitter": "None", "instagram": "None", "facebook": "None", "youtube": "None", "website": "None", "summary": "None", "logo": "None", "latitude": 45.85650336562888, "longitude": -66.68374422310775}, "119077816RR0001": {"name": "CORPORATION OF THE ANGLICAN PARISH OF NEWCASTLE AND NELSON", "designationCode": "C", "categoryCode": "30", "address": "214 PLEASANT ST", "city": "MIRAMICHI", "province": "NB", "country": "CA", "postalCode": "E1V1Y5", "twitter": "None", "instagram": "None", "facebook": "None", "youtube": "None", "website": "None", "summary": "None", "logo": "None", "latitude": 46.99918101170388, "longitude": -65.56749069696473}, "119077121RR0001": {"name": "CORPORATION OF THE ANGLICAN PARISH OF WEST SAINT JOHN", "designationCode": "C", "categoryCode": "30", "address": "276 SHERBROOKE ST", "city": "SAINT JOHN", "province": "NB", "country": "CA", "postalCode": "E2M3L2", "twitter": "None", "instagram": "None", "facebook": "None", "youtube": "None", "website": "None", "summary": "None", "logo": "None", "latitude": 45.249975503462466, "longitude": -66.09245307799065}, "118876978RR0001": {"name": "CORPORATION OF THE CITY OF OSHAWA-EMPLOYEES' CHARITY TRUST", "designationCode": "B", "categoryCode": "75", "address": "50 CENTRE ST S", "city": "OSHAWA", "province": "ON", "country": "CA", "postalCode": "L1H3Z7", "twitter": "None", "instagram": "None", "facebook": "None", "youtube": "None", "website": "None", "summary": "None", "logo": "None", "latitude": 43.895829123492526, "longitude": -78.8650436155284}, "890897242RR0001": {"name": "CORPORATION OF THE CITY OF PETERBOROUGH EMPLOYEE'S CHARITY TRUST", "designationCode": "B", "categoryCode": "75", "address": "500 GEORGE ST NORTH", "city": "PETERBOROUGH", "province": "ON", "country": "CA", "postalCode": "K9H3R9", "twitter": "None", "instagram": "None", "facebook": "None", "youtube": "None", "website": "None", "summary": "None", "logo": "None", "latitude": 44.30906139800333, "longitude": -78.3202427224021}, "886487503RR0001": {"name": "CORPORATION OF THE TOWN OF PETAWAWA PUBLIC LIBRARY", "designationCode": "C", "categoryCode": "50", "address": "16 CIVIC CENTRE RD", "city": "PETAWAWA", "province": "ON", "country": "CA", "postalCode": "K8H3H5", "twitter": "None", "instagram": "None", "facebook": "None", "youtube": "None", "website": "None", "summary": "None", "logo": "None", "latitude": 45.89227641549571, "longitude": -77.25931525082514}, "118877034RR0001": {"name": "CORPORATION PHILIPPE AUBERT DE GASPE", "designationCode": "C", "categoryCode": "22", "address": "710 RUE DE GASPE O", "city": "ST-JEAN-PORT-JOLI", "province": "QC", "country": "CA", "postalCode": "G0R3G0", "twitter": "None", "instagram": "None", "facebook": "None", "youtube": "None", "website": "None", "summary": "None", "logo": "None", "latitude": 47.170927605033896, "longitude": -70.30741296123338}, "107597551RR0001": {"name": "CORPORATION PIEDMONT", "designationCode": "C", "categoryCode": "46", "address": "4901, RUE PIEDMONT", "city": "MONTREAL", "province": "QC", "country": "CA", "postalCode": "H3V1E3", "twitter": "None", "instagram": "None", "facebook": "None", "youtube": "None", "website": "None", "summary": "None", "logo": "None", "latitude": 45.49437641078528, "longitude": -73.61616300470321}, "118877067RR0001": {"name": "CORPORATION REGIONALE DE LA SALLE ANDRE-GAGNON INC.", "designationCode": "C", "categoryCode": "22", "address": "140, 4I\u00c8ME AVENUE", "city": "LA POCATI\u00c8RE", "province": "QC", "country": "CA", "postalCode": "G0R1Z0", "twitter": "None", "instagram": "None", "facebook": "None", "youtube": "None", "website": "None", "summary": "None", "logo": "None", "latitude": 47.10543000000007, "longitude": -70.35096999999996}}