{"106790249RR0001": {"name": "BETHLEHEM CHRISTIAN REFORMED CHURCH", "designationCode": "C", "categoryCode": "39", "address": "212 SPRINGVIEW SQUARE", "city": "THUNDER BAY", "province": "ON", "country": "CA", "postalCode": "P7B6H7", "twitter": "None", "instagram": "None", "facebook": "None", "youtube": "None", "website": "None", "summary": "None", "logo": "None", "latitude": 48.435935467684104, "longitude": -89.26669611379765}, "891768376RR0001": {"name": "BETHLEHEM EVANGELICAL LUTHERAN CHURCH CAMROSE NORTH", "designationCode": "C", "categoryCode": "32", "address": "6313-38 AVE.", "city": "CAMROSE", "province": "AB", "country": "CA", "postalCode": "T4V2Z6", "twitter": "None", "instagram": "None", "facebook": "None", "youtube": "None", "website": "None", "summary": "None", "logo": "None", "latitude": 53.00485517584526, "longitude": -112.85607785189653}, "132003922RR0001": {"name": "BETHLEHEM EVANGELICAL LUTHERAN CHURCH OF OUTLOOK", "designationCode": "C", "categoryCode": "32", "address": "PO BOX 477", "city": "OUTLOOK", "province": "SK", "country": "CA", "postalCode": "S0L2N0", "twitter": "None", "instagram": "None", "facebook": "None", "youtube": "None", "website": "None", "summary": "None", "logo": "None", "latitude": 51.5306764246367, "longitude": -107.23731016398128}, "806906871RR0001": {"name": "BETHLEHEM FAITH DELIVERANCE FELLOWSHIP", "designationCode": "C", "categoryCode": "39", "address": "81 NATIVE LANDING", "city": "BRAMPTON", "province": "ON", "country": "CA", "postalCode": "L6X5A8", "twitter": "None", "instagram": "None", "facebook": "None", "youtube": "None", "website": "None", "summary": "None", "logo": "None", "latitude": 43.68654998583307, "longitude": -79.80566111016232}, "891308942RR0001": {"name": "BETHLEHEM FARM IN THE ORDER OF SAINT CHARBEL INC.", "designationCode": "C", "categoryCode": "38", "address": "4326 ROUTE 895", "city": "LITTLE RIVER ALBERT CO", "province": "NB", "country": "CA", "postalCode": "E4J1R4", "twitter": "None", "instagram": "None", "facebook": "None", "youtube": "None", "website": "None", "summary": "None", "logo": "None", "latitude": 45.892314938840705, "longitude": -64.97552109173897}, "895092914RR0001": {"name": "BETHLEHEM FELLOWSHIP", "designationCode": "C", "categoryCode": "39", "address": "1225 JANISSE AVENUE", "city": "WINDSOR", "province": "ON", "country": "CA", "postalCode": "N8S2W2", "twitter": "None", "instagram": "None", "facebook": "None", "youtube": "None", "website": "None", "summary": "None", "logo": "None", "latitude": 42.32203110990251, "longitude": -82.95211026591247}, "106790264RR0001": {"name": "BETHLEHEM HEALING FOUNTAIN", "designationCode": "C", "categoryCode": "39", "address": "5738 DECARIE BLVD", "city": "MONTREAL", "province": "QC", "country": "CA", "postalCode": "H3X2J3", "twitter": "None", "instagram": "None", "facebook": "None", "youtube": "None", "website": "None", "summary": "None", "logo": "None", "latitude": 45.48777673131757, "longitude": -73.63883307481666}, "121926547RR0001": {"name": "BETHLEHEM HOUSING AND SUPPORT SERVICES", "designationCode": "C", "categoryCode": "09", "address": "166 JAMES STREET", "city": "ST CATHARINES", "province": "ON", "country": "CA", "postalCode": "L2R5C5", "twitter": "None", "instagram": "None", "facebook": "None", "youtube": "None", "website": "None", "summary": "None", "logo": "None", "latitude": 43.161330791303484, "longitude": -79.24957908407883}, "106790298RR0001": {"name": "BETHLEHEM LUTHERAN CHURCH", "designationCode": "C", "categoryCode": "32", "address": "BOX 39", "city": "BRUDERHEIM", "province": "AB", "country": "CA", "postalCode": "T0B0S0", "twitter": "None", "instagram": "None", "facebook": "None", "youtube": "None", "website": "None", "summary": "None", "logo": "None", "latitude": 53.803450000000055, "longitude": -112.92708999999996}, "118806942RR0001": {"name": "BETHLEHEM LUTHERAN CHURCH", "designationCode": "C", "categoryCode": "32", "address": "284 WALSH RD", "city": "PEMBROKE", "province": "ON", "country": "CA", "postalCode": "K8A6W4", "twitter": "None", "instagram": "None", "facebook": "None", "youtube": "None", "website": "None", "summary": "None", "logo": "None", "latitude": 45.66297196202861, "longitude": -77.07884104818491}, "118806975RR0001": {"name": "BETHLEHEM LUTHERAN CHURCH", "designationCode": "C", "categoryCode": "32", "address": "BOX 159", "city": "HAWARDEN", "province": "SK", "country": "CA", "postalCode": "S0H1Y0", "twitter": "None", "instagram": "None", "facebook": "None", "youtube": "None", "website": "None", "summary": "None", "logo": "None", "latitude": 51.41652000000005, "longitude": -106.60070999999999}, "118807007RR0001": {"name": "BETHLEHEM LUTHERAN CHURCH", "designationCode": "C", "categoryCode": "32", "address": "4638 - 117 AVE N.W.", "city": "EDMONTON", "province": "AB", "country": "CA", "postalCode": "T5W0Y8", "twitter": "None", "instagram": "None", "facebook": "None", "youtube": "None", "website": "None", "summary": "None", "logo": "None", "latitude": 53.56948746047076, "longitude": -113.41447208381904}, "118807015RR0001": {"name": "BETHLEHEM LUTHERAN CHURCH", "designationCode": "C", "categoryCode": "32", "address": "320 EAST 15TH AVENUE", "city": "VANCOUVER", "province": "BC", "country": "CA", "postalCode": "V5T2R1", "twitter": "None", "instagram": "None", "facebook": "None", "youtube": "None", "website": "None", "summary": "None", "logo": "None", "latitude": 49.25745152120741, "longitude": -123.09779097016562}, "138504113RR0001": {"name": "BETHLEHEM LUTHERAN CHURCH HILDA", "designationCode": "C", "categoryCode": "32", "address": "PO BOX 119", "city": "HILDA", "province": "AB", "country": "CA", "postalCode": "T0J1R0", "twitter": "None", "instagram": "None", "facebook": "None", "youtube": "None", "website": "None", "summary": "None", "logo": "None", "latitude": 50.45554000000004, "longitude": -110.07446999999996}, "118807023RR0001": {"name": "BETHLEHEM LUTHERAN CHURCH OF DALUM", "designationCode": "C", "categoryCode": "32", "address": "BOX 44", "city": "DRUMHELLER", "province": "AB", "country": "CA", "postalCode": "T0J0Y0", "twitter": "None", "instagram": "None", "facebook": "None", "youtube": "None", "website": "None", "summary": "None", "logo": "None", "latitude": 51.46154700000005, "longitude": -112.70878099999993}, "889917449RR0001": {"name": "BETHLEHEM MINISTRIES INCORPORATED", "designationCode": "C", "categoryCode": "31", "address": "467 MANITOBA AVE", "city": "WINNIPEG", "province": "MB", "country": "CA", "postalCode": "R2W2G4", "twitter": "None", "instagram": "None", "facebook": "None", "youtube": "None", "website": "None", "summary": "None", "logo": "None", "latitude": 49.91669490648611, "longitude": -97.14259268399803}, "862820933RR0001": {"name": "BETHLEHEM UNITED APOSTOLIC CHURCH OF JESUS CHRIST (WINNIPEG) INC.", "designationCode": "C", "categoryCode": "39", "address": "1456 ARLINGTON ST", "city": "WINNIPEG", "province": "MB", "country": "CA", "postalCode": "R2X1T6", "twitter": "None", "instagram": "None", "facebook": "None", "youtube": "None", "website": "None", "summary": "None", "logo": "None", "latitude": 49.92102318457496, "longitude": -97.15523876008409}, "894633593RR0001": {"name": "BETHLEHEM UNITED CHURCH OF JESUS CHRIST (APOSTOLIC)", "designationCode": "C", "categoryCode": "39", "address": "1 LESWYN RD", "city": "NORTH YORK", "province": "ON", "country": "CA", "postalCode": "M6A1J8", "twitter": "None", "instagram": "None", "facebook": "None", "youtube": "None", "website": "None", "summary": "None", "logo": "None", "latitude": 43.715791834843444, "longitude": -79.46716684456695}, "864161914RR0001": {"name": "BETHSALEM CHURCH OF GOD", "designationCode": "C", "categoryCode": "39", "address": "3474 LADDIE CRESCENT", "city": "MISSISSAUGA", "province": "ON", "country": "CA", "postalCode": "L4T1N1", "twitter": "None", "instagram": "None", "facebook": "None", "youtube": "None", "website": "None", "summary": "None", "logo": "None", "latitude": 43.71651564888352, "longitude": -79.62977597711917}, "857802771RR0001": {"name": "BETHUNE & DISTRICT HERITAGE MUSEUM", "designationCode": "C", "categoryCode": "50", "address": "PO BOX 153", "city": "BETHUNE", "province": "SK", "country": "CA", "postalCode": "S0G0H0", "twitter": "None", "instagram": "None", "facebook": "None", "youtube": "None", "website": "None", "summary": "None", "logo": "None", "latitude": 50.716770000000054, "longitude": -105.21782999999999}, "118807205RR0001": {"name": "BETHUNE CEMETERY MEMORIAL FUND", "designationCode": "C", "categoryCode": "59", "address": "P.O. BOX 172", "city": "BETHUNE", "province": "SK", "country": "CA", "postalCode": "S0G0H0", "twitter": "None", "instagram": "None", "facebook": "None", "youtube": "None", "website": "None", "summary": "None", "logo": "None", "latitude": 50.716770000000054, "longitude": -105.21782999999999}, "122097967RR0001": {"name": "BETHUNE COMMUNITY HALL INC.", "designationCode": "C", "categoryCode": "56", "address": "524 EAST ST                   P.O. BOX 85", "city": "BETHUNE", "province": "SK", "country": "CA", "postalCode": "S0G0H0", "twitter": "None", "instagram": "None", "facebook": "None", "youtube": "None", "website": "None", "summary": "None", "logo": "None", "latitude": 50.71333503621791, "longitude": -105.2053531360643}, "122269251RR0001": {"name": "BETHUNE COMMUNITY SPORTS CENTRE INCORPORATED", "designationCode": "C", "categoryCode": "56", "address": "P.O. BOX 89", "city": "BETHUNE", "province": "SK", "country": "CA", "postalCode": "S0G0H0", "twitter": "None", "instagram": "None", "facebook": "None", "youtube": "None", "website": "None", "summary": "None", "logo": "None", "latitude": 50.716770000000054, "longitude": -105.21782999999999}, "118807213RR0001": {"name": "BETHUNE UNITED CHURCH", "designationCode": "C", "categoryCode": "44", "address": "1135 BURLMARIE RD             PO BOX 30", "city": "BAYSVILLE", "province": "ON", "country": "CA", "postalCode": "P0B1A0", "twitter": "None", "instagram": "None", "facebook": "None", "youtube": "None", "website": "None", "summary": "None", "logo": "None", "latitude": 45.16396929814147, "longitude": -79.11395122652745}, "118807221RR0001": {"name": "BETHUNE UNITED CHURCH", "designationCode": "C", "categoryCode": "44", "address": "PO BOX 185", "city": "BETHUNE", "province": "SK", "country": "CA", "postalCode": "S0G0H0", "twitter": "None", "instagram": "None", "facebook": "None", "youtube": "None", "website": "None", "summary": "None", "logo": "None", "latitude": 50.716770000000054, "longitude": -105.21782999999999}, "118807239RR0001": {"name": "BETHUNE 50 PLUS CLUB", "designationCode": "C", "categoryCode": "56", "address": "PO BOX 290", "city": "BETHUNE", "province": "SK", "country": "CA", "postalCode": "S0G0H0", "twitter": "None", "instagram": "None", "facebook": "None", "youtube": "None", "website": "None", "summary": "None", "logo": "None", "latitude": 50.716770000000054, "longitude": -105.21782999999999}, "877288001RR0001": {"name": "BETTER DAYS SOCIETY", "designationCode": "C", "categoryCode": "11", "address": "3 - 7351 VANTAGE WAY", "city": "DELTA", "province": "BC", "country": "CA", "postalCode": "V4G1C9", "twitter": "None", "instagram": "None", "facebook": "None", "youtube": "None", "website": "None", "summary": "None", "logo": "None", "latitude": 49.13666011523995, "longitude": -123.02157030783633}, "140171216RR0001": {"name": "BETTER ENVIRONMENTALLY SOUND TRANSPORTATION ASSOCIATION", "designationCode": "C", "categoryCode": "59", "address": "204 - 175 BROADWAY E", "city": "VANCOUVER", "province": "BC", "country": "CA", "postalCode": "V5T1W2", "twitter": "None", "instagram": "None", "facebook": "None", "youtube": "None", "website": "None", "summary": "None", "logo": "None", "latitude": 49.26294953318128, "longitude": -123.10146030391252}, "884423914RR0001": {"name": "BETTER FATHERS INCORPORATED", "designationCode": "C", "categoryCode": "11", "address": "3051 MCBEY AVE", "city": "WINNIPEG", "province": "MB", "country": "CA", "postalCode": "R3K0T6", "twitter": "None", "instagram": "None", "facebook": "None", "youtube": "None", "website": "None", "summary": "None", "logo": "None", "latitude": 49.877952504327844, "longitude": -97.28202838911653}, "896696804RR0001": {"name": "BETTER LIVING CHARITABLE FOUNDATION", "designationCode": "A", "categoryCode": "03", "address": "1 OVERLAND DRIVE", "city": "TORONTO", "province": "ON", "country": "CA", "postalCode": "M3C2C3", "twitter": "None", "instagram": "None", "facebook": "None", "youtube": "None", "website": "None", "summary": "None", "logo": "None", "latitude": 43.73270495195931, "longitude": -79.34721427029855}, "834982720RR0001": {"name": "BETTER LIVING HEALTH AND COMMUNITY SERVICES", "designationCode": "C", "categoryCode": "56", "address": "1 OVERLAND DRIVE", "city": "NORTH YORK", "province": "ON", "country": "CA", "postalCode": "M3C2C3", "twitter": "None", "instagram": "None", "facebook": "None", "youtube": "None", "website": "None", "summary": "None", "logo": "None", "latitude": 43.73270495195931, "longitude": -79.34721427029855}, "106791171RR0001": {"name": "BEULAH ALLIANCE CHURCH OF EDMONTON", "designationCode": "C", "categoryCode": "39", "address": "17504 98A AVENUE", "city": "EDMONTON", "province": "AB", "country": "CA", "postalCode": "T5T5T8", "twitter": "None", "instagram": "None", "facebook": "None", "youtube": "None", "website": "None", "summary": "None", "logo": "None", "latitude": 53.53427947936953, "longitude": -113.6271703211092}, "871842993RR0001": {"name": "BEULAH CHURCH OF JESUS CHRIST", "designationCode": "C", "categoryCode": "39", "address": "302-1765 WESTON RD", "city": "TORONTO", "province": "ON", "country": "CA", "postalCode": "M9N3P7", "twitter": "None", "instagram": "None", "facebook": "None", "youtube": "None", "website": "None", "summary": "None", "logo": "None", "latitude": 43.69846223834413, "longitude": -79.51132855482747}, "118807338RR0001": {"name": "BEULAH COMMUNITY CHAPEL INC.", "designationCode": "C", "categoryCode": "39", "address": "389 FIRST AVENUE              P.O. BOX 13", "city": "BEULAH", "province": "MB", "country": "CA", "postalCode": "R0M0B0", "twitter": "None", "instagram": "None", "facebook": "None", "youtube": "None", "website": "None", "summary": "None", "logo": "None", "latitude": 49.76473601174622, "longitude": -100.63049665349318}, "130688864RR0001": {"name": "BEULAH GARDEN HOMES SOCIETY", "designationCode": "C", "categoryCode": "09", "address": "3350 5TH AVE E", "city": "VANCOUVER", "province": "BC", "country": "CA", "postalCode": "V5M1P4", "twitter": "None", "instagram": "None", "facebook": "None", "youtube": "None", "website": "None", "summary": "None", "logo": "None", "latitude": 49.26557964743688, "longitude": -123.03206153147421}, "141377481RR0001": {"name": "BEULAH UNITED CHURCH", "designationCode": "C", "categoryCode": "44", "address": "1004 SANDBORN", "city": "AYERS CLIFF", "province": "QC", "country": "CA", "postalCode": "J0B1C0", "twitter": "None", "instagram": "None", "facebook": "None", "youtube": "None", "website": "None", "summary": "None", "logo": "None", "latitude": 45.1666595903399, "longitude": -72.04095668901834}, "849704325RR0001": {"name": "BEVERLY & GARTH MOORE FOUNDATION INC.", "designationCode": "B", "categoryCode": "03", "address": "DELOITTE LLP                  SUITE 400 122 1ST AVENUE SOUTH", "city": "SASKATOON", "province": "SK", "country": "CA", "postalCode": "S7K7E5", "twitter": "None", "instagram": "None", "facebook": "None", "youtube": "None", "website": "None", "summary": "None", "logo": "None", "latitude": 52.12828998084142, "longitude": -106.66585726542247}, "106791379RR0001": {"name": "BEVERLY ALLIANCE CHURCH", "designationCode": "C", "categoryCode": "39", "address": "12235-50 STREET", "city": "EDMONTON", "province": "AB", "country": "CA", "postalCode": "T5W3C7", "twitter": "None", "instagram": "None", "facebook": "None", "youtube": "None", "website": "None", "summary": "None", "logo": "None", "latitude": 53.57789941326678, "longitude": -113.41833777070259}, "866207574RR0001": {"name": "BEVERLY AND QAMANIRJUAQ CARIBOU MANAGEMENT BOARD", "designationCode": "C", "categoryCode": "54", "address": "BOX 629", "city": "STONEWALL", "province": "MB", "country": "CA", "postalCode": "R0C2Z0", "twitter": "None", "instagram": "None", "facebook": "None", "youtube": "None", "website": "None", "summary": "None", "logo": "None", "latitude": 50.36947800000006, "longitude": -96.84479599999993}, "890787443RR0001": {"name": "BEVERLY AND QAMANIRJUAQ CARIBOU MANAGEMENT SCHOLARSHIP FUND", "designationCode": "C", "categoryCode": "21", "address": "P.O. BOX 629", "city": "STONEWALL", "province": "MB", "country": "CA", "postalCode": "R0C2Z0", "twitter": "None", "instagram": "None", "facebook": "None", "youtube": "None", "website": "None", "summary": "None", "logo": "None", "latitude": 50.36947800000006, "longitude": -96.84479599999993}, "873261762RR0001": {"name": "BEVERLY TOWNE COMMUNITY DEVELOPMENT SOCIETY", "designationCode": "C", "categoryCode": "59", "address": "11111 34TH ST", "city": "EDMONTON", "province": "AB", "country": "CA", "postalCode": "T5W1Y8", "twitter": "None", "instagram": "None", "facebook": "None", "youtube": "None", "website": "None", "summary": "None", "logo": "None", "latitude": 53.56462483236194, "longitude": -113.393675737954}, "106791585RR0001": {"name": "BEVERLY UNITED CHURCH", "designationCode": "C", "categoryCode": "44", "address": "11910-40 STREET", "city": "EDMONTON", "province": "AB", "country": "CA", "postalCode": "T5W2K9", "twitter": "None", "instagram": "None", "facebook": "None", "youtube": "None", "website": "None", "summary": "None", "logo": "None", "latitude": 53.572068, "longitude": -113.40304774372413}, "896763414RR0001": {"name": "BEVY OF HOPE BREAST CANCER FOUNDATION", "designationCode": "A", "categoryCode": "13", "address": "1891 APPLEVIEW ROAD", "city": "PICKERING", "province": "ON", "country": "CA", "postalCode": "L1V1T7", "twitter": "None", "instagram": "None", "facebook": "None", "youtube": "None", "website": "None", "summary": "None", "logo": "None", "latitude": 43.835279699145914, "longitude": -79.10823995250757}, "881521819RR0001": {"name": "BEYOND BORDERS INC./AU-DELA DES FRONTIERES INC.", "designationCode": "C", "categoryCode": "21", "address": "387 BROADWAY", "city": "WINNIPEG", "province": "MB", "country": "CA", "postalCode": "R3C0V5", "twitter": "None", "instagram": "None", "facebook": "None", "youtube": "None", "website": "None", "summary": "None", "logo": "None", "latitude": 49.88678523454888, "longitude": -97.14444766654155}, "873724975RR0001": {"name": "BEYOND THE BLUE BOX IN NORTHUMBERLAND COUNTY", "designationCode": "C", "categoryCode": "29", "address": "14 COVERT ST                  PO BOX 173", "city": "COBOURG", "province": "ON", "country": "CA", "postalCode": "K9A4K5", "twitter": "None", "instagram": "None", "facebook": "None", "youtube": "None", "website": "None", "summary": "None", "logo": "None", "latitude": 43.96076009634118, "longitude": -78.16678046906908}, "118807411RR0001": {"name": "BEZANSON COMMUNITY CHURCH", "designationCode": "C", "categoryCode": "39", "address": "PO BOX 68", "city": "BEZANSON", "province": "AB", "country": "CA", "postalCode": "T0H0G0", "twitter": "None", "instagram": "None", "facebook": "None", "youtube": "None", "website": "None", "summary": "None", "logo": "None", "latitude": 55.22979000000004, "longitude": -118.38454999999999}, "118807429RR0001": {"name": "BEZEK FOUNDATION INCORPORATED", "designationCode": "C", "categoryCode": "09", "address": "4291 CONCESSION 11", "city": "MOFFAT", "province": "ON", "country": "CA", "postalCode": "L0P1J0", "twitter": "None", "instagram": "None", "facebook": "None", "youtube": "None", "website": "None", "summary": "None", "logo": "None", "latitude": 43.4947302603439, "longitude": -80.07418209158065}, "106896871RR0001": {"name": "BFCO INC.", "designationCode": "C", "categoryCode": "59", "address": "5 PAUL RENE TREMBLAY", "city": "BAIE-ST-PAUL", "province": "QC", "country": "CA", "postalCode": "G3Z3E4", "twitter": "None", "instagram": "None", "facebook": "None", "youtube": "None", "website": "None", "summary": "None", "logo": "None", "latitude": 47.446448520139526, "longitude": -70.52179242379836}, "125111963RR0001": {"name": "BFM FOUNDATION (CANADA)", "designationCode": "A", "categoryCode": "47", "address": "45515 KNIGHT RD", "city": "CHILLIWACK", "province": "BC", "country": "CA", "postalCode": "V2R5L2", "twitter": "None", "instagram": "None", "facebook": "None", "youtube": "None", "website": "None", "summary": "None", "logo": "None", "latitude": 49.1393571534998, "longitude": -121.96512397305115}, "895544716RR0001": {"name": "BFS ENTERTAINMENT CHARITABLE FOUNDATION", "designationCode": "A", "categoryCode": "03", "address": "15 ELIA DR", "city": "STOUFFVILLE", "province": "ON", "country": "CA", "postalCode": "L4A7X6", "twitter": "None", "instagram": "None", "facebook": "None", "youtube": "None", "website": "None", "summary": "None", "logo": "None", "latitude": 44.02183919848206, "longitude": -79.34847610534354}, "861008704RR0001": {"name": "BG Cedars Society", "designationCode": "C", "categoryCode": "09", "address": "3350 EAST 5TH AVENUE", "city": "VANCOUVER", "province": "BC", "country": "CA", "postalCode": "V5M1P4", "twitter": "None", "instagram": "None", "facebook": "None", "youtube": "None", "website": "None", "summary": "None", "logo": "None", "latitude": 49.26557964743688, "longitude": -123.03206153147421}, "893303362RR0001": {"name": "BHAGAT NAMDEV SOCIETY OF VANCOUVER, B.C.", "designationCode": "C", "categoryCode": "39", "address": "2666 EAST 4TH AVENUE", "city": "VANCOUVER", "province": "BC", "country": "CA", "postalCode": "V5M1K4", "twitter": "None", "instagram": "None", "facebook": "None", "youtube": "None", "website": "None", "summary": "None", "logo": "None", "latitude": 49.266668495672185, "longitude": -123.05058202553522}, "873100440RR0001": {"name": "BHAGWAN VALMIKI JI MAHARAJ SABHA CANADA", "designationCode": "C", "categoryCode": "48", "address": "2158 CODLIN CRESCENT", "city": "ETOBICOKE", "province": "ON", "country": "CA", "postalCode": "M9W5K7", "twitter": "None", "instagram": "None", "facebook": "None", "youtube": "None", "website": "None", "summary": "None", "logo": "None", "latitude": 43.74950120959057, "longitude": -79.63629785327993}, "869559534RR0001": {"name": "BHAI GHANAYA INTERNATIONAL CHARITABLE SOCIETY", "designationCode": "A", "categoryCode": "02", "address": "#1, 13018-84TH AVE", "city": "SURREY", "province": "BC", "country": "CA", "postalCode": "V3W1L2", "twitter": "None", "instagram": "None", "facebook": "None", "youtube": "None", "website": "None", "summary": "None", "logo": "None", "latitude": 49.15537553231589, "longitude": -122.8618212485429}, "118807452RR0001": {"name": "BHAJANAWALI DEVOTIONAL SERVICES INC.", "designationCode": "C", "categoryCode": "47", "address": "200 - 3390 MIDLAND AVE", "city": "TORONTO", "province": "ON", "country": "CA", "postalCode": "M1K5K3", "twitter": "None", "instagram": "None", "facebook": "None", "youtube": "None", "website": "None", "summary": "None", "logo": "None", "latitude": 43.73490701868406, "longitude": -79.25828797762352}, "118807460RR0001": {"name": "BHARAT BHAVAN FOUNDATION", "designationCode": "C", "categoryCode": "09", "address": "4225 RUE NOTRE DAME W", "city": "MONTREAL", "province": "QC", "country": "CA", "postalCode": "H4C1R4", "twitter": "None", "instagram": "None", "facebook": "None", "youtube": "None", "website": "None", "summary": "None", "logo": "None", "latitude": 45.476107417161934, "longitude": -73.58590822303634}, "123284929RR0001": {"name": "BHAV KHANDAN DARBAR GURU SIKH SOCIETY", "designationCode": "C", "categoryCode": "62", "address": "BOX 2320", "city": "FORT NELSON", "province": "BC", "country": "CA", "postalCode": "V0C1R0", "twitter": "None", "instagram": "None", "facebook": "None", "youtube": "None", "website": "None", "summary": "None", "logo": "None", "latitude": 58.80501000000004, "longitude": -122.70459999999997}, "891547572RR0001": {"name": "BHAVANI SHANKAR MANDIR ARTS AND CULTURAL ORGANIZATION", "designationCode": "C", "categoryCode": "39", "address": "90 NEXUS AVE", "city": "BRAMPTON", "province": "ON", "country": "CA", "postalCode": "L6P3R6", "twitter": "None", "instagram": "None", "facebook": "None", "youtube": "None", "website": "None", "summary": "None", "logo": "None", "latitude": 43.772808145132615, "longitude": -79.65923974372413}, "871050241RR0001": {"name": "BHAVSAGAR SIKH TEMPLE FOR OLIVER & OSOYOO", "designationCode": "C", "categoryCode": "62", "address": "BOX 337", "city": "OLIVER", "province": "BC", "country": "CA", "postalCode": "V0H1T0", "twitter": "None", "instagram": "None", "facebook": "None", "youtube": "None", "website": "None", "summary": "None", "logo": "None", "latitude": 49.171717354594, "longitude": -119.57220381242807}, "894659267RR0001": {"name": "BHAWANI ANANTARAMAN FOUNDATION", "designationCode": "C", "categoryCode": "01", "address": "P.O. BOX 8561 STATION T", "city": "OTTAWA", "province": "ON", "country": "CA", "postalCode": "K1G3H9", "twitter": "None", "instagram": "None", "facebook": "None", "youtube": "None", "website": "None", "summary": "None", "logo": "None", "latitude": 45.4075526747762, "longitude": -75.65114751410245}, "132644287RR0001": {"name": "BHF BUILDING HEALTHY FAMILIES SOCIETY", "designationCode": "C", "categoryCode": "59", "address": "1390 KLO RD", "city": "KELOWNA", "province": "BC", "country": "CA", "postalCode": "V1W3P6", "twitter": "None", "instagram": "None", "facebook": "None", "youtube": "None", "website": "None", "summary": "None", "logo": "None", "latitude": 49.86103435551786, "longitude": -119.46937323683754}, "836611244RR0001": {"name": "BHN Indian Children's Development Society", "designationCode": "C", "categoryCode": "01", "address": "#3-9088 158 ST", "city": "SURREY", "province": "BC", "country": "CA", "postalCode": "V4N5G4", "twitter": "None", "instagram": "None", "facebook": "None", "youtube": "None", "website": "None", "summary": "None", "logo": "None", "latitude": 49.16770132944774, "longitude": -122.78444196944446}, "883338014RR0001": {"name": "BIALIK HEBREW DAY SCHOOL", "designationCode": "C", "categoryCode": "20", "address": "2760 BATHURST STREET", "city": "TORONTO", "province": "ON", "country": "CA", "postalCode": "M6B3A1", "twitter": "None", "instagram": "None", "facebook": "None", "youtube": "None", "website": "None", "summary": "None", "logo": "None", "latitude": 43.71074665805876, "longitude": -79.427778739829}, "888175668RR0001": {"name": "BIBLE AND LITERACY LEAGUE - CANADA", "designationCode": "C", "categoryCode": "47", "address": "PO BOX 37003", "city": "KITCHENER", "province": "ON", "country": "CA", "postalCode": "N2A4A7", "twitter": "None", "instagram": "None", "facebook": "None", "youtube": "None", "website": "None", "summary": "None", "logo": "None", "latitude": 43.45123200000006, "longitude": -80.49304249999993}, "118807494RR0001": {"name": "BIBLE ART MINISTRIES", "designationCode": "C", "categoryCode": "47", "address": "PO BOX 4460 STN E", "city": "OTTAWA", "province": "ON", "country": "CA", "postalCode": "K1S5B4", "twitter": "None", "instagram": "None", "facebook": "None", "youtube": "None", "website": "None", "summary": "None", "logo": "None", "latitude": 45.42177300000006, "longitude": -75.69115999999994}, "106792013RR0001": {"name": "BIBLE BAPTIST CHURCH", "designationCode": "C", "categoryCode": "31", "address": "5329 BEECHWOOD RD", "city": "NIAGARA FALLS", "province": "ON", "country": "CA", "postalCode": "L2E6S4", "twitter": "None", "instagram": "None", "facebook": "None", "youtube": "None", "website": "None", "summary": "None", "logo": "None", "latitude": 43.09735947980448, "longitude": -79.16242424851099}, "106792039RR0001": {"name": "BIBLE BAPTIST CHURCH", "designationCode": "C", "categoryCode": "31", "address": "206-624 8TH ST NW", "city": "PORTAGE LA PRAIRIE", "province": "MB", "country": "CA", "postalCode": "R1N3J3", "twitter": "None", "instagram": "None", "facebook": "None", "youtube": "None", "website": "None", "summary": "None", "logo": "None", "latitude": 49.98523916147464, "longitude": -98.29992231518634}, "886822691RR0001": {"name": "BIBLE BAPTIST CHURCH", "designationCode": "C", "categoryCode": "36", "address": "4618-41 AVE", "city": "RED DEER", "province": "AB", "country": "CA", "postalCode": "T4N2Y4", "twitter": "None", "instagram": "None", "facebook": "None", "youtube": "None", "website": "None", "summary": "None", "logo": "None", "latitude": 52.265709000000015, "longitude": -113.79238588429776}, "118807593RR0001": {"name": "BIBLE BAPTIST CHURCH OF EDMONTON", "designationCode": "C", "categoryCode": "31", "address": "PO BOX 68081                  RPO BONNIE DOON SHO", "city": "EDMONTON", "province": "AB", "country": "CA", "postalCode": "T6C4N6", "twitter": "None", "instagram": "None", "facebook": "None", "youtube": "None", "website": "None", "summary": "None", "logo": "None"}, "106792070RR0001": {"name": "BIBLE BAPTIST CHURCH OF LOON LAKE", "designationCode": "C", "categoryCode": "31", "address": "BOX 38", "city": "LOON LAKE", "province": "SK", "country": "CA", "postalCode": "S0M1L0", "twitter": "None", "instagram": "None", "facebook": "None", "youtube": "None", "website": "None", "summary": "None", "logo": "None", "latitude": 53.8842735, "longitude": -109.57983525}, "118807619RR0001": {"name": "BIBLE BAPTIST TEMPLE", "designationCode": "C", "categoryCode": "31", "address": "320 HIGHBURY AVE", "city": "ST THOMAS", "province": "ON", "country": "CA", "postalCode": "N5P0A5", "twitter": "None", "instagram": "None", "facebook": "None", "youtube": "None", "website": "None", "summary": "None", "logo": "None", "latitude": 42.80564731415289, "longitude": -81.1503928180217}, "896812518RR0001": {"name": "BIBLE BELIEVER'S BAPTIST CHURCH", "designationCode": "C", "categoryCode": "39", "address": "18 GARNET OLIVER RD", "city": "DIGBY", "province": "NS", "country": "CA", "postalCode": "B0V1A0", "twitter": "None", "instagram": "None", "facebook": "None", "youtube": "None", "website": "None", "summary": "None", "logo": "None", "latitude": 44.63544931002938, "longitude": -65.7806182554678}, "869020941RR0001": {"name": "BIBLE BELIEVERS ASSOCIATION INC", "designationCode": "C", "categoryCode": "39", "address": "8 CENTENNIAL SQUARE           PO BOX 3", "city": "MOUNT PEARL", "province": "NL", "country": "CA", "postalCode": "A1N2C1", "twitter": "None", "instagram": "None", "facebook": "None", "youtube": "None", "website": "None", "summary": "None", "logo": "None", "latitude": 47.51887547100232, "longitude": -52.80668103136361}, "882193014RR0001": {"name": "BIBLE BELIEVERS' FELLOWSHIP OF GRANDE PRAIRIE", "designationCode": "C", "categoryCode": "39", "address": "70001 TWNSHP RD 720", "city": "COUNTY OF GRANDE PRAIRIE", "province": "AB", "country": "CA", "postalCode": "T8X4K4", "twitter": "None", "instagram": "None", "facebook": "None", "youtube": "None", "website": "None", "summary": "None", "logo": "None", "latitude": 55.19688000000005, "longitude": -118.89761299999994}, "868184763RR0001": {"name": "BIBLE CENTERED FELLOWSHIP INC", "designationCode": "C", "categoryCode": "20", "address": "594 MCROBERTS AVENUE", "city": "TORONTO", "province": "ON", "country": "CA", "postalCode": "M6E4R7", "twitter": "None", "instagram": "None", "facebook": "None", "youtube": "None", "website": "None", "summary": "None", "logo": "None", "latitude": 43.69113798389984, "longitude": -79.46011269721265}, "891977472RR0001": {"name": "BIBLE FAITH CHURCH OF TORONTO", "designationCode": "C", "categoryCode": "39", "address": "PO BOX 30148                  RPO REXDALE", "city": "ETOBICOKE", "province": "ON", "country": "CA", "postalCode": "M9W0B1", "twitter": "None", "instagram": "None", "facebook": "None", "youtube": "None", "website": "None", "summary": "None", "logo": "None", "latitude": 43.718359616880875, "longitude": -79.60036247497096}, "106792146RR0001": {"name": "BIBLE FELLOWSHIP ASSEMBLY", "designationCode": "C", "categoryCode": "39", "address": "756 LANDSLIDE ROAD", "city": "SAULT STE MARIE", "province": "ON", "country": "CA", "postalCode": "P6A6J8", "twitter": "None", "instagram": "None", "facebook": "None", "youtube": "None", "website": "None", "summary": "None", "logo": "None", "latitude": 46.58562912495525, "longitude": -84.28264950518144}, "118807676RR0001": {"name": "BIBLE FELLOWSHIP ASSEMBLY", "designationCode": "C", "categoryCode": "39", "address": "122-4858 HIGHWAY 101 EAST", "city": "PORCUPINE", "province": "ON", "country": "CA", "postalCode": "P0N1K0", "twitter": "None", "instagram": "None", "facebook": "None", "youtube": "None", "website": "None", "summary": "None", "logo": "None", "latitude": 48.48968152034305, "longitude": -81.19845719168131}, "890067697RR0001": {"name": "BIBLE FELLOWSHIP CHURCH", "designationCode": "C", "categoryCode": "39", "address": "RR 1", "city": "BRUCE MINES", "province": "ON", "country": "CA", "postalCode": "P0R1C0", "twitter": "None", "instagram": "None", "facebook": "None", "youtube": "None", "website": "None", "summary": "None", "logo": "None", "latitude": 46.29836000000006, "longitude": -83.79040999999995}, "889738530RR0001": {"name": "BIBLE FELLOWSHIP HOUSING SOCIETY", "designationCode": "C", "categoryCode": "43", "address": "15100 - 66A AVENUE", "city": "SURREY", "province": "BC", "country": "CA", "postalCode": "V3S2A6", "twitter": "None", "instagram": "None", "facebook": "None", "youtube": "None", "website": "None", "summary": "None", "logo": "None", "latitude": 49.123491517889164, "longitude": -122.80362194171619}, "106792161RR0001": {"name": "BIBLE FELLOWSHIP MISSIONARY SOCIETY OF CANADA", "designationCode": "C", "categoryCode": "39", "address": "15100-66A AVE", "city": "SURREY", "province": "BC", "country": "CA", "postalCode": "V3S2A6", "twitter": "None", "instagram": "None", "facebook": "None", "youtube": "None", "website": "None", "summary": "None", "logo": "None", "latitude": 49.123491517889164, "longitude": -122.80362194171619}, "872994504RR0001": {"name": "BIBLE FOR CHILDREN, INC.", "designationCode": "C", "categoryCode": "47", "address": "PO BOX 3 STN MAIN", "city": "WINNIPEG", "province": "MB", "country": "CA", "postalCode": "R3C2G1", "twitter": "None", "instagram": "None", "facebook": "None", "youtube": "None", "website": "None", "summary": "None", "logo": "None", "latitude": 49.886161958421624, "longitude": -97.13345310241456}, "118807718RR0001": {"name": "BIBLE HILL CEMETERY COMPANY", "designationCode": "C", "categoryCode": "59", "address": "PO BOX 1834", "city": "TRURO", "province": "NS", "country": "CA", "postalCode": "B2N5Z5", "twitter": "None", "instagram": "None", "facebook": "None", "youtube": "None", "website": "None", "summary": "None", "logo": "None", "latitude": 45.36602700000006, "longitude": -63.289042999999936}, "108012493RR0001": {"name": "BIBLE HILL ST. DAVID'S PASTORAL CHARGE", "designationCode": "C", "categoryCode": "44", "address": "18 ST. DAVID'S AVE", "city": "TRURO", "province": "NS", "country": "CA", "postalCode": "B2N4L7", "twitter": "None", "instagram": "None", "facebook": "None", "youtube": "None", "website": "None", "summary": "None", "logo": "None"}, "118807734RR0001": {"name": "BIBLE HOLINESS MOVEMENT", "designationCode": "C", "categoryCode": "39", "address": "311 FALCON PLACE", "city": "PENTICTON", "province": "BC", "country": "CA", "postalCode": "V2A8K6", "twitter": "None", "instagram": "None", "facebook": "None", "youtube": "None", "website": "None", "summary": "None", "logo": "None"}, "118807759RR0001": {"name": "BIBLE LOVERS' FELLOWSHIP (RADIO GOSPEL MINISTRY)", "designationCode": "C", "categoryCode": "47", "address": "3662 LARCHWOOD AVE", "city": "CHELMSFORD", "province": "ON", "country": "CA", "postalCode": "P0M1L0", "twitter": "None", "instagram": "None", "facebook": "None", "youtube": "None", "website": "None", "summary": "None", "logo": "None", "latitude": 46.585429359659386, "longitude": -81.30983343432621}, "891265571RR0001": {"name": "BIBLE MISSIONARY CHURCH OF CANADA", "designationCode": "C", "categoryCode": "39", "address": "168 BROCK AVE                 PO BOX 8", "city": "HENSALL", "province": "ON", "country": "CA", "postalCode": "N0M1X0", "twitter": "None", "instagram": "None", "facebook": "None", "youtube": "None", "website": "None", "summary": "None", "logo": "None", "latitude": 43.436587669232246, "longitude": -81.50935913724781}, "889971396RR0001": {"name": "BIBLE MISSIONARY CHURCH OF CANADA (MOBERLY LAKE)", "designationCode": "C", "categoryCode": "39", "address": "BOX 610", "city": "CHETWYND", "province": "BC", "country": "CA", "postalCode": "V0C1J0", "twitter": "None", "instagram": "None", "facebook": "None", "youtube": "None", "website": "None", "summary": "None", "logo": "None", "latitude": 55.13200336111122, "longitude": -121.00608273128003}, "891261398RR0001": {"name": "BIBLE RESEARCH INTERNATIONAL", "designationCode": "C", "categoryCode": "47", "address": "105 SPADINA RD. W.", "city": "KITCHENER", "province": "ON", "country": "CA", "postalCode": "N2M1G2", "twitter": "None", "instagram": "None", "facebook": "None", "youtube": "None", "website": "None", "summary": "None", "logo": "None", "latitude": 43.43839415929952, "longitude": -80.50341692365413}, "891059149RR0001": {"name": "BIBLE TALK CANADA", "designationCode": "C", "categoryCode": "39", "address": "220 IVY CRESCENT", "city": "STOUFFVILLE", "province": "ON", "country": "CA", "postalCode": "L4A5B4", "twitter": "None", "instagram": "None", "facebook": "None", "youtube": "None", "website": "None", "summary": "None", "logo": "None", "latitude": 43.97998867721736, "longitude": -79.23335725627587}, "863055570RR0001": {"name": "BIBLE TEACHERS INTERNATIONAL CANADA", "designationCode": "C", "categoryCode": "39", "address": "1085 BRITANNIA RD E", "city": "MISSISSAUGA", "province": "ON", "country": "CA", "postalCode": "L4W3X1", "twitter": "None", "instagram": "None", "facebook": "None", "youtube": "None", "website": "None", "summary": "None", "logo": "None", "latitude": 43.64776716016491, "longitude": -79.65606357677856}, "118807825RR0001": {"name": "BIBLE TRUTH SOCIETY OF CANADA", "designationCode": "C", "categoryCode": "39", "address": "1099 FRASER ST", "city": "KAMLOOPS", "province": "BC", "country": "CA", "postalCode": "V2C3H8", "twitter": "None", "instagram": "None", "facebook": "None", "youtube": "None", "website": "None", "summary": "None", "logo": "None", "latitude": 50.66628331186843, "longitude": -120.31536571386854}, "108073396RR0001": {"name": "BIBLE WAY PENTECOSTAL CHURCH", "designationCode": "C", "categoryCode": "36", "address": "2390 COURSOL STREET", "city": "MONTREAL", "province": "QC", "country": "CA", "postalCode": "H3J1C7", "twitter": "None", "instagram": "None", "facebook": "None", "youtube": "None", "website": "None", "summary": "None", "logo": "None", "latitude": 45.48658481236663, "longitude": -73.57805539159803}, "877292003RR0001": {"name": "BIBLES FOR THE POOR SOCIETY", "designationCode": "C", "categoryCode": "47", "address": "BOX 1000                      1350 BURRARD STREET", "city": "VANCOUVER", "province": "BC", "country": "CA", "postalCode": "V6Z0C2", "twitter": "None", "instagram": "None", "facebook": "None", "youtube": "None", "website": "None", "summary": "None", "logo": "None", "latitude": 49.27738866354794, "longitude": -123.13157057633336}, "865144612RR0001": {"name": "BIBLEWAY BAPTIST CHURCH", "designationCode": "C", "categoryCode": "31", "address": "633 ASPEN CRES.               BOX 640", "city": "PILOT BUTTE", "province": "SK", "country": "CA", "postalCode": "S0G3Z0", "twitter": "None", "instagram": "None", "facebook": "None", "youtube": "None", "website": "None", "summary": "None", "logo": "None", "latitude": 50.48593757649227, "longitude": -104.41258911377687}, "862710928RR0001": {"name": "BIBLEWAY CHRISTIAN ACADEMY FOUNDATION", "designationCode": "C", "categoryCode": "20", "address": "18657 60TH AVE", "city": "SURREY", "province": "BC", "country": "CA", "postalCode": "V3S7P4", "twitter": "None", "instagram": "None", "facebook": "None", "youtube": "None", "website": "None", "summary": "None", "logo": "None", "latitude": 49.111302497114465, "longitude": -122.70567133236193}, "118807858RR0001": {"name": "BIBLEWAY CHURCH OF GOD IN CHRIST", "designationCode": "C", "categoryCode": "39", "address": "80 BURNT BARK DRIVE", "city": "SCARBOROUGH", "province": "ON", "country": "CA", "postalCode": "M1V3J8", "twitter": "None", "instagram": "None", "facebook": "None", "youtube": "None", "website": "None", "summary": "None", "logo": "None", "latitude": 43.81499890729417, "longitude": -79.31322516835921}, "888644267RR0001": {"name": "BIBLEWAY LIGHTHOUSE FELLOWSHIP", "designationCode": "C", "categoryCode": "39", "address": "11841-51 STREET", "city": "EDMONTON", "province": "AB", "country": "CA", "postalCode": "T5W3G3", "twitter": "None", "instagram": "None", "facebook": "None", "youtube": "None", "website": "None", "summary": "None", "logo": "None", "latitude": 53.57163574854292, "longitude": -113.4199577490625}, "861479467RR0001": {"name": "BIBLICAL CONCEPTS IN COUNSELING CANADA", "designationCode": "C", "categoryCode": "49", "address": "405 JOSEPHINE ST. UNITC       BOX 726", "city": "WINGHAN", "province": "ON", "country": "CA", "postalCode": "N0G2W0", "twitter": "None", "instagram": "None", "facebook": "None", "youtube": "None", "website": "None", "summary": "None", "logo": "None", "latitude": 43.89019763861174, "longitude": -81.30977683521881}, "138661699RR0001": {"name": "BIBLICAL COUNSELLING MINISTRY INC", "designationCode": "C", "categoryCode": "39", "address": "219 WETMORE ROAD", "city": "FREDERICTON", "province": "NB", "country": "CA", "postalCode": "E3B6G7", "twitter": "None", "instagram": "None", "facebook": "None", "youtube": "None", "website": "None", "summary": "None", "logo": "None", "latitude": 45.924954987794976, "longitude": -66.62654302138027}}