{"801362211RR0001": {"name": "Tony and Mignon Fenton Trust", "designationCode": "B", "categoryCode": "05", "address": "SUITE 402-1321 BLANSHARD ST", "city": "VICTORIA", "province": "BC", "country": "CA", "postalCode": "V8W0B6", "twitter": "None", "instagram": "None", "facebook": "None", "youtube": "None", "website": "None", "summary": "None", "logo": "None", "latitude": 48.42645904579034, "longitude": -123.36191337699842}, "847602059RR0001": {"name": "Tools for Schools", "designationCode": "C", "categoryCode": "21", "address": "715 MIETTE AVENUE             BOX 2163", "city": "JASPER", "province": "AB", "country": "CA", "postalCode": "T0E1E0", "twitter": "None", "instagram": "None", "facebook": "None", "youtube": "None", "website": "None", "summary": "None", "logo": "None", "latitude": 52.87479848124544, "longitude": -118.08738955536961}, "825089022RR0001": {"name": "Tools for Schools Africa Foundation", "designationCode": "C", "categoryCode": "21", "address": "4911-51 STREET                SUITE 600", "city": "RED DEER", "province": "AB", "country": "CA", "postalCode": "T4N6V4", "twitter": "None", "instagram": "None", "facebook": "None", "youtube": "None", "website": "None", "summary": "None", "logo": "None", "latitude": 52.26992648124544, "longitude": -113.81245191618096}, "839157708RR0001": {"name": "Top Hat House for Youth", "designationCode": "C", "categoryCode": "09", "address": "1 - 13 BRUNEL RD", "city": "HUNTSVILLE", "province": "ON", "country": "CA", "postalCode": "P1H1N9", "twitter": "None", "instagram": "None", "facebook": "None", "youtube": "None", "website": "None", "summary": "None", "logo": "None", "latitude": 45.326212156529564, "longitude": -79.21599954137558}, "814339024RR0001": {"name": "Torah Learning Centre", "designationCode": "C", "categoryCode": "42", "address": "230 ARNOLD AVENUE", "city": "THORNHILL", "province": "ON", "country": "CA", "postalCode": "L4J1B9", "twitter": "None", "instagram": "None", "facebook": "None", "youtube": "None", "website": "None", "summary": "None", "logo": "None", "latitude": 43.807120165156576, "longitude": -79.44459909714924}, "834064735RR0001": {"name": "Torah Umesorah Montreal Teachers' Centre", "designationCode": "C", "categoryCode": "21", "address": "6927 PARK                     SUITE 200", "city": "MONTREAL", "province": "QC", "country": "CA", "postalCode": "H3N1X7", "twitter": "None", "instagram": "None", "facebook": "None", "youtube": "None", "website": "None", "summary": "None", "logo": "None", "latitude": 45.52943369499095, "longitude": -73.61848342241338}, "765945092RR0001": {"name": "Torch Ministries", "designationCode": "C", "categoryCode": "39", "address": "50 SHELBOURNE DRIVE", "city": "WOODBRIDGE", "province": "ON", "country": "CA", "postalCode": "L4H0J8", "twitter": "None", "instagram": "None", "facebook": "None", "youtube": "None", "website": "None", "summary": "None", "logo": "None", "latitude": 43.85882930474926, "longitude": -79.5565814403312}, "802543637RR0001": {"name": "Toron AMI Foundation", "designationCode": "A", "categoryCode": "05", "address": "SUITE 403 322-11TH AVENUE SW", "city": "CALGARY", "province": "AB", "country": "CA", "postalCode": "T2R0C5", "twitter": "None", "instagram": "None", "facebook": "None", "youtube": "None", "website": "None", "summary": "None", "logo": "None", "latitude": 51.042551467684106, "longitude": -114.0685795269202}, "806936183RR0001": {"name": "Toronto All Nations Church", "designationCode": "C", "categoryCode": "39", "address": "3143 SHEPPARD AVE E", "city": "SCARBOROUGH", "province": "ON", "country": "CA", "postalCode": "M1T3J7", "twitter": "None", "instagram": "None", "facebook": "None", "youtube": "None", "website": "None", "summary": "None", "logo": "None", "latitude": 43.77692182705317, "longitude": -79.31584439174227}, "852359538RR0001": {"name": "Toronto Animated Image Society", "designationCode": "C", "categoryCode": "22", "address": "B - 1411 DUFFERIN ST", "city": "TORONTO", "province": "ON", "country": "CA", "postalCode": "M6H4C7", "twitter": "None", "instagram": "None", "facebook": "None", "youtube": "None", "website": "None", "summary": "None", "logo": "None", "latitude": 43.67089105274389, "longitude": -79.44002883495901}, "816845937RR0001": {"name": "Toronto Back to Bible Church", "designationCode": "C", "categoryCode": "39", "address": "4263 JEFTON CRES", "city": "MISSISSAUGA", "province": "ON", "country": "CA", "postalCode": "L5L1Z2", "twitter": "None", "instagram": "None", "facebook": "None", "youtube": "None", "website": "None", "summary": "None", "logo": "None", "latitude": 43.5408065323159, "longitude": -79.6979427171793}, "823633268RR0001": {"name": "Toronto Beach Chorale", "designationCode": "C", "categoryCode": "22", "address": "129 ELMER AVENUE", "city": "TORONTO", "province": "ON", "country": "CA", "postalCode": "M4L3R9", "twitter": "None", "instagram": "None", "facebook": "None", "youtube": "None", "website": "None", "summary": "None", "logo": "None", "latitude": 43.673751597005, "longitude": -79.30525996751122}, "833642770RR0001": {"name": "Toronto Bikur Cholim Foundation", "designationCode": "A", "categoryCode": "03", "address": "506 COLDSTREAM AVENUE", "city": "TORONTO", "province": "ON", "country": "CA", "postalCode": "M6B2K6", "twitter": "None", "instagram": "None", "facebook": "None", "youtube": "None", "website": "None", "summary": "None", "logo": "None", "latitude": 43.71491020901366, "longitude": -79.42938770358928}, "874877509RR0001": {"name": "Toronto Blues Society", "designationCode": "C", "categoryCode": "22", "address": "910 QUEEN STREET WEST         B04", "city": "TORONTO", "province": "ON", "country": "CA", "postalCode": "M6J1G6", "twitter": "None", "instagram": "None", "facebook": "None", "youtube": "None", "website": "None", "summary": "None", "logo": "None", "latitude": 43.64489622344038, "longitude": -79.41559584277795}, "848723433RR0001": {"name": "Toronto Board of Rabbis", "designationCode": "C", "categoryCode": "49", "address": "217 LIPPINCOTT ST", "city": "TORONTO", "province": "ON", "country": "CA", "postalCode": "M5S2P4", "twitter": "None", "instagram": "None", "facebook": "None", "youtube": "None", "website": "None", "summary": "None", "logo": "None", "latitude": 43.66082531279933, "longitude": -79.40811773048084}, "814336129RR0001": {"name": "Toronto Care Fund", "designationCode": "C", "categoryCode": "09", "address": "12 REDDICK COURT,", "city": "TORONTO", "province": "ON", "country": "CA", "postalCode": "M6B2S2", "twitter": "None", "instagram": "None", "facebook": "None", "youtube": "None", "website": "None", "summary": "None", "logo": "None", "latitude": 43.715345110767906, "longitude": -79.43639740008079}, "861899177RR0001": {"name": "Toronto Chapter Spebsqsa", "designationCode": "C", "categoryCode": "22", "address": "8 CARNEGIE CRES", "city": "THORNHILL", "province": "ON", "country": "CA", "postalCode": "L3T5H1", "twitter": "None", "instagram": "None", "facebook": "None", "youtube": "None", "website": "None", "summary": "None", "logo": "None", "latitude": 43.83207565805876, "longitude": -79.39698631975288}, "125141770RR0001": {"name": "Toronto Chinese United Church", "designationCode": "C", "categoryCode": "44", "address": "3300 KENNEDY ROAD", "city": "SCARBOROUGH", "province": "ON", "country": "CA", "postalCode": "M1V3S8", "twitter": "None", "instagram": "None", "facebook": "None", "youtube": "None", "website": "None", "summary": "None", "logo": "None", "latitude": 43.81758546987714, "longitude": -79.30437382976486}, "826842825RR0001": {"name": "Toronto Christ Gospel Church", "designationCode": "C", "categoryCode": "39", "address": "4125 SHEPPARD AVENUE EAST", "city": "SCARBOROUGH", "province": "ON", "country": "CA", "postalCode": "M1S1T1", "twitter": "None", "instagram": "None", "facebook": "None", "youtube": "None", "website": "None", "summary": "None", "logo": "None", "latitude": 43.7846077648742, "longitude": -79.2819072700674}, "805512399RR0001": {"name": "Toronto Christian Assembly International", "designationCode": "C", "categoryCode": "39", "address": "837 RUNNYMEDE RD", "city": "TORONTO", "province": "ON", "country": "CA", "postalCode": "M6N3V8", "twitter": "None", "instagram": "None", "facebook": "None", "youtube": "None", "website": "None", "summary": "None", "logo": "None", "latitude": 43.66979322038197, "longitude": -79.48385099870193}, "108114026RR0001": {"name": "Toronto Christian Community Church", "designationCode": "C", "categoryCode": "39", "address": "100 ACADIA AVENUE", "city": "MARKHAM", "province": "ON", "country": "CA", "postalCode": "L3R5A2", "twitter": "None", "instagram": "None", "facebook": "None", "youtube": "None", "website": "None", "summary": "None", "logo": "None", "latitude": 43.82090407253672, "longitude": -79.32814903182495}, "739266120RR0001": {"name": "Toronto Christian Fellowship", "designationCode": "C", "categoryCode": "36", "address": "89 CENTRE AVE", "city": "NORTH YORK", "province": "ON", "country": "CA", "postalCode": "M2M2L7", "twitter": "None", "instagram": "None", "facebook": "None", "youtube": "None", "website": "None", "summary": "None", "logo": "None", "latitude": 43.793224852011456, "longitude": -79.4108755810204}, "837051259RR0001": {"name": "Toronto Church on the Rock Ministries", "designationCode": "C", "categoryCode": "39", "address": "2050 BRIDLETOWNE CIRCLE       SUITE 403", "city": "SCARBOROUGH", "province": "ON", "country": "CA", "postalCode": "M1W2V5", "twitter": "None", "instagram": "None", "facebook": "None", "youtube": "None", "website": "None", "summary": "None", "logo": "None", "latitude": 43.79736515852012, "longitude": -79.31313704997392}, "802923201RR0001": {"name": "Toronto Church Planting", "designationCode": "C", "categoryCode": "47", "address": "3 - 408 NORTH SERVICE RD E", "city": "OAKVILLE", "province": "ON", "country": "CA", "postalCode": "L6H5R2", "twitter": "None", "instagram": "None", "facebook": "None", "youtube": "None", "website": "None", "summary": "None", "logo": "None", "latitude": 43.47838128416527, "longitude": -79.6728936444104}, "809491103RR0001": {"name": "Toronto Concert Orchestra", "designationCode": "C", "categoryCode": "22", "address": "17 CANADIANA DR", "city": "THORNHILL", "province": "ON", "country": "CA", "postalCode": "L3T2Y7", "twitter": "None", "instagram": "None", "facebook": "None", "youtube": "None", "website": "None", "summary": "None", "logo": "None", "latitude": 43.807584593398325, "longitude": -79.38510482566818}, "820554988RR0001": {"name": "Toronto Connect Church", "designationCode": "C", "categoryCode": "39", "address": "269 FINCH AVE W", "city": "NORTH YORK", "province": "ON", "country": "CA", "postalCode": "M2R1M8", "twitter": "None", "instagram": "None", "facebook": "None", "youtube": "None", "website": "None", "summary": "None", "logo": "None", "latitude": 43.774441849270175, "longitude": -79.43935560323742}, "871161741RR0001": {"name": "Toronto Council on Aging", "designationCode": "C", "categoryCode": "09", "address": "140 MERTON STREET             2ND FLOOR", "city": "TORONTO", "province": "ON", "country": "CA", "postalCode": "M4S1A1", "twitter": "None", "instagram": "None", "facebook": "None", "youtube": "None", "website": "None", "summary": "None", "logo": "None", "latitude": 43.69709420959058, "longitude": -79.39152926576824}, "837143312RR0001": {"name": "Toronto Dojang Jeungsando", "designationCode": "C", "categoryCode": "39", "address": "17 CHIMES LANE", "city": "ETOBICOKE", "province": "ON", "country": "CA", "postalCode": "M8Y4H8", "twitter": "None", "instagram": "None", "facebook": "None", "youtube": "None", "website": "None", "summary": "None", "logo": "None", "latitude": 43.626108247850425, "longitude": -79.49153992907847}, "108122219RR0001": {"name": "Toronto East Health Network", "designationCode": "C", "categoryCode": "10", "address": "825 COXWELL AVE.", "city": "TORONTO", "province": "ON", "country": "CA", "postalCode": "M4C3E7", "twitter": "None", "instagram": "None", "facebook": "None", "youtube": "None", "website": "None", "summary": "None", "logo": "None", "latitude": 43.68958893424304, "longitude": -79.32611740732376}, "119259448RR0001": {"name": "Toronto East Health Network Foundation", "designationCode": "A", "categoryCode": "13", "address": "825 COXWELL AVE", "city": "EAST YORK", "province": "ON", "country": "CA", "postalCode": "M4C3E7", "twitter": "None", "instagram": "None", "facebook": "None", "youtube": "None", "website": "None", "summary": "None", "logo": "None", "latitude": 43.68958893424304, "longitude": -79.32611740732376}, "802998443RR0001": {"name": "Toronto Emmanuel Church", "designationCode": "C", "categoryCode": "30", "address": "1020 MCNICOLL AVE             SUITE 146", "city": "SCARBOROUGH", "province": "ON", "country": "CA", "postalCode": "M1W2J6", "twitter": "None", "instagram": "None", "facebook": "None", "youtube": "None", "website": "None", "summary": "None", "logo": "None", "latitude": 43.804300190258175, "longitude": -79.33537751837918}, "819164013RR0001": {"name": "Toronto First Assembly Church", "designationCode": "C", "categoryCode": "39", "address": "800 RICHMOND STREET WEST      UNIT 202", "city": "TORONTO", "province": "ON", "country": "CA", "postalCode": "M6J3N8", "twitter": "None", "instagram": "None", "facebook": "None", "youtube": "None", "website": "None", "summary": "None", "logo": "None", "latitude": 43.645177235645384, "longitude": -79.4109663632642}, "136491875RR0001": {"name": "Toronto Foundation", "designationCode": "A", "categoryCode": "03", "address": "1603 33 BLOOR ST EAST", "city": "TORONTO", "province": "ON", "country": "CA", "postalCode": "M4W3H1", "twitter": "None", "instagram": "None", "facebook": "None", "youtube": "None", "website": "None", "summary": "None", "logo": "None", "latitude": 43.67244585876691, "longitude": -79.37634608562912}, "128923695RR0001": {"name": "Toronto Full of Joy Church", "designationCode": "C", "categoryCode": "36", "address": "1100 PETROLIA RD", "city": "NORTH YORK", "province": "ON", "country": "CA", "postalCode": "M3J2X7", "twitter": "None", "instagram": "None", "facebook": "None", "youtube": "None", "website": "None", "summary": "None", "logo": "None", "latitude": 43.78109008214559, "longitude": -79.48948589817623}, "820015758RR0001": {"name": "Toronto Full Gospel Church", "designationCode": "C", "categoryCode": "39", "address": "66 BOWIE AVE", "city": "TORONTO", "province": "ON", "country": "CA", "postalCode": "M6E2P3", "twitter": "None", "instagram": "None", "facebook": "None", "youtube": "None", "website": "None", "summary": "None", "logo": "None", "latitude": 43.69686010687276, "longitude": -79.45443962268445}, "119135150RR0001": {"name": "Toronto Grace Health Centre", "designationCode": "C", "categoryCode": "10", "address": "650 CHURCH STREET", "city": "TORONTO", "province": "ON", "country": "CA", "postalCode": "M4Y2G5", "twitter": "None", "instagram": "None", "facebook": "None", "youtube": "None", "website": "None", "summary": "None", "logo": "None", "latitude": 43.670368938657774, "longitude": -79.38290692994386}, "859542821RR0001": {"name": "Toronto Hana Church", "designationCode": "C", "categoryCode": "39", "address": "1428 ROYAL YORK RD", "city": "ETOBICOKE", "province": "ON", "country": "CA", "postalCode": "M9P3A8", "twitter": "None", "instagram": "None", "facebook": "None", "youtube": "None", "website": "None", "summary": "None", "logo": "None", "latitude": 43.68498256090953, "longitude": -79.52778636640859}, "867142069RR0001": {"name": "Toronto Hanuri Presbyterian Church", "designationCode": "C", "categoryCode": "37", "address": "2 TWENTY SIXTH ST.", "city": "TORONTO", "province": "ON", "country": "CA", "postalCode": "M8V3R1", "twitter": "None", "instagram": "None", "facebook": "None", "youtube": "None", "website": "None", "summary": "None", "logo": "None", "latitude": 43.59693765803792, "longitude": -79.52461680420448}, "107797383RR0106": {"name": "Toronto Heritage Seventh-day Adventist Church", "designationCode": "C", "categoryCode": "41", "address": "109 HARVIE AVENUE", "city": "TORONTO", "province": "ON", "country": "CA", "postalCode": "M6E4K4", "twitter": "None", "instagram": "None", "facebook": "None", "youtube": "None", "website": "None", "summary": "None", "logo": "None", "latitude": 43.68016883742569, "longitude": -79.45126967443078}, "833885650RR0001": {"name": "Toronto Holy Spirit Evangelical Church", "designationCode": "C", "categoryCode": "39", "address": "22 OLIVE AVE. #2809", "city": "NORTH YORK", "province": "ON", "country": "CA", "postalCode": "M2N7G6", "twitter": "None", "instagram": "None", "facebook": "None", "youtube": "None", "website": "None", "summary": "None", "logo": "None", "latitude": 43.77968670996594, "longitude": -79.4148044317042}, "790866693RR0001": {"name": "Toronto House of Prayer", "designationCode": "C", "categoryCode": "39", "address": "1428 KENNEDY RD", "city": "SCARBOROUGH", "province": "ON", "country": "CA", "postalCode": "M1P2L7", "twitter": "None", "instagram": "None", "facebook": "None", "youtube": "None", "website": "None", "summary": "None", "logo": "None", "latitude": 43.764593113509214, "longitude": -79.2807771492293}, "766438691RR0001": {"name": "Toronto Impact Church", "designationCode": "B", "categoryCode": "39", "address": "339 RATHBURN ROAD WEST        UNIT 702", "city": "MISSISSAUGA", "province": "ON", "country": "CA", "postalCode": "L5B0K6", "twitter": "None", "instagram": "None", "facebook": "None", "youtube": "None", "website": "None", "summary": "None", "logo": "None", "latitude": 43.58923442746236, "longitude": -79.65206600551032}, "846867752RR0001": {"name": "Toronto Institute for Contemporary Psychoanalysis", "designationCode": "C", "categoryCode": "20", "address": "17 SADDLETREE TRAIL", "city": "BRAMPTON", "province": "ON", "country": "CA", "postalCode": "L6X4M5", "twitter": "None", "instagram": "None", "facebook": "None", "youtube": "None", "website": "None", "summary": "None", "logo": "None", "latitude": 43.69356756535293, "longitude": -79.78535203883676}, "891116725RR0001": {"name": "Toronto Islamic Centre & Community Services", "designationCode": "C", "categoryCode": "60", "address": "575 YONGE ST                  2ND FLOOR", "city": "TORONTO", "province": "ON", "country": "CA", "postalCode": "M4Y1Z2", "twitter": "None", "instagram": "None", "facebook": "None", "youtube": "None", "website": "None", "summary": "None", "logo": "None", "latitude": 43.66551562254022, "longitude": -79.38476994918935}, "817106461RR0001": {"name": "Toronto Jinqiu Seniors' Association", "designationCode": "C", "categoryCode": "56", "address": "28 HAVENDALE ROAD", "city": "SCARBOROUGH", "province": "ON", "country": "CA", "postalCode": "M1S1E1", "twitter": "None", "instagram": "None", "facebook": "None", "youtube": "None", "website": "None", "summary": "None", "logo": "None", "latitude": 43.791574157943195, "longitude": -79.2896484805816}, "773010129RR0001": {"name": "Toronto Korean Buddhist Culture Association", "designationCode": "C", "categoryCode": "35", "address": "5 MOUNTBATTEN RD", "city": "THORNHILL", "province": "ON", "country": "CA", "postalCode": "L4J8A5", "twitter": "None", "instagram": "None", "facebook": "None", "youtube": "None", "website": "None", "summary": "None", "logo": "None", "latitude": 43.81454848765076, "longitude": -79.45849468593126}, "839739661RR0001": {"name": "Toronto Korean Church of Praise", "designationCode": "C", "categoryCode": "39", "address": "65 BAIF BLVD", "city": "RICHMOND HILL", "province": "ON", "country": "CA", "postalCode": "L4C5E2", "twitter": "None", "instagram": "None", "facebook": "None", "youtube": "None", "website": "None", "summary": "None", "logo": "None", "latitude": 43.85776884869323, "longitude": -79.43739731805078}, "840485882RR0001": {"name": "Toronto Korean Wesleyan Church", "designationCode": "C", "categoryCode": "39", "address": "3 CLAYTON DR", "city": "MARKHAM", "province": "ON", "country": "CA", "postalCode": "L3R8N3", "twitter": "None", "instagram": "None", "facebook": "None", "youtube": "None", "website": "None", "summary": "None", "logo": "None", "latitude": 43.8277632823011, "longitude": -79.30849825408282}, "867901191RR0001": {"name": "Toronto Leadership Centre", "designationCode": "C", "categoryCode": "20", "address": "2 TORONTO STREET              SUITE 200", "city": "TORONTO", "province": "ON", "country": "CA", "postalCode": "M5C2B5", "twitter": "None", "instagram": "None", "facebook": "None", "youtube": "None", "website": "None", "summary": "None", "logo": "None", "latitude": 43.64971067998733, "longitude": -79.3760472073402}, "894945633RR0068": {"name": "Toronto Light & Salt Church of the Christian and Missionary Alliance in Canada", "designationCode": "C", "categoryCode": "39", "address": "204 - 239 SHEPPARD AVE E", "city": "NORTH YORK", "province": "ON", "country": "CA", "postalCode": "M2N3A8", "twitter": "None", "instagram": "None", "facebook": "None", "youtube": "None", "website": "None", "summary": "None", "logo": "None", "latitude": 43.764015788157046, "longitude": -79.39958194328467}, "809539836RR0001": {"name": "Toronto Logos International Church", "designationCode": "C", "categoryCode": "39", "address": "2101-3300 DON MILLS RD,", "city": "TORONTO", "province": "ON", "country": "CA", "postalCode": "M2J4X7", "twitter": "None", "instagram": "None", "facebook": "None", "youtube": "None", "website": "None", "summary": "None", "logo": "None", "latitude": 43.79158699471988, "longitude": -79.35449847452209}, "847429701RR0001": {"name": "Toronto Media Arts Cluster", "designationCode": "C", "categoryCode": "22", "address": "245-401 RICHMOND ST W", "city": "TORONTO", "province": "ON", "country": "CA", "postalCode": "M5V3A8", "twitter": "None", "instagram": "None", "facebook": "None", "youtube": "None", "website": "None", "summary": "None", "logo": "None", "latitude": 43.64792255983254, "longitude": -79.39538964100468}, "803375377RR0001": {"name": "Toronto Memory Program Fund for Education", "designationCode": "C", "categoryCode": "23", "address": "400 - 1 VALLEYBROOK DR", "city": "NORTH YORK", "province": "ON", "country": "CA", "postalCode": "M3B2S7", "twitter": "None", "instagram": "None", "facebook": "None", "youtube": "None", "website": "None", "summary": "None", "logo": "None", "latitude": 43.75865213959268, "longitude": -79.3541575124075}, "848960415RR0001": {"name": "Toronto Mennonite New Life Church", "designationCode": "C", "categoryCode": "34", "address": "1774 QUEEN STREET EAST        SUITE 300", "city": "TORONTO", "province": "ON", "country": "CA", "postalCode": "M4L1G7", "twitter": "None", "instagram": "None", "facebook": "None", "youtube": "None", "website": "None", "summary": "None", "logo": "None", "latitude": 43.66771615794321, "longitude": -79.31053773203871}, "804611002RR0001": {"name": "Toronto Mizpah Presbyterian Church", "designationCode": "C", "categoryCode": "37", "address": "731 BLOOR STREET WEST         2ND FLOOR", "city": "TORONTO", "province": "ON", "country": "CA", "postalCode": "M6G1L5", "twitter": "None", "instagram": "None", "facebook": "None", "youtube": "None", "website": "None", "summary": "None", "logo": "None", "latitude": 43.66351756534701, "longitude": -79.41821718525624}, "794473892RR0001": {"name": "Toronto Nepalese Christian Fellowship (TNCF)", "designationCode": "C", "categoryCode": "36", "address": "378 LEITCH LANDNG", "city": "MILTON", "province": "ON", "country": "CA", "postalCode": "L9T7M5", "twitter": "None", "instagram": "None", "facebook": "None", "youtube": "None", "website": "None", "summary": "None", "logo": "None", "latitude": 43.496106810981665, "longitude": -79.88981362418501}, "838308807RR0001": {"name": "Toronto New Frontier Church", "designationCode": "C", "categoryCode": "39", "address": "348 SENLAC ROAD", "city": "TORONTO", "province": "ON", "country": "CA", "postalCode": "M2R1R5", "twitter": "None", "instagram": "None", "facebook": "None", "youtube": "None", "website": "None", "summary": "None", "logo": "None", "latitude": 43.77591968137231, "longitude": -79.43003398961264}, "107797383RR0135": {"name": "Toronto North Seventh-day Adventist Church", "designationCode": "C", "categoryCode": "41", "address": "STATION AGINCOURT             P.O. BOX 66", "city": "SCARBOROUGH", "province": "ON", "country": "CA", "postalCode": "M1S3B4", "twitter": "None", "instagram": "None", "facebook": "None", "youtube": "None", "website": "None", "summary": "None", "logo": "None", "latitude": 43.78831849068517, "longitude": -79.28420095516262}, "815760491RR0001": {"name": "Toronto Onnuri Presbyterian Church", "designationCode": "C", "categoryCode": "37", "address": "9 GOULDING AVENUE", "city": "TORONTO", "province": "ON", "country": "CA", "postalCode": "M2M1K8", "twitter": "None", "instagram": "None", "facebook": "None", "youtube": "None", "website": "None", "summary": "None", "logo": "None", "latitude": 43.79181985316529, "longitude": -79.4193976470945}, "819120031RR0001": {"name": "Toronto Onsesang Presbyterian Church", "designationCode": "C", "categoryCode": "37", "address": "1 & 2-1110 FINCH AVENUE WEST", "city": "TORONTO", "province": "ON", "country": "CA", "postalCode": "M3J3M2", "twitter": "None", "instagram": "None", "facebook": "None", "youtube": "None", "website": "None", "summary": "None", "logo": "None", "latitude": 43.76734113413874, "longitude": -79.473816908448}, "803638824RR0001": {"name": "Toronto Partnership Minyan", "designationCode": "C", "categoryCode": "49", "address": "2305 - 33 MILL ST", "city": "TORONTO", "province": "ON", "country": "CA", "postalCode": "M5A3R3", "twitter": "None", "instagram": "None", "facebook": "None", "youtube": "None", "website": "None", "summary": "None", "logo": "None", "latitude": 43.650454842056796, "longitude": -79.36085540285076}, "107797383RR0058": {"name": "Toronto Perth Seventh-day Adventist Church", "designationCode": "C", "categoryCode": "41", "address": "220 BETHRIDGE RD", "city": "ETOBICOKE", "province": "ON", "country": "CA", "postalCode": "M9W6S3", "twitter": "None", "instagram": "None", "facebook": "None", "youtube": "None", "website": "None", "summary": "None", "logo": "None", "latitude": 43.708342157943214, "longitude": -79.5903461708407}, "107797383RR0138": {"name": "Toronto Pilipino Seventh-day Adventist Church", "designationCode": "C", "categoryCode": "41", "address": "216 RUTHERFORD ROAD NORTH", "city": "BRAMPTON", "province": "ON", "country": "CA", "postalCode": "L6V2X9", "twitter": "None", "instagram": "None", "facebook": "None", "youtube": "None", "website": "None", "summary": "None", "logo": "None", "latitude": 43.70950576770148, "longitude": -79.75744137896032}, "850481011RR0001": {"name": "Toronto Power Wheelchair Hockey League", "designationCode": "C", "categoryCode": "56", "address": "#117-33 COATSWORTH CR", "city": "TORONTO", "province": "ON", "country": "CA", "postalCode": "M4C5P9", "twitter": "None", "instagram": "None", "facebook": "None", "youtube": "None", "website": "None", "summary": "None", "logo": "None", "latitude": 43.67936855710775, "longitude": -79.32071751377262}, "863000386RR0001": {"name": "Toronto Project", "designationCode": "C", "categoryCode": "21", "address": "108 CORPORATE DRIVE, SUITE 23", "city": "TORONTO", "province": "ON", "country": "CA", "postalCode": "M1H3H9", "twitter": "None", "instagram": "None", "facebook": "None", "youtube": "None", "website": "None", "summary": "None", "logo": "None", "latitude": 43.780854782676485, "longitude": -79.24716574940828}, "849029863RR0001": {"name": "Toronto Region Immigrant Employment Council (TRIEC)", "designationCode": "C", "categoryCode": "21", "address": "603-250 DUNDAS STREET WEST", "city": "TORONTO", "province": "ON", "country": "CA", "postalCode": "M5T2Z5", "twitter": "None", "instagram": "None", "facebook": "None", "youtube": "None", "website": "None", "summary": "None", "logo": "None", "latitude": 43.65312820103721, "longitude": -79.3972269948139}, "804794972RR0001": {"name": "Toronto Renai Chinese Christian Church", "designationCode": "C", "categoryCode": "39", "address": "17 ORANGEWOOD CRES", "city": "TORONTO", "province": "ON", "country": "CA", "postalCode": "M1W1C5", "twitter": "None", "instagram": "None", "facebook": "None", "youtube": "None", "website": "None", "summary": "None", "logo": "None", "latitude": 43.78993551875457, "longitude": -79.32675052553522}, "833706047RR0001": {"name": "Toronto River of Life Christian Church", "designationCode": "C", "categoryCode": "39", "address": "27 KIMBOROUGH HOLLOW", "city": "BRAMPTON", "province": "ON", "country": "CA", "postalCode": "L6Y0Z5", "twitter": "None", "instagram": "None", "facebook": "None", "youtube": "None", "website": "None", "summary": "None", "logo": "None", "latitude": 43.656541615093595, "longitude": -79.77758752094896}, "829917889RR0001": {"name": "Toronto Saesoon Presbyterian Church", "designationCode": "C", "categoryCode": "37", "address": "3066 GIVEN ROAD,", "city": "MISSISSAUGA", "province": "ON", "country": "CA", "postalCode": "L5A2N3", "twitter": "None", "instagram": "None", "facebook": "None", "youtube": "None", "website": "None", "summary": "None", "logo": "None", "latitude": 43.587311240060146, "longitude": -79.61178814060229}, "836083576RR0001": {"name": "Toronto School of Art 2016 Inc.", "designationCode": "C", "categoryCode": "22", "address": "980 DUFFERIN STREET,          2ND FLOOR", "city": "TORONTO", "province": "ON", "country": "CA", "postalCode": "M6H4B4", "twitter": "None", "instagram": "None", "facebook": "None", "youtube": "None", "website": "None", "summary": "None", "logo": "None", "latitude": 43.65871198972821, "longitude": -79.43493595158394}, "818469306RR0001": {"name": "Toronto Se Hyoun Presbyterian Church", "designationCode": "C", "categoryCode": "39", "address": "731 BLOOR STREET WEST         2ND FLOOR", "city": "TORONTO", "province": "ON", "country": "CA", "postalCode": "M6G1L5", "twitter": "None", "instagram": "None", "facebook": "None", "youtube": "None", "website": "None", "summary": "None", "logo": "None", "latitude": 43.66351756534701, "longitude": -79.41821718525624}, "801242686RR0001": {"name": "Toronto Search and Rescue-Marine", "designationCode": "C", "categoryCode": "59", "address": "60 HARBOUR ST", "city": "TORONTO", "province": "ON", "country": "CA", "postalCode": "M5J1B7", "twitter": "None", "instagram": "None", "facebook": "None", "youtube": "None", "website": "None", "summary": "None", "logo": "None", "latitude": 43.64197399809543, "longitude": -79.37797841329544}, "107797383RR0003": {"name": "Toronto Slavic International Seventh-day Adventist Church", "designationCode": "C", "categoryCode": "41", "address": "900 SHEPPARD AVE. WEST", "city": "DOWNSVIEW", "province": "ON", "country": "CA", "postalCode": "M3H2T5", "twitter": "None", "instagram": "None", "facebook": "None", "youtube": "None", "website": "None", "summary": "None", "logo": "None", "latitude": 43.751795089127825, "longitude": -79.45622724314721}, "829275825RR0001": {"name": "Toronto Teachers' Centre of Torah Umesorah", "designationCode": "C", "categoryCode": "21", "address": "3130 BATHURST STREET          SUITE 212", "city": "TORONTO", "province": "ON", "country": "CA", "postalCode": "M6A2A1", "twitter": "None", "instagram": "None", "facebook": "None", "youtube": "None", "website": "None", "summary": "None", "logo": "None", "latitude": 43.720821525102544, "longitude": -79.43046397446477}, "848852364RR0001": {"name": "Toronto Theatre Organ Society", "designationCode": "C", "categoryCode": "22", "address": "23 - 254 GOSLING GARDENS", "city": "GUELPH", "province": "ON", "country": "CA", "postalCode": "N1L0M4", "twitter": "None", "instagram": "None", "facebook": "None", "youtube": "None", "website": "None", "summary": "None", "logo": "None", "latitude": 43.4988045, "longitude": -80.191035}, "840585236RR0001": {"name": "Toronto Thiruchendur Murugan Temple", "designationCode": "C", "categoryCode": "48", "address": "2400-2420 FINCH AVENUE WEST   UNIT 10", "city": "TORONTO", "province": "ON", "country": "CA", "postalCode": "M9M2C8", "twitter": "None", "instagram": "None", "facebook": "None", "youtube": "None", "website": "None", "summary": "None", "logo": "None", "latitude": 43.75071900000002, "longitude": -79.54868474999999}, "890808744RR0001": {"name": "Toronto Ukrainian Foundation / Fondation ukrainienne de Toronto", "designationCode": "C", "categoryCode": "22", "address": "208-145 EVANS AVENUE", "city": "TORONTO", "province": "ON", "country": "CA", "postalCode": "M8Z5X8", "twitter": "None", "instagram": "None", "facebook": "None", "youtube": "None", "website": "None", "summary": "None", "logo": "None", "latitude": 43.61887343542647, "longitude": -79.50980318870123}, "801309345RR0001": {"name": "Toronto United Methodist Church", "designationCode": "C", "categoryCode": "39", "address": "8-54 NEPTUNE DRIVE,", "city": "NORTH YORK", "province": "ON", "country": "CA", "postalCode": "M6A1X1", "twitter": "None", "instagram": "None", "facebook": "None", "youtube": "None", "website": "None", "summary": "None", "logo": "None", "latitude": 43.732182759939874, "longitude": -79.43540343600338}, "809663594RR0001": {"name": "Toronto Vegetarian Food Bank", "designationCode": "C", "categoryCode": "09", "address": "784 1/2 CRAWFORD STREET", "city": "TORONTO", "province": "ON", "country": "CA", "postalCode": "M6G3K3", "twitter": "None", "instagram": "None", "facebook": "None", "youtube": "None", "website": "None", "summary": "None", "logo": "None", "latitude": 43.66492623324215, "longitude": -79.42300612899585}, "809460413RR0001": {"name": "Toronto West Christian Assembly", "designationCode": "C", "categoryCode": "39", "address": "96 SIR JACOBS CRES", "city": "BRAMPTON", "province": "ON", "country": "CA", "postalCode": "L7A3T5", "twitter": "None", "instagram": "None", "facebook": "None", "youtube": "None", "website": "None", "summary": "None", "logo": "None", "latitude": 43.70930429113057, "longitude": -79.82695962228041}, "763272895RR0001": {"name": "Toronto Yogoda Meditation Centre", "designationCode": "C", "categoryCode": "39", "address": "2510 YONGE STREET, SUITE 207", "city": "TORONTO", "province": "ON", "country": "CA", "postalCode": "M4P2H7", "twitter": "None", "instagram": "None", "facebook": "None", "youtube": "None", "website": "None", "summary": "None", "logo": "None", "latitude": 43.71241929586245, "longitude": -79.39960749849945}, "820312809RR0001": {"name": "Toronto-Richmond Hill Church Network", "designationCode": "C", "categoryCode": "39", "address": "78 BEVERLY STREET,", "city": "TORONTO", "province": "ON", "country": "CA", "postalCode": "M5T1Y1", "twitter": "None", "instagram": "None", "facebook": "None", "youtube": "None", "website": "None", "summary": "None", "logo": "None", "latitude": 43.65206129364075, "longitude": -79.39317694145639}, "851346775RR0001": {"name": "Tosalisana Na Lingomba (Entraide entre les peuples)", "designationCode": "C", "categoryCode": "09", "address": "11-2949 PENNY DRIVE", "city": "OTTAWA", "province": "ON", "country": "CA", "postalCode": "K2B6H6", "twitter": "None", "instagram": "None", "facebook": "None", "youtube": "None", "website": "None", "summary": "None", "logo": "None", "latitude": 45.353761627531895, "longitude": -75.8005525582838}, "840151807RR0001": {"name": "Tostan Canada", "designationCode": "C", "categoryCode": "01", "address": "18548 STONEHOUSE POINT ROAD   PO BOX 635", "city": "CORNWALL", "province": "ON", "country": "CA", "postalCode": "K6H5T3", "twitter": "None", "instagram": "None", "facebook": "None", "youtube": "None", "website": "None", "summary": "None", "logo": "None", "latitude": 45.03876152920017, "longitude": -74.61746013024452}, "829396860RR0001": {"name": "Totally Free Ministries", "designationCode": "C", "categoryCode": "39", "address": "46-177 BAYVIEW ST", "city": "BARRIE", "province": "ON", "country": "CA", "postalCode": "L4N4Y6", "twitter": "None", "instagram": "None", "facebook": "None", "youtube": "None", "website": "None", "summary": "None", "logo": "None", "latitude": 44.34891173778443, "longitude": -79.67971762117385}, "839965183RR0001": {"name": "Totally Kids Daycare Inc.", "designationCode": "C", "categoryCode": "01", "address": "1650 TORONTO STREET", "city": "REGINA", "province": "SK", "country": "CA", "postalCode": "S4P1M2", "twitter": "None", "instagram": "None", "facebook": "None", "youtube": "None", "website": "None", "summary": "None", "logo": "None", "latitude": 50.45262350291421, "longitude": -104.5991866823819}, "108123621RR0001": {"name": "Totem Nursery Preschool Society", "designationCode": "C", "categoryCode": "20", "address": "BOX 6652", "city": "FORT ST JOHN", "province": "BC", "country": "CA", "postalCode": "V1J4J1", "twitter": "None", "instagram": "None", "facebook": "None", "youtube": "None", "website": "None", "summary": "None", "logo": "None", "latitude": 56.25253500000005, "longitude": -120.84748099999993}, "830988267RR0001": {"name": "Tottering Biped Theatre Inc.", "designationCode": "C", "categoryCode": "22", "address": "540 ROSEDALE CRES", "city": "BURLINGTON", "province": "ON", "country": "CA", "postalCode": "L7N2T1", "twitter": "None", "instagram": "None", "facebook": "None", "youtube": "None", "website": "None", "summary": "None", "logo": "None", "latitude": 43.3438729217209, "longitude": -79.78508917098493}, "784574923RR0001": {"name": "Touch the World Ministries", "designationCode": "C", "categoryCode": "47", "address": "2101 60 AVE", "city": "LLOYDMINSTER", "province": "AB", "country": "CA", "postalCode": "T9V3J6", "twitter": "None", "instagram": "None", "facebook": "None", "youtube": "None", "website": "None", "summary": "None", "logo": "None", "latitude": 53.25477403719199, "longitude": -110.03412523754997}, "811027887RR0001": {"name": "Toucher du coeur masso-cancer", "designationCode": "C", "categoryCode": "11", "address": "780 BOUL.STE-GENEVIEVE", "city": "SAGUENAY", "province": "QC", "country": "CA", "postalCode": "G7G2E8", "twitter": "None", "instagram": "None", "facebook": "None", "youtube": "None", "website": "None", "summary": "None", "logo": "None", "latitude": 48.44650064086208, "longitude": -71.08289895363275}, "811129824RR0001": {"name": "Touching Lives Overseas", "designationCode": "C", "categoryCode": "20", "address": "1 REAN DR, SUITE 2601", "city": "NORTH YORK", "province": "ON", "country": "CA", "postalCode": "M2K3C1", "twitter": "None", "instagram": "None", "facebook": "None", "youtube": "None", "website": "None", "summary": "None", "logo": "None", "latitude": 43.76610053476643, "longitude": -79.38178424367413}, "806057493RR0001": {"name": "Touching Tiny Lives Foundation", "designationCode": "B", "categoryCode": "11", "address": "79 WELLINGTON ST  W.          TD CENTRE BOX 270", "city": "TORONTO", "province": "ON", "country": "CA", "postalCode": "M5K1N2", "twitter": "None", "instagram": "None", "facebook": "None", "youtube": "None", "website": "None", "summary": "None", "logo": "None", "latitude": 43.64695776155599, "longitude": -79.38126755508115}, "865447999RR0001": {"name": "Toujours Ensemble Foundation/La Fondation Toujours Ensemble", "designationCode": "A", "categoryCode": "23", "address": "4926 RUE DE VERDUN", "city": "VERDUN", "province": "QC", "country": "CA", "postalCode": "H4G1N3", "twitter": "None", "instagram": "None", "facebook": "None", "youtube": "None", "website": "None", "summary": "None", "logo": "None", "latitude": 45.45660504662706, "longitude": -73.57188495418102}, "119267862RR0001": {"name": "Tourette Syndrome Foundation of Canada / La Fondation canadienne du syndrome de la Tourette", "designationCode": "C", "categoryCode": "13", "address": "245-5955 AIRPORT RD", "city": "MISSISSAUGA", "province": "ON", "country": "CA", "postalCode": "L4V1R9", "twitter": "None", "instagram": "None", "facebook": "None", "youtube": "None", "website": "None", "summary": "None", "logo": "None", "latitude": 43.68607738112378, "longitude": -79.61039668154518}, "129355418RR0001": {"name": "Tous les jours", "designationCode": "C", "categoryCode": "59", "address": "5818 BOUL SAINT-LAURENT", "city": "MONTREAL", "province": "QC", "country": "CA", "postalCode": "H2T1T3", "twitter": "None", "instagram": "None", "facebook": "None", "youtube": "None", "website": "None", "summary": "None", "logo": "None", "latitude": 45.527563614749944, "longitude": -73.60274302804538}, "854964160RR0001": {"name": "Tous Les Enfants de l'Autre Monde", "designationCode": "C", "categoryCode": "09", "address": "4 - 640 RUE LANGLOIS", "city": "TERREBONNE", "province": "QC", "country": "CA", "postalCode": "J6W4P3", "twitter": "None", "instagram": "None", "facebook": "None", "youtube": "None", "website": "None", "summary": "None", "logo": "None", "latitude": 45.697046692163674, "longitude": -73.63250667456296}, "842782823RR0001": {"name": "Tout le monde s'appelle Alice", "designationCode": "C", "categoryCode": "22", "address": "2075 RUE SAINT-CHRISTOPHE", "city": "MONTREAL", "province": "QC", "country": "CA", "postalCode": "H2L3X1", "twitter": "None", "instagram": "None", "facebook": "None", "youtube": "None", "website": "None", "summary": "None", "logo": "None", "latitude": 45.51892015543304, "longitude": -73.56505203551853}, "107507527RR0001": {"name": "Town of Innisfail Public Library Board", "designationCode": "C", "categoryCode": "50", "address": "5300A 55 STREET CLOSE", "city": "INNISFAIL", "province": "AB", "country": "CA", "postalCode": "T4G1R6", "twitter": "None", "instagram": "None", "facebook": "None", "youtube": "None", "website": "None", "summary": "None", "logo": "None", "latitude": 52.02304901992883, "longitude": -113.96349694278607}, "107878563RR0001": {"name": "Town of Redcliff Library Board", "designationCode": "C", "categoryCode": "50", "address": "PO BOX 280", "city": "REDCLIFF", "province": "AB", "country": "CA", "postalCode": "T0J2P0", "twitter": "None", "instagram": "None", "facebook": "None", "youtube": "None", "website": "None", "summary": "None", "logo": "None", "latitude": 50.06256300000001, "longitude": -110.79354470271593}, "820216281RR0001": {"name": "Townsend Smith Foundation", "designationCode": "C", "categoryCode": "11", "address": "627 ELLIOTT CRESCENT,", "city": "MILTON", "province": "ON", "country": "CA", "postalCode": "L9T3G5", "twitter": "None", "instagram": "None", "facebook": "None", "youtube": "None", "website": "None", "summary": "None", "logo": "None", "latitude": 43.53005190922742, "longitude": -79.88324992711658}}