{"847636388RR0001": {"name": "Society For A Healthy Mouth Healthy Child (Alberta)", "designationCode": "C", "categoryCode": "19", "address": "314, 10601 SOUTHPORT ROAD SW", "city": "CALGARY", "province": "AB", "country": "CA", "postalCode": "T2W3M6", "twitter": "None", "instagram": "None", "facebook": "None", "youtube": "None", "website": "None", "summary": "None", "logo": "None", "latitude": 50.96184469355709, "longitude": -114.07226446535256}, "826116782RR0001": {"name": "Society For The Advancement of Science in Africa (SASA)", "designationCode": "C", "categoryCode": "21", "address": "326 3RD ST W", "city": "OWEN SOUND", "province": "ON", "country": "CA", "postalCode": "N4K7A2", "twitter": "None", "instagram": "None", "facebook": "None", "youtube": "None", "website": "None", "summary": "None", "logo": "None", "latitude": 44.554566518700184, "longitude": -80.94484885182845}, "132410671RR0515": {"name": "Society Saint Vincent de Paul - St. Michael , Oakville ON", "designationCode": "C", "categoryCode": "09", "address": "181 SEWELL DRIVE", "city": "OAKVILLE", "province": "ON", "country": "CA", "postalCode": "L6H1E3", "twitter": "None", "instagram": "None", "facebook": "None", "youtube": "None", "website": "None", "summary": "None", "logo": "None", "latitude": 43.46299236248479, "longitude": -79.69434017528411}, "132410671RR0504": {"name": "Society Saint-Vincent de Paul - Edmonton North Particular Council", "designationCode": "C", "categoryCode": "09", "address": "BOX 11532                     STATION MAIN", "city": "EDMONTON", "province": "AB", "country": "CA", "postalCode": "T5H3C1", "twitter": "None", "instagram": "None", "facebook": "None", "youtube": "None", "website": "None", "summary": "None", "logo": "None", "latitude": 53.55337200000005, "longitude": -113.50857049999993}, "132410671RR0513": {"name": "Society Saint-Vincent de Paul - Holy Rosary Conference, Milton, ON", "designationCode": "C", "categoryCode": "09", "address": "139 MARTIN STREET", "city": "MILTON", "province": "ON", "country": "CA", "postalCode": "L9T2R3", "twitter": "None", "instagram": "None", "facebook": "None", "youtube": "None", "website": "None", "summary": "None", "logo": "None", "latitude": 43.516272338103406, "longitude": -79.88662435962884}, "132410671RR0505": {"name": "Society Saint-Vincent de Paul - St. Mary's Conference, Tillsonburg, ON", "designationCode": "C", "categoryCode": "09", "address": "51 VENISON STREET, WEST", "city": "TILLSONBURG", "province": "ON", "country": "CA", "postalCode": "N4G1V1", "twitter": "None", "instagram": "None", "facebook": "None", "youtube": "None", "website": "None", "summary": "None", "logo": "None", "latitude": 42.86190179932489, "longitude": -80.7346065180334}, "132410671RR0514": {"name": "Society Saint-Vincent de Paul of Canada, Holy Rosary Conf erence - Burlington", "designationCode": "C", "categoryCode": "09", "address": "287 PLAINS ROAD EAST", "city": "BURLINGTON", "province": "ON", "country": "CA", "postalCode": "L7T2C7", "twitter": "None", "instagram": "None", "facebook": "None", "youtube": "None", "website": "None", "summary": "None", "logo": "None", "latitude": 43.31383908996453, "longitude": -79.84344170488737}, "801572736RR0001": {"name": "Socio-Economic and Environmental Development Solutions (SEEDS)", "designationCode": "C", "categoryCode": "09", "address": "4 BROWNING AVENUE", "city": "TORONTO", "province": "ON", "country": "CA", "postalCode": "M4K1V7", "twitter": "None", "instagram": "None", "facebook": "None", "youtube": "None", "website": "None", "summary": "None", "logo": "None", "latitude": 43.681181132407986, "longitude": -79.35673881294355}, "835929266RR0001": {"name": "Socks Canada Relief Organization", "designationCode": "C", "categoryCode": "09", "address": "31 CRITZIA DRIVE", "city": "MOUNT HOPE", "province": "ON", "country": "CA", "postalCode": "L0R1W0", "twitter": "None", "instagram": "None", "facebook": "None", "youtube": "None", "website": "None", "summary": "None", "logo": "None", "latitude": 43.19678648681404, "longitude": -79.90650857686548}, "758626527RR0001": {"name": "Socks 4 Souls Canada Inc.", "designationCode": "C", "categoryCode": "09", "address": "1140 - 3280 BLOOR ST W", "city": "ETOBICOKE", "province": "ON", "country": "CA", "postalCode": "M8X2X3", "twitter": "None", "instagram": "None", "facebook": "None", "youtube": "None", "website": "None", "summary": "None", "logo": "None", "latitude": 43.64523900000001, "longitude": -79.520976}, "840552434RR0001": {"name": "Sofina Foundation", "designationCode": "B", "categoryCode": "03", "address": "100 COMMERCE VALLEY DRIVE WEST9TH FLOOR", "city": "MARKHAM", "province": "ON", "country": "CA", "postalCode": "L3T0A1", "twitter": "None", "instagram": "None", "facebook": "None", "youtube": "None", "website": "None", "summary": "None", "logo": "None", "latitude": 43.83937640838976, "longitude": -79.38164647380094}, "809947765RR0001": {"name": "Soft Bones Canada", "designationCode": "C", "categoryCode": "11", "address": "PO BOX 882", "city": "WINKLER", "province": "MB", "country": "CA", "postalCode": "R6W4A9", "twitter": "None", "instagram": "None", "facebook": "None", "youtube": "None", "website": "None", "summary": "None", "logo": "None", "latitude": 49.17773400000006, "longitude": -97.93841299999994}, "752030320RR0001": {"name": "Soh Lim Poh Paul Foundation", "designationCode": "B", "categoryCode": "03", "address": "4525 6TH AVE W", "city": "VANCOUVER", "province": "BC", "country": "CA", "postalCode": "V6R1V4", "twitter": "None", "instagram": "None", "facebook": "None", "youtube": "None", "website": "None", "summary": "None", "logo": "None", "latitude": 49.26732749321932, "longitude": -123.20980158090484}, "843765843RR0001": {"name": "Sohrae Youth Orchestra", "designationCode": "C", "categoryCode": "22", "address": "70 HILDA AVE", "city": "TORONTO", "province": "ON", "country": "CA", "postalCode": "M2M1V5", "twitter": "None", "instagram": "None", "facebook": "None", "youtube": "None", "website": "None", "summary": "None", "logo": "None", "latitude": 43.78714594004275, "longitude": -79.42479267225436}, "812042364RR0001": {"name": "Solari Foundation", "designationCode": "C", "categoryCode": "11", "address": "BOX 62                        1250-1500 W GEORGIA ST", "city": "VANCOUVER", "province": "BC", "country": "CA", "postalCode": "V6G2Z6", "twitter": "None", "instagram": "None", "facebook": "None", "youtube": "None", "website": "None", "summary": "None", "logo": "None", "latitude": 49.29013479542975, "longitude": -123.1300069287031}, "840598643RR0001": {"name": "Solaris Autism Services Inc.", "designationCode": "C", "categoryCode": "11", "address": "2 BELL ROYAL COURT", "city": "TORONTO", "province": "ON", "country": "CA", "postalCode": "M9A4G8", "twitter": "None", "instagram": "None", "facebook": "None", "youtube": "None", "website": "None", "summary": "None", "logo": "None", "latitude": 43.67241911408612, "longitude": -79.52178751333021}, "751191321RR0001": {"name": "Solcz Family Foundation", "designationCode": "B", "categoryCode": "03", "address": "404 - 1 RIVERSIDE DR W", "city": "WINDSOR", "province": "ON", "country": "CA", "postalCode": "N9A5K3", "twitter": "None", "instagram": "None", "facebook": "None", "youtube": "None", "website": "None", "summary": "None", "logo": "None", "latitude": 42.31772546946218, "longitude": -83.04839352643575}, "842712705RR0001": {"name": "Sole Responsibility", "designationCode": "C", "categoryCode": "09", "address": "181 HINTON AVE N", "city": "OTTAWA", "province": "ON", "country": "CA", "postalCode": "K1Y1A2", "twitter": "None", "instagram": "None", "facebook": "None", "youtube": "None", "website": "None", "summary": "None", "logo": "None", "latitude": 45.397792696924185, "longitude": -75.72958046667449}, "818656514RR0001": {"name": "Soleil des Orphelins", "designationCode": "C", "categoryCode": "09", "address": "411 - 400 BOUL CURE-LABELLE", "city": "LAVAL", "province": "QC", "country": "CA", "postalCode": "H7V2S7", "twitter": "None", "instagram": "None", "facebook": "None", "youtube": "None", "website": "None", "summary": "None", "logo": "None", "latitude": 45.53833187870052, "longitude": -73.73672603482605}, "819437872RR0001": {"name": "Solid Foundation Ministries Inc.", "designationCode": "C", "categoryCode": "39", "address": "7 VERDUN AVE", "city": "ST CATHARINES", "province": "ON", "country": "CA", "postalCode": "L2N5L8", "twitter": "None", "instagram": "None", "facebook": "None", "youtube": "None", "website": "None", "summary": "None", "logo": "None", "latitude": 43.194966738530916, "longitude": -79.27609523954054}, "129178786RR0001": {"name": "Solid Futures Learning Centre Co-operative Limited", "designationCode": "C", "categoryCode": "20", "address": "4705 1ST AVENUE", "city": "REGINA", "province": "SK", "country": "CA", "postalCode": "S4T7W4", "twitter": "None", "instagram": "None", "facebook": "None", "youtube": "None", "website": "None", "summary": "None", "logo": "None", "latitude": 50.467167265687834, "longitude": -104.64830527859345}, "815120993RR0001": {"name": "Solid Rock Biker Church", "designationCode": "C", "categoryCode": "39", "address": "11706 96 AVE", "city": "DELTA", "province": "BC", "country": "CA", "postalCode": "V4C3W7", "twitter": "None", "instagram": "None", "facebook": "None", "youtube": "None", "website": "None", "summary": "None", "logo": "None", "latitude": 49.17705225520043, "longitude": -122.89818841189546}, "807065040RR0001": {"name": "Solid Rock Christian School Upper Ottawa Valley", "designationCode": "C", "categoryCode": "20", "address": "PO BOX 51 STN MAIN", "city": "PEMBROKE", "province": "ON", "country": "CA", "postalCode": "K8A6X1", "twitter": "None", "instagram": "None", "facebook": "None", "youtube": "None", "website": "None", "summary": "None", "logo": "None", "latitude": 45.826494000000054, "longitude": -77.11217449999994}, "710511320RR0001": {"name": "Solid Rock Community Church of the Nazarene", "designationCode": "C", "categoryCode": "39", "address": "657 MILNER AVENUE", "city": "TORONTO", "province": "ON", "country": "CA", "postalCode": "M1B2K4", "twitter": "None", "instagram": "None", "facebook": "None", "youtube": "None", "website": "None", "summary": "None", "logo": "None", "latitude": 43.79509593972563, "longitude": -79.21830446153861}, "804160026RR0001": {"name": "Solid Rock Deliverance Ministries Incorporated", "designationCode": "C", "categoryCode": "39", "address": "10 DEFOREST DRIVE", "city": "BRAMPTON", "province": "ON", "country": "CA", "postalCode": "L7A2Y3", "twitter": "None", "instagram": "None", "facebook": "None", "youtube": "None", "website": "None", "summary": "None", "logo": "None", "latitude": 43.7046413566564, "longitude": -79.81676209882266}, "831130695RR0001": {"name": "Solid Rock Equipping Ministries Inc.", "designationCode": "C", "categoryCode": "39", "address": "189 CARLETON STREET           BOX 165", "city": "SHELBURNE", "province": "NS", "country": "CA", "postalCode": "B0T1W0", "twitter": "None", "instagram": "None", "facebook": "None", "youtube": "None", "website": "None", "summary": "None", "logo": "None", "latitude": 43.767746895637416, "longitude": -65.31875142258626}, "851528083RR0001": {"name": "Solid Rock Ministry", "designationCode": "C", "categoryCode": "39", "address": "1201-10 GORDONRIDGE PLACE", "city": "SCARBOROUGH", "province": "ON", "country": "CA", "postalCode": "M1K4H6", "twitter": "None", "instagram": "None", "facebook": "None", "youtube": "None", "website": "None", "summary": "None", "logo": "None", "latitude": 43.727272733743284, "longitude": -79.25249372924395}, "818971814RR0001": {"name": "Solid Rock Miracle Centre", "designationCode": "C", "categoryCode": "39", "address": "2102 LAWRENCE AVE E", "city": "SCARBOROUGH", "province": "ON", "country": "CA", "postalCode": "M1R2Z9", "twitter": "None", "instagram": "None", "facebook": "None", "youtube": "None", "website": "None", "summary": "None", "logo": "None", "latitude": 43.74635318016022, "longitude": -79.29027891508446}, "810594770RR0001": {"name": "Solidarit\u00e9 et Actions des Femmes Immigrantes Regroup\u00e9es", "designationCode": "C", "categoryCode": "59", "address": "4270, RUE JEAN TALON EST      SUITE 102", "city": "MONTREAL", "province": "QC", "country": "CA", "postalCode": "H1S1J7", "twitter": "None", "instagram": "None", "facebook": "None", "youtube": "None", "website": "None", "summary": "None", "logo": "None", "latitude": 45.568325656772664, "longitude": -73.58968076133421}, "804886067RR0001": {"name": "Solidarit\u00e9 Qu\u00e9bec-Vi\u00eat Nam / Tinh Doan Ket Giua Qu\u00e9bec Va Viet Nam", "designationCode": "C", "categoryCode": "01", "address": "82, DUVERNAY", "city": "CHICOUTIMI", "province": "QC", "country": "CA", "postalCode": "G7J2C8", "twitter": "None", "instagram": "None", "facebook": "None", "youtube": "None", "website": "None", "summary": "None", "logo": "None", "latitude": 48.41369885899368, "longitude": -71.07264369721265}, "855963468RR0001": {"name": "Solidarit\u00e9 Sainte-Ursule", "designationCode": "C", "categoryCode": "09", "address": "1000 RUE DE BAR-LE-DUC", "city": "QUEBEC", "province": "QC", "country": "CA", "postalCode": "G1W4X6", "twitter": "None", "instagram": "None", "facebook": "None", "youtube": "None", "website": "None", "summary": "None", "logo": "None", "latitude": 46.766913308067465, "longitude": -71.3062267499852}, "827231424RR0001": {"name": "Solidifi Charitable Foundation", "designationCode": "B", "categoryCode": "03", "address": "50 MINTHORN BLVD              SUITE 301", "city": "MARKHAM", "province": "ON", "country": "CA", "postalCode": "L3T7X8", "twitter": "None", "instagram": "None", "facebook": "None", "youtube": "None", "website": "None", "summary": "None", "logo": "None", "latitude": 43.842769800913764, "longitude": -79.37906412733622}, "827265455RR0001": {"name": "Solo Chicken Productions Incorporated", "designationCode": "C", "categoryCode": "22", "address": "219 CHARLOTTE ST", "city": "FREDERICTON", "province": "NB", "country": "CA", "postalCode": "E3B1L5", "twitter": "None", "instagram": "None", "facebook": "None", "youtube": "None", "website": "None", "summary": "None", "logo": "None", "latitude": 45.96093537414155, "longitude": -66.65028273881939}, "842288995RR0001": {"name": "Solution Embassy of Christ Ministries Inc.", "designationCode": "C", "categoryCode": "39", "address": "28 - 173 ADVANCE BLVD", "city": "BRAMPTON", "province": "ON", "country": "CA", "postalCode": "L6T4Z7", "twitter": "None", "instagram": "None", "facebook": "None", "youtube": "None", "website": "None", "summary": "None", "logo": "None", "latitude": 43.693352782099545, "longitude": -79.69295737670996}, "848191060RR0001": {"name": "Somali Hope Academy Foundation", "designationCode": "C", "categoryCode": "20", "address": "3357 MCCARTHY ROAD", "city": "OTTAWA", "province": "ON", "country": "CA", "postalCode": "K1V9G5", "twitter": "None", "instagram": "None", "facebook": "None", "youtube": "None", "website": "None", "summary": "None", "logo": "None", "latitude": 45.350954320065654, "longitude": -75.66709620338854}, "841741085RR0001": {"name": "Somali Islamic Society of BC", "designationCode": "C", "categoryCode": "60", "address": "13478 78 AVE", "city": "SURREY", "province": "BC", "country": "CA", "postalCode": "V3W8J6", "twitter": "None", "instagram": "None", "facebook": "None", "youtube": "None", "website": "None", "summary": "None", "logo": "None", "latitude": 49.144500525102536, "longitude": -122.84913052553523}, "851928986RR0001": {"name": "Somang Mission Community", "designationCode": "C", "categoryCode": "39", "address": "1680 BANN ST", "city": "MERRITT", "province": "BC", "country": "CA", "postalCode": "V1K1E9", "twitter": "None", "instagram": "None", "facebook": "None", "youtube": "None", "website": "None", "summary": "None", "logo": "None", "latitude": 50.10267407271054, "longitude": -120.76546187466116}, "805656022RR0001": {"name": "Some Assembly Arts Society", "designationCode": "C", "categoryCode": "22", "address": "844 GARDEN DR", "city": "VANCOUVER", "province": "BC", "country": "CA", "postalCode": "V5L4P8", "twitter": "None", "instagram": "None", "facebook": "None", "youtube": "None", "website": "None", "summary": "None", "logo": "None", "latitude": 49.27705116180968, "longitude": -123.05783886730356}, "800956211RR0001": {"name": "Some Day is Now International", "designationCode": "C", "categoryCode": "21", "address": "172 DAVENTRY CRES", "city": "NEPEAN", "province": "ON", "country": "CA", "postalCode": "K2J4N1", "twitter": "None", "instagram": "None", "facebook": "None", "youtube": "None", "website": "None", "summary": "None", "logo": "None", "latitude": 45.28915252236125, "longitude": -75.73695747706185}, "856543921RR0001": {"name": "Some Strange Reason Theatreworks Inc.", "designationCode": "C", "categoryCode": "22", "address": "89 ISABELLA ST", "city": "TORONTO", "province": "ON", "country": "CA", "postalCode": "M4Y1N8", "twitter": "None", "instagram": "None", "facebook": "None", "youtube": "None", "website": "None", "summary": "None", "logo": "None", "latitude": 43.66858084205679, "longitude": -79.38068537301636}, "834727430RR0001": {"name": "Someone Cares Support Inc.", "designationCode": "C", "categoryCode": "09", "address": "200 WELLESLEY STREET EAST     SUITE 2022", "city": "TORONTO", "province": "ON", "country": "CA", "postalCode": "M4X1G3", "twitter": "None", "instagram": "None", "facebook": "None", "youtube": "None", "website": "None", "summary": "None", "logo": "None", "latitude": 43.6679778923192, "longitude": -79.37403112735899}, "751611120RR0001": {"name": "Somerset Lorne Citizen Museum", "designationCode": "C", "categoryCode": "50", "address": "POST OFFICE BOX 8", "city": "SOMERSET", "province": "MB", "country": "CA", "postalCode": "R0G2L0", "twitter": "None", "instagram": "None", "facebook": "None", "youtube": "None", "website": "None", "summary": "None", "logo": "None", "latitude": 49.411550000000034, "longitude": -98.65896999999995}, "842894057RR0001": {"name": "Sommerfeld Mennonite Church Of Manitoba", "designationCode": "C", "categoryCode": "34", "address": "PO BOX 2559", "city": "WINKLER", "province": "MB", "country": "CA", "postalCode": "R6W4C3", "twitter": "None", "instagram": "None", "facebook": "None", "youtube": "None", "website": "None", "summary": "None", "logo": "None", "latitude": 49.17773400000006, "longitude": -97.93841299999994}, "806015657RR0001": {"name": "Sonora Evangelical Ministries", "designationCode": "C", "categoryCode": "09", "address": "32 BLAKER PLACE", "city": "WHITEHORSE", "province": "YT", "country": "CA", "postalCode": "Y1A6R9", "twitter": "None", "instagram": "None", "facebook": "None", "youtube": "None", "website": "None", "summary": "None", "logo": "None", "latitude": 60.619655788764646, "longitude": -134.97743209556268}, "805667631RR0001": {"name": "Sonrise Light House Fellowship", "designationCode": "C", "categoryCode": "36", "address": "650 ST. ANNES RD", "city": "ARMSTRONG", "province": "BC", "country": "CA", "postalCode": "V0E1B5", "twitter": "None", "instagram": "None", "facebook": "None", "youtube": "None", "website": "None", "summary": "None", "logo": "None", "latitude": 50.38542446782904, "longitude": -119.30603231716229}, "813737590RR0001": {"name": "Sonrise New Directions Society", "designationCode": "C", "categoryCode": "57", "address": "2584 HAZELTON ST", "city": "PRINCE GEORGE", "province": "BC", "country": "CA", "postalCode": "V2L1H1", "twitter": "None", "instagram": "None", "facebook": "None", "youtube": "None", "website": "None", "summary": "None", "logo": "None", "latitude": 53.89703114806281, "longitude": -122.73817948934946}, "813195138RR0001": {"name": "Sons of Scotland Foundation", "designationCode": "A", "categoryCode": "03", "address": "P.O. BOX 45543 CHAPMAN MILLS", "city": "OTTAWA", "province": "ON", "country": "CA", "postalCode": "K2J0P9", "twitter": "None", "instagram": "None", "facebook": "None", "youtube": "None", "website": "None", "summary": "None", "logo": "None", "latitude": 45.27419999075136, "longitude": -75.71822008894537}, "864453543RR0001": {"name": "Sonshine Community Ministries (Ottawa)", "designationCode": "C", "categoryCode": "59", "address": "1807 ST. JOSEPH BOULEVARD     UNIT 307", "city": "ORLEANS", "province": "ON", "country": "CA", "postalCode": "K1C7C6", "twitter": "None", "instagram": "None", "facebook": "None", "youtube": "None", "website": "None", "summary": "None", "logo": "None", "latitude": 45.46171522848934, "longitude": -75.54736948545771}, "119288918RR1585": {"name": "Sooke, British Columbia Congregation of Jehovah's Witnesses", "designationCode": "C", "categoryCode": "61", "address": "2207 CHURCH RD", "city": "SOOKE", "province": "BC", "country": "CA", "postalCode": "V9Z0W2", "twitter": "None", "instagram": "None", "facebook": "None", "youtube": "None", "website": "None", "summary": "None", "logo": "None", "latitude": 48.38406997136542, "longitude": -123.72167830980824}, "804957090RR0001": {"name": "Soong Ching Ling Children's Foundation of Canada", "designationCode": "C", "categoryCode": "21", "address": "3 - 8431 GRANVILLE ST", "city": "VANCOUVER", "province": "BC", "country": "CA", "postalCode": "V6P4Z9", "twitter": "None", "instagram": "None", "facebook": "None", "youtube": "None", "website": "None", "summary": "None", "logo": "None", "latitude": 49.210146199001684, "longitude": -123.14049552723732}, "829140896RR0001": {"name": "Sophia Recovery Centre Inc.", "designationCode": "C", "categoryCode": "57", "address": "83 HAZEN STREET               APT. 1", "city": "SAINT JOHN", "province": "NB", "country": "CA", "postalCode": "E2L3L2", "twitter": "None", "instagram": "None", "facebook": "None", "youtube": "None", "website": "None", "summary": "None", "logo": "None", "latitude": 45.27844104607878, "longitude": -66.05929493464706}, "828371419RR0001": {"name": "Sophie's Dog Adoption", "designationCode": "C", "categoryCode": "54", "address": "4 - 1070 BOUL DECARIE", "city": "MONTREAL", "province": "QC", "country": "CA", "postalCode": "H4A3H9", "twitter": "None", "instagram": "None", "facebook": "None", "youtube": "None", "website": "None", "summary": "None", "logo": "None", "latitude": 45.47209784067182, "longitude": -73.60393255219562}, "824936975RR0001": {"name": "Sorrento and Area Community Health Centre Society", "designationCode": "C", "categoryCode": "11", "address": "POST OFFICE BOX 193", "city": "SORRENTO", "province": "BC", "country": "CA", "postalCode": "V0E2W0", "twitter": "None", "instagram": "None", "facebook": "None", "youtube": "None", "website": "None", "summary": "None", "logo": "None", "latitude": 50.876910000000066, "longitude": -119.47016999999994}, "864667522RR0001": {"name": "Sorrento Centre Book Shoppe Auxiliary", "designationCode": "A", "categoryCode": "43", "address": "1159 PASSCHENDAELE RD         PO BOX 99", "city": "SORRENTO", "province": "BC", "country": "CA", "postalCode": "V0E2W0", "twitter": "None", "instagram": "None", "facebook": "None", "youtube": "None", "website": "None", "summary": "None", "logo": "None", "latitude": 50.87824824314721, "longitude": -119.47452048193794}, "824086250RR0001": {"name": "Sou'West Nova Transit Association", "designationCode": "C", "categoryCode": "09", "address": "PO BOX 84", "city": "BARRINGTON", "province": "NS", "country": "CA", "postalCode": "B0W1E0", "twitter": "None", "instagram": "None", "facebook": "None", "youtube": "None", "website": "None", "summary": "None", "logo": "None", "latitude": 44.107428523541074, "longitude": -66.06027088088527}, "819865387RR0001": {"name": "Soul Dancers", "designationCode": "B", "categoryCode": "01", "address": "19 MCBETH PLACE", "city": "BROOKLIN", "province": "ON", "country": "CA", "postalCode": "L1M1E7", "twitter": "None", "instagram": "None", "facebook": "None", "youtube": "None", "website": "None", "summary": "None", "logo": "None", "latitude": 43.963041867592025, "longitude": -78.94793595822038}, "847168960RR0001": {"name": "Soul Edge Ministries, Inc.", "designationCode": "B", "categoryCode": "39", "address": "P.O. BOX 274", "city": "HERBERT", "province": "SK", "country": "CA", "postalCode": "S0H2A0", "twitter": "None", "instagram": "None", "facebook": "None", "youtube": "None", "website": "None", "summary": "None", "logo": "None", "latitude": 50.42651921542417, "longitude": -107.22535903213169}, "801097262RR0001": {"name": "Soul Warriors Inc.", "designationCode": "B", "categoryCode": "11", "address": "51 - 700 RIVER RD", "city": "WINNIPEG", "province": "MB", "country": "CA", "postalCode": "R2M5A4", "twitter": "None", "instagram": "None", "facebook": "None", "youtube": "None", "website": "None", "summary": "None", "logo": "None", "latitude": 49.818204984188306, "longitude": -97.11812536799604}, "855156683RR0001": {"name": "Soulocentric Performing Arts Society", "designationCode": "C", "categoryCode": "22", "address": "710-20 CROWFOOT CRES NW       SUITE 866", "city": "CALGARY", "province": "AB", "country": "CA", "postalCode": "T3G2P6", "twitter": "None", "instagram": "None", "facebook": "None", "youtube": "None", "website": "None", "summary": "None", "logo": "None", "latitude": 51.1252893333182, "longitude": -114.20010554111325}, "829596303RR0001": {"name": "Souls for Christ Ministries", "designationCode": "C", "categoryCode": "39", "address": "33 SANDBAR WILLOWAY", "city": "TORONTO", "province": "ON", "country": "CA", "postalCode": "M2J2B1", "twitter": "None", "instagram": "None", "facebook": "None", "youtube": "None", "website": "None", "summary": "None", "logo": "None", "latitude": 43.77769876934627, "longitude": -79.36685525936295}, "800628414RR0001": {"name": "Souls Friendly Ministry", "designationCode": "C", "categoryCode": "47", "address": "1 - 81 MUNRO ST", "city": "TORONTO", "province": "ON", "country": "CA", "postalCode": "M4M2S7", "twitter": "None", "instagram": "None", "facebook": "None", "youtube": "None", "website": "None", "summary": "None", "logo": "None", "latitude": 43.661393622540224, "longitude": -79.35275101858166}, "816097067RR0001": {"name": "Souls Harbour Rescue Mission", "designationCode": "C", "categoryCode": "09", "address": "PO BOX 9255  RPO CSC", "city": "HALIFAX", "province": "NS", "country": "CA", "postalCode": "B3K5K2", "twitter": "None", "instagram": "None", "facebook": "None", "youtube": "None", "website": "None", "summary": "None", "logo": "None", "latitude": 44.67230700000006, "longitude": -63.61604899999993}, "805291242RR0001": {"name": "Sounds of the Next Generation", "designationCode": "C", "categoryCode": "22", "address": "7893 CAVAN RD                 RR 2", "city": "HAMILTON TOWNSHIP", "province": "ON", "country": "CA", "postalCode": "K0L1E0", "twitter": "None", "instagram": "None", "facebook": "None", "youtube": "None", "website": "None", "summary": "None", "logo": "None", "latitude": 44.08312457025038, "longitude": -78.30567562923416}, "838170132RR0001": {"name": "Sounds of Hope Foundation", "designationCode": "B", "categoryCode": "03", "address": "SUITE 1250 - 1500 WEST GEORGIABOX 62", "city": "VANCOUVER", "province": "BC", "country": "CA", "postalCode": "V6G2Z6", "twitter": "None", "instagram": "None", "facebook": "None", "youtube": "None", "website": "None", "summary": "None", "logo": "None", "latitude": 49.29029700000005, "longitude": -123.13028599999993}, "828276915RR0001": {"name": "Soup Sisters and Broth Brothers Society", "designationCode": "C", "categoryCode": "09", "address": "176 MALIBOU RD. SW", "city": "CALGARY", "province": "AB", "country": "CA", "postalCode": "T2V1X9", "twitter": "None", "instagram": "None", "facebook": "None", "youtube": "None", "website": "None", "summary": "None", "logo": "None", "latitude": 50.99534949653754, "longitude": -114.08955283236193}, "834522435RR0001": {"name": "Soup's On Inc.", "designationCode": "C", "categoryCode": "09", "address": "430 THIRD STREET", "city": "STEINBACH", "province": "MB", "country": "CA", "postalCode": "R5G0K5", "twitter": "None", "instagram": "None", "facebook": "None", "youtube": "None", "website": "None", "summary": "None", "logo": "None", "latitude": 49.519371852258075, "longitude": -96.68273351628659}, "740400296RR0001": {"name": "Soupe au bouton", "designationCode": "C", "categoryCode": "09", "address": "24 - 318 RUE VERREAULT", "city": "SAINT-JEAN-PORT-JOLI", "province": "QC", "country": "CA", "postalCode": "G0R3G0", "twitter": "None", "instagram": "None", "facebook": "None", "youtube": "None", "website": "None", "summary": "None", "logo": "None", "latitude": 47.21368916287755, "longitude": -70.26482837780556}, "890780976RR0001": {"name": "Soupe et Compagnie des Pays-d'en-Haut", "designationCode": "C", "categoryCode": "09", "address": "205, RUE PRINCIPALE", "city": "ST-SAUVEUR", "province": "QC", "country": "CA", "postalCode": "J0R1R0", "twitter": "None", "instagram": "None", "facebook": "None", "youtube": "None", "website": "None", "summary": "None", "logo": "None", "latitude": 45.895501600092096, "longitude": -74.15683109983229}, "737037895RR0001": {"name": "Soupe pour elles", "designationCode": "A", "categoryCode": "03", "address": "1717 RUE DU HAVRE", "city": "MONTREAL", "province": "QC", "country": "CA", "postalCode": "H2K2X3", "twitter": "None", "instagram": "None", "facebook": "None", "youtube": "None", "website": "None", "summary": "None", "logo": "None", "latitude": 45.531803510184865, "longitude": -73.54768035674331}, "815857974RR0001": {"name": "Souper du partage Jean Pelchat", "designationCode": "C", "categoryCode": "09", "address": "3295, RUE BEL-AIR", "city": "SHERBROOKE", "province": "QC", "country": "CA", "postalCode": "J1L1A9", "twitter": "None", "instagram": "None", "facebook": "None", "youtube": "None", "website": "None", "summary": "None", "logo": "None", "latitude": 45.39592599751849, "longitude": -71.95163851485941}, "807216320RR0001": {"name": "Source of Light Ministries Inc.", "designationCode": "C", "categoryCode": "47", "address": "905 23RD ST WEST", "city": "SASKATOON", "province": "SK", "country": "CA", "postalCode": "S7L0A5", "twitter": "None", "instagram": "None", "facebook": "None", "youtube": "None", "website": "None", "summary": "None", "logo": "None", "latitude": 52.13023254674263, "longitude": -106.68337263918865}, "830429486RR0001": {"name": "Sources of Knowledge Forum", "designationCode": "C", "categoryCode": "59", "address": "P.O. BOX 374                  220 ISTHMUS BAY RD", "city": "LION'S HEAD", "province": "ON", "country": "CA", "postalCode": "N0H1W0", "twitter": "None", "instagram": "None", "facebook": "None", "youtube": "None", "website": "None", "summary": "None", "logo": "None", "latitude": 45.011258821541894, "longitude": -81.27277873339503}, "888728664RR0001": {"name": "Sources Community Resources Foundation", "designationCode": "A", "categoryCode": "53", "address": "882 MAPLE STREET", "city": "WHITE ROCK", "province": "BC", "country": "CA", "postalCode": "V4B4M2", "twitter": "None", "instagram": "None", "facebook": "None", "youtube": "None", "website": "None", "summary": "None", "logo": "None", "latitude": 49.01805933527612, "longitude": -122.78882111486551}, "138719166RR0001": {"name": "Sourire Sans Fin", "designationCode": "C", "categoryCode": "09", "address": "2A RUE SAINTE-FAMILLE", "city": "SAINT-REMI", "province": "QC", "country": "CA", "postalCode": "J0L2L0", "twitter": "None", "instagram": "None", "facebook": "None", "youtube": "None", "website": "None", "summary": "None", "logo": "None", "latitude": 45.255751993695654, "longitude": -73.62112391307463}, "136685245RR0001": {"name": "Souris Congregate Meals Committee Inc.", "designationCode": "C", "categoryCode": "09", "address": "PO BOX 217", "city": "SOURIS", "province": "MB", "country": "CA", "postalCode": "R0K2C0", "twitter": "None", "instagram": "None", "facebook": "None", "youtube": "None", "website": "None", "summary": "None", "logo": "None", "latitude": 49.59915625917259, "longitude": -99.8622610573006}, "895669216RR0001": {"name": "Souris Show Hall Foundation Ltd.", "designationCode": "C", "categoryCode": "22", "address": "P.O. BOX 672", "city": "CHARLOTTETOWN", "province": "PE", "country": "CA", "postalCode": "C1A7L3", "twitter": "None", "instagram": "None", "facebook": "None", "youtube": "None", "website": "None", "summary": "None", "logo": "None", "latitude": 46.23659700000006, "longitude": -63.12815449999994}, "824633887RR0001": {"name": "Souris Valley Museum Inc.", "designationCode": "C", "categoryCode": "50", "address": "PO BOX 1768 STN MAIN", "city": "ESTEVAN", "province": "SK", "country": "CA", "postalCode": "S4A1C8", "twitter": "None", "instagram": "None", "facebook": "None", "youtube": "None", "website": "None", "summary": "None", "logo": "None", "latitude": 49.140249000000054, "longitude": -102.99454999999993}, "859553026RR0001": {"name": "Souris Valley Theatre Inc.", "designationCode": "C", "categoryCode": "22", "address": "BOX 1501", "city": "ESTEVAN", "province": "SK", "country": "CA", "postalCode": "S4A2L7", "twitter": "None", "instagram": "None", "facebook": "None", "youtube": "None", "website": "None", "summary": "None", "logo": "None", "latitude": 49.140249000000054, "longitude": -102.99454999999993}, "823246913RR0001": {"name": "Sous le toit de P.A.L.", "designationCode": "C", "categoryCode": "09", "address": "4075, RUE VERDUN", "city": "MONTR\u00c9AL", "province": "QC", "country": "CA", "postalCode": "H4G1L1", "twitter": "None", "instagram": "None", "facebook": "None", "youtube": "None", "website": "None", "summary": "None", "logo": "None", "latitude": 45.4631981909516, "longitude": -73.57146172107444}, "821762523RR0001": {"name": "Sous le Toit de l'\u00c9chelon", "designationCode": "C", "categoryCode": "09", "address": "170, RUE DE LA VALLEE-DU-GOLF", "city": "SAINTE-ADELE", "province": "QC", "country": "CA", "postalCode": "J8B1P5", "twitter": "None", "instagram": "None", "facebook": "None", "youtube": "None", "website": "None", "summary": "None", "logo": "None", "latitude": 45.94570853551021, "longitude": -74.12169251807121}, "808568331RR0001": {"name": "South Alberta FASD Society", "designationCode": "C", "categoryCode": "11", "address": "217 COACHWOOD POINT WEST", "city": "LETHBRIDGE", "province": "AB", "country": "CA", "postalCode": "T1K6A7", "twitter": "None", "instagram": "None", "facebook": "None", "youtube": "None", "website": "None", "summary": "None", "logo": "None", "latitude": 49.69121119069179, "longitude": -112.87548800903103}, "822333829RR0001": {"name": "South Asian Autism Awareness Centre", "designationCode": "C", "categoryCode": "11", "address": "1 - 1970 ELLESMERE RD", "city": "SCARBOROUGH", "province": "ON", "country": "CA", "postalCode": "M1H2W1", "twitter": "None", "instagram": "None", "facebook": "None", "youtube": "None", "website": "None", "summary": "None", "logo": "None", "latitude": 43.775144215216464, "longitude": -79.23800674470509}, "814344537RR0001": {"name": "South Asian Evangelical Free Church (Edmonton)", "designationCode": "C", "categoryCode": "39", "address": "2812 34A AVENUE", "city": "EDMONTON", "province": "AB", "country": "CA", "postalCode": "T6T1Y8", "twitter": "None", "instagram": "None", "facebook": "None", "youtube": "None", "website": "None", "summary": "None", "logo": "None", "latitude": 53.46813648017758, "longitude": -113.38352419703976}, "823232897RR0001": {"name": "South Asian Long Term Care Foundation", "designationCode": "C", "categoryCode": "09", "address": "9338-34 AVENUE", "city": "EDMONTON", "province": "AB", "country": "CA", "postalCode": "T6E5X8", "twitter": "None", "instagram": "None", "facebook": "None", "youtube": "None", "website": "None", "summary": "None", "logo": "None", "latitude": 53.46626402752579, "longitude": -113.47596314677739}, "815920509RR0001": {"name": "South Bay Chapel \"The Bridge\"", "designationCode": "C", "categoryCode": "39", "address": "57 CHURCH STREET              POST OFFICE BOX 37", "city": "SOUTH BAYMOUTH", "province": "ON", "country": "CA", "postalCode": "P0P1Z0", "twitter": "None", "instagram": "None", "facebook": "None", "youtube": "None", "website": "None", "summary": "None", "logo": "None", "latitude": 45.5615899203862, "longitude": -82.01101595266489}, "779605914RR0001": {"name": "South Branch Cemetery of South Branch in the County of Colchester", "designationCode": "C", "categoryCode": "59", "address": "34 SOMERSET DR", "city": "BIBLE HILL", "province": "NS", "country": "CA", "postalCode": "B6L4J2", "twitter": "None", "instagram": "None", "facebook": "None", "youtube": "None", "website": "None", "summary": "None", "logo": "None", "latitude": 45.37338185625237, "longitude": -63.227109497662724}, "814685525RR0001": {"name": "South Calgary Athletic Facilities Foundation Inc", "designationCode": "C", "categoryCode": "56", "address": "4500 - 855 2 ST SW", "city": "CALGARY", "province": "AB", "country": "CA", "postalCode": "T2P4K7", "twitter": "None", "instagram": "None", "facebook": "None", "youtube": "None", "website": "None", "summary": "None", "logo": "None", "latitude": 51.04920186667524, "longitude": -114.0676309458328}, "118889633RR0001": {"name": "South Cayuga Community Church", "designationCode": "C", "categoryCode": "44", "address": "6182 RAINHAM ROAD", "city": "DUNNVILLE", "province": "ON", "country": "CA", "postalCode": "N1A2W8", "twitter": "None", "instagram": "None", "facebook": "None", "youtube": "None", "website": "None", "summary": "None", "logo": "None", "latitude": 42.87212016573319, "longitude": -79.72599547075676}, "107995060RR0001": {"name": "South Central Early Childhood Intervention Program Inc.", "designationCode": "C", "categoryCode": "09", "address": "BOX 55", "city": "MOOSE JAW", "province": "SK", "country": "CA", "postalCode": "S6H4N7", "twitter": "None", "instagram": "None", "facebook": "None", "youtube": "None", "website": "None", "summary": "None", "logo": "None", "latitude": 50.39688300000006, "longitude": -105.53701399999993}, "119157188RR0001": {"name": "South Country Assistance Inc.", "designationCode": "C", "categoryCode": "09", "address": "BOX 951", "city": "ASSINIBOIA", "province": "SK", "country": "CA", "postalCode": "S0H0B0", "twitter": "None", "instagram": "None", "facebook": "None", "youtube": "None", "website": "None", "summary": "None", "logo": "None", "latitude": 49.63287300000006, "longitude": -105.99348049999993}, "119198620RR0001": {"name": "South Dundas Lutheran Community Church", "designationCode": "C", "categoryCode": "32", "address": "P.O. BOX 39,                  12367 COUNTY RD 18", "city": "WILLIAMSBURG", "province": "ON", "country": "CA", "postalCode": "K0C2H0", "twitter": "None", "instagram": "None", "facebook": "None", "youtube": "None", "website": "None", "summary": "None", "logo": "None", "latitude": 44.97436152484274, "longitude": -75.24468840244673}, "826318412RR0001": {"name": "South East Regional Adult Learning Board Inc.", "designationCode": "C", "categoryCode": "21", "address": "PO BOX 566                    281 ST. GEORGE ST", "city": "MONCTON", "province": "NB", "country": "CA", "postalCode": "E1C8L9", "twitter": "None", "instagram": "None", "facebook": "None", "youtube": "None", "website": "None", "summary": "None", "logo": "None", "latitude": 46.09073719790515, "longitude": -64.78496676187311}, "891801045RR0001": {"name": "South East Rocky View Food Bank Society", "designationCode": "C", "categoryCode": "09", "address": "PO BOX 49", "city": "LANGDON", "province": "AB", "country": "CA", "postalCode": "T0J1X0", "twitter": "None", "instagram": "None", "facebook": "None", "youtube": "None", "website": "None", "summary": "None", "logo": "None", "latitude": 50.853114000000005, "longitude": -113.46866660697509}, "898395934RR0001": {"name": "South Fish Creek Recreation Association (S.F.C.R.A)", "designationCode": "C", "categoryCode": "55", "address": "100 333 SHAWVILLE BLVD SE", "city": "CALGARY", "province": "AB", "country": "CA", "postalCode": "T2Y4H3", "twitter": "None", "instagram": "None", "facebook": "None", "youtube": "None", "website": "None", "summary": "None", "logo": "None", "latitude": 50.89889699999999, "longitude": -114.06294899999999}, "844194019RR0001": {"name": "South Foundation", "designationCode": "C", "categoryCode": "11", "address": "1250-1500 WEST GEORGIA ST     BOX 62", "city": "VANCOUVER", "province": "BC", "country": "CA", "postalCode": "V6G2Z6", "twitter": "None", "instagram": "None", "facebook": "None", "youtube": "None", "website": "None", "summary": "None", "logo": "None", "latitude": 49.290187500000016, "longitude": -123.130035}, "758927727RR0001": {"name": "South Georgian Bay Music Foundation", "designationCode": "C", "categoryCode": "22", "address": "22 KELLS CRESCENT,", "city": "COLLINGWOOD", "province": "ON", "country": "CA", "postalCode": "L9Y0A8", "twitter": "None", "instagram": "None", "facebook": "None", "youtube": "None", "website": "None", "summary": "None", "logo": "None", "latitude": 44.49622177324142, "longitude": -80.26206765462499}, "846088813RR0001": {"name": "South Green Lake Volunteer Fire Department", "designationCode": "C", "categoryCode": "59", "address": "546 GREEN LAKE SOUTH RD", "city": "70 MILE HOUSE", "province": "BC", "country": "CA", "postalCode": "V0K2K2", "twitter": "None", "instagram": "None", "facebook": "None", "youtube": "None", "website": "None", "summary": "None", "logo": "None", "latitude": 51.38778813833059, "longitude": -121.24144231521356}, "855497194RR0001": {"name": "South Island Training Initiative Society", "designationCode": "C", "categoryCode": "20", "address": "PHOENIX HUMAN SERVICES ASSOC. 1095 MCKENZIE AVENUE, 4TH FL.", "city": "VICTORIA", "province": "BC", "country": "CA", "postalCode": "V8P2L5", "twitter": "None", "instagram": "None", "facebook": "None", "youtube": "None", "website": "None", "summary": "None", "logo": "None", "latitude": 48.47030970717854, "longitude": -123.3614640551191}, "820375327RR0001": {"name": "South Maitland Cemetery", "designationCode": "B", "categoryCode": "59", "address": "10737 HIGHWAY 215", "city": "SOUTH MAITLAND", "province": "NS", "country": "CA", "postalCode": "B0N2H0", "twitter": "None", "instagram": "None", "facebook": "None", "youtube": "None", "website": "None", "summary": "None", "logo": "None", "latitude": 45.239688118507765, "longitude": -63.45818315957928}, "892248675RR0001": {"name": "South Okanagan Similkameen Mental Wellness Society", "designationCode": "C", "categoryCode": "11", "address": "118 - 246 MARTIN ST", "city": "PENTICTON", "province": "BC", "country": "CA", "postalCode": "V2A5K3", "twitter": "None", "instagram": "None", "facebook": "None", "youtube": "None", "website": "None", "summary": "None", "logo": "None", "latitude": 49.49941109186912, "longitude": -119.59399933651687}}