{"867331662RR0001": {"name": "POUCH COVE-BAULINE PASTORAL CHARGE", "designationCode": "C", "categoryCode": "44", "address": "PO BOX 56", "city": "POUCH COVE", "province": "NL", "country": "CA", "postalCode": "A0A3L0", "twitter": "None", "instagram": "None", "facebook": "None", "youtube": "None", "website": "None", "summary": "None", "logo": "None", "latitude": 47.74800845209054, "longitude": -52.78861729827156}, "128626363RR0001": {"name": "POULTRY INDUSTRY COUNCIL FOR RESEARCH AND EDUCATION (ARKELL)", "designationCode": "C", "categoryCode": "21", "address": "483 ARKELL RD                 RR 2", "city": "GUELPH", "province": "ON", "country": "CA", "postalCode": "N1H6H8", "twitter": "None", "instagram": "None", "facebook": "None", "youtube": "None", "website": "None", "summary": "None", "logo": "None", "latitude": 43.53220752225406, "longitude": -80.17448493364991}, "889727160RR0001": {"name": "POUND RESCUE", "designationCode": "C", "categoryCode": "54", "address": "305 SUNTREE PLACE", "city": "OKOTOKS", "province": "AB", "country": "CA", "postalCode": "T1S1C2", "twitter": "None", "instagram": "None", "facebook": "None", "youtube": "None", "website": "None", "summary": "None", "logo": "None", "latitude": 50.73449567638065, "longitude": -113.97253965387517}, "107854531RR0001": {"name": "POUNDMAKERS LODGE TREATMENT CENTRES (THE SOCIETY)", "designationCode": "C", "categoryCode": "57", "address": "PO BOX 34007 RPO KINGSWAY MALL", "city": "EDMONTON", "province": "AB", "country": "CA", "postalCode": "T5G3G4", "twitter": "None", "instagram": "None", "facebook": "None", "youtube": "None", "website": "None", "summary": "None", "logo": "None", "latitude": 53.56275000000005, "longitude": -113.50697999999994}, "856633334RR0001": {"name": "POUNDS PER SQUARE INCH PERFORMANCE", "designationCode": "C", "categoryCode": "22", "address": "506 - 89 ISABELLA ST", "city": "TORONTO", "province": "ON", "country": "CA", "postalCode": "M4Y1N8", "twitter": "None", "instagram": "None", "facebook": "None", "youtube": "None", "website": "None", "summary": "None", "logo": "None", "latitude": 43.66858084205679, "longitude": -79.38068537301636}, "881140214RR0001": {"name": "POUR TOUS LES BOUTS DE CHOU / LOTS FOR TOTS", "designationCode": "C", "categoryCode": "09", "address": "201 CH. KIPAWA                C.P. 1189", "city": "TEMISCAMING", "province": "QC", "country": "CA", "postalCode": "J0Z3R0", "twitter": "None", "instagram": "None", "facebook": "None", "youtube": "None", "website": "None", "summary": "None", "logo": "None", "latitude": 46.716678995008344, "longitude": -79.10220831721406}, "893678276RR0001": {"name": "POUSSONS POUSSETTES DU QUARTIER CENTRE-SUD DE MONTREAL", "designationCode": "C", "categoryCode": "09", "address": "1850, RUE BERCY               APP. 102", "city": "MONTR\u00c9AL", "province": "QC", "country": "CA", "postalCode": "H2K2V2", "twitter": "None", "instagram": "None", "facebook": "None", "youtube": "None", "website": "None", "summary": "None", "logo": "None", "latitude": 45.534001373247506, "longitude": -73.54953281519391}, "129922902RR0001": {"name": "POVERELLO CHARITIES ONTARIO", "designationCode": "C", "categoryCode": "49", "address": "203 BERKELEY ST", "city": "TORONTO", "province": "ON", "country": "CA", "postalCode": "M5A2X3", "twitter": "None", "instagram": "None", "facebook": "None", "youtube": "None", "website": "None", "summary": "None", "logo": "None", "latitude": 43.65701009853423, "longitude": -79.36642868815296}, "896102886RR0001": {"name": "POWASSAN AGRICULTURAL SOCIETY", "designationCode": "C", "categoryCode": "59", "address": "BOX 147", "city": "POWASSAN", "province": "ON", "country": "CA", "postalCode": "P0H1Z0", "twitter": "None", "instagram": "None", "facebook": "None", "youtube": "None", "website": "None", "summary": "None", "logo": "None", "latitude": 46.08195000000006, "longitude": -79.36405999999994}, "890766140RR0001": {"name": "POWASSAN AND DISTRICT FOOD BANK", "designationCode": "C", "categoryCode": "09", "address": "BOX 666", "city": "POWASSAN", "province": "ON", "country": "CA", "postalCode": "P0H1Z0", "twitter": "None", "instagram": "None", "facebook": "None", "youtube": "None", "website": "None", "summary": "None", "logo": "None", "latitude": 46.08195000000006, "longitude": -79.36405999999994}, "119288918RR0251": {"name": "POWASSAN ONTARIO CONGREGATION OF JEHOVAH'S WITNESSES", "designationCode": "C", "categoryCode": "61", "address": "861 HWY 534", "city": "POWASSAN", "province": "ON", "country": "CA", "postalCode": "P0H1Z0", "twitter": "None", "instagram": "None", "facebook": "None", "youtube": "None", "website": "None", "summary": "None", "logo": "None", "latitude": 46.06769812582338, "longitude": -79.42193784701433}, "107854622RR0001": {"name": "POWASSAN UNITED CHURCH", "designationCode": "C", "categoryCode": "44", "address": "BOX 436", "city": "POWASSAN", "province": "ON", "country": "CA", "postalCode": "P0H1Z0", "twitter": "None", "instagram": "None", "facebook": "None", "youtube": "None", "website": "None", "summary": "None", "logo": "None", "latitude": 46.08195000000006, "longitude": -79.36405999999994}, "119097442RR0001": {"name": "POWASSAN WESLEYAN CHURCH", "designationCode": "C", "categoryCode": "39", "address": "P.O. BOX 172", "city": "POWASSAN", "province": "ON", "country": "CA", "postalCode": "P0H1Z0", "twitter": "None", "instagram": "None", "facebook": "None", "youtube": "None", "website": "None", "summary": "None", "logo": "None", "latitude": 46.08195000000006, "longitude": -79.36405999999994}, "896803020RR0001": {"name": "POWELL AVENUE COMMUNITY PLAYGROUND INCORPORATED", "designationCode": "C", "categoryCode": "56", "address": "109 POWELL AVENUE", "city": "SOUTH PORCUPINE", "province": "ON", "country": "CA", "postalCode": "P0N1H0", "twitter": "None", "instagram": "None", "facebook": "None", "youtube": "None", "website": "None", "summary": "None", "logo": "None", "latitude": 48.482868819438856, "longitude": -81.20961251157314}, "119288918RR0746": {"name": "POWELL LAKE CONGREGATION OF JEHOVAH'S WITNESSES", "designationCode": "C", "categoryCode": "61", "address": "4946 MANSON AVENUE", "city": "POWELL RIVER", "province": "BC", "country": "CA", "postalCode": "V8A3N7", "twitter": "None", "instagram": "None", "facebook": "None", "youtube": "None", "website": "None", "summary": "None", "logo": "None", "latitude": 49.849785, "longitude": -124.50939140319747}, "119097483RR0001": {"name": "POWELL RIVER ACADEMY OF MUSIC", "designationCode": "C", "categoryCode": "22", "address": "7280 KEMANO ST", "city": "POWELL RIVER", "province": "BC", "country": "CA", "postalCode": "V8A1M2", "twitter": "None", "instagram": "None", "facebook": "None", "youtube": "None", "website": "None", "summary": "None", "logo": "None", "latitude": 49.8278811307687, "longitude": -124.50931278925373}, "119097491RR0001": {"name": "POWELL RIVER ACTION CENTRE SOCIETY", "designationCode": "C", "categoryCode": "09", "address": "6812D ALBERNI ST", "city": "POWELL RIVER", "province": "BC", "country": "CA", "postalCode": "V8A2B4", "twitter": "None", "instagram": "None", "facebook": "None", "youtube": "None", "website": "None", "summary": "None", "logo": "None", "latitude": 49.84408544322319, "longitude": -124.52837065740384}, "119097517RR0001": {"name": "POWELL RIVER AND DISTRICT UNITED WAY", "designationCode": "C", "categoryCode": "03", "address": "3 - 9298 WILLIAMS RD", "city": "POWELL RIVER", "province": "BC", "country": "CA", "postalCode": "V8A0J1", "twitter": "None", "instagram": "None", "facebook": "None", "youtube": "None", "website": "None", "summary": "None", "logo": "None", "latitude": 49.774879489856765, "longitude": -124.43146525669549}, "134413368RR0001": {"name": "POWELL RIVER AND REGION TRANSITION HOUSE SOCIETY", "designationCode": "C", "categoryCode": "09", "address": "209 - 6975 ALBERNI ST", "city": "POWELL RIVER", "province": "BC", "country": "CA", "postalCode": "V8A2B8", "twitter": "None", "instagram": "None", "facebook": "None", "youtube": "None", "website": "None", "summary": "None", "logo": "None", "latitude": 49.84586596760872, "longitude": -124.52124099504812}, "868495706RR0001": {"name": "POWELL RIVER BRAIN INJURY SOCIETY", "designationCode": "C", "categoryCode": "11", "address": "101-7020 DUNCAN ST", "city": "POWELL RIVER", "province": "BC", "country": "CA", "postalCode": "V8A1V9", "twitter": "None", "instagram": "None", "facebook": "None", "youtube": "None", "website": "None", "summary": "None", "logo": "None", "latitude": 49.83580943947094, "longitude": -124.52000011491182}, "892467770RR0001": {"name": "POWELL RIVER CHILD, YOUTH AND FAMILY SERVICES SOCIETY", "designationCode": "C", "categoryCode": "09", "address": "7105 NOOTKA ST", "city": "POWELL RIVER", "province": "BC", "country": "CA", "postalCode": "V8A5E3", "twitter": "None", "instagram": "None", "facebook": "None", "youtube": "None", "website": "None", "summary": "None", "logo": "None", "latitude": 49.82135706834639, "longitude": -124.51896058305178}, "892994849RR0001": {"name": "POWELL RIVER CHRISTIAN SCHOOL SOCIETY", "designationCode": "C", "categoryCode": "20", "address": "6960 QUESNEL STREET", "city": "POWELL RIVER", "province": "BC", "country": "CA", "postalCode": "V8A1J2", "twitter": "None", "instagram": "None", "facebook": "None", "youtube": "None", "website": "None", "summary": "None", "logo": "None", "latitude": 49.81298783396331, "longitude": -124.52189473112472}, "868776782RR0001": {"name": "POWELL RIVER COMMUNITY FOUNDATION", "designationCode": "A", "categoryCode": "03", "address": "PO BOX 335 STN MAIN", "city": "POWELL RIVER", "province": "BC", "country": "CA", "postalCode": "V8A5C2", "twitter": "None", "instagram": "None", "facebook": "None", "youtube": "None", "website": "None", "summary": "None", "logo": "None", "latitude": 49.835904000000056, "longitude": -124.52381449999993}, "130725575RR0001": {"name": "POWELL RIVER COMMUNITY SERVICES ASSOCIATION", "designationCode": "C", "categoryCode": "09", "address": "209 - 6975 ALBERNI ST", "city": "POWELL RIVER", "province": "BC", "country": "CA", "postalCode": "V8A2B8", "twitter": "None", "instagram": "None", "facebook": "None", "youtube": "None", "website": "None", "summary": "None", "logo": "None", "latitude": 49.84586596760872, "longitude": -124.52124099504812}, "127527075RR0001": {"name": "POWELL RIVER FORESTRY HERITAGE SOCIETY", "designationCode": "C", "categoryCode": "50", "address": "4798 MARINE AVE, PO BOX 186", "city": "POWELL RIVER", "province": "BC", "country": "CA", "postalCode": "V8A4Z6", "twitter": "None", "instagram": "None", "facebook": "None", "youtube": "None", "website": "None", "summary": "None", "logo": "None", "latitude": 49.84436987487106, "longitude": -124.52903833367715}, "107396905RR0008": {"name": "POWELL RIVER FOURSQUARE CHURCH", "designationCode": "C", "categoryCode": "39", "address": "4640 MANSON AVE", "city": "POWELL RIVER", "province": "BC", "country": "CA", "postalCode": "V8A3N2", "twitter": "None", "instagram": "None", "facebook": "None", "youtube": "None", "website": "None", "summary": "None", "logo": "None", "latitude": 49.841226000000006, "longitude": -124.50938837434403}, "134822212RR0001": {"name": "POWELL RIVER HEALTH CARE AUXILIARY", "designationCode": "C", "categoryCode": "19", "address": "5000 JOYCE AVE", "city": "POWELL RIVER", "province": "BC", "country": "CA", "postalCode": "V8A5R3", "twitter": "None", "instagram": "None", "facebook": "None", "youtube": "None", "website": "None", "summary": "None", "logo": "None", "latitude": 49.85214340112616, "longitude": -124.5193667526115}, "107854788RR0001": {"name": "POWELL RIVER HISTORICAL MUSEUM & ARCHIVES ASSOCIATION", "designationCode": "C", "categoryCode": "50", "address": "P.O. BOX 42", "city": "POWELL RIVER", "province": "BC", "country": "CA", "postalCode": "V8A4Z5", "twitter": "None", "instagram": "None", "facebook": "None", "youtube": "None", "website": "None", "summary": "None", "logo": "None", "latitude": 49.835904000000056, "longitude": -124.52381449999993}, "856683487RR0001": {"name": "POWELL RIVER KIWANIS HOUSING SOCIETY", "designationCode": "C", "categoryCode": "09", "address": "4923 KIWANIS AVENUE", "city": "POWELL RIVER", "province": "BC", "country": "CA", "postalCode": "V8A5H5", "twitter": "None", "instagram": "None", "facebook": "None", "youtube": "None", "website": "None", "summary": "None", "logo": "None", "latitude": 49.850329187613866, "longitude": -124.5210576762738}, "892984840RR0001": {"name": "POWELL RIVER KIWANIS VILLAGE SOCIETY", "designationCode": "C", "categoryCode": "09", "address": "4923 KIWANIS AVE", "city": "POWELL RIVER", "province": "BC", "country": "CA", "postalCode": "V8A5H5", "twitter": "None", "instagram": "None", "facebook": "None", "youtube": "None", "website": "None", "summary": "None", "logo": "None", "latitude": 49.850329187613866, "longitude": -124.5210576762738}, "119097590RR0001": {"name": "POWELL RIVER MEALS ON WHEELS", "designationCode": "C", "categoryCode": "09", "address": "4919B PARSONS CRT", "city": "POWELL RIVER", "province": "BC", "country": "CA", "postalCode": "V8A5V7", "twitter": "None", "instagram": "None", "facebook": "None", "youtube": "None", "website": "None", "summary": "None", "logo": "None", "latitude": 49.84974899999999, "longitude": -124.51678874999999}, "119097608RR0001": {"name": "POWELL RIVER MINISTERIAL ASSOCIATION", "designationCode": "C", "categoryCode": "39", "address": "3676 JOYCE AVENUE", "city": "POWELL RIVER", "province": "BC", "country": "CA", "postalCode": "V8A2Y6", "twitter": "None", "instagram": "None", "facebook": "None", "youtube": "None", "website": "None", "summary": "None", "logo": "None", "latitude": 49.81526046572222, "longitude": -124.52028051255174}, "133822015RR0001": {"name": "POWELL RIVER MODEL COMMUNITY PROJECT FOR PERSONS WITH DISABILITIES", "designationCode": "C", "categoryCode": "09", "address": "4493A MARINE AVE", "city": "POWELL RIVER", "province": "BC", "country": "CA", "postalCode": "V8A2K3", "twitter": "None", "instagram": "None", "facebook": "None", "youtube": "None", "website": "None", "summary": "None", "logo": "None", "latitude": 49.83755833148907, "longitude": -124.52762643573871}, "890270994RR0001": {"name": "POWELL RIVER PARKS AND WILDERNESS SOCIETY", "designationCode": "C", "categoryCode": "52", "address": "PO BOX 345", "city": "POWELL RIVER", "province": "BC", "country": "CA", "postalCode": "V8A5C2", "twitter": "None", "instagram": "None", "facebook": "None", "youtube": "None", "website": "None", "summary": "None", "logo": "None", "latitude": 49.835904000000056, "longitude": -124.52381449999993}, "119097616RR0001": {"name": "POWELL RIVER PRO LIFE SOCIETY", "designationCode": "C", "categoryCode": "09", "address": "PO BOX 82", "city": "POWELL RIVER", "province": "BC", "country": "CA", "postalCode": "V8A4Z5", "twitter": "None", "instagram": "None", "facebook": "None", "youtube": "None", "website": "None", "summary": "None", "logo": "None", "latitude": 49.835904000000056, "longitude": -124.52381449999993}, "815182308RR0001": {"name": "POWELL RIVER PUBLIC LIBRARY", "designationCode": "C", "categoryCode": "50", "address": "6975 ALBERNI ST", "city": "POWELL RIVER", "province": "BC", "country": "CA", "postalCode": "V8A2B8", "twitter": "None", "instagram": "None", "facebook": "None", "youtube": "None", "website": "None", "summary": "None", "logo": "None", "latitude": 49.84586596760872, "longitude": -124.52124099504812}, "136856556RR0001": {"name": "POWELL RIVER REFORMED CHURCH", "designationCode": "C", "categoryCode": "47", "address": "4372 PADGETT RD", "city": "POWELL RIVER", "province": "BC", "country": "CA", "postalCode": "V8A0T2", "twitter": "None", "instagram": "None", "facebook": "None", "youtube": "None", "website": "None", "summary": "None", "logo": "None", "latitude": 49.83415701439482, "longitude": -124.49119940595392}, "119097624RR0001": {"name": "POWELL RIVER SALMON SOCIETY", "designationCode": "C", "categoryCode": "54", "address": "5775 ASH AVENUE", "city": "POWELL RIVER", "province": "BC", "country": "CA", "postalCode": "V8A4R3", "twitter": "None", "instagram": "None", "facebook": "None", "youtube": "None", "website": "None", "summary": "None", "logo": "None", "latitude": 49.87251240085821, "longitude": -124.55317041807263}, "119097632RR0001": {"name": "POWELL RIVER SCHOLARSHIP COUNCIL (1966)", "designationCode": "C", "categoryCode": "21", "address": "5400 MARINE AVENUE", "city": "POWELL RIVER", "province": "BC", "country": "CA", "postalCode": "V8A2L6", "twitter": "None", "instagram": "None", "facebook": "None", "youtube": "None", "website": "None", "summary": "None", "logo": "None", "latitude": 49.862232846269066, "longitude": -124.54321941433464}, "118818491RR0026": {"name": "POWELL RIVER SEVENTH-DAY ADVENTIST CHURCH", "designationCode": "C", "categoryCode": "41", "address": "PO 1000", "city": "ABBOTSFORD", "province": "BC", "country": "CA", "postalCode": "V2S4P5", "twitter": "None", "instagram": "None", "facebook": "None", "youtube": "None", "website": "None", "summary": "None", "logo": "None", "latitude": 49.03851300000005, "longitude": -122.29441549999993}, "891519449RR0001": {"name": "POWELL RIVER THERAPEUTIC RIDING ASSOCIATION", "designationCode": "C", "categoryCode": "56", "address": "4356 MYRTLE RD", "city": "POWELL RIVER", "province": "BC", "country": "CA", "postalCode": "V8A0T2", "twitter": "None", "instagram": "None", "facebook": "None", "youtube": "None", "website": "None", "summary": "None", "logo": "None", "latitude": 49.83554240671197, "longitude": -124.48701203841848}, "129467908RR0001": {"name": "POWELL STREET FESTIVAL SOCIETY", "designationCode": "C", "categoryCode": "22", "address": "111 WEST HASTINGS STREET      UNIT 410", "city": "VANCOUVER", "province": "BC", "country": "CA", "postalCode": "V6B1H4", "twitter": "None", "instagram": "None", "facebook": "None", "youtube": "None", "website": "None", "summary": "None", "logo": "None", "latitude": 49.282138914441255, "longitude": -123.10753795129177}, "107854895RR0001": {"name": "POWER GLEN CO-OPERATIVE NURSERY SCHOOL INC.", "designationCode": "C", "categoryCode": "20", "address": "34 WESTLAND STREET", "city": "ST. CATHARINES", "province": "ON", "country": "CA", "postalCode": "L2S3W8", "twitter": "None", "instagram": "None", "facebook": "None", "youtube": "None", "website": "None", "summary": "None", "logo": "None", "latitude": 43.1300957529863, "longitude": -79.2663934467661}, "893902270RR0001": {"name": "POWER OF FAITH MINISTRIES", "designationCode": "C", "categoryCode": "47", "address": "377 GOULAIS AVE", "city": "SAULT STE. MARIE", "province": "ON", "country": "CA", "postalCode": "P6C5A6", "twitter": "None", "instagram": "None", "facebook": "None", "youtube": "None", "website": "None", "summary": "None", "logo": "None", "latitude": 46.53438221426512, "longitude": -84.38179184404736}, "863307534RR0001": {"name": "POWER OF FAITH MISSION INC.", "designationCode": "C", "categoryCode": "47", "address": "235 MICHENER CR.", "city": "KITCHENER", "province": "ON", "country": "CA", "postalCode": "N2A3V6", "twitter": "None", "instagram": "None", "facebook": "None", "youtube": "None", "website": "None", "summary": "None", "logo": "None", "latitude": 43.44661879545842, "longitude": -80.42415929320805}, "856354709RR0001": {"name": "POWER OF LOVE MINISTRY INC", "designationCode": "C", "categoryCode": "39", "address": "700 PROGRESS AVENUE,          UNIT #6", "city": "SCARBOROUGH", "province": "ON", "country": "CA", "postalCode": "M1H2Z7", "twitter": "None", "instagram": "None", "facebook": "None", "youtube": "None", "website": "None", "summary": "None", "logo": "None", "latitude": 43.77782979465036, "longitude": -79.24729005029104}, "816056477RR0001": {"name": "POWER OF ONE FOUNDATION", "designationCode": "B", "categoryCode": "03", "address": "1600-700 2ND ST. SW", "city": "CALGARY", "province": "AB", "country": "CA", "postalCode": "T2P2W1", "twitter": "None", "instagram": "None", "facebook": "None", "youtube": "None", "website": "None", "summary": "None", "logo": "None", "latitude": 51.04920186667524, "longitude": -114.0676309458328}, "119151942RR0001": {"name": "POWER OF THE CROSS", "designationCode": "C", "categoryCode": "36", "address": "255 WILDCAT ROAD", "city": "NORTH YORK", "province": "ON", "country": "CA", "postalCode": "M3J2S3", "twitter": "None", "instagram": "None", "facebook": "None", "youtube": "None", "website": "None", "summary": "None", "logo": "None", "latitude": 43.77786085316529, "longitude": -79.49007545392121}, "885323816RR0001": {"name": "POWER OF YOGA FOUNDATION", "designationCode": "C", "categoryCode": "11", "address": "100 GULLIVER ROAD", "city": "TORONTO", "province": "ON", "country": "CA", "postalCode": "M6M2M6", "twitter": "None", "instagram": "None", "facebook": "None", "youtube": "None", "website": "None", "summary": "None", "logo": "None", "latitude": 43.69845895311316, "longitude": -79.48237841897958}, "844522516RR0001": {"name": "POWER PENTECOSTAL ASSEMBLY FELLOWSHIP", "designationCode": "B", "categoryCode": "36", "address": "419 WHITEVIEW CLOSE NE", "city": "CALGARY", "province": "AB", "country": "CA", "postalCode": "T1Y1R5", "twitter": "None", "instagram": "None", "facebook": "None", "youtube": "None", "website": "None", "summary": "None", "logo": "None", "latitude": 51.082524503462466, "longitude": -113.96824183236194}, "861269959RR0001": {"name": "POWER TO BE ADVENTURE THERAPY SOCIETY", "designationCode": "C", "categoryCode": "09", "address": "1017 FORT STREET", "city": "VICTORIA", "province": "BC", "country": "CA", "postalCode": "V8V3K5", "twitter": "None", "instagram": "None", "facebook": "None", "youtube": "None", "website": "None", "summary": "None", "logo": "None", "latitude": 48.42358959781308, "longitude": -123.35603461241267}, "118827849RR0001": {"name": "POWER TO CHANGE MINISTRIES", "designationCode": "C", "categoryCode": "47", "address": "20385 64 AVE", "city": "LANGLEY", "province": "BC", "country": "CA", "postalCode": "V2Y1N5", "twitter": "None", "instagram": "None", "facebook": "None", "youtube": "None", "website": "None", "summary": "None", "logo": "None", "latitude": 49.119045277109755, "longitude": -122.6577146462147}, "119283489RR0001": {"name": "POWERHOUSE THEATRICAL SOCIETY", "designationCode": "C", "categoryCode": "22", "address": "200 - 2928 29 ST", "city": "VERNON", "province": "BC", "country": "CA", "postalCode": "V1T5A6", "twitter": "None", "instagram": "None", "facebook": "None", "youtube": "None", "website": "None", "summary": "None", "logo": "None", "latitude": 50.263215878126104, "longitude": -119.26913999702613}, "856054853RR0001": {"name": "POWERS CREEK COMMUNITY CHURCH", "designationCode": "C", "categoryCode": "39", "address": "3718 GLENWAY ROAD", "city": "WESTBANK", "province": "BC", "country": "CA", "postalCode": "V4T1E2", "twitter": "None", "instagram": "None", "facebook": "None", "youtube": "None", "website": "None", "summary": "None", "logo": "None", "latitude": 49.82685555620633, "longitude": -119.64757863941978}, "127362069RR0001": {"name": "POWNAL SPORTS CENTRE", "designationCode": "C", "categoryCode": "56", "address": "66 SHORE RD", "city": "FORT AUGUSTUS", "province": "PE", "country": "CA", "postalCode": "C1B3G6", "twitter": "None", "instagram": "None", "facebook": "None", "youtube": "None", "website": "None", "summary": "None", "logo": "None", "latitude": 46.33067288533696, "longitude": -62.9330758705062}, "842057804RR0001": {"name": "PPCLI Foundation", "designationCode": "A", "categoryCode": "05", "address": "4520 CROWCHILD TRAIL SW", "city": "CALGARY", "province": "AB", "country": "CA", "postalCode": "T2T5J4", "twitter": "None", "instagram": "None", "facebook": "None", "youtube": "None", "website": "None", "summary": "None", "logo": "None", "latitude": 51.014627821546306, "longitude": -114.11605994395097}, "126027275RR0001": {"name": "PPS DANSE INC.", "designationCode": "C", "categoryCode": "22", "address": "4430 PARTHENAIS", "city": "MONTREAL", "province": "QC", "country": "CA", "postalCode": "H2H2G5", "twitter": "None", "instagram": "None", "facebook": "None", "youtube": "None", "website": "None", "summary": "None", "logo": "None", "latitude": 45.536003855098556, "longitude": -73.5701148475098}, "834266744RR0001": {"name": "PR AFRICA (POVERTY RELIEF)", "designationCode": "C", "categoryCode": "21", "address": "1910 28TH ST", "city": "WEST VANCOUVER", "province": "BC", "country": "CA", "postalCode": "V7V4M1", "twitter": "None", "instagram": "None", "facebook": "None", "youtube": "None", "website": "None", "summary": "None", "logo": "None", "latitude": 49.34248979516994, "longitude": -123.18990843611896}, "836664961RR0001": {"name": "PR-RP ABERCORN INC", "designationCode": "A", "categoryCode": "03", "address": "11, CHEMIN DES EGLISES OUEST", "city": "ABERCORN", "province": "QC", "country": "CA", "postalCode": "J0E1B0", "twitter": "None", "instagram": "None", "facebook": "None", "youtube": "None", "website": "None", "summary": "None", "logo": "None", "latitude": 45.03592406050552, "longitude": -72.65989760199666}, "890259294RR0001": {"name": "PR\u00c9VENTION C.\u00c9.S.A.R. PETITE-NATION", "designationCode": "C", "categoryCode": "59", "address": "378-C PAPINEAU", "city": "PAPINEAUVILLE", "province": "QC", "country": "CA", "postalCode": "J0V1R0", "twitter": "None", "instagram": "None", "facebook": "None", "youtube": "None", "website": "None", "summary": "None", "logo": "None", "latitude": 45.61718980067823, "longitude": -75.0138500033911}, "895254845RR0001": {"name": "PR\u00c9VENTION DES D\u00c9PENDANCES L'ARC-EN-CIEL", "designationCode": "C", "categoryCode": "57", "address": "204 - 308 RUE MONTSABRE", "city": "BELOEIL", "province": "QC", "country": "CA", "postalCode": "J3G2H5", "twitter": "None", "instagram": "None", "facebook": "None", "youtube": "None", "website": "None", "summary": "None", "logo": "None", "latitude": 45.556986910677225, "longitude": -73.21165285983876}, "130930340RR0001": {"name": "PRACOM INC", "designationCode": "C", "categoryCode": "09", "address": "1995 RUE MARIE-ANNE E", "city": "MONTREAL", "province": "QC", "country": "CA", "postalCode": "H2H1M3", "twitter": "None", "instagram": "None", "facebook": "None", "youtube": "None", "website": "None", "summary": "None", "logo": "None", "latitude": 45.53338715765475, "longitude": -73.57086382780295}, "119097764RR0001": {"name": "PRAERIE - SAENGERBUND CHOIR ASSOCIATION INC.", "designationCode": "C", "categoryCode": "22", "address": "4823 CLARET ST NW", "city": "CALGARY", "province": "AB", "country": "CA", "postalCode": "T2L1B9", "twitter": "None", "instagram": "None", "facebook": "None", "youtube": "None", "website": "None", "summary": "None", "logo": "None", "latitude": 51.095703467943906, "longitude": -114.12084615626976}, "878401041RR0001": {"name": "PRAIRIE ACTION FOUNDATION CORPORATION", "designationCode": "A", "categoryCode": "03", "address": "300 - 2303 4 ST SW", "city": "CALGARY", "province": "AB", "country": "CA", "postalCode": "T2S2S7", "twitter": "None", "instagram": "None", "facebook": "None", "youtube": "None", "website": "None", "summary": "None", "logo": "None", "latitude": 51.03212260644008, "longitude": -114.07157769250946}, "119097772RR0001": {"name": "PRAIRIE AGRICULTURAL MACHINERY INSTITUTE", "designationCode": "C", "categoryCode": "21", "address": "BOX 1150", "city": "HUMBOLDT", "province": "SK", "country": "CA", "postalCode": "S0K2A0", "twitter": "None", "instagram": "None", "facebook": "None", "youtube": "None", "website": "None", "summary": "None", "logo": "None", "latitude": 51.7871843348964, "longitude": -104.71638483007007}, "875789836RR0001": {"name": "PRAIRIE ANIMAL ASSISTANCE CORP.", "designationCode": "C", "categoryCode": "09", "address": "BOX 43B, RR #1                STATION MAIN", "city": "REGINA", "province": "SK", "country": "CA", "postalCode": "S4P2Z1", "twitter": "None", "instagram": "None", "facebook": "None", "youtube": "None", "website": "None", "summary": "None", "logo": "None", "latitude": 50.448246000000054, "longitude": -104.59517299999993}, "107855116RR0001": {"name": "PRAIRIE BIBLE INSTITUTE", "designationCode": "C", "categoryCode": "20", "address": "BOX 4000", "city": "THREE HILLS", "province": "AB", "country": "CA", "postalCode": "T0M2N0", "twitter": "None", "instagram": "None", "facebook": "None", "youtube": "None", "website": "None", "summary": "None", "logo": "None", "latitude": 51.704029948352684, "longitude": -113.26741999999996}, "122804875RR0001": {"name": "PRAIRIE BRANCHES ENTERPRISES INC.", "designationCode": "C", "categoryCode": "09", "address": "BOX 597", "city": "WILKIE", "province": "SK", "country": "CA", "postalCode": "S0K4W0", "twitter": "None", "instagram": "None", "facebook": "None", "youtube": "None", "website": "None", "summary": "None", "logo": "None", "latitude": 52.410810000000026, "longitude": -108.70070999999996}, "107956633RR0001": {"name": "PRAIRIE CENTRE FOR ECUMENISM", "designationCode": "C", "categoryCode": "49", "address": "535 8TH ST E", "city": "SASKATOON", "province": "SK", "country": "CA", "postalCode": "S7H0P9", "twitter": "None", "instagram": "None", "facebook": "None", "youtube": "None", "website": "None", "summary": "None", "logo": "None", "latitude": 52.114706453257384, "longitude": -106.6574925}, "119097806RR0001": {"name": "PRAIRIE CHAPEL", "designationCode": "C", "categoryCode": "34", "address": "PO BOX 231 STN A", "city": "ABBOTSFORD", "province": "BC", "country": "CA", "postalCode": "V2T6Z6", "twitter": "None", "instagram": "None", "facebook": "None", "youtube": "None", "website": "None", "summary": "None", "logo": "None", "latitude": 49.05161700000005, "longitude": -122.32930399999994}, "853826402RR0001": {"name": "PRAIRIE CHRISTIAN ACADEMY SOCIETY", "designationCode": "C", "categoryCode": "20", "address": "BOX 1756", "city": "THREE HILLS", "province": "AB", "country": "CA", "postalCode": "T0M2A0", "twitter": "None", "instagram": "None", "facebook": "None", "youtube": "None", "website": "None", "summary": "None", "logo": "None", "latitude": 52.38329400000001, "longitude": -114.606927}, "107855165RR0001": {"name": "PRAIRIE CHRISTIAN TRAINING CENTRE (UNITED CHURCH OF CANADA)", "designationCode": "C", "categoryCode": "20", "address": "PO BOX 159", "city": "FORT QU'APPELLE", "province": "SK", "country": "CA", "postalCode": "S0G1S0", "twitter": "None", "instagram": "None", "facebook": "None", "youtube": "None", "website": "None", "summary": "None", "logo": "None", "latitude": 50.76964000000004, "longitude": -103.79339999999996}, "867538605RR0001": {"name": "PRAIRIE COMMUNITY CHURCH INC.", "designationCode": "C", "categoryCode": "39", "address": "89 13 ST NW", "city": "PORTAGE LA PRAIRIE", "province": "MB", "country": "CA", "postalCode": "R1N2T7", "twitter": "None", "instagram": "None", "facebook": "None", "youtube": "None", "website": "None", "summary": "None", "logo": "None", "latitude": 49.97541949930752, "longitude": -98.30732242120129}, "107855199RR0001": {"name": "PRAIRIE CROCUS REGIONAL LIBRARY", "designationCode": "C", "categoryCode": "50", "address": "BOX 609", "city": "RIVERS", "province": "MB", "country": "CA", "postalCode": "R0K1X0", "twitter": "None", "instagram": "None", "facebook": "None", "youtube": "None", "website": "None", "summary": "None", "logo": "None", "latitude": 49.55658299999999, "longitude": -99.0937665}, "867993495RR0001": {"name": "PRAIRIE DEBUT INC.", "designationCode": "C", "categoryCode": "22", "address": "P.O BOX 15106                 ASPEN WOODS RPO", "city": "CALGARY", "province": "AB", "country": "CA", "postalCode": "T3N0N8", "twitter": "None", "instagram": "None", "facebook": "None", "youtube": "None", "website": "None", "summary": "None", "logo": "None", "latitude": 51.04519000000005, "longitude": -114.21158999999994}, "123006959RR0001": {"name": "PRAIRIE EMPLOYMENT PROGRAM INC.", "designationCode": "C", "categoryCode": "59", "address": "1202 101 STREET", "city": "NORTH BATTLEFORD", "province": "SK", "country": "CA", "postalCode": "S9A0Z8", "twitter": "None", "instagram": "None", "facebook": "None", "youtube": "None", "website": "None", "summary": "None", "logo": "None", "latitude": 52.77503368966395, "longitude": -108.29750524907375}, "125767566RR0001": {"name": "PRAIRIE FIRE PRESS, INC", "designationCode": "C", "categoryCode": "22", "address": "ROOM 423 - 100 ARTHUR ST.", "city": "WINNIPEG", "province": "MB", "country": "CA", "postalCode": "R3B1H3", "twitter": "None", "instagram": "None", "facebook": "None", "youtube": "None", "website": "None", "summary": "None", "logo": "None", "latitude": 49.89786075688144, "longitude": -97.14044701780226}, "119097814RR0001": {"name": "PRAIRIE GALLERY SOCIETY", "designationCode": "C", "categoryCode": "50", "address": "103-9839 103 AVE", "city": "GRAND PRAIRIE", "province": "AB", "country": "CA", "postalCode": "T8V6M7", "twitter": "None", "instagram": "None", "facebook": "None", "youtube": "None", "website": "None", "summary": "None", "logo": "None", "latitude": 55.173629536211045, "longitude": -118.79001033527612}, "859504524RR0001": {"name": "PRAIRIE GLEANERS SOCIETY", "designationCode": "C", "categoryCode": "09", "address": "PO BOX 656 LCD 1", "city": "MEDICINE HAT", "province": "AB", "country": "CA", "postalCode": "T1A7G6", "twitter": "None", "instagram": "None", "facebook": "None", "youtube": "None", "website": "None", "summary": "None", "logo": "None", "latitude": 50.04107700000006, "longitude": -110.67813349999993}, "897219812RR0001": {"name": "PRAIRIE GRASSROOTS VISION INTERNATIONAL INC.", "designationCode": "C", "categoryCode": "59", "address": "P.O. BOX 160", "city": "HAFFORD", "province": "SK", "country": "CA", "postalCode": "S0J1A0", "twitter": "None", "instagram": "None", "facebook": "None", "youtube": "None", "website": "None", "summary": "None", "logo": "None", "latitude": 52.71682000000004, "longitude": -107.35123999999996}, "119097822RR0001": {"name": "PRAIRIE GROVE FELLOWSHIP CHAPEL", "designationCode": "C", "categoryCode": "34", "address": "BOX 230", "city": "LORETTE", "province": "MB", "country": "CA", "postalCode": "R0A0Y0", "twitter": "None", "instagram": "None", "facebook": "None", "youtube": "None", "website": "None", "summary": "None", "logo": "None", "latitude": 49.739720000000034, "longitude": -96.87469999999996}, "893598664RR0001": {"name": "PRAIRIE HARVEST CHRISTIAN LIFE CENTRE INC.", "designationCode": "C", "categoryCode": "39", "address": "72 MELROSE AVENUE", "city": "YORKTON", "province": "SK", "country": "CA", "postalCode": "S3N1Z2", "twitter": "None", "instagram": "None", "facebook": "None", "youtube": "None", "website": "None", "summary": "None", "logo": "None", "latitude": 51.206984580904845, "longitude": -102.47237483403538}, "140709882RR0001": {"name": "PRAIRIE LAND REGIONAL DIVISION NO 25", "designationCode": "C", "categoryCode": "20", "address": "PO BOX 670", "city": "HANNA", "province": "AB", "country": "CA", "postalCode": "T0J1P0", "twitter": "None", "instagram": "None", "facebook": "None", "youtube": "None", "website": "None", "summary": "None", "logo": "None", "latitude": 51.64780345530559, "longitude": -111.93814762829588}, "119097848RR0001": {"name": "PRAIRIE LORE AND LIVING SOCIETY", "designationCode": "C", "categoryCode": "29", "address": "PO BOX 667", "city": "CARLYLE", "province": "SK", "country": "CA", "postalCode": "S0C0R0", "twitter": "None", "instagram": "None", "facebook": "None", "youtube": "None", "website": "None", "summary": "None", "logo": "None", "latitude": 49.628016, "longitude": -102.26315694795335}, "119097855RR0001": {"name": "PRAIRIE MENNONITE CHURCH", "designationCode": "C", "categoryCode": "34", "address": "BOX 631R IN CHARGE", "city": "RAYMOND", "province": "AB", "country": "CA", "postalCode": "T0K2S0", "twitter": "None", "instagram": "None", "facebook": "None", "youtube": "None", "website": "None", "summary": "None", "logo": "None", "latitude": 49.465490000000045, "longitude": -112.66264999999999}, "128512001RR0001": {"name": "PRAIRIE MENNONITE SCHOOL", "designationCode": "C", "categoryCode": "20", "address": "P.O. BOX 50", "city": "PLUM COULEE", "province": "MB", "country": "CA", "postalCode": "R0G1R0", "twitter": "None", "instagram": "None", "facebook": "None", "youtube": "None", "website": "None", "summary": "None", "logo": "None", "latitude": 49.19050000000004, "longitude": -97.75855999999999}, "894409275RR0001": {"name": "PRAIRIE MILITARY HISTORY AND MUSEUM SOCIETY", "designationCode": "C", "categoryCode": "50", "address": "6 BLACKFOOT CRT W", "city": "LETHBRIDGE", "province": "AB", "country": "CA", "postalCode": "T1K7P5", "twitter": "None", "instagram": "None", "facebook": "None", "youtube": "None", "website": "None", "summary": "None", "logo": "None", "latitude": 49.67891721397666, "longitude": -112.8983836964915}, "887968568RR0001": {"name": "PRAIRIE MOUNTAIN HEALTH", "designationCode": "C", "categoryCode": "13", "address": "PO BOX 579", "city": "SOURIS", "province": "MB", "country": "CA", "postalCode": "R0K2C0", "twitter": "None", "instagram": "None", "facebook": "None", "youtube": "None", "website": "None", "summary": "None", "logo": "None", "latitude": 49.59915625917259, "longitude": -99.8622610573006}, "871885273RR0001": {"name": "PRAIRIE MOUNTAIN REGIONAL MUSEUMS COLLECTION (PMRMC) INC.", "designationCode": "C", "categoryCode": "50", "address": "BOX 568", "city": "SHOAL LAKE", "province": "MB", "country": "CA", "postalCode": "R0J1Z0", "twitter": "None", "instagram": "None", "facebook": "None", "youtube": "None", "website": "None", "summary": "None", "logo": "None", "latitude": 50.437670000000026, "longitude": -100.59073999999998}, "887930519RR0001": {"name": "PRAIRIE OCEAN CENTRE OF THE ARTS INC.", "designationCode": "C", "categoryCode": "22", "address": "BOX 122", "city": "GIMLI", "province": "MB", "country": "CA", "postalCode": "R0C1B0", "twitter": "None", "instagram": "None", "facebook": "None", "youtube": "None", "website": "None", "summary": "None", "logo": "None", "latitude": 50.30677349294383, "longitude": -96.92898988377391}, "104284781RR0001": {"name": "PRAIRIE PERFORMANCES (MANITOBA) INC.", "designationCode": "C", "categoryCode": "22", "address": "2802-ONE EVERGREEN PL.", "city": "WINNIPEG", "province": "MB", "country": "CA", "postalCode": "R3L0E9", "twitter": "None", "instagram": "None", "facebook": "None", "youtube": "None", "website": "None", "summary": "None", "logo": "None", "latitude": 49.88038517951556, "longitude": -97.1493727004907}, "893051979RR0001": {"name": "PRAIRIE PINE PRESBYTERY", "designationCode": "C", "categoryCode": "44", "address": "7 - 498 PEREHUDOFF CRES", "city": "SASKATOON", "province": "SK", "country": "CA", "postalCode": "S7N4X4", "twitter": "None", "instagram": "None", "facebook": "None", "youtube": "None", "website": "None", "summary": "None", "logo": "None", "latitude": 52.145415489901104, "longitude": -106.5700305}, "119097897RR0001": {"name": "PRAIRIE PIONEER MUSEUM ASSOCIATION", "designationCode": "C", "categoryCode": "50", "address": "P.O. BOX 52", "city": "CRAIK", "province": "SK", "country": "CA", "postalCode": "S0G0V0", "twitter": "None", "instagram": "None", "facebook": "None", "youtube": "None", "website": "None", "summary": "None", "logo": "None", "latitude": 51.047450000000026, "longitude": -105.82258999999999}, "889700670RR0001": {"name": "PRAIRIE PLACES INC", "designationCode": "C", "categoryCode": "19", "address": "220-500 PORTAGE AVE", "city": "WINNIPEG", "province": "MB", "country": "CA", "postalCode": "R3C3X1", "twitter": "None", "instagram": "None", "facebook": "None", "youtube": "None", "website": "None", "summary": "None", "logo": "None", "latitude": 49.890236261151976, "longitude": -97.15256201774494}, "119097905RR0001": {"name": "PRAIRIE PLAYERS", "designationCode": "C", "categoryCode": "22", "address": "11-2ND STREET N.E.", "city": "PORTAGE LA PRAIRIE", "province": "MB", "country": "CA", "postalCode": "R1N1R8", "twitter": "None", "instagram": "None", "facebook": "None", "youtube": "None", "website": "None", "summary": "None", "logo": "None", "latitude": 49.97312727095087, "longitude": -98.28782195144524}, "119097913RR0001": {"name": "PRAIRIE PUBLIC TELEVISION (MANITOBA) INC.", "designationCode": "C", "categoryCode": "59", "address": "30 ENVOY CR.", "city": "WINNIPEG", "province": "MB", "country": "CA", "postalCode": "R2V3K6", "twitter": "None", "instagram": "None", "facebook": "None", "youtube": "None", "website": "None", "summary": "None", "logo": "None", "latitude": 49.95087703523008, "longitude": -97.13069253900966}, "132655192RR0001": {"name": "PRAIRIE RED COATS INC", "designationCode": "C", "categoryCode": "22", "address": "P.O.BOX 164", "city": "ROLAND", "province": "MB", "country": "CA", "postalCode": "R0G1T0", "twitter": "None", "instagram": "None", "facebook": "None", "youtube": "None", "website": "None", "summary": "None", "logo": "None", "latitude": 49.36776000000003, "longitude": -97.93881999999996}, "139905483RR0001": {"name": "PRAIRIE RIVER HERITAGE SOCIETY INC.", "designationCode": "C", "categoryCode": "50", "address": "PO BOX 86", "city": "PRAIRIE RIVER", "province": "SK", "country": "CA", "postalCode": "S0E1J0", "twitter": "None", "instagram": "None", "facebook": "None", "youtube": "None", "website": "None", "summary": "None", "logo": "None", "latitude": 52.86307000000005, "longitude": -102.99475999999999}, "119097921RR0001": {"name": "PRAIRIE RIVER SENIORS INCORPORATED", "designationCode": "C", "categoryCode": "56", "address": "BOX 71", "city": "PRAIRIE RIVER", "province": "SK", "country": "CA", "postalCode": "S0E1J0", "twitter": "None", "instagram": "None", "facebook": "None", "youtube": "None", "website": "None", "summary": "None", "logo": "None", "latitude": 52.86307000000005, "longitude": -102.99475999999999}, "130476112RR0001": {"name": "PRAIRIE ROSE EVANGELICAL MENNONITE CHURCH,", "designationCode": "C", "categoryCode": "34", "address": "BOX 130", "city": "LANDMARK", "province": "MB", "country": "CA", "postalCode": "R0A0X0", "twitter": "None", "instagram": "None", "facebook": "None", "youtube": "None", "website": "None", "summary": "None", "logo": "None", "latitude": 49.66416000000004, "longitude": -96.81997999999999}}