{"119079069RR0002": {"name": "PARISH OF ST. LUKE'S CHURCH", "designationCode": "C", "categoryCode": "30", "address": "RR 1", "city": "LISCOMBE", "province": "NS", "country": "CA", "postalCode": "B0J2A0", "twitter": "None", "instagram": "None", "facebook": "None", "youtube": "None", "website": "None", "summary": "None", "logo": "None", "latitude": 45.11329030020972, "longitude": -62.16752129588621}, "889859849RR0002": {"name": "PARISH OF ST. LUKE'S CHURCH", "designationCode": "C", "categoryCode": "30", "address": "10 SHORE CLUB ROAD            RR # 2", "city": "HUBBARDS", "province": "NS", "country": "CA", "postalCode": "B0J1T0", "twitter": "None", "instagram": "None", "facebook": "None", "youtube": "None", "website": "None", "summary": "None", "logo": "None", "latitude": 44.64206881845483, "longitude": -64.0544716698311}, "108084658RR0021": {"name": "PARISH OF ST. MARGARET'S", "designationCode": "C", "categoryCode": "30", "address": "206 MONTREAL ROAD", "city": "VANIER", "province": "ON", "country": "CA", "postalCode": "K1L6C9", "twitter": "None", "instagram": "None", "facebook": "None", "youtube": "None", "website": "None", "summary": "None", "logo": "None", "latitude": 45.435458421576655, "longitude": -75.66311386842874}, "107814451RR0001": {"name": "PARISH OF ST. MARK", "designationCode": "C", "categoryCode": "30", "address": "1805 LARCH ST.", "city": "VANCOUVER", "province": "BC", "country": "CA", "postalCode": "V6K3N9", "twitter": "None", "instagram": "None", "facebook": "None", "youtube": "None", "website": "None", "summary": "None", "logo": "None", "latitude": 49.26980165667379, "longitude": -123.1622243857114}, "119079127RR0001": {"name": "PARISH OF ST. MARK-OCEAN PARK", "designationCode": "C", "categoryCode": "30", "address": "12953-20TH AVE.", "city": "SURREY", "province": "BC", "country": "CA", "postalCode": "V4A1Z1", "twitter": "None", "instagram": "None", "facebook": "None", "youtube": "None", "website": "None", "summary": "None", "logo": "None", "latitude": 49.03851346104768, "longitude": -122.8636895553696}, "119079150RR0001": {"name": "PARISH OF ST. MARTIN", "designationCode": "C", "categoryCode": "30", "address": "195E WINDSOR ROAD", "city": "NORTH VANCOUVER", "province": "BC", "country": "CA", "postalCode": "V7N1J9", "twitter": "None", "instagram": "None", "facebook": "None", "youtube": "None", "website": "None", "summary": "None", "logo": "None", "latitude": 49.33826092662851, "longitude": -123.07479656435181}, "119079168RR0002": {"name": "PARISH OF ST. MARTIN'S, (ANGLICAN CHURCH OF CANADA)", "designationCode": "C", "categoryCode": "30", "address": "5533 HIGHWAY 3                RR#2", "city": "CHESTER BASIN", "province": "NS", "country": "CA", "postalCode": "B0J1K0", "twitter": "None", "instagram": "None", "facebook": "None", "youtube": "None", "website": "None", "summary": "None", "logo": "None", "latitude": 44.55879033280013, "longitude": -64.31448200207369}, "108029679RR0002": {"name": "PARISH OF ST. MARY MAGDALENE", "designationCode": "C", "categoryCode": "30", "address": "3 ST VITAL RD", "city": "WINNIPEG", "province": "MB", "country": "CA", "postalCode": "R2M1Z2", "twitter": "None", "instagram": "None", "facebook": "None", "youtube": "None", "website": "None", "summary": "None", "logo": "None", "latitude": 49.842303829880436, "longitude": -97.11335912574287}, "119079176RR0001": {"name": "PARISH OF ST. MARY-CFB GAGETOWN", "designationCode": "C", "categoryCode": "38", "address": "5 CDSB GAGETOWN               PO BOX 17000 STN FORCES", "city": "OROMOCTO", "province": "NB", "country": "CA", "postalCode": "E2V4J5", "twitter": "None", "instagram": "None", "facebook": "None", "youtube": "None", "website": "None", "summary": "None", "logo": "None", "latitude": 45.84368400000005, "longitude": -66.48019099999993}, "108084658RR0056": {"name": "PARISH OF ST. MARY'S (RUSSELL)", "designationCode": "C", "categoryCode": "30", "address": "139 CASTOR ST BOX 699", "city": "RUSSELL", "province": "ON", "country": "CA", "postalCode": "K4R1C7", "twitter": "None", "instagram": "None", "facebook": "None", "youtube": "None", "website": "None", "summary": "None", "logo": "None", "latitude": 45.256865552369405, "longitude": -75.36045188004617}, "108031501RR0001": {"name": "PARISH OF ST. MATTHEW", "designationCode": "C", "categoryCode": "30", "address": "2010 GUILFORD DR", "city": "ABBOTSFORD", "province": "BC", "country": "CA", "postalCode": "V2S5R2", "twitter": "None", "instagram": "None", "facebook": "None", "youtube": "None", "website": "None", "summary": "None", "logo": "None", "latitude": 49.03897415373093, "longitude": -122.26544715857837}, "889793840RR0002": {"name": "PARISH OF ST. MATTHEW'S CHURCH", "designationCode": "C", "categoryCode": "30", "address": "33 DAWSON ST", "city": "BRIDGEWATER", "province": "NS", "country": "CA", "postalCode": "B4V1S5", "twitter": "None", "instagram": "None", "facebook": "None", "youtube": "None", "website": "None", "summary": "None", "logo": "None", "latitude": 44.37400101941838, "longitude": -64.52273656953653}, "108091737RR0001": {"name": "PARISH OF ST. MATTHIAS", "designationCode": "C", "categoryCode": "30", "address": "680 WEST 49TH AVE", "city": "VANCOUVER", "province": "BC", "country": "CA", "postalCode": "V5Z2S4", "twitter": "None", "instagram": "None", "facebook": "None", "youtube": "None", "website": "None", "summary": "None", "logo": "None", "latitude": 49.22622552452561, "longitude": -123.12040210796927}, "108032186RR0001": {"name": "PARISH OF ST. MICHAEL", "designationCode": "C", "categoryCode": "30", "address": "409 E. BROADWAY", "city": "VANCOUVER", "province": "BC", "country": "CA", "postalCode": "V5T1W8", "twitter": "None", "instagram": "None", "facebook": "None", "youtube": "None", "website": "None", "summary": "None", "logo": "None", "latitude": 49.262569394973575, "longitude": -123.09561902677596}, "119079440RR0002": {"name": "PARISH OF ST. MICHAEL'S CHURCH", "designationCode": "C", "categoryCode": "30", "address": "PO BOX 3832", "city": "WINDSOR", "province": "NS", "country": "CA", "postalCode": "B0N2T0", "twitter": "None", "instagram": "None", "facebook": "None", "youtube": "None", "website": "None", "summary": "None", "logo": "None", "latitude": 44.990170000000035, "longitude": -64.12904999999995}, "118787142RR0007": {"name": "PARISH OF ST. PAUL'S", "designationCode": "C", "categoryCode": "30", "address": "100 CHAPEL STREET", "city": "NANAIMO", "province": "BC", "country": "CA", "postalCode": "V9R5H2", "twitter": "None", "instagram": "None", "facebook": "None", "youtube": "None", "website": "None", "summary": "None", "logo": "None", "latitude": 49.1681767045552, "longitude": -123.93780027482867}, "119079556RR0002": {"name": "PARISH OF ST. PAUL'S CHURCH", "designationCode": "C", "categoryCode": "30", "address": "BOX 8", "city": "BICKERTON WEST", "province": "NS", "country": "CA", "postalCode": "B0J1A0", "twitter": "None", "instagram": "None", "facebook": "None", "youtube": "None", "website": "None", "summary": "None", "logo": "None", "latitude": 45.104910000000075, "longitude": -61.73281999999995}, "119079564RR0002": {"name": "PARISH OF ST. PAUL'S CHURCH", "designationCode": "C", "categoryCode": "30", "address": "1744 HWY 236", "city": "CLARKSVILLE", "province": "NS", "country": "CA", "postalCode": "B0N2G0", "twitter": "None", "instagram": "None", "facebook": "None", "youtube": "None", "website": "None", "summary": "None", "logo": "None", "latitude": 45.09642989392634, "longitude": -63.8208711146654}, "131595217RR0001": {"name": "PARISH OF ST. PAUL'S CHURCH", "designationCode": "C", "categoryCode": "30", "address": "180 SANDY COVE RD", "city": "TERENCE BAY", "province": "NS", "country": "CA", "postalCode": "B3T1Y5", "twitter": "None", "instagram": "None", "facebook": "None", "youtube": "None", "website": "None", "summary": "None", "logo": "None", "latitude": 44.465479781608614, "longitude": -63.71403081078011}, "107307191RR0044": {"name": "PARISH OF ST. PETER APOSTLE", "designationCode": "C", "categoryCode": "38", "address": "8 MOORE PLACE", "city": "SASKATOON", "province": "SK", "country": "CA", "postalCode": "S7L3Z8", "twitter": "None", "instagram": "None", "facebook": "None", "youtube": "None", "website": "None", "summary": "None", "logo": "None", "latitude": 52.142317500432696, "longitude": -106.71528077699232}, "869607697RR0001": {"name": "PARISH OF ST. PETER'S CATHEDRAL", "designationCode": "C", "categoryCode": "30", "address": "PO BOX 713", "city": "CHARLOTTETOWN", "province": "PE", "country": "CA", "postalCode": "C1A7L3", "twitter": "None", "instagram": "None", "facebook": "None", "youtube": "None", "website": "None", "summary": "None", "logo": "None", "latitude": 46.23659700000006, "longitude": -63.12815449999994}, "119079630RR0002": {"name": "PARISH OF ST. PETER'S CHURCH", "designationCode": "C", "categoryCode": "30", "address": "PARISH OF NEW DUBLIN", "city": "LAHAVE", "province": "NS", "country": "CA", "postalCode": "B0R1C0", "twitter": "None", "instagram": "None", "facebook": "None", "youtube": "None", "website": "None", "summary": "None", "logo": "None", "latitude": 44.26641600000005, "longitude": -64.37257549999994}, "872964960RR0001": {"name": "PARISH OF ST. PETER'S CHURCH", "designationCode": "C", "categoryCode": "30", "address": "PO BOX 318", "city": "WEYMOUTH", "province": "NS", "country": "CA", "postalCode": "B0W3T0", "twitter": "None", "instagram": "None", "facebook": "None", "youtube": "None", "website": "None", "summary": "None", "logo": "None", "latitude": 44.405940000000044, "longitude": -66.00887999999998}, "119079663RR0001": {"name": "PARISH OF ST. PHILIP HODGSON", "designationCode": "A", "categoryCode": "30", "address": "BOX 21", "city": "HODGSON", "province": "MB", "country": "CA", "postalCode": "R0C1N0", "twitter": "None", "instagram": "None", "facebook": "None", "youtube": "None", "website": "None", "summary": "None", "logo": "None", "latitude": 51.21411000000006, "longitude": -97.57081999999997}, "119079416RR0001": {"name": "PARISH OF ST. RAPHAEL -RMC KINGSTON", "designationCode": "C", "categoryCode": "38", "address": "CATHOLIC PADRE                PO BOX 17000 STATION FORCES", "city": "KINGSTON", "province": "ON", "country": "CA", "postalCode": "K7K7B4", "twitter": "None", "instagram": "None", "facebook": "None", "youtube": "None", "website": "None", "summary": "None", "logo": "None", "latitude": 44.23153200000006, "longitude": -76.47933049999993}, "108042045RR0001": {"name": "PARISH OF ST. STEPHEN THE MARTYR, BURNABY", "designationCode": "C", "categoryCode": "30", "address": "9887 CAMERON STREET", "city": "BURNABY", "province": "BC", "country": "CA", "postalCode": "V3J1M3", "twitter": "None", "instagram": "None", "facebook": "None", "youtube": "None", "website": "None", "summary": "None", "logo": "None", "latitude": 49.253509153723236, "longitude": -122.89442927616359}, "108042078RR0001": {"name": "PARISH OF ST. STEPHEN'S CHURCH", "designationCode": "C", "categoryCode": "30", "address": "139 MARRIOTTS COVE RD         RR 1", "city": "CHESTER BASIN", "province": "NS", "country": "CA", "postalCode": "B0J1K0", "twitter": "None", "instagram": "None", "facebook": "None", "youtube": "None", "website": "None", "summary": "None", "logo": "None", "latitude": 44.55135445103568, "longitude": -64.26450838060511}, "107814568RR0001": {"name": "PARISH OF ST. THOMAS', CHILLIWACK", "designationCode": "C", "categoryCode": "30", "address": "46048 GORE AVE", "city": "CHILLIWACK", "province": "BC", "country": "CA", "postalCode": "V2P1Z6", "twitter": "None", "instagram": "None", "facebook": "None", "youtube": "None", "website": "None", "summary": "None", "logo": "None", "latitude": 49.16920027595358, "longitude": -121.9505797217083}, "818484610RR0001": {"name": "PARISH OF ST. TIMOTHY, BURNABY", "designationCode": "C", "categoryCode": "30", "address": "4550 KITCHENER ST", "city": "BURNABY", "province": "BC", "country": "CA", "postalCode": "V5C3M7", "twitter": "None", "instagram": "None", "facebook": "None", "youtube": "None", "website": "None", "summary": "None", "logo": "None", "latitude": 49.271957466818726, "longitude": -123.00238252553522}, "130120884RR0001": {"name": "PARISH OF ST.JOHN'S CHURCH LUNENBURG", "designationCode": "C", "categoryCode": "30", "address": "PO BOX 238", "city": "LUNENBURG", "province": "NS", "country": "CA", "postalCode": "B0J2C0", "twitter": "None", "instagram": "None", "facebook": "None", "youtube": "None", "website": "None", "summary": "None", "logo": "None", "latitude": 44.37886006217898, "longitude": -64.31792993782098}, "135930329RR0001": {"name": "PARISH OF ST-ALBAN'S CHURCH", "designationCode": "C", "categoryCode": "30", "address": "PO BOX 65                     WHITNEY PIER POSTAL STATION", "city": "SYDNEY", "province": "NS", "country": "CA", "postalCode": "B1N3B1", "twitter": "None", "instagram": "None", "facebook": "None", "youtube": "None", "website": "None", "summary": "None", "logo": "None", "latitude": 46.137372000000056, "longitude": -60.19552249999994}, "889790846RR0002": {"name": "PARISH OF ST-BEE'S CHURCH", "designationCode": "C", "categoryCode": "30", "address": "PO BOX 480", "city": "WESTVILLE", "province": "NS", "country": "CA", "postalCode": "B0K2A0", "twitter": "None", "instagram": "None", "facebook": "None", "youtube": "None", "website": "None", "summary": "None", "logo": "None", "latitude": 45.559140000000056, "longitude": -62.70123049999994}, "119078582RR0002": {"name": "PARISH OF ST-ESPRIT- CFB ST-JEAN", "designationCode": "C", "categoryCode": "30", "address": "C.P. 100 SUCC BUREAU-CHEF", "city": "RICHELAIN", "province": "QC", "country": "CA", "postalCode": "J0J1R0", "twitter": "None", "instagram": "None", "facebook": "None", "youtube": "None", "website": "None", "summary": "None", "logo": "None", "latitude": 45.04602300000006, "longitude": -72.80493649999994}, "131831547RR0001": {"name": "PARISH OF ST-JAMES CHURCH", "designationCode": "C", "categoryCode": "30", "address": "18 PROSPECT AVE", "city": "KENTVILLE", "province": "NS", "country": "CA", "postalCode": "B4N4H7", "twitter": "None", "instagram": "None", "facebook": "None", "youtube": "None", "website": "None", "summary": "None", "logo": "None", "latitude": 45.07582035584472, "longitude": -64.49409434831344}, "119077741RR0001": {"name": "PARISH OF STRAIT-CHEDABUCTO", "designationCode": "C", "categoryCode": "30", "address": "329 REEVES ST", "city": "PORT HAWKESBURY", "province": "NS", "country": "CA", "postalCode": "B9A2R6", "twitter": "None", "instagram": "None", "facebook": "None", "youtube": "None", "website": "None", "summary": "None", "logo": "None", "latitude": 45.616774967511226, "longitude": -61.35673298046604}, "107910176RR0008": {"name": "PARISH OF STS. PETER AND PAUL", "designationCode": "C", "categoryCode": "38", "address": "PO BOX 1363", "city": "ST JOHN'S", "province": "NL", "country": "CA", "postalCode": "A1C5N5", "twitter": "None", "instagram": "None", "facebook": "None", "youtube": "None", "website": "None", "summary": "None", "logo": "None", "latitude": 47.56082100000006, "longitude": -52.71219349999993}, "108031915RR0001": {"name": "PARISH OF THE ANGLICAN CHURCH OF THE APOSTLES AT HALIFAX", "designationCode": "C", "categoryCode": "30", "address": "6670 BAYERS ROAD", "city": "HALIFAX", "province": "NS", "country": "CA", "postalCode": "B3L2B5", "twitter": "None", "instagram": "None", "facebook": "None", "youtube": "None", "website": "None", "summary": "None", "logo": "None", "latitude": 44.65191610655563, "longitude": -63.61544104022174}, "107814584RR0001": {"name": "PARISH OF THE ANNUNCIATION, OTTAWA", "designationCode": "C", "categoryCode": "30", "address": "289 SPENCER STREET", "city": "OTTAWA", "province": "ON", "country": "CA", "postalCode": "K1Y2R1", "twitter": "None", "instagram": "None", "facebook": "None", "youtube": "None", "website": "None", "summary": "None", "logo": "None", "latitude": 45.399122862629035, "longitude": -75.7413717109469}, "119177087RR0003": {"name": "PARISH OF THE CHURCH OF THE HOLY SPIRIT", "designationCode": "C", "categoryCode": "30", "address": "1231 HIGHWAY 1", "city": "MOUNT UNIACKE", "province": "NS", "country": "CA", "postalCode": "B0N1Z0", "twitter": "None", "instagram": "None", "facebook": "None", "youtube": "None", "website": "None", "summary": "None", "logo": "None", "latitude": 44.92287408476864, "longitude": -63.892030578673925}, "108084658RR0048": {"name": "PARISH OF THE EPIPHANY", "designationCode": "C", "categoryCode": "30", "address": "1290 OGILVIE RD", "city": "OTTAWA", "province": "ON", "country": "CA", "postalCode": "K1J1H5", "twitter": "None", "instagram": "None", "facebook": "None", "youtube": "None", "website": "None", "summary": "None", "logo": "None", "latitude": 45.42818551203213, "longitude": -75.62625339047285}, "119229896RR0006": {"name": "PARISH OF THE EPIPHANY", "designationCode": "C", "categoryCode": "30", "address": "PO BOX 245", "city": "HEART'S DELIGHT", "province": "NL", "country": "CA", "postalCode": "A0B2A0", "twitter": "None", "instagram": "None", "facebook": "None", "youtube": "None", "website": "None", "summary": "None", "logo": "None", "latitude": 47.77034000000003, "longitude": -53.462989999999934}, "119079846RR0001": {"name": "PARISH OF THE GOOD SHEPHERD", "designationCode": "C", "categoryCode": "30", "address": "BOX 234", "city": "OGEMA", "province": "SK", "country": "CA", "postalCode": "S0C1Y0", "twitter": "None", "instagram": "None", "facebook": "None", "youtube": "None", "website": "None", "summary": "None", "logo": "None", "latitude": 49.58337000000006, "longitude": -104.91778999999997}, "119229896RR0008": {"name": "PARISH OF THE GOOD SHEPHERD", "designationCode": "C", "categoryCode": "39", "address": "P.O. BOX 428", "city": "MOUNT PEARL", "province": "NL", "country": "CA", "postalCode": "A1N2C4", "twitter": "None", "instagram": "None", "facebook": "None", "youtube": "None", "website": "None", "summary": "None", "logo": "None", "latitude": 47.51892600000005, "longitude": -52.81489249999993}, "819908542RR0001": {"name": "PARISH OF THE HOLY CROSS", "designationCode": "C", "categoryCode": "39", "address": "116 MORLEY ROAD               R.R. 1", "city": "SYDNEY FORKS", "province": "NS", "country": "CA", "postalCode": "B1L1E2", "twitter": "None", "instagram": "None", "facebook": "None", "youtube": "None", "website": "None", "summary": "None", "logo": "None", "latitude": 46.03424197916799, "longitude": -60.336119500461336}, "119079853RR0001": {"name": "PARISH OF THE HOLY RESURRECTION RUSSIAN ORTHODOX CHURCH", "designationCode": "C", "categoryCode": "39", "address": "213 WINONA DRIVE", "city": "TORONTO", "province": "ON", "country": "CA", "postalCode": "M6C3S3", "twitter": "None", "instagram": "None", "facebook": "None", "youtube": "None", "website": "None", "summary": "None", "logo": "None", "latitude": 43.68067523703037, "longitude": -79.43260826599939}, "107307191RR0010": {"name": "PARISH OF THE HOLY SPIRIT", "designationCode": "C", "categoryCode": "38", "address": "114 KINGSMERE PLACE", "city": "SASKATOON", "province": "SK", "country": "CA", "postalCode": "S7J3V7", "twitter": "None", "instagram": "None", "facebook": "None", "youtube": "None", "website": "None", "summary": "None", "logo": "None", "latitude": 52.103343465750854, "longitude": -106.59813117213878}, "119229896RR0003": {"name": "PARISH OF THE HOLY SPIRIT", "designationCode": "C", "categoryCode": "30", "address": "P.O. BOX 2291", "city": "HILLVIEW", "province": "NL", "country": "CA", "postalCode": "A0E2A0", "twitter": "None", "instagram": "None", "facebook": "None", "youtube": "None", "website": "None", "summary": "None", "logo": "None", "latitude": 48.039711000000054, "longitude": -53.928264499999926}, "119229896RR0033": {"name": "PARISH OF THE HOLY TRINITY", "designationCode": "C", "categoryCode": "30", "address": "PO BOX 9", "city": "WHITBOURNE", "province": "NL", "country": "CA", "postalCode": "A0B3K0", "twitter": "None", "instagram": "None", "facebook": "None", "youtube": "None", "website": "None", "summary": "None", "logo": "None", "latitude": 47.40984600000006, "longitude": -53.53934299999993}, "107910192RR0010": {"name": "PARISH OF THE MOST HOLY REDEEMER", "designationCode": "C", "categoryCode": "38", "address": "PO BOX 1108 STN MAIN", "city": "CORNER BROOK", "province": "NL", "country": "CA", "postalCode": "A2H6T2", "twitter": "None", "instagram": "None", "facebook": "None", "youtube": "None", "website": "None", "summary": "None", "logo": "None", "latitude": 48.95286915119611, "longitude": -57.94545019053702}, "849208962RR0001": {"name": "PARISH OF THE NATIVITY OF THE B V M /PAROISSE DE LA NATIVITE DE LA B.M.V.", "designationCode": "C", "categoryCode": "38", "address": "BOX 269", "city": "VAL MARIE", "province": "SK", "country": "CA", "postalCode": "S0N2T0", "twitter": "None", "instagram": "None", "facebook": "None", "youtube": "None", "website": "None", "summary": "None", "logo": "None", "latitude": 50.61918000000003, "longitude": -108.45853999999997}, "869009548RR0001": {"name": "PARISH OF THE NORTHERN LIGHTS", "designationCode": "C", "categoryCode": "30", "address": "BOX 838", "city": "ATHABASCA", "province": "AB", "country": "CA", "postalCode": "T9S2A7", "twitter": "None", "instagram": "None", "facebook": "None", "youtube": "None", "website": "None", "summary": "None", "logo": "None"}, "119229896RR0044": {"name": "PARISH OF THE RESURRECTION", "designationCode": "C", "categoryCode": "30", "address": "PO BOX 142", "city": "SOUTH RIVER", "province": "NL", "country": "CA", "postalCode": "A0A3W0", "twitter": "None", "instagram": "None", "facebook": "None", "youtube": "None", "website": "None", "summary": "None", "logo": "None"}, "856103874RR0001": {"name": "PARISH OF THE RESURRECTION", "designationCode": "C", "categoryCode": "39", "address": "150 LIVINGSTONE AVE. N.", "city": "LISTOWEL", "province": "ON", "country": "CA", "postalCode": "N4W1P7", "twitter": "None", "instagram": "None", "facebook": "None", "youtube": "None", "website": "None", "summary": "None", "logo": "None", "latitude": 43.73298168542732, "longitude": -80.95515263414245}, "131627473RR0001": {"name": "PARISH OF THE RIDEAU", "designationCode": "C", "categoryCode": "30", "address": "15 AUTUMN DRIVE", "city": "SMITHS FALLS", "province": "ON", "country": "CA", "postalCode": "K7A4S5", "twitter": "None", "instagram": "None", "facebook": "None", "youtube": "None", "website": "None", "summary": "None", "logo": "None", "latitude": 44.86169400000006, "longitude": -76.01111449999993}, "119079937RR0002": {"name": "PARISH OF TRINITY CHURCH", "designationCode": "C", "categoryCode": "30", "address": "PO BOX 36", "city": "SYDNEY MINES", "province": "NS", "country": "CA", "postalCode": "B1V2Y4", "twitter": "None", "instagram": "None", "facebook": "None", "youtube": "None", "website": "None", "summary": "None", "logo": "None", "latitude": 46.23174600000006, "longitude": -60.22213099999993}, "119229896RR0045": {"name": "PARISH OF UPPER ISLAND COVE", "designationCode": "C", "categoryCode": "30", "address": "PO BOX 29                     GENERAL DELIVERY", "city": "UPPER ISLAND COVE", "province": "NL", "country": "CA", "postalCode": "A0A4E0", "twitter": "None", "instagram": "None", "facebook": "None", "youtube": "None", "website": "None", "summary": "None", "logo": "None", "latitude": 47.648562000000055, "longitude": -53.20964149999993}, "108084658RR0014": {"name": "PARISH OF VANKLEEK HILL (ST. JOHN'S)", "designationCode": "C", "categoryCode": "30", "address": "PO BOX 276", "city": "VANKLEEK HILL", "province": "ON", "country": "CA", "postalCode": "K0B1R0", "twitter": "None", "instagram": "None", "facebook": "None", "youtube": "None", "website": "None", "summary": "None", "logo": "None", "latitude": 45.526948915276186, "longitude": -74.68129408071073}, "108071465RR0001": {"name": "PARISH OF WHITEWOOD", "designationCode": "C", "categoryCode": "30", "address": "BOX 625", "city": "WHITEWOOD", "province": "SK", "country": "CA", "postalCode": "S0G5C0", "twitter": "None", "instagram": "None", "facebook": "None", "youtube": "None", "website": "None", "summary": "None", "logo": "None", "latitude": 50.332580000000064, "longitude": -102.25940999999995}, "107020232RR0003": {"name": "PARISH OF WINDSOR-BISHOP'S FALLS", "designationCode": "C", "categoryCode": "30", "address": "13 MASTER'S AVE", "city": "GRAND FALLS-WINDSOR", "province": "NL", "country": "CA", "postalCode": "A2B1J1", "twitter": "None", "instagram": "None", "facebook": "None", "youtube": "None", "website": "None", "summary": "None", "logo": "None", "latitude": 48.95217849974205, "longitude": -55.66573404604441}, "107814816RR0001": {"name": "PARK AVENUE UNITED CHURCH", "designationCode": "C", "categoryCode": "44", "address": "178 GREEN RD", "city": "ROTHESAY", "province": "NB", "country": "CA", "postalCode": "E2H1T1", "twitter": "None", "instagram": "None", "facebook": "None", "youtube": "None", "website": "None", "summary": "None", "logo": "None", "latitude": 45.37420678960136, "longitude": -65.99849385180897}, "107814865RR0001": {"name": "PARK BIBLE CHURCH CHARITABLE PROPERTIES", "designationCode": "C", "categoryCode": "39", "address": "1500 KERNS ROAD", "city": "BURLINGTON", "province": "ON", "country": "CA", "postalCode": "L7P3A7", "twitter": "None", "instagram": "None", "facebook": "None", "youtube": "None", "website": "None", "summary": "None", "logo": "None", "latitude": 43.33901261082615, "longitude": -79.83518004933875}, "119288918RR0331": {"name": "PARK CONGREGATION OF JEHOVAH'S WITNESSES, OSHAWA, ONTARIO", "designationCode": "C", "categoryCode": "61", "address": "620 CHRISTIE AVE.", "city": "OSHAWA", "province": "ON", "country": "CA", "postalCode": "L1G4L7", "twitter": "None", "instagram": "None", "facebook": "None", "youtube": "None", "website": "None", "summary": "None", "logo": "None", "latitude": 43.91322596557798, "longitude": -78.87419482157054}, "107815250RR0001": {"name": "PARK DRIVE PENTECOSTAL ASSEMBLY", "designationCode": "C", "categoryCode": "36", "address": "6570 PARK DR                  RR 4", "city": "OLIVER", "province": "BC", "country": "CA", "postalCode": "V0H1T4", "twitter": "None", "instagram": "None", "facebook": "None", "youtube": "None", "website": "None", "summary": "None", "logo": "None", "latitude": 49.1885342226987, "longitude": -119.5405276966894}, "119080372RR0001": {"name": "PARK EXTENSION YOUTH ORGANIZATION INC.", "designationCode": "C", "categoryCode": "56", "address": "415 RUE ST ROCH SS06", "city": "MONTREAL", "province": "QC", "country": "CA", "postalCode": "H3N1K2", "twitter": "None", "instagram": "None", "facebook": "None", "youtube": "None", "website": "None", "summary": "None", "logo": "None", "latitude": 45.531402128512845, "longitude": -73.62837075162997}, "107815375RR0001": {"name": "PARK HEIGHTS CREATIVE PRE-SCHOOL CO-OPERATIVE", "designationCode": "C", "categoryCode": "20", "address": "60 RAVINE DR", "city": "SASKATOON", "province": "SK", "country": "CA", "postalCode": "S7K1E2", "twitter": "None", "instagram": "None", "facebook": "None", "youtube": "None", "website": "None", "summary": "None", "logo": "None", "latitude": 52.163442492094156, "longitude": -106.63508609758286}, "107816027RR0001": {"name": "PARK LAWN BAPTIST CHURCH", "designationCode": "C", "categoryCode": "31", "address": "276 PARK LAWN ROAD", "city": "ETOBICOKE", "province": "ON", "country": "CA", "postalCode": "M8Y3J9", "twitter": "None", "instagram": "None", "facebook": "None", "youtube": "None", "website": "None", "summary": "None", "logo": "None", "latitude": 43.634099934214376, "longitude": -79.49256573192314}, "107816076RR0001": {"name": "PARK MANOR CARE INC.", "designationCode": "C", "categoryCode": "01", "address": "301 REDONDA STREET", "city": "WINNIPEG", "province": "MB", "country": "CA", "postalCode": "R2C1L7", "twitter": "None", "instagram": "None", "facebook": "None", "youtube": "None", "website": "None", "summary": "None", "logo": "None", "latitude": 49.900248000000005, "longitude": -96.97989612565597}, "119080786RR0001": {"name": "PARK MEADOWS BAPTIST CHURCH", "designationCode": "C", "categoryCode": "31", "address": "2011-15 AV N", "city": "LETHBRIDGE", "province": "AB", "country": "CA", "postalCode": "T1H5J4", "twitter": "None", "instagram": "None", "facebook": "None", "youtube": "None", "website": "None", "summary": "None", "logo": "None", "latitude": 49.7184214899011, "longitude": -112.8118519432454}, "886586999RR0001": {"name": "PARK PLACE FOUNDATION", "designationCode": "B", "categoryCode": "03", "address": "1285 WEST PENDER ST SUITE 400", "city": "VANCOUVER", "province": "BC", "country": "CA", "postalCode": "V6E4B1", "twitter": "None", "instagram": "None", "facebook": "None", "youtube": "None", "website": "None", "summary": "None", "logo": "None", "latitude": 49.288862932021324, "longitude": -123.12492277073126}, "119080836RR0001": {"name": "PARK ROYAL BIBLE CHURCH", "designationCode": "C", "categoryCode": "39", "address": "2400 TRUSCOTT DRIVE", "city": "MISSISSAUGA", "province": "ON", "country": "CA", "postalCode": "L5J2B2", "twitter": "None", "instagram": "None", "facebook": "None", "youtube": "None", "website": "None", "summary": "None", "logo": "None", "latitude": 43.51212449596063, "longitude": -79.64712228639871}, "107816340RR0001": {"name": "PARK ROYAL UNITED CHURCH", "designationCode": "C", "categoryCode": "44", "address": "11 CHRISTIE DR", "city": "CHARLOTTETOWN", "province": "PE", "country": "CA", "postalCode": "C1A5W6", "twitter": "None", "instagram": "None", "facebook": "None", "youtube": "None", "website": "None", "summary": "None", "logo": "None", "latitude": 46.25548235636794, "longitude": -63.124239502798616}, "129929451RR0001": {"name": "PARK STREET BAPTIST CHURCH", "designationCode": "C", "categoryCode": "31", "address": "16 PARK ST N", "city": "PETERBOROUGH", "province": "ON", "country": "CA", "postalCode": "K9J3V4", "twitter": "None", "instagram": "None", "facebook": "None", "youtube": "None", "website": "None", "summary": "None", "logo": "None", "latitude": 44.2933910147152, "longitude": -78.32520935287684}, "134432806RR0001": {"name": "PARK STREET GOSPEL HALL", "designationCode": "C", "categoryCode": "39", "address": "592 PARK STREET NORTH", "city": "PETERBOROUGH", "province": "ON", "country": "CA", "postalCode": "K9J4S2", "twitter": "None", "instagram": "None", "facebook": "None", "youtube": "None", "website": "None", "summary": "None", "logo": "None", "latitude": 44.3114450774424, "longitude": -78.33371037174696}, "861071793RR0001": {"name": "PARK TO PARK TRAIL ASSOCIATION", "designationCode": "C", "categoryCode": "56", "address": "1231 518 HWY", "city": "SEGUIN", "province": "ON", "country": "CA", "postalCode": "P2A0B6", "twitter": "None", "instagram": "None", "facebook": "None", "youtube": "None", "website": "None", "summary": "None", "logo": "None", "latitude": 45.380302768968214, "longitude": -79.77955402138103}, "864180245RR0001": {"name": "PARK VIEW INTERNATIONAL BACCULAUREATE SOCIETY", "designationCode": "C", "categoryCode": "21", "address": "P.O BOX 35", "city": "LUNENBURG", "province": "NS", "country": "CA", "postalCode": "B0J2C0", "twitter": "None", "instagram": "None", "facebook": "None", "youtube": "None", "website": "None", "summary": "None", "logo": "None", "latitude": 44.37886006217898, "longitude": -64.31792993782098}, "132201013RR0003": {"name": "PARK WEST SCHOOL DIVISION FOUNDATION OF MANITOBA INC.", "designationCode": "C", "categoryCode": "21", "address": "1161 ST CLAIRE ST. N.         BOX 68", "city": "BIRTLE", "province": "MB", "country": "CA", "postalCode": "R0M0C0", "twitter": "None", "instagram": "None", "facebook": "None", "youtube": "None", "website": "None", "summary": "None", "logo": "None", "latitude": 50.423039543235596, "longitude": -101.03789011152848}, "893943191RR0001": {"name": "PARKCREST CHILD CARE SOCIETY", "designationCode": "C", "categoryCode": "20", "address": "6040 WINCH ST", "city": "BURNABY", "province": "BC", "country": "CA", "postalCode": "V5B2L2", "twitter": "None", "instagram": "None", "facebook": "None", "youtube": "None", "website": "None", "summary": "None", "logo": "None", "latitude": 49.26971334780354, "longitude": -122.97658689254551}, "119080141RR0001": {"name": "PARKCREST GOSPEL CHAPEL", "designationCode": "C", "categoryCode": "39", "address": "6641 HALIFAX STREET", "city": "BURNABY", "province": "BC", "country": "CA", "postalCode": "V5B2P9", "twitter": "None", "instagram": "None", "facebook": "None", "youtube": "None", "website": "None", "summary": "None", "logo": "None", "latitude": 49.26798650432783, "longitude": -122.96649133236193}, "129678231RR0001": {"name": "PARKDALE ACTIVITY-RECREATION CENTRE (TORONTO)", "designationCode": "C", "categoryCode": "09", "address": "1499  QUEEN ST WEST", "city": "TORONTO", "province": "ON", "country": "CA", "postalCode": "M6R1A3", "twitter": "None", "instagram": "None", "facebook": "None", "youtube": "None", "website": "None", "summary": "None", "logo": "None", "latitude": 43.639808732702555, "longitude": -79.44043785039533}, "119080158RR0001": {"name": "PARKDALE BAPTIST CHURCH", "designationCode": "C", "categoryCode": "31", "address": "474 PARKDALE AVE", "city": "OTTAWA", "province": "ON", "country": "CA", "postalCode": "K1Y1H1", "twitter": "None", "instagram": "None", "facebook": "None", "youtube": "None", "website": "None", "summary": "None", "logo": "None", "latitude": 45.39878402940171, "longitude": -75.72795064813276}, "119080166RR0001": {"name": "PARKDALE BAPTIST CHURCH", "designationCode": "C", "categoryCode": "31", "address": "514 SIDNEY ST", "city": "BELLEVILLE", "province": "ON", "country": "CA", "postalCode": "K8P4A2", "twitter": "None", "instagram": "None", "facebook": "None", "youtube": "None", "website": "None", "summary": "None", "logo": "None", "latitude": 44.17591743130019, "longitude": -77.40554162978225}, "119080174RR0001": {"name": "PARKDALE BAPTIST CHURCH", "designationCode": "C", "categoryCode": "31", "address": "1012-12 AVE S.E.", "city": "DRUMHELLER", "province": "AB", "country": "CA", "postalCode": "T0J0Y7", "twitter": "None", "instagram": "None", "facebook": "None", "youtube": "None", "website": "None", "summary": "None", "logo": "None", "latitude": 51.45186647264712, "longitude": -112.69616184857767}, "107814956RR0001": {"name": "PARKDALE COMMUNITY HEALTH CENTRE", "designationCode": "C", "categoryCode": "11", "address": "1229 QUEEN ST W", "city": "TORONTO", "province": "ON", "country": "CA", "postalCode": "M6K1L2", "twitter": "None", "instagram": "None", "facebook": "None", "youtube": "None", "website": "None", "summary": "None", "logo": "None", "latitude": 43.64197478766814, "longitude": -79.42972600069248}, "107814964RR0001": {"name": "PARKDALE COMMUNITY INFORMATION CENTRE TORONTO INCORPORATED", "designationCode": "C", "categoryCode": "09", "address": "1303 QUEEN STREET WEST", "city": "TORONTO", "province": "ON", "country": "CA", "postalCode": "M6K1L6", "twitter": "None", "instagram": "None", "facebook": "None", "youtube": "None", "website": "None", "summary": "None", "logo": "None"}, "107814972RR0001": {"name": "PARKDALE COMMUNITY LEGAL SERVICES INC.", "designationCode": "C", "categoryCode": "59", "address": "1266 QUEEN STREET WEST", "city": "TORONTO", "province": "ON", "country": "CA", "postalCode": "M6K1L3", "twitter": "None", "instagram": "None", "facebook": "None", "youtube": "None", "website": "None", "summary": "None", "logo": "None", "latitude": 43.642096205695424, "longitude": -79.42944549598928}, "119080208RR0001": {"name": "PARKDALE CONGREGATION OF JEHOVAH'S WITNESSES", "designationCode": "C", "categoryCode": "61", "address": "11937-86 ST.", "city": "EDMONTON", "province": "AB", "country": "CA", "postalCode": "T5B3K3", "twitter": "None", "instagram": "None", "facebook": "None", "youtube": "None", "website": "None", "summary": "None", "logo": "None", "latitude": 53.57308499999999, "longitude": -113.47258676348922}, "119288918RR0682": {"name": "PARKDALE CONGREGATION OF JEHOVAH'S WITNESSES", "designationCode": "C", "categoryCode": "61", "address": "648 LIMERIDGE ROAD EAST", "city": "HAMILTON", "province": "ON", "country": "CA", "postalCode": "L8W1A1", "twitter": "None", "instagram": "None", "facebook": "None", "youtube": "None", "website": "None", "summary": "None", "logo": "None", "latitude": 43.21267699079609, "longitude": -79.856757008627}, "119288918RR0161": {"name": "PARKDALE CONGREGATION OF JEHOVAH'S WITNESSES, TORONTO, ONTARIO", "designationCode": "C", "categoryCode": "61", "address": "2101 DUNDAS ST W", "city": "TORONTO", "province": "ON", "country": "CA", "postalCode": "M6R1X1", "twitter": "None", "instagram": "None", "facebook": "None", "youtube": "None", "website": "None", "summary": "None", "logo": "None", "latitude": 43.652413844566965, "longitude": -79.44879209645674}, "107815037RR0001": {"name": "PARKDALE EVANGELICAL FREE CHURCH", "designationCode": "C", "categoryCode": "39", "address": "1095 TOLMIE AVE", "city": "VICTORIA", "province": "BC", "country": "CA", "postalCode": "V8X2H4", "twitter": "None", "instagram": "None", "facebook": "None", "youtube": "None", "website": "None", "summary": "None", "logo": "None", "latitude": 48.44923254674262, "longitude": -123.35920974839867}, "889365003RR0001": {"name": "PARKDALE FOOD CENTRE", "designationCode": "C", "categoryCode": "09", "address": "2 - 30 ROSEMOUNT AVE", "city": "OTTAWA", "province": "ON", "country": "CA", "postalCode": "K1Y1P4", "twitter": "None", "instagram": "None", "facebook": "None", "youtube": "None", "website": "None", "summary": "None", "logo": "None", "latitude": 45.40146684540367, "longitude": -75.72604815266308}, "119080224RR0001": {"name": "PARKDALE GOLDEN AGE FOUNDATION", "designationCode": "C", "categoryCode": "09", "address": "27 RONCESVALLES AVENUE        SUITE 401", "city": "TORONTO", "province": "ON", "country": "CA", "postalCode": "M6R2K4", "twitter": "None", "instagram": "None", "facebook": "None", "youtube": "None", "website": "None", "summary": "None", "logo": "None", "latitude": 43.63980897169482, "longitude": -79.446468297363}, "896188257RR0001": {"name": "PARKDALE GRACE FELLOWSHIP", "designationCode": "C", "categoryCode": "39", "address": "2608 1ST AVE NW", "city": "CALGARY", "province": "AB", "country": "CA", "postalCode": "T2N0C4", "twitter": "None", "instagram": "None", "facebook": "None", "youtube": "None", "website": "None", "summary": "None", "logo": "None", "latitude": 51.05337582030707, "longitude": -114.12064122759699}, "130879448RR0001": {"name": "PARKDALE INTERCULTURAL ASSOCIATION (TORONTO)", "designationCode": "C", "categoryCode": "21", "address": "1257 QUEEN STREET WEST", "city": "TORONTO", "province": "ON", "country": "CA", "postalCode": "M6K1L5", "twitter": "None", "instagram": "None", "facebook": "None", "youtube": "None", "website": "None", "summary": "None", "logo": "None", "latitude": 43.64170578377299, "longitude": -79.43103587301637}, "119080281RR0001": {"name": "PARKDALE PLACE HOUSING SOCIETY", "designationCode": "C", "categoryCode": "01", "address": "100-9302 ANGUS ST", "city": "SUMMERLAND", "province": "BC", "country": "CA", "postalCode": "V0H1Z5", "twitter": "None", "instagram": "None", "facebook": "None", "youtube": "None", "website": "None", "summary": "None", "logo": "None", "latitude": 49.60227677961936, "longitude": -119.67625502850944}, "119080299RR0001": {"name": "PARKDALE PROJECT READ INC.", "designationCode": "C", "categoryCode": "59", "address": "1209 KING ST. WEST            UNIT 2", "city": "TORONTO", "province": "ON", "country": "CA", "postalCode": "M6K1G2", "twitter": "None", "instagram": "None", "facebook": "None", "youtube": "None", "website": "None", "summary": "None", "logo": "None"}, "106693047RR0011": {"name": "PARKDALE SEVENTH-DAY ADVENTIST CHURCH", "designationCode": "C", "categoryCode": "39", "address": "5816 HIGHWAY, 2A", "city": "LACOMBE", "province": "AB", "country": "CA", "postalCode": "T4L2G5", "twitter": "None", "instagram": "None", "facebook": "None", "youtube": "None", "website": "None", "summary": "None", "logo": "None", "latitude": 52.474063600197404, "longitude": -113.71692568401835}, "107815201RR0001": {"name": "PARKDALE UNITED CHURCH", "designationCode": "C", "categoryCode": "44", "address": "429 PARKDALE AVE", "city": "OTTAWA", "province": "ON", "country": "CA", "postalCode": "K1Y1H3", "twitter": "None", "instagram": "None", "facebook": "None", "youtube": "None", "website": "None", "summary": "None", "logo": "None", "latitude": 45.399830992238385, "longitude": -75.72849236355265}, "107815219RR0001": {"name": "PARKDALE UNITED CHURCH", "designationCode": "C", "categoryCode": "44", "address": "171 DUNN AVE", "city": "TORONTO", "province": "ON", "country": "CA", "postalCode": "M6K2R8", "twitter": "None", "instagram": "None", "facebook": "None", "youtube": "None", "website": "None", "summary": "None", "logo": "None", "latitude": 43.637427125454415, "longitude": -79.4330899593169}, "897985065RR0001": {"name": "PARKDALE UNITED CHURCH (CALGARY) FOUNDATION", "designationCode": "C", "categoryCode": "43", "address": "2919-8 AVENUE N W", "city": "CALGARY", "province": "AB", "country": "CA", "postalCode": "T2N1C8", "twitter": "None", "instagram": "None", "facebook": "None", "youtube": "None", "website": "None", "summary": "None", "logo": "None", "latitude": 51.05958053952926, "longitude": -114.12869319317329}, "119080315RR0001": {"name": "PARKDALE UNITED CHURCH FOUNDATION INCORPORATED", "designationCode": "C", "categoryCode": "59", "address": "171 DUNN AVENUE", "city": "TORONTO", "province": "ON", "country": "CA", "postalCode": "M6K2R8", "twitter": "None", "instagram": "None", "facebook": "None", "youtube": "None", "website": "None", "summary": "None", "logo": "None", "latitude": 43.637427125454415, "longitude": -79.4330899593169}}