{"899505135RR0001": {"name": "MISSION PIPE BAND SOCIETY", "designationCode": "C", "categoryCode": "22", "address": "24375-102ND AVE", "city": "MAPLE RIDGE", "province": "BC", "country": "CA", "postalCode": "V2W2E3", "twitter": "None", "instagram": "None", "facebook": "None", "youtube": "None", "website": "None", "summary": "None", "logo": "None", "latitude": 49.18753950764604, "longitude": -122.54669480835592}, "119043131RR0002": {"name": "MISSION PORTUGAISE NOTRE DAME DE FATIMA (LAVAL)", "designationCode": "C", "categoryCode": "38", "address": "1815 RUE FAVREAU", "city": "LAVAL", "province": "QC", "country": "CA", "postalCode": "H7T2H1", "twitter": "None", "instagram": "None", "facebook": "None", "youtube": "None", "website": "None", "summary": "None", "logo": "None", "latitude": 45.55067891121798, "longitude": -73.7667235888976}, "890756778RR0001": {"name": "MISSION PORTUGAISE NOTRE-DAME-DE-FATIMA", "designationCode": "C", "categoryCode": "38", "address": "42 RUE HANSON", "city": "GATINEAU", "province": "QC", "country": "CA", "postalCode": "J8Y3M5", "twitter": "None", "instagram": "None", "facebook": "None", "youtube": "None", "website": "None", "summary": "None", "logo": "None", "latitude": 45.42726357951985, "longitude": -75.72717744613092}, "898315171RR0001": {"name": "MISSION POSSIBLE CANADA", "designationCode": "C", "categoryCode": "47", "address": "160 STANLEY ST S", "city": "THAMESFORD", "province": "ON", "country": "CA", "postalCode": "N0M2M0", "twitter": "None", "instagram": "None", "facebook": "None", "youtube": "None", "website": "None", "summary": "None", "logo": "None", "latitude": 43.053271281983974, "longitude": -81.00424288594255}, "141070979RR0001": {"name": "MISSION POSSIBLE COMPASSIONATE MINISTRIES SOCIETY", "designationCode": "C", "categoryCode": "39", "address": "659 HASTINGS ST E", "city": "VANCOUVER", "province": "BC", "country": "CA", "postalCode": "V6A1R2", "twitter": "None", "instagram": "None", "facebook": "None", "youtube": "None", "website": "None", "summary": "None", "logo": "None", "latitude": 49.2811814787926, "longitude": -123.09015108090483}, "121903561RR0001": {"name": "MISSION PRESS SOCIETY", "designationCode": "C", "categoryCode": "47", "address": "1920 ARGYLE DR", "city": "VANCOUVER", "province": "BC", "country": "CA", "postalCode": "V5P2A8", "twitter": "None", "instagram": "None", "facebook": "None", "youtube": "None", "website": "None", "summary": "None", "logo": "None", "latitude": 49.219489301113896, "longitude": -123.06808990839069}, "890799943RR0001": {"name": "MISSION REVIVAL CHRISTIAN MINISTRIES", "designationCode": "C", "categoryCode": "39", "address": "2887 PAULKANE CHASE", "city": "LONDON", "province": "ON", "country": "CA", "postalCode": "N6L0A8", "twitter": "None", "instagram": "None", "facebook": "None", "youtube": "None", "website": "None", "summary": "None", "logo": "None", "latitude": 42.93643206429028, "longitude": -81.25442931022678}, "131106098RR0008": {"name": "MISSION SACRE COEUR", "designationCode": "C", "categoryCode": "38", "address": "C.P. 71", "city": "LA ROMAINE-MANICOUAGAN", "province": "QC", "country": "CA", "postalCode": "G0G1M0", "twitter": "None", "instagram": "None", "facebook": "None", "youtube": "None", "website": "None", "summary": "None", "logo": "None", "latitude": 50.219646000000054, "longitude": -60.67029949999993}, "108013046RR0001": {"name": "MISSION SAINT EDWARD THE CONFESSOR", "designationCode": "C", "categoryCode": "38", "address": "98 AURORA", "city": "POINTE-CLAIRE", "province": "QC", "country": "CA", "postalCode": "H9R3G7", "twitter": "None", "instagram": "None", "facebook": "None", "youtube": "None", "website": "None", "summary": "None", "logo": "None", "latitude": 45.452373686623766, "longitude": -73.82316432491743}, "120136858RR0001": {"name": "MISSION SAINT PIERRE SAINT PAUL", "designationCode": "C", "categoryCode": "47", "address": "177, CHEMIN FRIZZLE", "city": "KNOWLTON", "province": "QC", "country": "CA", "postalCode": "J0E1V0", "twitter": "None", "instagram": "None", "facebook": "None", "youtube": "None", "website": "None", "summary": "None", "logo": "None", "latitude": 45.23609635971484, "longitude": -72.56053296976158}, "119018737RR0054": {"name": "MISSION SAINT-ANTHONY", "designationCode": "C", "categoryCode": "38", "address": "PO BOX 1008 STN A", "city": "BELLEDUNE", "province": "NB", "country": "CA", "postalCode": "E8G2X9", "twitter": "None", "instagram": "None", "facebook": "None", "youtube": "None", "website": "None", "summary": "None", "logo": "None", "latitude": 47.86756800000006, "longitude": -65.86688149999993}, "892202565RR0001": {"name": "MISSION SAINT-PAUL IBARAKI", "designationCode": "C", "categoryCode": "38", "address": "8155, RUE ROUSSELOT", "city": "MONTREAL", "province": "QC", "country": "CA", "postalCode": "H2E1Z7", "twitter": "None", "instagram": "None", "facebook": "None", "youtube": "None", "website": "None", "summary": "None", "logo": "None", "latitude": 45.551369156009955, "longitude": -73.62206902772827}, "119043206RR0001": {"name": "MISSION SERVICES OF HAMILTON INC.", "designationCode": "C", "categoryCode": "47", "address": "PO BOX 368 STN LCD 1", "city": "HAMILTON", "province": "ON", "country": "CA", "postalCode": "L8L7W2", "twitter": "None", "instagram": "None", "facebook": "None", "youtube": "None", "website": "None", "summary": "None", "logo": "None", "latitude": 43.261962000000054, "longitude": -79.88800399999994}, "119302578RR0001": {"name": "MISSION SERVICES OF LONDON", "designationCode": "C", "categoryCode": "09", "address": "4 - 797 YORK ST", "city": "LONDON", "province": "ON", "country": "CA", "postalCode": "N5W6A8", "twitter": "None", "instagram": "None", "facebook": "None", "youtube": "None", "website": "None", "summary": "None", "logo": "None", "latitude": 42.98777988938981, "longitude": -81.22433448235418}, "866777899RR0001": {"name": "MISSION SERVICES OF LONDON FOUNDATION", "designationCode": "A", "categoryCode": "03", "address": "4 - 797 YORK ST", "city": "LONDON", "province": "ON", "country": "CA", "postalCode": "N5W6A8", "twitter": "None", "instagram": "None", "facebook": "None", "youtube": "None", "website": "None", "summary": "None", "logo": "None", "latitude": 42.98777988938981, "longitude": -81.22433448235418}, "890868441RR0001": {"name": "MISSION ST CHARLES BORROMEE DESSERTE", "designationCode": "C", "categoryCode": "38", "address": "C.P. 5", "city": "LAFORCE", "province": "QC", "country": "CA", "postalCode": "J0Z2J0", "twitter": "None", "instagram": "None", "facebook": "None", "youtube": "None", "website": "None", "summary": "None", "logo": "None", "latitude": 47.59617861587084, "longitude": -79.48596042390797}, "889893897RR0001": {"name": "MISSION ST FRANCOIS DE SALES ODANAK", "designationCode": "C", "categoryCode": "38", "address": "MISSION DES ABENAKIS", "city": "ODANAK CTE YAMASKIS", "province": "QC", "country": "CA", "postalCode": "J0G1H0", "twitter": "None", "instagram": "None", "facebook": "None", "youtube": "None", "website": "None", "summary": "None", "logo": "None", "latitude": 46.07507400000006, "longitude": -72.81805849999994}, "889147468RR0001": {"name": "MISSION ST MARTIN", "designationCode": "C", "categoryCode": "38", "address": "POST OFFICE BOX 553", "city": "WABASCA", "province": "AB", "country": "CA", "postalCode": "T0G2K0", "twitter": "None", "instagram": "None", "facebook": "None", "youtube": "None", "website": "None", "summary": "None", "logo": "None", "latitude": 55.987460000000056, "longitude": -113.91912999999994}, "892570664RR0001": {"name": "MISSION ST. BERNARD", "designationCode": "C", "categoryCode": "38", "address": "RL 35-75-14 WS                PO BOX 67", "city": "GROUARD", "province": "AB", "country": "CA", "postalCode": "T0G1C0", "twitter": "None", "instagram": "None", "facebook": "None", "youtube": "None", "website": "None", "summary": "None", "logo": "None", "latitude": 55.52700900000005, "longitude": -116.14180399999994}, "119018737RR0052": {"name": "MISSION ST-DOMINIQUE-SAVIO", "designationCode": "C", "categoryCode": "38", "address": "4 CENTRAL ST", "city": "CAMPBELLTON", "province": "NB", "country": "CA", "postalCode": "E3N1Z5", "twitter": "None", "instagram": "None", "facebook": "None", "youtube": "None", "website": "None", "summary": "None", "logo": "None", "latitude": 48.00584310750667, "longitude": -66.67064434014542}, "119043339RR0001": {"name": "MISSION ST-FRANCOIS-XAVIER", "designationCode": "C", "categoryCode": "38", "address": "P.O. BOX 70", "city": "KAHNAWAKE", "province": "QC", "country": "CA", "postalCode": "J0L1B0", "twitter": "None", "instagram": "None", "facebook": "None", "youtube": "None", "website": "None", "summary": "None", "logo": "None", "latitude": 45.40894000000003, "longitude": -73.67382999999995}, "119043347RR0001": {"name": "MISSION ST-FRANCOIS-XAVIER", "designationCode": "C", "categoryCode": "38", "address": "P.O. BOX 697", "city": "VALLEYVIEW", "province": "AB", "country": "CA", "postalCode": "T0H3N0", "twitter": "None", "instagram": "None", "facebook": "None", "youtube": "None", "website": "None", "summary": "None", "logo": "None", "latitude": 55.06844000000007, "longitude": -117.27238999999997}, "131106098RR0004": {"name": "MISSION STE-ANNE", "designationCode": "C", "categoryCode": "38", "address": "450 RUE PRINCIPALE N", "city": "AMOS", "province": "QC", "country": "CA", "postalCode": "J9T2M1", "twitter": "None", "instagram": "None", "facebook": "None", "youtube": "None", "website": "None", "summary": "None", "logo": "None", "latitude": 48.580161472964214, "longitude": -78.11595073218294}, "119043305RR0001": {"name": "MISSION STE-THERESE DE L'ENFANT-JESUS", "designationCode": "C", "categoryCode": "38", "address": "BOX 1780", "city": "SWAN RIVER", "province": "MB", "country": "CA", "postalCode": "R0L1Z0", "twitter": "None", "instagram": "None", "facebook": "None", "youtube": "None", "website": "None", "summary": "None", "logo": "None", "latitude": 52.11672730414978, "longitude": -101.25989472758229}, "107511453RR0001": {"name": "MISSION TO CHILDREN", "designationCode": "C", "categoryCode": "09", "address": "PO BOX 51143 RPO BEDDINGTON", "city": "CALGARY", "province": "AB", "country": "CA", "postalCode": "T3K3V9", "twitter": "None", "instagram": "None", "facebook": "None", "youtube": "None", "website": "None", "summary": "None", "logo": "None", "latitude": 51.128584718547586, "longitude": -114.06502043950208}, "890117021RR0001": {"name": "MISSION TO HAITI", "designationCode": "C", "categoryCode": "47", "address": "#3 HWY 59                     P.O. BOX 39", "city": "NORWICH", "province": "ON", "country": "CA", "postalCode": "N0J1P0", "twitter": "None", "instagram": "None", "facebook": "None", "youtube": "None", "website": "None", "summary": "None", "logo": "None", "latitude": 42.98797922592186, "longitude": -80.59757608410749}, "849046677RR0001": {"name": "MISSION TO MANY", "designationCode": "C", "categoryCode": "49", "address": "BOX 898", "city": "VIKING", "province": "AB", "country": "CA", "postalCode": "T0B4N0", "twitter": "None", "instagram": "None", "facebook": "None", "youtube": "None", "website": "None", "summary": "None", "logo": "None", "latitude": 53.10014000000007, "longitude": -111.76843999999994}, "890887771RR0001": {"name": "MISSION TO MILLIONS", "designationCode": "C", "categoryCode": "47", "address": "5 ECKER LANE", "city": "BINBROOK", "province": "ON", "country": "CA", "postalCode": "L0R1C0", "twitter": "None", "instagram": "None", "facebook": "None", "youtube": "None", "website": "None", "summary": "None", "logo": "None", "latitude": 43.12648903188741, "longitude": -79.80675215875723}, "119043446RR0001": {"name": "MISSION TO SEAMEN - ST. CLAIR REGION INC.", "designationCode": "C", "categoryCode": "30", "address": "PO BOX 36  STN MAIN", "city": "SARNIA", "province": "ON", "country": "CA", "postalCode": "N7T7H8", "twitter": "None", "instagram": "None", "facebook": "None", "youtube": "None", "website": "None", "summary": "None", "logo": "None", "latitude": 42.97877700000005, "longitude": -82.40368399999993}, "860698844RR0001": {"name": "MISSION URBAINE", "designationCode": "C", "categoryCode": "47", "address": "3155 CH DES QUATRE-BOURGEOIS", "city": "QUEBEC", "province": "QC", "country": "CA", "postalCode": "G1W4X7", "twitter": "None", "instagram": "None", "facebook": "None", "youtube": "None", "website": "None", "summary": "None", "logo": "None", "latitude": 46.76808495527755, "longitude": -71.30891448981512}, "852628726RR0001": {"name": "MISSION VIE POUR TOUS (MVT) - MISSION LIFE FOR ALL (MLA)", "designationCode": "C", "categoryCode": "47", "address": "CP 62 SUCC AHUNTSIC", "city": "MONTREAL", "province": "QC", "country": "CA", "postalCode": "H3L3N5", "twitter": "None", "instagram": "None", "facebook": "None", "youtube": "None", "website": "None", "summary": "None", "logo": "None", "latitude": 45.555040000000076, "longitude": -73.67053999999996}, "139482855RR0001": {"name": "MISSION WITHOUT BORDERS/MISSION SANS FRONTIERES", "designationCode": "C", "categoryCode": "49", "address": "PO BOX 2007 STN A", "city": "ABBOTSFORD", "province": "BC", "country": "CA", "postalCode": "V2T3T8", "twitter": "None", "instagram": "None", "facebook": "None", "youtube": "None", "website": "None", "summary": "None", "logo": "None", "latitude": 49.05161700000005, "longitude": -122.32930399999994}, "107707218RR0001": {"name": "MISSION ZION CHRISTIAN FELLOWSHIP", "designationCode": "C", "categoryCode": "39", "address": "3303 FIRHILL DR", "city": "ABBOTSFORD", "province": "BC", "country": "CA", "postalCode": "V2T5L4", "twitter": "None", "instagram": "None", "facebook": "None", "youtube": "None", "website": "None", "summary": "None", "logo": "None", "latitude": 49.0621794096601, "longitude": -122.36587290386038}, "119245488RR0002": {"name": "MISSIONARIES OF CHARITY INC.", "designationCode": "C", "categoryCode": "01", "address": "167 AIKINS STREET", "city": "WINNIPEG", "province": "MB", "country": "CA", "postalCode": "R2W4G1", "twitter": "None", "instagram": "None", "facebook": "None", "youtube": "None", "website": "None", "summary": "None", "logo": "None", "latitude": 49.914606866495504, "longitude": -97.13815366720537}, "899102966RR0001": {"name": "MISSIONARY ALLIANCE CHURCH", "designationCode": "C", "categoryCode": "39", "address": "PO BOX 411", "city": "VIKING", "province": "AB", "country": "CA", "postalCode": "T0B4N0", "twitter": "None", "instagram": "None", "facebook": "None", "youtube": "None", "website": "None", "summary": "None", "logo": "None", "latitude": 53.10014000000007, "longitude": -111.76843999999994}, "119042349RR0001": {"name": "MISSIONARY BIBLE CHURCH", "designationCode": "C", "categoryCode": "39", "address": "PO BOX 1660 STN CENTRAL", "city": "HALIFAX", "province": "NS", "country": "CA", "postalCode": "B3J3A1", "twitter": "None", "instagram": "None", "facebook": "None", "youtube": "None", "website": "None", "summary": "None", "logo": "None", "latitude": 44.645478000000054, "longitude": -63.576552499999934}, "844925347RR0001": {"name": "MISSIONARY CHURCH HISTORICAL TRUST", "designationCode": "C", "categoryCode": "50", "address": "7 WINDY RIDGE DR", "city": "KITCHENER", "province": "ON", "country": "CA", "postalCode": "N2P1R9", "twitter": "None", "instagram": "None", "facebook": "None", "youtube": "None", "website": "None", "summary": "None", "logo": "None", "latitude": 43.396209692740605, "longitude": -80.45080708214559}, "122452147RR0001": {"name": "MISSIONARY CHURCH INC", "designationCode": "C", "categoryCode": "39", "address": "9460 GLENMORE ROAD", "city": "LAKE COUNTRY", "province": "BC", "country": "CA", "postalCode": "V4V1M8", "twitter": "None", "instagram": "None", "facebook": "None", "youtube": "None", "website": "None", "summary": "None", "logo": "None", "latitude": 50.019588, "longitude": -119.40893378492683}, "118967785RR0009": {"name": "MISSIONARY FUND (GENERAL) OF THE INDEPENDENT HOLINESS CHURCHES", "designationCode": "C", "categoryCode": "23", "address": "104 610 PEREHUDOFF CR", "city": "SASKATOON", "province": "SK", "country": "CA", "postalCode": "S7N4H5", "twitter": "None", "instagram": "None", "facebook": "None", "youtube": "None", "website": "None", "summary": "None", "logo": "None", "latitude": 52.145415489901104, "longitude": -106.5737205}, "887637437RR0001": {"name": "MISSIONARY GOSPEL FELLOWSHIP OF CANADA", "designationCode": "C", "categoryCode": "47", "address": "BOX 465", "city": "ABBOTSFORD", "province": "BC", "country": "CA", "postalCode": "V2T6Z7", "twitter": "None", "instagram": "None", "facebook": "None", "youtube": "None", "website": "None", "summary": "None", "logo": "None", "latitude": 49.05161700000005, "longitude": -122.32930399999994}, "107706533RR0001": {"name": "MISSIONARY HEALTH INSTITUTE INC.", "designationCode": "C", "categoryCode": "10", "address": "220 DUNCAN MILL ROAD          UNIT 510", "city": "NORTH YORK", "province": "ON", "country": "CA", "postalCode": "M3B3J5", "twitter": "None", "instagram": "None", "facebook": "None", "youtube": "None", "website": "None", "summary": "None", "logo": "None"}, "119064715RR0003": {"name": "MISSIONARY OBLATES OF ST. MARY'S PROVINCE", "designationCode": "C", "categoryCode": "46", "address": "96 EMPRESS AVE", "city": "OTTAWA", "province": "ON", "country": "CA", "postalCode": "K1R7G3", "twitter": "None", "instagram": "None", "facebook": "None", "youtube": "None", "website": "None", "summary": "None", "logo": "None", "latitude": 45.411189077702204, "longitude": -75.70929188902963}, "119042521RR0001": {"name": "MISSIONARY SISTERS OF THE PRECIOUS BLOOD", "designationCode": "C", "categoryCode": "46", "address": "685 FINCH AVENUE WEST", "city": "WILLOWDALE", "province": "ON", "country": "CA", "postalCode": "M2R1P2", "twitter": "None", "instagram": "None", "facebook": "None", "youtube": "None", "website": "None", "summary": "None", "logo": "None", "latitude": 43.771012830371376, "longitude": -79.45703637633459}, "137405619RR0001": {"name": "MISSIONARY VENTURES CANADA", "designationCode": "C", "categoryCode": "02", "address": "201B - 727 WOOLWICH ST", "city": "GUELPH", "province": "ON", "country": "CA", "postalCode": "N1H3Z2", "twitter": "None", "instagram": "None", "facebook": "None", "youtube": "None", "website": "None", "summary": "None", "logo": "None", "latitude": 43.56245729035117, "longitude": -80.27379629081346}, "132531245RR0001": {"name": "MISSIONE SAN DOMENICO SAVIO, ARCHIDIOCESE DE MONTREAL", "designationCode": "C", "categoryCode": "38", "address": "9190 STE CLAIRE", "city": "MONTREAL", "province": "QC", "country": "CA", "postalCode": "H1L1Z7", "twitter": "None", "instagram": "None", "facebook": "None", "youtube": "None", "website": "None", "summary": "None", "logo": "None", "latitude": 45.60777900054826, "longitude": -73.52099378362875}, "807120670RR0001": {"name": "MISSIONFEST MANITOBA INC.", "designationCode": "C", "categoryCode": "49", "address": "PO BOX 37027                  RPO ST VITAL CENTRE", "city": "WINNIPEG", "province": "MB", "country": "CA", "postalCode": "R2M5R3", "twitter": "None", "instagram": "None", "facebook": "None", "youtube": "None", "website": "None", "summary": "None", "logo": "None", "latitude": 49.83084000000008, "longitude": -97.11148999999995}, "887699155RR0001": {"name": "MISSIONFEST TORONTO", "designationCode": "C", "categoryCode": "47", "address": "513 - 28 ESTATE DR", "city": "SCARBOROUGH", "province": "ON", "country": "CA", "postalCode": "M1H2Z1", "twitter": "None", "instagram": "None", "facebook": "None", "youtube": "None", "website": "None", "summary": "None", "logo": "None", "latitude": 43.78283595394987, "longitude": -79.2377034531418}, "811757947RR0001": {"name": "MISSIONGTA CHRISTIAN NETWORK", "designationCode": "C", "categoryCode": "49", "address": "282 CUMMER AVENUE", "city": "TORONTO", "province": "ON", "country": "CA", "postalCode": "M2M2E7", "twitter": "None", "instagram": "None", "facebook": "None", "youtube": "None", "website": "None", "summary": "None", "logo": "None", "latitude": 43.790047165156565, "longitude": -79.40363920650348}, "125710228RR0001": {"name": "MISSIONNAIRES DE LA BONNE NOUVELLE", "designationCode": "C", "categoryCode": "49", "address": "3788, CHEMIN STE-THERESE", "city": "CARIGNAN", "province": "QC", "country": "CA", "postalCode": "J3L4A7", "twitter": "None", "instagram": "None", "facebook": "None", "youtube": "None", "website": "None", "summary": "None", "logo": "None", "latitude": 45.40955258644476, "longitude": -73.25206405493692}, "119042968RR0001": {"name": "MISSIONNAIRES DE NOTRE-DAME S J", "designationCode": "C", "categoryCode": "46", "address": "14 RUE DAUPHINE", "city": "QUEBEC", "province": "QC", "country": "CA", "postalCode": "G1R3W8", "twitter": "None", "instagram": "None", "facebook": "None", "youtube": "None", "website": "None", "summary": "None", "logo": "None", "latitude": 46.812342006116836, "longitude": -71.2117456490564}, "119042992RR0001": {"name": "MISSIONNAIRES OBLATS-PROVINCE GRANDIN/MISSIONARY OBLATES-GRANDIN PROVINCE", "designationCode": "C", "categoryCode": "46", "address": "96 EMPRESS AVE", "city": "OTTAWA", "province": "ON", "country": "CA", "postalCode": "K1R7G3", "twitter": "None", "instagram": "None", "facebook": "None", "youtube": "None", "website": "None", "summary": "None", "logo": "None", "latitude": 45.411189077702204, "longitude": -75.70929188902963}, "119043172RR0001": {"name": "MISSIONS CATHOLIQUES ROMAN CATHOLIC MISSIONS", "designationCode": "C", "categoryCode": "38", "address": "PO BOX 2", "city": "FORT ALEXANDER", "province": "MB", "country": "CA", "postalCode": "R0E0P0", "twitter": "None", "instagram": "None", "facebook": "None", "youtube": "None", "website": "None", "summary": "None", "logo": "None", "latitude": 50.612220000000036, "longitude": -96.29613999999998}, "119043198RR0001": {"name": "MISSIONS DE RED RAPIDS", "designationCode": "C", "categoryCode": "47", "address": "1470 ROUTE 109", "city": "RED RAPIDS", "province": "NB", "country": "CA", "postalCode": "E7H4H5", "twitter": "None", "instagram": "None", "facebook": "None", "youtube": "None", "website": "None", "summary": "None", "logo": "None", "latitude": 46.78327947753796, "longitude": -67.51612564543383}, "125312587RR0002": {"name": "MISSIONS DES SOEURS DE NOTRE-DAME DU SAINT-ROSAIRE", "designationCode": "C", "categoryCode": "47", "address": "300 AVENUE DU ROSAIRE", "city": "RIMOUSKI", "province": "QC", "country": "CA", "postalCode": "G5L3E3", "twitter": "None", "instagram": "None", "facebook": "None", "youtube": "None", "website": "None", "summary": "None", "logo": "None", "latitude": 48.44988295585444, "longitude": -68.51725491750862}, "897225165RR0001": {"name": "MISSIONS DOMINICAINES", "designationCode": "C", "categoryCode": "09", "address": "846 ROUTE DU FLEUVE", "city": "NOTRE-DAME-DU-PORTAGE", "province": "QC", "country": "CA", "postalCode": "G0L1Y0", "twitter": "None", "instagram": "None", "facebook": "None", "youtube": "None", "website": "None", "summary": "None", "logo": "None", "latitude": 47.74448387924879, "longitude": -69.63249695043011}, "845790161RR0001": {"name": "MISSIONS FEST INTERNATIONAL ASSOCIATION", "designationCode": "C", "categoryCode": "47", "address": "99 MUNDY STREET", "city": "COQUITLAM", "province": "BC", "country": "CA", "postalCode": "V5K5L5", "twitter": "None", "instagram": "None", "facebook": "None", "youtube": "None", "website": "None", "summary": "None", "logo": "None", "latitude": 49.232436674707195, "longitude": -122.83574748040871}, "129277083RR0002": {"name": "MISSIONS FESTIVAL (MISSIONS FEST) SOCIETY", "designationCode": "C", "categoryCode": "49", "address": "7200 CARIBOO RD", "city": "BURNABY", "province": "BC", "country": "CA", "postalCode": "V3N4A7", "twitter": "None", "instagram": "None", "facebook": "None", "youtube": "None", "website": "None", "summary": "None", "logo": "None", "latitude": 49.24379569340032, "longitude": -122.90975529213488}, "896473162RR0001": {"name": "MISSIONS FESTIVAL (MISSIONS FEST) SOCIETY - EDMONTON", "designationCode": "C", "categoryCode": "49", "address": "14323 107 A AVE", "city": "EDMONTON", "province": "AB", "country": "CA", "postalCode": "T5N1G2", "twitter": "None", "instagram": "None", "facebook": "None", "youtube": "None", "website": "None", "summary": "None", "logo": "None", "latitude": 53.55092987654888, "longitude": -113.56803287654888}, "119043230RR0001": {"name": "MISSIONS INTER-FRANCOPHONES INC.", "designationCode": "C", "categoryCode": "36", "address": "1525, BOUL. LEBEL", "city": "CHAMBLY", "province": "QC", "country": "CA", "postalCode": "J3L6J2", "twitter": "None", "instagram": "None", "facebook": "None", "youtube": "None", "website": "None", "summary": "None", "logo": "None", "latitude": 45.44100530004606, "longitude": -73.31141470497428}, "131275711RR0001": {"name": "MISSISSAUGA ARTS COUNCIL", "designationCode": "C", "categoryCode": "22", "address": "1055 - 300 CITY CENTRE DRIVE", "city": "MISSISSAUGA", "province": "ON", "country": "CA", "postalCode": "L5B3C9", "twitter": "None", "instagram": "None", "facebook": "None", "youtube": "None", "website": "None", "summary": "None", "logo": "None", "latitude": 43.58835885879121, "longitude": -79.64361319799113}, "893023564RR0001": {"name": "MISSISSAUGA ASSOCIATION FOR INDEPENDENT LIVING", "designationCode": "C", "categoryCode": "01", "address": "38 SIR JACOBS CRESCENT", "city": "BRAMPTON", "province": "ON", "country": "CA", "postalCode": "L7A3V2", "twitter": "None", "instagram": "None", "facebook": "None", "youtube": "None", "website": "None", "summary": "None", "logo": "None", "latitude": 43.71113095366141, "longitude": -79.82816477655963}, "861098861RR0001": {"name": "MISSISSAUGA BOARD OF CHINESE PROFESSIONALS & BUSINESSES (CPB) FOUNDATION", "designationCode": "A", "categoryCode": "53", "address": "1675 THE CHASE                UNIT 22", "city": "MISSISSAUGA", "province": "ON", "country": "CA", "postalCode": "L5M5Y7", "twitter": "None", "instagram": "None", "facebook": "None", "youtube": "None", "website": "None", "summary": "None", "logo": "None", "latitude": 43.565756515350344, "longitude": -79.70032026371943}, "895394286RR0001": {"name": "MISSISSAUGA CARMEL MANDARIN ALLIANCE CHURCH OF THE CHRISTIAN AND MISSIONARY ALLIANCE IN CANADA", "designationCode": "C", "categoryCode": "39", "address": "5725 TERRY FOX WAY", "city": "MISSISSAUGA", "province": "ON", "country": "CA", "postalCode": "L5V3E3", "twitter": "None", "instagram": "None", "facebook": "None", "youtube": "None", "website": "None", "summary": "None", "logo": "None", "latitude": 43.60141119874187, "longitude": -79.69308252550657}, "133889519RR0001": {"name": "MISSISSAUGA CHILDREN'S CHOIR", "designationCode": "C", "categoryCode": "22", "address": "4094 TOMKEN ROAD", "city": "MISSISSAUGA", "province": "ON", "country": "CA", "postalCode": "L4W1J5", "twitter": "None", "instagram": "None", "facebook": "None", "youtube": "None", "website": "None", "summary": "None", "logo": "None", "latitude": 43.6159715570144, "longitude": -79.61515045715252}, "131981615RR0001": {"name": "MISSISSAUGA CHINESE ALLIANCE CHURCH", "designationCode": "C", "categoryCode": "39", "address": "5710 KENNEDY ROAD", "city": "MISSISSAUGA", "province": "ON", "country": "CA", "postalCode": "L4Z1T1", "twitter": "None", "instagram": "None", "facebook": "None", "youtube": "None", "website": "None", "summary": "None", "logo": "None", "latitude": 43.62979771686217, "longitude": -79.66057928579221}, "107707259RR0001": {"name": "MISSISSAUGA CHINESE BAPTIST CHURCH", "designationCode": "C", "categoryCode": "31", "address": "5220 CREEKBANK ROAD", "city": "MISSISSAUGA", "province": "ON", "country": "CA", "postalCode": "L4W1X1", "twitter": "None", "instagram": "None", "facebook": "None", "youtube": "None", "website": "None", "summary": "None", "logo": "None", "latitude": 43.64711762389656, "longitude": -79.61866774940827}, "138032081RR0001": {"name": "MISSISSAUGA CHINESE EVANGELICAL MISSIONARY CHURCH", "designationCode": "C", "categoryCode": "39", "address": "4035 ERINDALE STATION RD", "city": "MISSISSAUGA", "province": "ON", "country": "CA", "postalCode": "L5C3Z2", "twitter": "None", "instagram": "None", "facebook": "None", "youtube": "None", "website": "None", "summary": "None", "logo": "None", "latitude": 43.57142588095088, "longitude": -79.66241506604543}, "891274342RR0001": {"name": "MISSISSAUGA CHINESE PRESBYTERIAN CHURCH", "designationCode": "C", "categoryCode": "37", "address": "5230 RIVER FOREST COURT", "city": "MISSISSAUGA", "province": "ON", "country": "CA", "postalCode": "L5V2C7", "twitter": "None", "instagram": "None", "facebook": "None", "youtube": "None", "website": "None", "summary": "None", "logo": "None", "latitude": 43.58696542602008, "longitude": -79.68526709351389}, "894115690RR0001": {"name": "MISSISSAUGA CHINESE UNITED CHURCH", "designationCode": "C", "categoryCode": "44", "address": "4094 TOMKEN RD", "city": "MISSISSAUGA", "province": "ON", "country": "CA", "postalCode": "L4W1J5", "twitter": "None", "instagram": "None", "facebook": "None", "youtube": "None", "website": "None", "summary": "None", "logo": "None", "latitude": 43.6159715570144, "longitude": -79.61515045715252}, "119043545RR0001": {"name": "MISSISSAUGA CHORAL SOCIETY", "designationCode": "C", "categoryCode": "22", "address": "BOX 59505-321 LAKESHORE RD.   WEST", "city": "MISSISSAUGA", "province": "ON", "country": "CA", "postalCode": "L5H1G1", "twitter": "None", "instagram": "None", "facebook": "None", "youtube": "None", "website": "None", "summary": "None", "logo": "None", "latitude": 43.54364012793593, "longitude": -79.59443094252426}, "836653147RR0001": {"name": "MISSISSAUGA CHRISTIAN FAMILY WORSHIP CENTRE", "designationCode": "C", "categoryCode": "39", "address": "7 - 5155 SPECTRUM WAY", "city": "MISSISSAUGA", "province": "ON", "country": "CA", "postalCode": "L4W5A1", "twitter": "None", "instagram": "None", "facebook": "None", "youtube": "None", "website": "None", "summary": "None", "logo": "None", "latitude": 43.649806471579254, "longitude": -79.60971813765944}, "888421245RR0001": {"name": "MISSISSAUGA CHRISTIAN RENEWAL CENTRE", "designationCode": "C", "categoryCode": "39", "address": "603 -30 MALTA AVENUE", "city": "BRAMPTON", "province": "ON", "country": "CA", "postalCode": "L6Y4S5", "twitter": "None", "instagram": "None", "facebook": "None", "youtube": "None", "website": "None", "summary": "None", "logo": "None", "latitude": 43.65745078763948, "longitude": -79.72747814138076}, "119043552RR0001": {"name": "MISSISSAUGA CHURCH OF GOD", "designationCode": "C", "categoryCode": "39", "address": "1 HATTON CRT", "city": "BRAMPTON", "province": "ON", "country": "CA", "postalCode": "L6Y5T6", "twitter": "None", "instagram": "None", "facebook": "None", "youtube": "None", "website": "None", "summary": "None", "logo": "None", "latitude": 43.65539930510696, "longitude": -79.76871658677287}, "808421671RR0001": {"name": "MISSISSAUGA CITY BAPTIST CHURCH INC.", "designationCode": "C", "categoryCode": "31", "address": "3434 CAWTHRA RD", "city": "MISSISSAUGA", "province": "ON", "country": "CA", "postalCode": "L5A2X7", "twitter": "None", "instagram": "None", "facebook": "None", "youtube": "None", "website": "None", "summary": "None", "logo": "None", "latitude": 43.60289140380306, "longitude": -79.61180688874117}, "119043594RR0001": {"name": "MISSISSAUGA COMMUNITY LEGAL SERVICES", "designationCode": "C", "categoryCode": "59", "address": "130 DUNDAS STREET E STE 501A", "city": "MISSISSAUGA", "province": "ON", "country": "CA", "postalCode": "L5A3V8", "twitter": "None", "instagram": "None", "facebook": "None", "youtube": "None", "website": "None", "summary": "None", "logo": "None", "latitude": 43.582930638900194, "longitude": -79.61196500848277}, "119043602RR0001": {"name": "MISSISSAUGA CONCERT BAND INC.", "designationCode": "C", "categoryCode": "22", "address": "2967 WINDWOOD DRIVE", "city": "MISSISSAUGA", "province": "ON", "country": "CA", "postalCode": "L5N1W5", "twitter": "None", "instagram": "None", "facebook": "None", "youtube": "None", "website": "None", "summary": "None", "logo": "None", "latitude": 43.573258842373924, "longitude": -79.74639003300838}, "140851932RR0001": {"name": "MISSISSAUGA FAMILY BAPTIST CHURCH", "designationCode": "C", "categoryCode": "31", "address": "16 FALCONER DRIVE             UNITS 1-3", "city": "MISSISSAUGA", "province": "ON", "country": "CA", "postalCode": "L5N3M1", "twitter": "None", "instagram": "None", "facebook": "None", "youtube": "None", "website": "None", "summary": "None", "logo": "None", "latitude": 43.59386426698034, "longitude": -79.72574267909233}, "815204250RR0001": {"name": "MISSISSAUGA FESTIVAL CHOIR", "designationCode": "C", "categoryCode": "22", "address": "BOX 48007", "city": "MISSISSAUGA", "province": "ON", "country": "CA", "postalCode": "L5A4G8", "twitter": "None", "instagram": "None", "facebook": "None", "youtube": "None", "website": "None", "summary": "None", "logo": "None", "latitude": 43.58690700000005, "longitude": -79.64535049999994}, "889181129RR0001": {"name": "MISSISSAUGA FESTIVAL YOUTH CHOIR", "designationCode": "C", "categoryCode": "22", "address": "2325 HURONTARIO STREET #174", "city": "MISSISSAUGA", "province": "ON", "country": "CA", "postalCode": "L5A4K4", "twitter": "None", "instagram": "None", "facebook": "None", "youtube": "None", "website": "None", "summary": "None", "logo": "None", "latitude": 43.574736735558496, "longitude": -79.60855599645157}, "107797383RR0105": {"name": "MISSISSAUGA FILIPINO SEVENTH-DAY ADVENTIST CHURCH", "designationCode": "A", "categoryCode": "41", "address": "3389 NUTCRACKER DR", "city": "MISSISSAUGA", "province": "ON", "country": "CA", "postalCode": "L5N6E6", "twitter": "None", "instagram": "None", "facebook": "None", "youtube": "None", "website": "None", "summary": "None", "logo": "None", "latitude": 43.56867610381434, "longitude": -79.76453924759062}, "107406316RR0038": {"name": "MISSISSAUGA GRACE FREE METHODIST CHURCH", "designationCode": "C", "categoryCode": "39", "address": "1 WORLD DRIVE", "city": "MISSISAUGA", "province": "ON", "country": "CA", "postalCode": "L5T2Y4", "twitter": "None", "instagram": "None", "facebook": "None", "youtube": "None", "website": "None", "summary": "None", "logo": "None", "latitude": 43.63385991649808, "longitude": -79.68857199313241}, "899127526RR0001": {"name": "MISSISSAUGA HUMANE SOCIETY", "designationCode": "C", "categoryCode": "54", "address": "PO BOX 152                    3353 CREDIT WOODLANDS", "city": "MISSISSAUGA", "province": "ON", "country": "CA", "postalCode": "L5C2K1", "twitter": "None", "instagram": "None", "facebook": "None", "youtube": "None", "website": "None", "summary": "None", "logo": "None", "latitude": 43.55883100199057, "longitude": -79.65808640755397}, "871721163RR0001": {"name": "MISSISSAUGA INTERNATIONAL BAPTIST CHURCH", "designationCode": "C", "categoryCode": "31", "address": "3415 ETUDE DR", "city": "MISSISSAUGA", "province": "ON", "country": "CA", "postalCode": "L4T1T5", "twitter": "None", "instagram": "None", "facebook": "None", "youtube": "None", "website": "None", "summary": "None", "logo": "None", "latitude": 43.71629714184304, "longitude": -79.63742053292147}, "107707333RR0001": {"name": "MISSISSAUGA ITALIAN CANADIAN BENEVOLENT ASSOCIATION", "designationCode": "C", "categoryCode": "09", "address": "113-195 FORUM DR", "city": "MISSISSAUGA", "province": "ON", "country": "CA", "postalCode": "L4Z3M5", "twitter": "None", "instagram": "None", "facebook": "None", "youtube": "None", "website": "None", "summary": "None", "logo": "None", "latitude": 43.61164230062296, "longitude": -79.65061571316859}, "129921128RR0001": {"name": "MISSISSAUGA MENNONITE FELLOWSHIP", "designationCode": "C", "categoryCode": "34", "address": "PO BOX 26012 RPO CHURCHILL", "city": "MISSISSAUGA", "province": "ON", "country": "CA", "postalCode": "L5L5W7", "twitter": "None", "instagram": "None", "facebook": "None", "youtube": "None", "website": "None", "summary": "None", "logo": "None", "latitude": 43.70823401009694, "longitude": -79.64423545091155}, "818225476RR0001": {"name": "MISSISSAUGA MISSION CHURCH MINISTRIES", "designationCode": "C", "categoryCode": "47", "address": "2029 LORELEI ROAD", "city": "MISSISSAUGA", "province": "ON", "country": "CA", "postalCode": "L5A1C1", "twitter": "None", "instagram": "None", "facebook": "None", "youtube": "None", "website": "None", "summary": "None", "logo": "None", "latitude": 43.57463632693759, "longitude": -79.59671909559137}, "864213350RR0001": {"name": "MISSISSAUGA MUSLIM COMMUNITY CENTRE", "designationCode": "C", "categoryCode": "60", "address": "2505 DIXIE ROAD", "city": "MISSISSAUGA", "province": "ON", "country": "CA", "postalCode": "L4Y2A1", "twitter": "None", "instagram": "None", "facebook": "None", "youtube": "None", "website": "None", "summary": "None", "logo": "None", "latitude": 43.607626341421636, "longitude": -79.5812949001677}, "119043669RR0001": {"name": "MISSISSAUGA PLAYERS THEATRE GROUP", "designationCode": "C", "categoryCode": "22", "address": "321 LAKESHORE ROAD WEST       P.O. BOX 59552", "city": "MISSISSAUGA", "province": "ON", "country": "CA", "postalCode": "L5H1G8", "twitter": "None", "instagram": "None", "facebook": "None", "youtube": "None", "website": "None", "summary": "None", "logo": "None", "latitude": 43.54364012793593, "longitude": -79.59443094252426}, "855425328RR0001": {"name": "MISSISSAUGA POWER CHURCH", "designationCode": "C", "categoryCode": "39", "address": "605-190 DUDLEY AVE", "city": "THORNHILL", "province": "ON", "country": "CA", "postalCode": "L3T2G1", "twitter": "None", "instagram": "None", "facebook": "None", "youtube": "None", "website": "None", "summary": "None", "logo": "None", "latitude": 43.811104515955925, "longitude": -79.42101876536421}, "107797383RR0041": {"name": "MISSISSAUGA SEVENTH-DAY ADVENTIST CHURCH", "designationCode": "C", "categoryCode": "41", "address": "2250 CREDIT VALLEY RD", "city": "MISSISSAUGA", "province": "ON", "country": "CA", "postalCode": "L5M4L9", "twitter": "None", "instagram": "None", "facebook": "None", "youtube": "None", "website": "None", "summary": "None", "logo": "None", "latitude": 43.55616674409951, "longitude": -79.70224972577763}, "899044655RR0001": {"name": "MISSISSAUGA SOUTHERN CHINESE BAPTIST CHURCH", "designationCode": "C", "categoryCode": "31", "address": "1550 SOUTH GATEWAY ROAD       UNIT 325", "city": "MISSISSAUGA", "province": "ON", "country": "CA", "postalCode": "L4W5G6", "twitter": "None", "instagram": "None", "facebook": "None", "youtube": "None", "website": "None", "summary": "None", "logo": "None", "latitude": 43.63284986868856, "longitude": -79.61436997371497}, "876973629RR0001": {"name": "MISSISSAUGA VICTORY CHURCH INC.", "designationCode": "C", "categoryCode": "39", "address": "2900 ARGENTIA RD              UNIT 20", "city": "MISSISSAUGA", "province": "ON", "country": "CA", "postalCode": "L5N7X9", "twitter": "None", "instagram": "None", "facebook": "None", "youtube": "None", "website": "None", "summary": "None", "logo": "None", "latitude": 43.5992765927641, "longitude": -79.7786471905189}, "119043693RR0001": {"name": "MISSISSAUGA VIETNAMESE EVANGELICAL CHURCH (HOI THANH TIN LANH VIET NAM) OF THE CHRISTIAN AND MISSIONARY ALLIANCE IN CANADA", "designationCode": "C", "categoryCode": "39", "address": "114 - 1055 CANADIAN PLACE", "city": "MISSISSAUGA", "province": "ON", "country": "CA", "postalCode": "L4W0C2", "twitter": "None", "instagram": "None", "facebook": "None", "youtube": "None", "website": "None", "summary": "None", "logo": "None", "latitude": 43.62671187457425, "longitude": -79.6273813054704}, "119043701RR0001": {"name": "MISSISSAUGA VISUAL ARTS", "designationCode": "C", "categoryCode": "22", "address": "4170 RIVERWOOD PARK LANE", "city": "MISSISSAUGA", "province": "ON", "country": "CA", "postalCode": "L5C2S7", "twitter": "None", "instagram": "None", "facebook": "None", "youtube": "None", "website": "None", "summary": "None", "logo": "None", "latitude": 43.56596251226328, "longitude": -79.67248250859834}, "887574465RR0001": {"name": "MISSISSAUGA'S RAM MANDIR", "designationCode": "C", "categoryCode": "39", "address": "270 EXPORT BLVD", "city": "MISSISSAUGA", "province": "ON", "country": "CA", "postalCode": "L5S1Y4", "twitter": "None", "instagram": "None", "facebook": "None", "youtube": "None", "website": "None", "summary": "None", "logo": "None", "latitude": 43.652025780397466, "longitude": -79.70262207080688}, "892271560RR0001": {"name": "MISSISSIPI VALLEY CONSERVATION FOUNDATION", "designationCode": "A", "categoryCode": "53", "address": "10970 HIGHWAY 7", "city": "CARLETON PLACE", "province": "ON", "country": "CA", "postalCode": "K7C3P1", "twitter": "None", "instagram": "None", "facebook": "None", "youtube": "None", "website": "None", "summary": "None", "logo": "None", "latitude": 45.124730765623326, "longitude": -76.15185500433114}, "107406316RR0039": {"name": "MISSISSIPPI FREE METHODIST CHURCH", "designationCode": "C", "categoryCode": "39", "address": "PO BOX 1505", "city": "MISSISSIPI", "province": "ON", "country": "CA", "postalCode": "K0H2C0", "twitter": "None", "instagram": "None", "facebook": "None", "youtube": "None", "website": "None", "summary": "None", "logo": "None", "latitude": 32.750410000000045, "longitude": -89.75035999999994}, "107707440RR0001": {"name": "MISSISSIPPI VALLEY CONSERVATION AUTHORITY", "designationCode": "C", "categoryCode": "52", "address": "10970 HIGHWAY 7", "city": "CARLETON PLACE", "province": "ON", "country": "CA", "postalCode": "K7C3P1", "twitter": "None", "instagram": "None", "facebook": "None", "youtube": "None", "website": "None", "summary": "None", "logo": "None", "latitude": 45.124730765623326, "longitude": -76.15185500433114}, "881736417RR0001": {"name": "MISSISSIPPI VALLEY FIELD NATURALISTS", "designationCode": "C", "categoryCode": "29", "address": "POST OFFICE BOX 1617", "city": "ALMONTE", "province": "ON", "country": "CA", "postalCode": "K0A1A0", "twitter": "None", "instagram": "None", "facebook": "None", "youtube": "None", "website": "None", "summary": "None", "logo": "None", "latitude": 45.223665000000054, "longitude": -76.20363799999993}, "119043750RR0001": {"name": "MISSISSIPPI VALLEY TEXTILE MUSEUM", "designationCode": "C", "categoryCode": "50", "address": "BOX 784", "city": "ALMONTE", "province": "ON", "country": "CA", "postalCode": "K0A1A0", "twitter": "None", "instagram": "None", "facebook": "None", "youtube": "None", "website": "None", "summary": "None", "logo": "None", "latitude": 45.223665000000054, "longitude": -76.20363799999993}}