{"139096135RR0001": {"name": "ELSPETH HEYWORTH CENTRE FOR WOMEN (NORTH YORK)", "designationCode": "C", "categoryCode": "59", "address": "2350 FINCH AVENUE WEST        UNIT D", "city": "TORONTO", "province": "ON", "country": "CA", "postalCode": "M9M2C7", "twitter": "None", "instagram": "None", "facebook": "None", "youtube": "None", "website": "None", "summary": "None", "logo": "None", "latitude": 43.75180230783632, "longitude": -79.54375489912852}, "118898352RR0001": {"name": "ELVES CLUB", "designationCode": "C", "categoryCode": "09", "address": "BOX 1107", "city": "GIBSONS", "province": "BC", "country": "CA", "postalCode": "V0N1V0", "twitter": "None", "instagram": "None", "facebook": "None", "youtube": "None", "website": "None", "summary": "None", "logo": "None", "latitude": 49.40659350000001, "longitude": -123.528087}, "118898360RR0001": {"name": "ELVES SPECIAL NEEDS SOCIETY", "designationCode": "C", "categoryCode": "20", "address": "10825 142 STREET", "city": "EDMONTON", "province": "AB", "country": "CA", "postalCode": "T5N3Y7", "twitter": "None", "instagram": "None", "facebook": "None", "youtube": "None", "website": "None", "summary": "None", "logo": "None", "latitude": 53.553368743507825, "longitude": -113.56579870797162}, "118899590RR0001": {"name": "EM MEDIA GALLERY & PRODUCTION SOCIETY", "designationCode": "C", "categoryCode": "22", "address": "2005 10 AVE SW", "city": "CALGARY", "province": "AB", "country": "CA", "postalCode": "T3C0K4", "twitter": "None", "instagram": "None", "facebook": "None", "youtube": "None", "website": "None", "summary": "None", "logo": "None", "latitude": 51.044412700764966, "longitude": -114.1071183159847}, "886643121RR0001": {"name": "EMANUEL CHRISTIAN MINISTRY INC./MINISTERIO CRISTIANO EMANUELINC.", "designationCode": "B", "categoryCode": "47", "address": "318 MCEWAN AVE", "city": "WINDSOR", "province": "ON", "country": "CA", "postalCode": "N9B2E6", "twitter": "None", "instagram": "None", "facebook": "None", "youtube": "None", "website": "None", "summary": "None", "logo": "None", "latitude": 42.31171694116794, "longitude": -83.0573332668361}, "853057941RR0001": {"name": "EMANUEL ROMANIAN BAPTIST CHURCH", "designationCode": "C", "categoryCode": "31", "address": "34A - 2755 LOUGHEED HWY", "city": "PORT COQUITLAM", "province": "BC", "country": "CA", "postalCode": "V3B5Y9", "twitter": "None", "instagram": "None", "facebook": "None", "youtube": "None", "website": "None", "summary": "None", "logo": "None", "latitude": 49.27318357900025, "longitude": -122.7895005624101}, "841581861RR0001": {"name": "EMAS CANADA", "designationCode": "C", "categoryCode": "19", "address": "1295 NORTH SERVICE ROAD", "city": "BURLINGTON", "province": "ON", "country": "CA", "postalCode": "L7R4M2", "twitter": "None", "instagram": "None", "facebook": "None", "youtube": "None", "website": "None", "summary": "None", "logo": "None", "latitude": 43.33626881605931, "longitude": -79.83474683259213}, "132592437RR0001": {"name": "EMBASSY OF GOD CHRISTIAN CHURCH OF MEDICINE HAT", "designationCode": "C", "categoryCode": "39", "address": "104 - 1051 3 ST NW", "city": "MEDICINE HAT", "province": "AB", "country": "CA", "postalCode": "T1A7Y4", "twitter": "None", "instagram": "None", "facebook": "None", "youtube": "None", "website": "None", "summary": "None", "logo": "None", "latitude": 50.04489660892157, "longitude": -110.71200384124873}, "869563213RR0001": {"name": "EMBRACE RWANDA INTERNATIONAL SOCIETY", "designationCode": "C", "categoryCode": "43", "address": "2630 WALPOLE CRESCENT", "city": "NORTH VANCOUVER", "province": "BC", "country": "CA", "postalCode": "V7H1K8", "twitter": "None", "instagram": "None", "facebook": "None", "youtube": "None", "website": "None", "summary": "None", "logo": "None", "latitude": 49.32188346047074, "longitude": -123.0006213337469}, "123642324RR0001": {"name": "EMBRO & ZORRA AGRICULTURAL SOCIETY", "designationCode": "C", "categoryCode": "56", "address": "BOX 222", "city": "EMBRO", "province": "ON", "country": "CA", "postalCode": "N0J1J0", "twitter": "None", "instagram": "None", "facebook": "None", "youtube": "None", "website": "None", "summary": "None", "logo": "None", "latitude": 43.09660370883654, "longitude": -80.83851624114722}, "107576043RR0001": {"name": "EMBRO PASTORAL CHARGE", "designationCode": "C", "categoryCode": "44", "address": "BOX 321", "city": "EMBRO", "province": "ON", "country": "CA", "postalCode": "N0J1J0", "twitter": "None", "instagram": "None", "facebook": "None", "youtube": "None", "website": "None", "summary": "None", "logo": "None", "latitude": 43.09660370883654, "longitude": -80.83851624114722}, "892091042RR0001": {"name": "EMBRO POND ASSOCIATION", "designationCode": "C", "categoryCode": "52", "address": "P O BOX 348", "city": "EMBRO", "province": "ON", "country": "CA", "postalCode": "N0J1J0", "twitter": "None", "instagram": "None", "facebook": "None", "youtube": "None", "website": "None", "summary": "None", "logo": "None", "latitude": 43.09660370883654, "longitude": -80.83851624114722}, "136380672RR0001": {"name": "EMBROIDERERS' ASSOCIATION OF CANADA, INC", "designationCode": "C", "categoryCode": "22", "address": "328 SAWYER RD", "city": "OAKVILLE", "province": "ON", "country": "CA", "postalCode": "L6L3N7", "twitter": "None", "instagram": "None", "facebook": "None", "youtube": "None", "website": "None", "summary": "None", "logo": "None", "latitude": 43.405925712159, "longitude": -79.71320992339432}, "887517191RR0001": {"name": "EMCO EMPLOYEES' COMMUNITY CONTRIBUTIONS ORGANIZATION", "designationCode": "C", "categoryCode": "75", "address": "PO BOX 5300", "city": "LONDON", "province": "ON", "country": "CA", "postalCode": "N6A4N7", "twitter": "None", "instagram": "None", "facebook": "None", "youtube": "None", "website": "None", "summary": "None", "logo": "None", "latitude": 42.98689500000006, "longitude": -81.24624349999993}, "889087565RR0001": {"name": "EMERALD FOUNDATION", "designationCode": "B", "categoryCode": "05", "address": "500-3625 DUFFERIN ST", "city": "DOWNSVIEW", "province": "ON", "country": "CA", "postalCode": "M3K1N4", "twitter": "None", "instagram": "None", "facebook": "None", "youtube": "None", "website": "None", "summary": "None", "logo": "None", "latitude": 43.73098330919264, "longitude": -79.45857671963213}, "862021730RR0001": {"name": "EMERALD PIG THEATRICAL SOCIETY", "designationCode": "C", "categoryCode": "22", "address": "P. O. BOX 91", "city": "MAPLE RIDGE", "province": "BC", "country": "CA", "postalCode": "V2X7E9", "twitter": "None", "instagram": "None", "facebook": "None", "youtube": "None", "website": "None", "summary": "None", "logo": "None", "latitude": 49.21686600000005, "longitude": -122.60537449999993}, "134949437RR0001": {"name": "EMERGENCY ALERT OF NEWFOUNDLAND AND LABRADOR INC.", "designationCode": "C", "categoryCode": "09", "address": "9 O'MARA PLACE", "city": "ST. JOHN'S", "province": "NL", "country": "CA", "postalCode": "A1A5B7", "twitter": "None", "instagram": "None", "facebook": "None", "youtube": "None", "website": "None", "summary": "None", "logo": "None"}, "899656672RR0001": {"name": "EMERGENCY MEDICAL SERVICES (EMS) FOUNDATION", "designationCode": "C", "categoryCode": "19", "address": "3705-35 STREET NE             SUITE 100", "city": "CALGARY", "province": "AB", "country": "CA", "postalCode": "T1Y6C2", "twitter": "None", "instagram": "None", "facebook": "None", "youtube": "None", "website": "None", "summary": "None", "logo": "None", "latitude": 51.085700696087486, "longitude": -113.98225671746775}, "832527261RR0001": {"name": "EMERGING LEADERS' DIALOGUES CANADA INC.", "designationCode": "C", "categoryCode": "09", "address": "1600 - 421 7 AVE SW", "city": "CALGARY", "province": "AB", "country": "CA", "postalCode": "T2P4K9", "twitter": "None", "instagram": "None", "facebook": "None", "youtube": "None", "website": "None", "summary": "None", "logo": "None", "latitude": 51.04682342625144, "longitude": -114.07570373231476}, "118898477RR0001": {"name": "EMERSON AND DISTRICT HANDI-VAN INC.", "designationCode": "C", "categoryCode": "09", "address": "PO BOX 340", "city": "EMERSON", "province": "MB", "country": "CA", "postalCode": "R0A0L0", "twitter": "None", "instagram": "None", "facebook": "None", "youtube": "None", "website": "None", "summary": "None", "logo": "None", "latitude": 49.00687000000005, "longitude": -97.20476999999994}, "855047841RR0001": {"name": "EMERSON BAPTIST CHURCH MANITOBA INC.", "designationCode": "C", "categoryCode": "31", "address": "BOX 162", "city": "EMERSON", "province": "MB", "country": "CA", "postalCode": "R0A0L0", "twitter": "None", "instagram": "None", "facebook": "None", "youtube": "None", "website": "None", "summary": "None", "logo": "None", "latitude": 49.00687000000005, "longitude": -97.20476999999994}, "118898493RR0001": {"name": "EMERSON CO-OPERATIVE COMMUNITY CENTRE INC.", "designationCode": "C", "categoryCode": "56", "address": "BOX 522", "city": "EMERSON", "province": "MB", "country": "CA", "postalCode": "R0A0L0", "twitter": "None", "instagram": "None", "facebook": "None", "youtube": "None", "website": "None", "summary": "None", "logo": "None", "latitude": 49.00687000000005, "longitude": -97.20476999999994}, "118898501RR0001": {"name": "EMERSON NEW HORIZONS INC.", "designationCode": "C", "categoryCode": "56", "address": "BOX 261", "city": "EMERSON", "province": "MB", "country": "CA", "postalCode": "R0A0L0", "twitter": "None", "instagram": "None", "facebook": "None", "youtube": "None", "website": "None", "summary": "None", "logo": "None", "latitude": 49.00687000000005, "longitude": -97.20476999999994}, "882831712RR0001": {"name": "EMILE BOSMANS MEMORIAL GARDENS FOUNDATION", "designationCode": "C", "categoryCode": "59", "address": "PO BOX 1582 STN MAIN", "city": "CAMROSE", "province": "AB", "country": "CA", "postalCode": "T4V1X4", "twitter": "None", "instagram": "None", "facebook": "None", "youtube": "None", "website": "None", "summary": "None", "logo": "None", "latitude": 53.019161503313846, "longitude": -112.82562875165692}, "892925967RR0001": {"name": "EMILY CARR UNIVERSITY OF ART AND DESIGN FOUNDATION", "designationCode": "A", "categoryCode": "23", "address": "1399 JOHNSTON ST", "city": "VANCOUVER", "province": "BC", "country": "CA", "postalCode": "V6H3R9", "twitter": "None", "instagram": "None", "facebook": "None", "youtube": "None", "website": "None", "summary": "None", "logo": "None", "latitude": 49.27103343989128, "longitude": -123.13376598315061}, "883712010RR0001": {"name": "EMILY CEMETERY COMPANY", "designationCode": "C", "categoryCode": "59", "address": "59 ELLIS CRES", "city": "LINDSAY", "province": "ON", "country": "CA", "postalCode": "K9V0A5", "twitter": "None", "instagram": "None", "facebook": "None", "youtube": "None", "website": "None", "summary": "None", "logo": "None", "latitude": 44.35208507412418, "longitude": -78.71673695796058}, "133256008RR0001": {"name": "EMILY MURPHY NON-PROFIT HOUSING CORPORATION", "designationCode": "C", "categoryCode": "09", "address": "106-2676, INNES ROAD", "city": "GLOUCESTER", "province": "ON", "country": "CA", "postalCode": "K1B1A2", "twitter": "None", "instagram": "None", "facebook": "None", "youtube": "None", "website": "None", "summary": "None", "logo": "None", "latitude": 45.432607581424435, "longitude": -75.56224316844612}, "129612768RR0001": {"name": "EMILY MURPHY SECOND STAGE RESIDENCES", "designationCode": "C", "categoryCode": "09", "address": "67 BARRON ST.", "city": "STRATFORD", "province": "ON", "country": "CA", "postalCode": "N4Z1G9", "twitter": "None", "instagram": "None", "facebook": "None", "youtube": "None", "website": "None", "summary": "None", "logo": "None", "latitude": 43.36190784399004, "longitude": -81.00648169527942}, "118898535RR0001": {"name": "EMILY PRESBYTERIAN CEMETERY COMMITTEE", "designationCode": "C", "categoryCode": "59", "address": "239 EASTWOOD ROAD", "city": "SELWYN", "province": "ON", "country": "CA", "postalCode": "K9J6X4", "twitter": "None", "instagram": "None", "facebook": "None", "youtube": "None", "website": "None", "summary": "None", "logo": "None", "latitude": 44.322945419960554, "longitude": -78.36241219248173}, "891012890RR0001": {"name": "EMISSARIES OF DIVINE LIGHT, BRITISH COLUMBIA", "designationCode": "C", "categoryCode": "47", "address": "BOX 1120", "city": "ALDERGROVE", "province": "BC", "country": "CA", "postalCode": "V4W2V1", "twitter": "None", "instagram": "None", "facebook": "None", "youtube": "None", "website": "None", "summary": "None", "logo": "None", "latitude": 49.05687300000005, "longitude": -122.47227349999994}, "897233391RR0001": {"name": "EMISSARIES SENIORS HOUSING SOCIETY", "designationCode": "C", "categoryCode": "09", "address": "P.O. BOX 1120", "city": "ALDERGROVE", "province": "BC", "country": "CA", "postalCode": "V4W2V1", "twitter": "None", "instagram": "None", "facebook": "None", "youtube": "None", "website": "None", "summary": "None", "logo": "None", "latitude": 49.05687300000005, "longitude": -122.47227349999994}, "137356432RR0001": {"name": "EMMA MATERNITY HOUSE SOCIETY", "designationCode": "C", "categoryCode": "09", "address": "P.O. BOX 74012                RPO STRATHCONA", "city": "CALGARY", "province": "AB", "country": "CA", "postalCode": "T3H3B6", "twitter": "None", "instagram": "None", "facebook": "None", "youtube": "None", "website": "None", "summary": "None", "logo": "None", "latitude": 51.042402459677376, "longitude": -114.1750524072577}, "837525344RR0001": {"name": "EMMANUAL BAPTIST CHURCH (OSHAWA)", "designationCode": "C", "categoryCode": "31", "address": "302 RONDEAU CT", "city": "OSHAWA", "province": "ON", "country": "CA", "postalCode": "L1J6N4", "twitter": "None", "instagram": "None", "facebook": "None", "youtube": "None", "website": "None", "summary": "None", "logo": "None", "latitude": 43.86153515044137, "longitude": -78.83859509175355}, "118898592RR0001": {"name": "EMMANUEL & ASSOCIATES FOUNDATION", "designationCode": "C", "categoryCode": "47", "address": "P.O. BOX 45563                RPO SUNNYSIDE", "city": "SURREY", "province": "BC", "country": "CA", "postalCode": "V4A9N3", "twitter": "None", "instagram": "None", "facebook": "None", "youtube": "None", "website": "None", "summary": "None", "logo": "None", "latitude": 49.04577758735484, "longitude": -122.85084454245168}, "894945633RR0011": {"name": "EMMANUEL ALLIANCE CHURCH OF OTTAWA", "designationCode": "C", "categoryCode": "39", "address": "4 THORNCLIFF PLACE", "city": "NEPEAN", "province": "ON", "country": "CA", "postalCode": "K2H6L2", "twitter": "None", "instagram": "None", "facebook": "None", "youtube": "None", "website": "None", "summary": "None", "logo": "None", "latitude": 45.32860840937163, "longitude": -75.81523796283666}, "829363274RR0001": {"name": "EMMANUEL ANGLICAN CHURCH", "designationCode": "C", "categoryCode": "30", "address": "BOX 1235", "city": "GIBBONS", "province": "AB", "country": "CA", "postalCode": "T0A1N0", "twitter": "None", "instagram": "None", "facebook": "None", "youtube": "None", "website": "None", "summary": "None", "logo": "None", "latitude": 53.82811000000004, "longitude": -113.32767999999999}, "871170148RR0001": {"name": "EMMANUEL ANGLICAN CHURCH", "designationCode": "C", "categoryCode": "30", "address": "BOX 52", "city": "HOEY", "province": "SK", "country": "CA", "postalCode": "S0J1E0", "twitter": "None", "instagram": "None", "facebook": "None", "youtube": "None", "website": "None", "summary": "None", "logo": "None", "latitude": 52.864990000000034, "longitude": -105.78727999999995}, "890768740RR0001": {"name": "EMMANUEL APOSTOLIC CHURCH", "designationCode": "C", "categoryCode": "39", "address": "3347 MCCARTHY ROAD", "city": "OTTAWA", "province": "ON", "country": "CA", "postalCode": "K1V9G5", "twitter": "None", "instagram": "None", "facebook": "None", "youtube": "None", "website": "None", "summary": "None", "logo": "None", "latitude": 45.35100639886872, "longitude": -75.66780869871322}, "101630812RR0001": {"name": "EMMANUEL AT BRIGHTON CHILD CARE CENTRE", "designationCode": "C", "categoryCode": "01", "address": "65 NOECKER ST", "city": "WATERLOO", "province": "ON", "country": "CA", "postalCode": "N2J2R6", "twitter": "None", "instagram": "None", "facebook": "None", "youtube": "None", "website": "None", "summary": "None", "logo": "None", "latitude": 43.47176672548919, "longitude": -80.5203377396561}, "118898600RR0001": {"name": "EMMANUEL BAPTIST CHARITABLE FOUNDATION", "designationCode": "A", "categoryCode": "43", "address": "313 CAPILANO PLACE", "city": "SASKATOON", "province": "SK", "country": "CA", "postalCode": "S7K4J7", "twitter": "None", "instagram": "None", "facebook": "None", "youtube": "None", "website": "None", "summary": "None", "logo": "None", "latitude": 52.16273257146977, "longitude": -106.63003942676987}, "107302663RR0001": {"name": "EMMANUEL BAPTIST CHURCH", "designationCode": "C", "categoryCode": "31", "address": "633 POCKWOCK ROAD", "city": "UPPER HAMMONDS PLAINS", "province": "NS", "country": "CA", "postalCode": "B4B1N8", "twitter": "None", "instagram": "None", "facebook": "None", "youtube": "None", "website": "None", "summary": "None", "logo": "None", "latitude": 44.751021023053724, "longitude": -63.82181464847948}, "107302754RR0001": {"name": "EMMANUEL BAPTIST CHURCH", "designationCode": "C", "categoryCode": "31", "address": "PO BOX 102", "city": "DRYDEN", "province": "ON", "country": "CA", "postalCode": "P8N2Y7", "twitter": "None", "instagram": "None", "facebook": "None", "youtube": "None", "website": "None", "summary": "None", "logo": "None", "latitude": 49.782039000000054, "longitude": -92.83759099999993}, "107302770RR0001": {"name": "EMMANUEL BAPTIST CHURCH", "designationCode": "C", "categoryCode": "31", "address": "1636 ACADIA DRIVE", "city": "SASKATOON", "province": "SK", "country": "CA", "postalCode": "S7H5H7", "twitter": "None", "instagram": "None", "facebook": "None", "youtube": "None", "website": "None", "summary": "None", "logo": "None", "latitude": 52.105319444630396, "longitude": -106.59894722949896}, "118898626RR0001": {"name": "EMMANUEL BAPTIST CHURCH", "designationCode": "C", "categoryCode": "31", "address": "187 MCLAUGHLIN DRIVE", "city": "MONCTON", "province": "NB", "country": "CA", "postalCode": "E1A4P4", "twitter": "None", "instagram": "None", "facebook": "None", "youtube": "None", "website": "None", "summary": "None", "logo": "None", "latitude": 46.11118055649481, "longitude": -64.77947636715933}, "118898709RR0001": {"name": "EMMANUEL BAPTIST CHURCH", "designationCode": "C", "categoryCode": "31", "address": "BOX 43", "city": "MORRIS", "province": "MB", "country": "CA", "postalCode": "R0G1K0", "twitter": "None", "instagram": "None", "facebook": "None", "youtube": "None", "website": "None", "summary": "None", "logo": "None"}, "118898725RR0001": {"name": "EMMANUEL BAPTIST CHURCH", "designationCode": "C", "categoryCode": "31", "address": "BOX 746                       4914 - 49 STREET", "city": "VALLEYVIEW", "province": "AB", "country": "CA", "postalCode": "T0H3N0", "twitter": "None", "instagram": "None", "facebook": "None", "youtube": "None", "website": "None", "summary": "None", "logo": "None", "latitude": 55.06731196484262, "longitude": -117.27871972894808}, "891321168RR0001": {"name": "EMMANUEL BAPTIST CHURCH", "designationCode": "C", "categoryCode": "31", "address": "PO BOX 54                     DIGBY CO", "city": "CHURCH POINT", "province": "NS", "country": "CA", "postalCode": "B0W1M0", "twitter": "None", "instagram": "None", "facebook": "None", "youtube": "None", "website": "None", "summary": "None", "logo": "None", "latitude": 44.26901700000006, "longitude": -66.03481699999993}, "892324179RR0001": {"name": "EMMANUEL BAPTIST CHURCH", "designationCode": "C", "categoryCode": "31", "address": "BOX 941", "city": "THREE HILLS", "province": "AB", "country": "CA", "postalCode": "T0M2A0", "twitter": "None", "instagram": "None", "facebook": "None", "youtube": "None", "website": "None", "summary": "None", "logo": "None", "latitude": 52.38329400000001, "longitude": -114.606927}, "129914628RR0001": {"name": "EMMANUEL BAPTIST CHURCH (CHATHAM, ONTARIO)", "designationCode": "C", "categoryCode": "31", "address": "100 MCNAUGHTON AVE W", "city": "CHATHAM", "province": "ON", "country": "CA", "postalCode": "N7L1R3", "twitter": "None", "instagram": "None", "facebook": "None", "youtube": "None", "website": "None", "summary": "None", "logo": "None", "latitude": 42.41284353147918, "longitude": -82.20302356408352}, "107301509RR0001": {"name": "EMMANUEL BAPTIST CHURCH BLOOMFIELD", "designationCode": "C", "categoryCode": "39", "address": "PO BOX 89", "city": "BLOOMFIELD", "province": "ON", "country": "CA", "postalCode": "K0K1G0", "twitter": "None", "instagram": "None", "facebook": "None", "youtube": "None", "website": "None", "summary": "None", "logo": "None", "latitude": 44.066016000000005, "longitude": -77.86520099999998}, "832048839RR0001": {"name": "EMMANUEL BAPTIST CHURCH OF BARRIE", "designationCode": "C", "categoryCode": "31", "address": "4120 SALEM ROAD", "city": "BARRIE", "province": "ON", "country": "CA", "postalCode": "L4N9H9", "twitter": "None", "instagram": "None", "facebook": "None", "youtube": "None", "website": "None", "summary": "None", "logo": "None", "latitude": 44.31726705450517, "longitude": -79.71026862210006}, "118898741RR0001": {"name": "EMMANUEL BAPTIST CHURCH OF FT. MCMURRAY", "designationCode": "C", "categoryCode": "31", "address": "108 CORNWALL DRIVE", "city": "FORT MCMURRAY", "province": "AB", "country": "CA", "postalCode": "T9K1E7", "twitter": "None", "instagram": "None", "facebook": "None", "youtube": "None", "website": "None", "summary": "None", "logo": "None", "latitude": 56.73156394364943, "longitude": -111.44742683951797}, "119309896RR0001": {"name": "EMMANUEL BAPTIST CHURCH OF MELFORT INC.", "designationCode": "C", "categoryCode": "31", "address": "BOX 1258", "city": "MELFORT", "province": "SK", "country": "CA", "postalCode": "S0E1A0", "twitter": "None", "instagram": "None", "facebook": "None", "youtube": "None", "website": "None", "summary": "None", "logo": "None", "latitude": 52.85637, "longitude": -104.63436225000001}, "107302812RR0001": {"name": "EMMANUEL BAPTIST CHURCH OF NIPAWIN INC.", "designationCode": "C", "categoryCode": "31", "address": "BOX 1198", "city": "NIPAWIN", "province": "SK", "country": "CA", "postalCode": "S0E1E0", "twitter": "None", "instagram": "None", "facebook": "None", "youtube": "None", "website": "None", "summary": "None", "logo": "None", "latitude": 53.396118, "longitude": -104.00834700000001}, "107302721RR0001": {"name": "EMMANUEL BAPTIST CHURCH OF SOUTH HURON", "designationCode": "C", "categoryCode": "31", "address": "PO BOX 555", "city": "EXETER", "province": "ON", "country": "CA", "postalCode": "N0M1S6", "twitter": "None", "instagram": "None", "facebook": "None", "youtube": "None", "website": "None", "summary": "None", "logo": "None", "latitude": 36.29779000000008, "longitude": -119.13605999999999}, "830579520RR0001": {"name": "EMMANUEL BAPTIST CHURCH OF TORONTO INC.", "designationCode": "C", "categoryCode": "31", "address": "1520 ROYAL YORK ROAD", "city": "ETOBICOKE", "province": "ON", "country": "CA", "postalCode": "M9P3B5", "twitter": "None", "instagram": "None", "facebook": "None", "youtube": "None", "website": "None", "summary": "None", "logo": "None", "latitude": 43.69318623478, "longitude": -79.53144544765921}, "136202991RR0001": {"name": "EMMANUEL BAPTIST CHURCH OF WINDSOR", "designationCode": "C", "categoryCode": "31", "address": "5445 WALKER ROAD", "city": "OLDCASTLE", "province": "ON", "country": "CA", "postalCode": "N0R1L0", "twitter": "None", "instagram": "None", "facebook": "None", "youtube": "None", "website": "None", "summary": "None", "logo": "None", "latitude": 42.23204159409597, "longitude": -82.96405478251458}, "107302804RR0001": {"name": "EMMANUEL BAPTIST CHURCH VICTORIA", "designationCode": "C", "categoryCode": "31", "address": "2121 CEDAR HILL CROSS RD", "city": "VICTORIA", "province": "BC", "country": "CA", "postalCode": "V8P2R6", "twitter": "None", "instagram": "None", "facebook": "None", "youtube": "None", "website": "None", "summary": "None", "logo": "None", "latitude": 48.45822112900378, "longitude": -123.3137905323732}, "124700907RR0001": {"name": "EMMANUEL BAPTIST CHURCH,", "designationCode": "C", "categoryCode": "31", "address": "68 ROLLINS DRIVE", "city": "BELLEVILLE", "province": "ON", "country": "CA", "postalCode": "K8N4J4", "twitter": "None", "instagram": "None", "facebook": "None", "youtube": "None", "website": "None", "summary": "None", "logo": "None", "latitude": 44.17395080070989, "longitude": -77.35677344148505}, "118898782RR0001": {"name": "EMMANUEL BIBLE CHAPEL INC.", "designationCode": "C", "categoryCode": "39", "address": "651 VALLEYFIELD ROAD", "city": "MONTAGUE", "province": "PE", "country": "CA", "postalCode": "C0A1R0", "twitter": "None", "instagram": "None", "facebook": "None", "youtube": "None", "website": "None", "summary": "None", "logo": "None", "latitude": 46.14720949679736, "longitude": -62.66699553246012}, "130224264RR0001": {"name": "EMMANUEL BIBLE CHURCH (SIMCOE)", "designationCode": "C", "categoryCode": "39", "address": "24 CHURCHILL CIR", "city": "SIMCOE", "province": "ON", "country": "CA", "postalCode": "N3Y4Z4", "twitter": "None", "instagram": "None", "facebook": "None", "youtube": "None", "website": "None", "summary": "None", "logo": "None", "latitude": 42.84588524672524, "longitude": -80.29253280446078}, "107302846RR0001": {"name": "EMMANUEL BIBLE COLLEGE", "designationCode": "C", "categoryCode": "20", "address": "100 FERGUS AVENUE", "city": "KITCHENER", "province": "ON", "country": "CA", "postalCode": "N2A2H2", "twitter": "None", "instagram": "None", "facebook": "None", "youtube": "None", "website": "None", "summary": "None", "logo": "None", "latitude": 43.43413542772217, "longitude": -80.44150986060886}, "877655167RR0001": {"name": "EMMANUEL CHARITABLE FOUNDATION INC", "designationCode": "B", "categoryCode": "03", "address": "122 MEDICAL OFFICE WING,      1440 - 14TH AVENUE", "city": "REGINA", "province": "SK", "country": "CA", "postalCode": "S4P0W5", "twitter": "None", "instagram": "None", "facebook": "None", "youtube": "None", "website": "None", "summary": "None", "logo": "None", "latitude": 50.4440212112067, "longitude": -104.60192441540251}, "827594870RR0001": {"name": "EMMANUEL CHRISTIAN ACADEMY", "designationCode": "C", "categoryCode": "20", "address": "BOX 149", "city": "MADOC", "province": "ON", "country": "CA", "postalCode": "K0K2K0", "twitter": "None", "instagram": "None", "facebook": "None", "youtube": "None", "website": "None", "summary": "None", "logo": "None", "latitude": 44.506080000000054, "longitude": -77.47461999999996}, "130449424RR0001": {"name": "EMMANUEL CHRISTIAN CHURCH OF NEWBURY, ONTARIO", "designationCode": "C", "categoryCode": "39", "address": "P.O.BOX 84", "city": "NEWBURY", "province": "ON", "country": "CA", "postalCode": "N0L1Z0", "twitter": "None", "instagram": "None", "facebook": "None", "youtube": "None", "website": "None", "summary": "None", "logo": "None", "latitude": 42.68480000000005, "longitude": -81.79999999999995}, "118898824RR0001": {"name": "EMMANUEL CHRISTIAN COMMUNITY SOCIETY", "designationCode": "C", "categoryCode": "39", "address": "10351 NO.1 RD", "city": "RICHMOND", "province": "BC", "country": "CA", "postalCode": "V7E1S1", "twitter": "None", "instagram": "None", "facebook": "None", "youtube": "None", "website": "None", "summary": "None", "logo": "None", "latitude": 49.13766341867835, "longitude": -123.1814282867763}, "860216498RR0001": {"name": "EMMANUEL CHRISTIAN HIGH SCHOOL ASSOCIATION INCORPORATED", "designationCode": "C", "categoryCode": "20", "address": "680 TOWER ST S", "city": "FERGUS", "province": "ON", "country": "CA", "postalCode": "N1M0B1", "twitter": "None", "instagram": "None", "facebook": "None", "youtube": "None", "website": "None", "summary": "None", "logo": "None", "latitude": 43.69978845524795, "longitude": -80.37276515047097}, "107302937RR0001": {"name": "EMMANUEL CHRISTIAN REFORMED CHURCH OF CALGARY", "designationCode": "C", "categoryCode": "39", "address": "3020-51 STREET S.W.", "city": "CALGARY", "province": "AB", "country": "CA", "postalCode": "T3E6S7", "twitter": "None", "instagram": "None", "facebook": "None", "youtube": "None", "website": "None", "summary": "None", "logo": "None", "latitude": 51.027489, "longitude": -114.16098880417232}, "888060993RR0001": {"name": "EMMANUEL CHURCH", "designationCode": "C", "categoryCode": "44", "address": "BOX 63", "city": "ODESSA", "province": "ON", "country": "CA", "postalCode": "K0H2H0", "twitter": "None", "instagram": "None", "facebook": "None", "youtube": "None", "website": "None", "summary": "None", "logo": "None", "latitude": 44.27698000000004, "longitude": -76.71890999999994}, "891365561RR0001": {"name": "EMMANUEL CHURCH OF JESUS CHRIST OF TORONTO", "designationCode": "C", "categoryCode": "39", "address": "BOX 34563                     1565 JANE ST", "city": "NORTH YORK", "province": "ON", "country": "CA", "postalCode": "M9N2R3", "twitter": "None", "instagram": "None", "facebook": "None", "youtube": "None", "website": "None", "summary": "None", "logo": "None", "latitude": 43.69861900528012, "longitude": -79.50261461651029}, "118898907RR0001": {"name": "EMMANUEL CHURCH OF THE NAZARENE, (NORTH YORK)", "designationCode": "C", "categoryCode": "39", "address": "1875 SHEPPARD AVE WEST", "city": "DOWNSVIEW", "province": "ON", "country": "CA", "postalCode": "M3L1Y6", "twitter": "None", "instagram": "None", "facebook": "None", "youtube": "None", "website": "None", "summary": "None", "logo": "None", "latitude": 43.74088984927016, "longitude": -79.50413654495361}, "819084278RR0001": {"name": "EMMANUEL CHURCH OF WESTBANK", "designationCode": "C", "categoryCode": "36", "address": "2600 HEBERT ROAD", "city": "WESTBANK", "province": "BC", "country": "CA", "postalCode": "V4T2J6", "twitter": "None", "instagram": "None", "facebook": "None", "youtube": "None", "website": "None", "summary": "None", "logo": "None", "latitude": 49.82711514798854, "longitude": -119.6366690135031}, "132014648RR0001": {"name": "EMMANUEL CHURCH, RICHVALE,", "designationCode": "C", "categoryCode": "30", "address": "9 MACKAY DRIVE", "city": "RICHMOND HILL", "province": "ON", "country": "CA", "postalCode": "L4C6N9", "twitter": "None", "instagram": "None", "facebook": "None", "youtube": "None", "website": "None", "summary": "None", "logo": "None", "latitude": 43.844885739915895, "longitude": -79.43293813168684}, "881971568RR0001": {"name": "EMMANUEL COMMUNITY CEMETERY COMMITTEE", "designationCode": "C", "categoryCode": "59", "address": "1392 GRAPHITE ROAD            RR1", "city": "MAYNOOTH", "province": "ON", "country": "CA", "postalCode": "K0L2S0", "twitter": "None", "instagram": "None", "facebook": "None", "youtube": "None", "website": "None", "summary": "None", "logo": "None"}, "119038545RR0001": {"name": "EMMANUEL COMMUNITY CHURCH", "designationCode": "C", "categoryCode": "34", "address": "PO BOX 32", "city": "PIERCELAND", "province": "SK", "country": "CA", "postalCode": "S0M2K0", "twitter": "None", "instagram": "None", "facebook": "None", "youtube": "None", "website": "None", "summary": "None", "logo": "None", "latitude": 54.333480000000066, "longitude": -109.76833999999997}, "864378559RR0001": {"name": "EMMANUEL COMMUNITY CHURCH OF PORT PERRY", "designationCode": "C", "categoryCode": "36", "address": "P.O. BOX 634                  1680 REACH ST", "city": "PORT PERRY", "province": "ON", "country": "CA", "postalCode": "L9L1A6", "twitter": "None", "instagram": "None", "facebook": "None", "youtube": "None", "website": "None", "summary": "None", "logo": "None", "latitude": 44.1109385739187, "longitude": -78.95782966682435}, "118898931RR0001": {"name": "EMMANUEL COMMUNITY REFORMED CHURCH", "designationCode": "C", "categoryCode": "39", "address": "6505-140 AVE", "city": "EDMONTON", "province": "AB", "country": "CA", "postalCode": "T5A1H1", "twitter": "None", "instagram": "None", "facebook": "None", "youtube": "None", "website": "None", "summary": "None", "logo": "None", "latitude": 53.6021675323159, "longitude": -113.44055327699232}, "140985102RR0001": {"name": "EMMANUEL CONGREGATIONAL CHRISTIAN CHURCH OF CANADA", "designationCode": "C", "categoryCode": "39", "address": "BOX 1559", "city": "MIDDLETON", "province": "NS", "country": "CA", "postalCode": "B0S1P0", "twitter": "None", "instagram": "None", "facebook": "None", "youtube": "None", "website": "None", "summary": "None", "logo": "None", "latitude": 45.01449600000005, "longitude": -65.06449099999993}, "133165050RR0001": {"name": "EMMANUEL CONGREGATIONAL CHURCH OF RIDGETOWN", "designationCode": "C", "categoryCode": "39", "address": "92 ERIEST N                   BOX 1027", "city": "RIDGETOWN", "province": "ON", "country": "CA", "postalCode": "N0P2C0", "twitter": "None", "instagram": "None", "facebook": "None", "youtube": "None", "website": "None", "summary": "None", "logo": "None", "latitude": 42.42687003390246, "longitude": -81.90498998889144}, "885367623RR0001": {"name": "EMMANUEL CONVALESCENT FOUNDATION", "designationCode": "A", "categoryCode": "03", "address": "18798 OLD YONGE ST", "city": "HOLLAND LANDING", "province": "ON", "country": "CA", "postalCode": "L9N0L1", "twitter": "None", "instagram": "None", "facebook": "None", "youtube": "None", "website": "None", "summary": "None", "logo": "None", "latitude": 44.08634955730287, "longitude": -79.48800739517512}, "107303067RR0001": {"name": "EMMANUEL EVANGELICAL COVENANT CHURCH OF SURREY", "designationCode": "C", "categoryCode": "39", "address": "17029 16 AVE", "city": "SURREY", "province": "BC", "country": "CA", "postalCode": "V3Z9M5", "twitter": "None", "instagram": "None", "facebook": "None", "youtube": "None", "website": "None", "summary": "None", "logo": "None", "latitude": 49.03115550764604, "longitude": -122.75092277699233}, "129798229RR0001": {"name": "EMMANUEL EVANGELICAL FREE CHURCH", "designationCode": "C", "categoryCode": "34", "address": "360 MCKENZIE AVE", "city": "STEINBACH", "province": "MB", "country": "CA", "postalCode": "R5G0K6", "twitter": "None", "instagram": "None", "facebook": "None", "youtube": "None", "website": "None", "summary": "None", "logo": "None", "latitude": 49.51731801596033, "longitude": -96.68563522646899}, "130294267RR0001": {"name": "EMMANUEL EVANGELICAL LUTHERAN CHURCH", "designationCode": "C", "categoryCode": "32", "address": "1684 VICTORIA PARK AVE", "city": "TORONTO", "province": "ON", "country": "CA", "postalCode": "M1R1R1", "twitter": "None", "instagram": "None", "facebook": "None", "youtube": "None", "website": "None", "summary": "None", "logo": "None", "latitude": 43.73294844295696, "longitude": -79.3061040769228}, "131801557RR0001": {"name": "EMMANUEL EVANGELICAL MISSIONARY CHURCH - ELMIRA", "designationCode": "C", "categoryCode": "39", "address": "2 FIRST ST. W", "city": "ELMIRA", "province": "ON", "country": "CA", "postalCode": "N3B1G2", "twitter": "None", "instagram": "None", "facebook": "None", "youtube": "None", "website": "None", "summary": "None", "logo": "None", "latitude": 43.592269267375876, "longitude": -80.56116385668615}, "804358935RR0001": {"name": "EMMANUEL EVANGELICAL MISSIONARY CHURCH FELLOWSHIP", "designationCode": "C", "categoryCode": "39", "address": "BOX 129", "city": "HOLDEN", "province": "AB", "country": "CA", "postalCode": "T0B2C0", "twitter": "None", "instagram": "None", "facebook": "None", "youtube": "None", "website": "None", "summary": "None", "logo": "None", "latitude": 53.232710000000054, "longitude": -112.23536999999999}, "118898980RR0001": {"name": "EMMANUEL FELLOWSHIP BAPTIST CHURCH", "designationCode": "C", "categoryCode": "31", "address": "3412 15TH AVE", "city": "VERNON", "province": "BC", "country": "CA", "postalCode": "V1T6N9", "twitter": "None", "instagram": "None", "facebook": "None", "youtube": "None", "website": "None", "summary": "None", "logo": "None", "latitude": 50.252755528420764, "longitude": -119.27960027699231}, "894339779RR0001": {"name": "EMMANUEL FELLOWSHIP INC.", "designationCode": "C", "categoryCode": "47", "address": "19 IRONWOOD AVE.", "city": "NOONAN", "province": "NB", "country": "CA", "postalCode": "E3A0Z2", "twitter": "None", "instagram": "None", "facebook": "None", "youtube": "None", "website": "None", "summary": "None", "logo": "None", "latitude": 45.96188362254022, "longitude": -66.52317481092433}, "872904800RR0001": {"name": "EMMANUEL FOUNDATION FOR INTERNATIONAL COMMUNITY DEVELOPMENT", "designationCode": "A", "categoryCode": "03", "address": "197 ORDZE AVE", "city": "SHERWOOD PARK", "province": "AB", "country": "CA", "postalCode": "T8B1M6", "twitter": "None", "instagram": "None", "facebook": "None", "youtube": "None", "website": "None", "summary": "None", "logo": "None", "latitude": 53.51114250678068, "longitude": -113.320863}, "118899012RR0001": {"name": "EMMANUEL FREE LUTHERAN CHURCH OF SALMON ARM", "designationCode": "C", "categoryCode": "32", "address": "1260 7TH AVE SE", "city": "SALMON ARM", "province": "BC", "country": "CA", "postalCode": "V1E0A3", "twitter": "None", "instagram": "None", "facebook": "None", "youtube": "None", "website": "None", "summary": "None", "logo": "None", "latitude": 50.69506329390054, "longitude": -119.26988044113928}, "107406431RR0001": {"name": "EMMANUEL FREE REFORMED CHURCH", "designationCode": "C", "categoryCode": "39", "address": "116 - 45473 ARIEL PLACE", "city": "CHILLIWACK", "province": "BC", "country": "CA", "postalCode": "V2R0K7", "twitter": "None", "instagram": "None", "facebook": "None", "youtube": "None", "website": "None", "summary": "None", "logo": "None", "latitude": 49.094037339014555, "longitude": -121.96533564663555}, "107303133RR0001": {"name": "EMMANUEL GOSPEL CHURCH", "designationCode": "C", "categoryCode": "34", "address": "BOX 148", "city": "LOWE FARM", "province": "MB", "country": "CA", "postalCode": "R0G1E0", "twitter": "None", "instagram": "None", "facebook": "None", "youtube": "None", "website": "None", "summary": "None", "logo": "None", "latitude": 49.35569000000004, "longitude": -97.59490999999997}, "118899046RR0001": {"name": "EMMANUEL HERITAGE COMMITTEE", "designationCode": "C", "categoryCode": "52", "address": "43 BOTHWELL CR", "city": "REGINA", "province": "SK", "country": "CA", "postalCode": "S4R5Y7", "twitter": "None", "instagram": "None", "facebook": "None", "youtube": "None", "website": "None", "summary": "None", "logo": "None", "latitude": 50.49197453231589, "longitude": -104.60066285789716}, "897837829RR0001": {"name": "EMMANUEL HOSPITAL ASSOCIATION (CANADA) INC.", "designationCode": "C", "categoryCode": "13", "address": "8-115 MEADOWS BLVD", "city": "SASKATOON", "province": "SK", "country": "CA", "postalCode": "S7V0E6", "twitter": "None", "instagram": "None", "facebook": "None", "youtube": "None", "website": "None", "summary": "None", "logo": "None", "latitude": 52.09722046242247, "longitude": -106.54643396042806}, "132180522RR0001": {"name": "EMMANUEL KOREAN CHURCH INC", "designationCode": "C", "categoryCode": "39", "address": "937 ST. MARY'S RD", "city": "WINNIPEG", "province": "MB", "country": "CA", "postalCode": "R2M3R7", "twitter": "None", "instagram": "None", "facebook": "None", "youtube": "None", "website": "None", "summary": "None", "logo": "None", "latitude": 49.84354029892088, "longitude": -97.11250020200276}, "118899079RR0001": {"name": "EMMANUEL LIGHTHOUSE", "designationCode": "C", "categoryCode": "36", "address": "1787 PETAWAWA BLVD", "city": "PEMBROKE", "province": "ON", "country": "CA", "postalCode": "K8A7H7", "twitter": "None", "instagram": "None", "facebook": "None", "youtube": "None", "website": "None", "summary": "None", "logo": "None", "latitude": 45.85141755881739, "longitude": -77.20264025964812}, "107303216RR0001": {"name": "EMMANUEL LUTHERAN CHURCH", "designationCode": "C", "categoryCode": "32", "address": "1716 SNYDER'S ROAD E", "city": "PETERSBURG", "province": "ON", "country": "CA", "postalCode": "N0B2H0", "twitter": "None", "instagram": "None", "facebook": "None", "youtube": "None", "website": "None", "summary": "None", "logo": "None", "latitude": 43.41405102576019, "longitude": -80.60208351494896}, "107996043RR0001": {"name": "EMMANUEL LUTHERAN CHURCH", "designationCode": "C", "categoryCode": "32", "address": "PO BOX 177", "city": "SOUTHEY", "province": "SK", "country": "CA", "postalCode": "S0G4P0", "twitter": "None", "instagram": "None", "facebook": "None", "youtube": "None", "website": "None", "summary": "None", "logo": "None", "latitude": 50.93338000000006, "longitude": -104.50109999999995}, "118899103RR0001": {"name": "EMMANUEL LUTHERAN CHURCH", "designationCode": "C", "categoryCode": "32", "address": "PO BOX 419", "city": "EMERSON", "province": "MB", "country": "CA", "postalCode": "R0A0L0", "twitter": "None", "instagram": "None", "facebook": "None", "youtube": "None", "website": "None", "summary": "None", "logo": "None", "latitude": 49.00687000000005, "longitude": -97.20476999999994}, "107303232RR0001": {"name": "EMMANUEL LUTHERAN CHURCH OF FOREST LAWN, CALGARY", "designationCode": "C", "categoryCode": "32", "address": "3003-28 ST .S.E.", "city": "CALGARY", "province": "AB", "country": "CA", "postalCode": "T2B2Z3", "twitter": "None", "instagram": "None", "facebook": "None", "youtube": "None", "website": "None", "summary": "None", "logo": "None", "latitude": 51.027483855675456, "longitude": -113.99208406232319}, "107303224RR0001": {"name": "EMMANUEL LUTHERAN CHURCH OF MOOSE JAW", "designationCode": "C", "categoryCode": "32", "address": "P.O. BOX 1376", "city": "MOOSE JAW", "province": "SK", "country": "CA", "postalCode": "S6H4R3", "twitter": "None", "instagram": "None", "facebook": "None", "youtube": "None", "website": "None", "summary": "None", "logo": "None", "latitude": 50.39688300000006, "longitude": -105.53701399999993}}