{"891747289RR0001": {"name": "THE NORTH HASTINGS COMMUNITY CUPBOARD", "designationCode": "C", "categoryCode": "09", "address": "P O BOX 1147", "city": "BANCROFT", "province": "ON", "country": "CA", "postalCode": "K0L1C0", "twitter": "None", "instagram": "None", "facebook": "None", "youtube": "None", "website": "None", "summary": "None", "logo": "None", "latitude": 45.03567300000006, "longitude": -77.98000849999994}, "867271967RR0001": {"name": "THE NORTH HASTINGS DISTRICT HOSPITAL AUXILIARY", "designationCode": "C", "categoryCode": "19", "address": "PO BOX 16", "city": "BANCROFT", "province": "ON", "country": "CA", "postalCode": "K0L1C0", "twitter": "None", "instagram": "None", "facebook": "None", "youtube": "None", "website": "None", "summary": "None", "logo": "None", "latitude": 45.03567300000006, "longitude": -77.98000849999994}, "107580664RR0001": {"name": "THE NORTH HATLEY LIBRARY ASSOCIATION/L'ASSOCIATION DE LA BIBLIOTHEQUE DE NORTH HATLEY", "designationCode": "C", "categoryCode": "50", "address": "165 RUE MAIN", "city": "NORTH HATLEY", "province": "QC", "country": "CA", "postalCode": "J0B2C0", "twitter": "None", "instagram": "None", "facebook": "None", "youtube": "None", "website": "None", "summary": "None", "logo": "None", "latitude": 45.27378730307582, "longitude": -71.97465110877734}, "135923951RR0001": {"name": "THE NORTH ISLAND SURVIVORS' HEALING SOCIETY", "designationCode": "C", "categoryCode": "59", "address": "625 D-11TH AVENUE", "city": "CAMPBELL RIVER", "province": "BC", "country": "CA", "postalCode": "V9W4G5", "twitter": "None", "instagram": "None", "facebook": "None", "youtube": "None", "website": "None", "summary": "None", "logo": "None", "latitude": 50.026167082653124, "longitude": -125.24832716050928}, "133424655RR0001": {"name": "THE NORTH PEACE RIDING FOR THE DISABLED ASSOCIATION", "designationCode": "C", "categoryCode": "56", "address": "PO BOX 6834", "city": "FORT ST JOHN", "province": "BC", "country": "CA", "postalCode": "V1J4J3", "twitter": "None", "instagram": "None", "facebook": "None", "youtube": "None", "website": "None", "summary": "None", "logo": "None", "latitude": 56.25253500000005, "longitude": -120.84748099999993}, "119247690RR0001": {"name": "THE NORTH PRAIRIE CHURCH AND CEMETERY ASSOCIATION", "designationCode": "C", "categoryCode": "32", "address": "BOX 408", "city": "PREECEVILLE", "province": "SK", "country": "CA", "postalCode": "S0A3B0", "twitter": "None", "instagram": "None", "facebook": "None", "youtube": "None", "website": "None", "summary": "None", "logo": "None", "latitude": 51.95420000000007, "longitude": -102.64748999999995}, "133112599RR0001": {"name": "THE NORTH SHORE CHORUS SOCIETY", "designationCode": "C", "categoryCode": "22", "address": "1199 LYNN VALLEY RD           PO BOX 16005", "city": "NORTH VANCOUVER", "province": "BC", "country": "CA", "postalCode": "V7J2P1", "twitter": "None", "instagram": "None", "facebook": "None", "youtube": "None", "website": "None", "summary": "None", "logo": "None", "latitude": 49.335541659605774, "longitude": -123.04078107147872}, "133070078RR0001": {"name": "THE NORTH STAR MENNONITE CHURCH", "designationCode": "C", "categoryCode": "34", "address": "204 FRANCIS STREET", "city": "DRAKE", "province": "SK", "country": "CA", "postalCode": "S0K1H0", "twitter": "None", "instagram": "None", "facebook": "None", "youtube": "None", "website": "None", "summary": "None", "logo": "None", "latitude": 51.746094211001804, "longitude": -105.0127741447833}, "119247849RR0001": {"name": "THE NORTH VANCOUVER COMMUNITY ARTS COUNCIL", "designationCode": "C", "categoryCode": "23", "address": "335 LONSDALE AVE", "city": "NORTH VANCOUVER", "province": "BC", "country": "CA", "postalCode": "V7M2G3", "twitter": "None", "instagram": "None", "facebook": "None", "youtube": "None", "website": "None", "summary": "None", "logo": "None", "latitude": 49.3137839059621, "longitude": -123.07681460139149}, "890075849RR0001": {"name": "THE NORTH VANCOUVER HIGH SCHOOL EDUCATION FOUNDATION", "designationCode": "C", "categoryCode": "21", "address": "101-1485 DUCHESS AVE", "city": "WEST VANCOUVER", "province": "BC", "country": "CA", "postalCode": "V7T1H7", "twitter": "None", "instagram": "None", "facebook": "None", "youtube": "None", "website": "None", "summary": "None", "logo": "None", "latitude": 49.32969546047074, "longitude": -123.15603213918865}, "892818568RR0001": {"name": "THE NORTH WEST CERAMIC FOUNDATION", "designationCode": "C", "categoryCode": "22", "address": "1 - 7136 ASH CRES", "city": "VANCOUVER", "province": "BC", "country": "CA", "postalCode": "V6P3K7", "twitter": "None", "instagram": "None", "facebook": "None", "youtube": "None", "website": "None", "summary": "None", "logo": "None", "latitude": 49.2205645450903, "longitude": -123.11905334509032}, "119247807RR0001": {"name": "THE NORTH-SOUTH INSTITUTE-L'INSTITUT NORD-SUD", "designationCode": "C", "categoryCode": "29", "address": "NPSIA CARLETON UNIVERSITY     1125 COLONEL BY DRIVE", "city": "OTTAWA", "province": "ON", "country": "CA", "postalCode": "K1S5B6", "twitter": "None", "instagram": "None", "facebook": "None", "youtube": "None", "website": "None", "summary": "None", "logo": "None", "latitude": 45.38353007487125, "longitude": -75.69717003289185}, "119247559RR0001": {"name": "THE NORTHDALE CONCERT BAND", "designationCode": "C", "categoryCode": "22", "address": "PO BOX 47503 DON MILLS        946 LAWRENCE AVE. EAST UNIT 2", "city": "TORONTO", "province": "ON", "country": "CA", "postalCode": "M3C3S7", "twitter": "None", "instagram": "None", "facebook": "None", "youtube": "None", "website": "None", "summary": "None", "logo": "None", "latitude": 43.73671724955252, "longitude": -79.34572653693219}, "824015556RR0001": {"name": "THE NORTHEAST REGIONAL COMMUNITY FOUNDATION", "designationCode": "A", "categoryCode": "03", "address": "904-102ND AVENUE", "city": "DAWSON CREEK", "province": "BC", "country": "CA", "postalCode": "V1G2B7", "twitter": "None", "instagram": "None", "facebook": "None", "youtube": "None", "website": "None", "summary": "None", "logo": "None", "latitude": 55.75793214351648, "longitude": -120.2265931816321}, "896583853RR0001": {"name": "THE NORTHERN ALBERTA BENEFIT SOCIETY FOR SCOLIOSIS", "designationCode": "A", "categoryCode": "13", "address": "10808 BEARSPAW DR E", "city": "EDMONTON", "province": "AB", "country": "CA", "postalCode": "T6J5G1", "twitter": "None", "instagram": "None", "facebook": "None", "youtube": "None", "website": "None", "summary": "None", "logo": "None", "latitude": 53.44520187363041, "longitude": -113.5064487388368}, "119247575RR0001": {"name": "THE NORTHERN ALBERTA INSTITUTE OF TECHNOLOGY FOUNDATION", "designationCode": "A", "categoryCode": "23", "address": "11762 - 106 STREET", "city": "EDMONTON", "province": "AB", "country": "CA", "postalCode": "T5G2R1", "twitter": "None", "instagram": "None", "facebook": "None", "youtube": "None", "website": "None", "summary": "None", "logo": "None", "latitude": 53.56825037836809, "longitude": -113.50307124326385}, "107781742RR0001": {"name": "THE NORTHERN ANTHROPOLOGICAL AND CULTURAL SOCIETY", "designationCode": "C", "categoryCode": "50", "address": "BOX 420", "city": "FORT SMITH", "province": "NT", "country": "CA", "postalCode": "X0E0P0", "twitter": "None", "instagram": "None", "facebook": "None", "youtube": "None", "website": "None", "summary": "None", "logo": "None", "latitude": 60.01262014865944, "longitude": -112.05264672940851}, "887406593RR0001": {"name": "THE NORTHERN ASSOCIATION OF BAPTIST CHURCHES", "designationCode": "C", "categoryCode": "49", "address": "9 COBALT STREET PO BOX 151", "city": "COBALT", "province": "ON", "country": "CA", "postalCode": "P0J1C0", "twitter": "None", "instagram": "None", "facebook": "None", "youtube": "None", "website": "None", "summary": "None", "logo": "None", "latitude": 47.39273268665243, "longitude": -79.6869720027413}, "134949783RR0001": {"name": "THE NORTHERN CANCER RESEARCH FOUNDATION", "designationCode": "A", "categoryCode": "13", "address": "41 RAMSEY LAKE ROAD", "city": "SUDBURY", "province": "ON", "country": "CA", "postalCode": "P3E5J1", "twitter": "None", "instagram": "None", "facebook": "None", "youtube": "None", "website": "None", "summary": "None", "logo": "None", "latitude": 46.469380295947126, "longitude": -80.99612071267406}, "871557815RR0001": {"name": "THE NORTHERN GATEWAY CHAPLAINCY PROGRAM INC.", "designationCode": "C", "categoryCode": "49", "address": "PO BOX 1843", "city": "THE PAS", "province": "MB", "country": "CA", "postalCode": "R9A1L6", "twitter": "None", "instagram": "None", "facebook": "None", "youtube": "None", "website": "None", "summary": "None", "logo": "None", "latitude": 53.81342700000006, "longitude": -101.25038149999993}, "888775947RR0001": {"name": "THE NORTHERN ONTARIO ANIMAL WELFARE SOCIETY", "designationCode": "C", "categoryCode": "54", "address": "PO BOX 51", "city": "IROQUOIS FALLS", "province": "ON", "country": "CA", "postalCode": "P0K1G0", "twitter": "None", "instagram": "None", "facebook": "None", "youtube": "None", "website": "None", "summary": "None", "logo": "None", "latitude": 48.75883001500371, "longitude": -80.69020006996918}, "107798217RR0001": {"name": "THE NORTHERN ONTARIO LIBRARY SERVICE BOARD", "designationCode": "C", "categoryCode": "50", "address": "334 REGENT ST", "city": "SUDBURY", "province": "ON", "country": "CA", "postalCode": "P3C4E2", "twitter": "None", "instagram": "None", "facebook": "None", "youtube": "None", "website": "None", "summary": "None", "logo": "None", "latitude": 46.48548031336759, "longitude": -81.0070526866324}, "868641374RR0001": {"name": "THE NORTHPINE FOUNDATION", "designationCode": "B", "categoryCode": "03", "address": "186 STRATHGOWAN AVENUE", "city": "TORONTO", "province": "ON", "country": "CA", "postalCode": "M4N1C3", "twitter": "None", "instagram": "None", "facebook": "None", "youtube": "None", "website": "None", "summary": "None", "logo": "None", "latitude": 43.720026252870746, "longitude": -79.39206691938361}, "133201475RR0001": {"name": "THE NORTHUMBERLAND HILLS HOSPITAL AUXILIARY", "designationCode": "C", "categoryCode": "19", "address": "1000 DE PALMA DRIVE", "city": "COBOURG", "province": "ON", "country": "CA", "postalCode": "K9A5W6", "twitter": "None", "instagram": "None", "facebook": "None", "youtube": "None", "website": "None", "summary": "None", "logo": "None", "latitude": 33.627794663490796, "longitude": -114.6030311634908}, "119062271RR0001": {"name": "THE NORTHWEST WILDERNESS SOCIETY OF THE UNITARIAN CHURCH", "designationCode": "C", "categoryCode": "39", "address": "949 W 49TH AVE", "city": "VANCOUVER", "province": "BC", "country": "CA", "postalCode": "V5Z2T1", "twitter": "None", "instagram": "None", "facebook": "None", "youtube": "None", "website": "None", "summary": "None", "logo": "None", "latitude": 49.22653944993916, "longitude": -123.12757091756595}, "892517780RR0001": {"name": "THE NORTHWESTERN ONTARIO WOMEN'S CENTRE", "designationCode": "C", "categoryCode": "09", "address": "184 CAMELOT ST", "city": "THUNDER BAY", "province": "ON", "country": "CA", "postalCode": "P7A4A9", "twitter": "None", "instagram": "None", "facebook": "None", "youtube": "None", "website": "None", "summary": "None", "logo": "None", "latitude": 48.436286290322535, "longitude": -89.21669918192056}, "125593657RR0141": {"name": "THE NORTHWESTERN ONTARIO ZONE COMMITTEE AIR CADET LEAGUE OF", "designationCode": "C", "categoryCode": "29", "address": "201-1505 LAPERRIERE AVE", "city": "OTTAWA", "province": "ON", "country": "CA", "postalCode": "K1Z7T1", "twitter": "None", "instagram": "None", "facebook": "None", "youtube": "None", "website": "None", "summary": "None", "logo": "None", "latitude": 45.3779063308614, "longitude": -75.7424353600033}, "119247906RR0001": {"name": "THE NORWOOD CONGREGATION OF JEHOVAH'S WITNESSES", "designationCode": "C", "categoryCode": "61", "address": "11705-89ST N.W.", "city": "EDMONTON", "province": "AB", "country": "CA", "postalCode": "T5B3V4", "twitter": "None", "instagram": "None", "facebook": "None", "youtube": "None", "website": "None", "summary": "None", "logo": "None", "latitude": 53.56932900000005, "longitude": -113.47817299999994}, "892948241RR0001": {"name": "THE NOSTALGIC THEATRE (T N T)", "designationCode": "C", "categoryCode": "22", "address": "298 STEPHEN STREET", "city": "LONDON", "province": "ON", "country": "CA", "postalCode": "N6K2N1", "twitter": "None", "instagram": "None", "facebook": "None", "youtube": "None", "website": "None", "summary": "None", "logo": "None", "latitude": 42.95865118013156, "longitude": -81.3383286311099}, "893350314RR0001": {"name": "THE NOTTAWASAGA FOUDATION", "designationCode": "A", "categoryCode": "03", "address": "6015 HWY 89", "city": "ALLISTON", "province": "ON", "country": "CA", "postalCode": "L9R1A4", "twitter": "None", "instagram": "None", "facebook": "None", "youtube": "None", "website": "None", "summary": "None", "logo": "None", "latitude": 44.16836724917497, "longitude": -79.80135019552705}, "853132652RR0001": {"name": "THE NOURISH AND DEVELOP FOUNDATION", "designationCode": "C", "categoryCode": "09", "address": "PO BOX 580", "city": "CANNINGTON", "province": "ON", "country": "CA", "postalCode": "L0E1E0", "twitter": "None", "instagram": "None", "facebook": "None", "youtube": "None", "website": "None", "summary": "None", "logo": "None", "latitude": 44.350370000000055, "longitude": -79.03788999999995}, "886489392RR0001": {"name": "THE NOVA MUSICA SOCIETY", "designationCode": "C", "categoryCode": "22", "address": "5016 48 AVE", "city": "LEDUC", "province": "AB", "country": "CA", "postalCode": "T9E7H7", "twitter": "None", "instagram": "None", "facebook": "None", "youtube": "None", "website": "None", "summary": "None", "logo": "None", "latitude": 53.26321447489746, "longitude": -113.55428241618097}, "129922290RR0001": {"name": "THE NOVA SCOTIA HEARING & SPEECH CLINIC", "designationCode": "C", "categoryCode": "11", "address": "5657 SPRING GARDEN RD SUIT 401BOX 120", "city": "HALIFAX", "province": "NS", "country": "CA", "postalCode": "B3J3R4", "twitter": "None", "instagram": "None", "facebook": "None", "youtube": "None", "website": "None", "summary": "None", "logo": "None", "latitude": 44.64263317294686, "longitude": -63.57850782405205}, "897866661RR0001": {"name": "THE NOVA SCOTIA INTERNATIONAL TATTOO SOCIETY", "designationCode": "C", "categoryCode": "22", "address": "6 - 10 MORRIS DR", "city": "DARTMOUTH", "province": "NS", "country": "CA", "postalCode": "B3B1K8", "twitter": "None", "instagram": "None", "facebook": "None", "youtube": "None", "website": "None", "summary": "None", "logo": "None", "latitude": 44.70612927052937, "longitude": -63.61199057657509}, "889978599RR0001": {"name": "THE NOVA SCOTIA SALMON ASSOCIATION", "designationCode": "C", "categoryCode": "54", "address": "71 CINDY DR", "city": "GRAND LAKE", "province": "NS", "country": "CA", "postalCode": "B2T1B5", "twitter": "None", "instagram": "None", "facebook": "None", "youtube": "None", "website": "None", "summary": "None", "logo": "None", "latitude": 44.878350091032395, "longitude": -63.576624318454805}, "134704741RR0001": {"name": "THE NOVA SCOTIA SOCIETY FOR THE PREVENTION OF CRUELTY", "designationCode": "C", "categoryCode": "54", "address": "P.O. BOX 38073, STN BURNSIDE", "city": "DARTMOUTH", "province": "NS", "country": "CA", "postalCode": "B3B1X2", "twitter": "None", "instagram": "None", "facebook": "None", "youtube": "None", "website": "None", "summary": "None", "logo": "None", "latitude": 44.7145707288881, "longitude": -63.59110854666608}, "133832667RR0001": {"name": "THE NOVA SCOTIA YOUTH ORCHESTRA", "designationCode": "C", "categoryCode": "22", "address": "6199 CHEBUCTO ROAD", "city": "HALIFAX", "province": "NS", "country": "CA", "postalCode": "B3L1K7", "twitter": "None", "instagram": "None", "facebook": "None", "youtube": "None", "website": "None", "summary": "None", "logo": "None", "latitude": 44.64993414351647, "longitude": -63.59753741799863}, "119247971RR0001": {"name": "THE NOVA SCOTIAN INSTITUTE OF SCIENCE", "designationCode": "C", "categoryCode": "20", "address": "63 SINCLAIR ST.", "city": "DARTMOUTH", "province": "NS", "country": "CA", "postalCode": "B2Y1R7", "twitter": "None", "instagram": "None", "facebook": "None", "youtube": "None", "website": "None", "summary": "None", "logo": "None", "latitude": 44.676849027208654, "longitude": -63.55631128325338}, "847248762RR0001": {"name": "THE NOVA VOCE MALE CHORAL SOCIETY", "designationCode": "C", "categoryCode": "22", "address": "P.O. BOX 29022                PRO HALIFAX SHOPPING CENTRE", "city": "HALIFAX", "province": "NS", "country": "CA", "postalCode": "B3L4T8", "twitter": "None", "instagram": "None", "facebook": "None", "youtube": "None", "website": "None", "summary": "None", "logo": "None", "latitude": 44.64922000000007, "longitude": -63.61743999999999}, "882380926RR0001": {"name": "THE NUNAVUT NATIONAL PARKS SCHOLARSHIP TRUST", "designationCode": "C", "categoryCode": "21", "address": "PO BOX 1419", "city": "IQALUIT", "province": "NU", "country": "CA", "postalCode": "X0A0H0", "twitter": "None", "instagram": "None", "facebook": "None", "youtube": "None", "website": "None", "summary": "None", "logo": "None", "latitude": 62.81090700000006, "longitude": -92.08155949999994}, "891368888RR0001": {"name": "THE NUSBAUM FAMILY CHARITABLE FOUNDATION", "designationCode": "B", "categoryCode": "03", "address": "41 BERTAL ROAD", "city": "TORONTO", "province": "ON", "country": "CA", "postalCode": "M6M4M7", "twitter": "None", "instagram": "None", "facebook": "None", "youtube": "None", "website": "None", "summary": "None", "logo": "None", "latitude": 43.693870744128155, "longitude": -79.488379295978}, "891791360RR0001": {"name": "THE NUTANA ROTARY CHARITABLE FUND", "designationCode": "C", "categoryCode": "65", "address": "BOX 441", "city": "SASKATOON", "province": "SK", "country": "CA", "postalCode": "S7K3L6", "twitter": "None", "instagram": "None", "facebook": "None", "youtube": "None", "website": "None", "summary": "None", "logo": "None", "latitude": 52.13049000000005, "longitude": -106.65926449999994}, "119236479RR0001": {"name": "THE O. E. WALLI FOUNDATION", "designationCode": "A", "categoryCode": "21", "address": "93 ZETTA COURT", "city": "NEW LISKEARD", "province": "ON", "country": "CA", "postalCode": "P0J1P0", "twitter": "None", "instagram": "None", "facebook": "None", "youtube": "None", "website": "None", "summary": "None", "logo": "None", "latitude": 47.540615481245446, "longitude": -79.66545269608747}, "879133312RR0001": {"name": "THE O'NEILL FOUNDATION INC.", "designationCode": "A", "categoryCode": "23", "address": "50 SCAMMELL CRESCENT", "city": "MOUNT PEARL", "province": "NL", "country": "CA", "postalCode": "A1N2G3", "twitter": "None", "instagram": "None", "facebook": "None", "youtube": "None", "website": "None", "summary": "None", "logo": "None", "latitude": 47.517294360832835, "longitude": -52.817595319755604}, "119248102RR0001": {"name": "THE OAK LAKE AND DISTRICT CEMETERY COMMITTEE", "designationCode": "C", "categoryCode": "59", "address": "PO BOX 435", "city": "OAK LAKE", "province": "MB", "country": "CA", "postalCode": "R0M1P0", "twitter": "None", "instagram": "None", "facebook": "None", "youtube": "None", "website": "None", "summary": "None", "logo": "None", "latitude": 49.76430756929151, "longitude": -100.63254783087561}, "888160645RR0001": {"name": "THE OAK RIVER DONOR'S CHOICE", "designationCode": "A", "categoryCode": "05", "address": "BOX 64", "city": "OAK RIVER", "province": "MB", "country": "CA", "postalCode": "R0K1T0", "twitter": "None", "instagram": "None", "facebook": "None", "youtube": "None", "website": "None", "summary": "None", "logo": "None", "latitude": 49.635229499999994, "longitude": -99.60807824999999}, "892190877RR0001": {"name": "THE OAKBANK CHRISTIAN CHURCH INC.", "designationCode": "C", "categoryCode": "39", "address": "BOX 1 GRP 14 RR 2", "city": "OAKBANK", "province": "MB", "country": "CA", "postalCode": "R0E1J2", "twitter": "None", "instagram": "None", "facebook": "None", "youtube": "None", "website": "None", "summary": "None", "logo": "None", "latitude": 49.931889000000055, "longitude": -96.84054799999993}, "119248110RR0001": {"name": "THE OAKRIDGE COMMUNITY ASSOCIATION", "designationCode": "C", "categoryCode": "56", "address": "9504 OAKFIELD DR SW", "city": "CALGARY", "province": "AB", "country": "CA", "postalCode": "T2V0L1", "twitter": "None", "instagram": "None", "facebook": "None", "youtube": "None", "website": "None", "summary": "None", "logo": "None", "latitude": 50.969058915344256, "longitude": -114.13259834122007}, "119248144RR0001": {"name": "THE OAKVILLE ART SOCIETY", "designationCode": "C", "categoryCode": "22", "address": "560 BRONTE RD", "city": "OAKVILLE", "province": "ON", "country": "CA", "postalCode": "L6L6S1", "twitter": "None", "instagram": "None", "facebook": "None", "youtube": "None", "website": "None", "summary": "None", "logo": "None", "latitude": 43.40245536773625, "longitude": -79.73090032266708}, "129815346RR0001": {"name": "THE OAKVILLE ARTS COUNCIL", "designationCode": "C", "categoryCode": "22", "address": "2302 BRIDGE ROAD", "city": "OAKVILLE", "province": "ON", "country": "CA", "postalCode": "L6L2G6", "twitter": "None", "instagram": "None", "facebook": "None", "youtube": "None", "website": "None", "summary": "None", "logo": "None", "latitude": 43.40679660107398, "longitude": -79.72078009810247}, "889106571RR0001": {"name": "THE OAKVILLE CHILDREN'S CHOIR", "designationCode": "C", "categoryCode": "22", "address": "123 MAURICE DRIVE SUITE 203", "city": "OAKVILLE", "province": "ON", "country": "CA", "postalCode": "L6K2W6", "twitter": "None", "instagram": "None", "facebook": "None", "youtube": "None", "website": "None", "summary": "None", "logo": "None", "latitude": 43.43738931141435, "longitude": -79.67882426643207}, "889461976RR0001": {"name": "THE OAKVILLE CHORAL SOCIETY INC.", "designationCode": "C", "categoryCode": "22", "address": "439 LEES LANE", "city": "OAKVILLE", "province": "ON", "country": "CA", "postalCode": "L6L4S9", "twitter": "None", "instagram": "None", "facebook": "None", "youtube": "None", "website": "None", "summary": "None", "logo": "None", "latitude": 43.424334103814346, "longitude": -79.7002452779446}, "866757917RR0001": {"name": "THE OAKVILLE FOUNDATION FOR INTELLECTUALLY HANDICAPPED PEOPLE", "designationCode": "A", "categoryCode": "05", "address": "230 MORRISON ROAD", "city": "OAKVILLE", "province": "ON", "country": "CA", "postalCode": "L6J4J4", "twitter": "None", "instagram": "None", "facebook": "None", "youtube": "None", "website": "None", "summary": "None", "logo": "None", "latitude": 43.46330557201806, "longitude": -79.65728746378896}, "119248151RR0001": {"name": "THE OAKVILLE PLAYERS", "designationCode": "C", "categoryCode": "22", "address": "212 - 200 NORTH SERVICE RD W", "city": "OAKVILLE", "province": "ON", "country": "CA", "postalCode": "L6M2Y1", "twitter": "None", "instagram": "None", "facebook": "None", "youtube": "None", "website": "None", "summary": "None", "logo": "None", "latitude": 43.4506725, "longitude": -79.70046525000001}, "119248169RR0001": {"name": "THE OAKVILLE PUBLIC LIBRARY BOARD", "designationCode": "C", "categoryCode": "50", "address": "120 NAVY ST", "city": "OAKVILLE", "province": "ON", "country": "CA", "postalCode": "L5J2Z4", "twitter": "None", "instagram": "None", "facebook": "None", "youtube": "None", "website": "None", "summary": "None", "logo": "None", "latitude": 43.44428165722206, "longitude": -79.67044524883136}, "108090432RR0001": {"name": "THE OAKVILLE SENIOR CITIZENS RESIDENCE", "designationCode": "C", "categoryCode": "01", "address": "2220-2222 LAKESHORE ROAD WEST", "city": "OAKVILLE", "province": "ON", "country": "CA", "postalCode": "L6L5G5", "twitter": "None", "instagram": "None", "facebook": "None", "youtube": "None", "website": "None", "summary": "None", "logo": "None", "latitude": 43.39857180380805, "longitude": -79.70718795732765}, "873037840RR0001": {"name": "THE OAKVILLE STROKERS", "designationCode": "C", "categoryCode": "11", "address": "64 FIRST ST", "city": "OAKVILLE", "province": "ON", "country": "CA", "postalCode": "L6J3R3", "twitter": "None", "instagram": "None", "facebook": "None", "youtube": "None", "website": "None", "summary": "None", "logo": "None", "latitude": 43.448770708292514, "longitude": -79.66247539814756}, "119064525RR0001": {"name": "THE OAKVILLE SYMPHONY ORCHESTRA", "designationCode": "C", "categoryCode": "22", "address": "310-200 NORTH SERVICE RD W", "city": "OAKVILLE", "province": "ON", "country": "CA", "postalCode": "L6M2Y1", "twitter": "None", "instagram": "None", "facebook": "None", "youtube": "None", "website": "None", "summary": "None", "logo": "None", "latitude": 43.4506725, "longitude": -79.70046525000001}, "118878271RR0001": {"name": "THE OASIS CHURCH", "designationCode": "C", "categoryCode": "39", "address": "3540 AUCHINACHIE RD", "city": "DUNCAN", "province": "BC", "country": "CA", "postalCode": "V9L4A4", "twitter": "None", "instagram": "None", "facebook": "None", "youtube": "None", "website": "None", "summary": "None", "logo": "None", "latitude": 48.79565025559538, "longitude": -123.75050844348397}, "131420184RR0001": {"name": "THE OASIS FELLOWSHIP OF GRANDE PRAIRIE", "designationCode": "C", "categoryCode": "36", "address": "10126 101 AVENUE", "city": "GRANDE PRAIRIE", "province": "AB", "country": "CA", "postalCode": "T8V0Y2", "twitter": "None", "instagram": "None", "facebook": "None", "youtube": "None", "website": "None", "summary": "None", "logo": "None", "latitude": 55.17162148600596, "longitude": -118.79982}, "118968213RR0001": {"name": "THE OCCUPATIONAL FIRST AID ATTENDANTS ASSOCIATION OF BRITISH COLUMBIA", "designationCode": "C", "categoryCode": "11", "address": "108-2323 BOUNDARY RD", "city": "VANCOUVER", "province": "BC", "country": "CA", "postalCode": "V5M4V8", "twitter": "None", "instagram": "None", "facebook": "None", "youtube": "None", "website": "None", "summary": "None", "logo": "None", "latitude": 49.26350664363206, "longitude": -123.02379453560451}, "863881074RR0001": {"name": "THE OCTA COLLECTIVE SOCIETY", "designationCode": "C", "categoryCode": "22", "address": "389 CRYSTALVIEW TERR", "city": "VICTORIA", "province": "BC", "country": "CA", "postalCode": "V9B5S5", "twitter": "None", "instagram": "None", "facebook": "None", "youtube": "None", "website": "None", "summary": "None", "logo": "None", "latitude": 48.44912810768081, "longitude": -123.47550928466704}, "128017852RR0001": {"name": "THE ODAWA NATIVE FRIENDSHIP CENTRE", "designationCode": "C", "categoryCode": "09", "address": "250 CITY CENTRE AVE", "city": "OTTAWA", "province": "ON", "country": "CA", "postalCode": "K1R6K7", "twitter": "None", "instagram": "None", "facebook": "None", "youtube": "None", "website": "None", "summary": "None", "logo": "None", "latitude": 45.408701589214715, "longitude": -75.71772291222757}, "891703449RR0001": {"name": "THE OGEMA SENIOR CITIZENS' DEW-DROP-IN CENTRE", "designationCode": "C", "categoryCode": "56", "address": "BOX 323", "city": "OGEMA", "province": "SK", "country": "CA", "postalCode": "S0C1Y0", "twitter": "None", "instagram": "None", "facebook": "None", "youtube": "None", "website": "None", "summary": "None", "logo": "None", "latitude": 49.58337000000006, "longitude": -104.91778999999997}, "119248235RR0001": {"name": "THE OI KWAN FOUNDATION", "designationCode": "C", "categoryCode": "09", "address": "101 - 200 1ST STREET SW", "city": "CALGARY", "province": "AB", "country": "CA", "postalCode": "T2P1M3", "twitter": "None", "instagram": "None", "facebook": "None", "youtube": "None", "website": "None", "summary": "None", "logo": "None", "latitude": 51.04810570913825, "longitude": -114.06525934173817}, "888226198RR0001": {"name": "THE OIKODOME FOUNDATION", "designationCode": "B", "categoryCode": "20", "address": "23062 FRASER HWY.", "city": "LANGLEY", "province": "BC", "country": "CA", "postalCode": "V2Z2V1", "twitter": "None", "instagram": "None", "facebook": "None", "youtube": "None", "website": "None", "summary": "None", "logo": "None", "latitude": 49.08366327442485, "longitude": -122.5854725715271}, "871992475RR0001": {"name": "THE OIL HERITAGE DISTRICT COMMUNITY CENTRE ASSOCIATION", "designationCode": "C", "categoryCode": "56", "address": "360 TANK ST.", "city": "PETROLIA", "province": "ON", "country": "CA", "postalCode": "N0N1R0", "twitter": "None", "instagram": "None", "facebook": "None", "youtube": "None", "website": "None", "summary": "None", "logo": "None", "latitude": 42.885135524006024, "longitude": -82.1442635161584}, "888757721RR0001": {"name": "THE OJARS VEIDE SCHOLARSHIP FUND", "designationCode": "C", "categoryCode": "21", "address": "315 AVENUE RD 9", "city": "TORONTO", "province": "ON", "country": "CA", "postalCode": "M4V2H2", "twitter": "None", "instagram": "None", "facebook": "None", "youtube": "None", "website": "None", "summary": "None", "logo": "None", "latitude": 43.6800453311212, "longitude": -79.39874877376101}, "819070145RR0001": {"name": "THE OK CLEAN WATER PROJECT", "designationCode": "C", "categoryCode": "09", "address": "580 CHAPEL STREET", "city": "OTTAWA", "province": "ON", "country": "CA", "postalCode": "K1N7Z8", "twitter": "None", "instagram": "None", "facebook": "None", "youtube": "None", "website": "None", "summary": "None", "logo": "None", "latitude": 45.423007816810035, "longitude": -75.67443417848676}, "859143281RR0001": {"name": "THE OKANAGAN BETHEL KOREAN CHURCH", "designationCode": "C", "categoryCode": "39", "address": "2210 STILLINGFLEET RD", "city": "KELOWNA", "province": "BC", "country": "CA", "postalCode": "V1Y7Y9", "twitter": "None", "instagram": "None", "facebook": "None", "youtube": "None", "website": "None", "summary": "None", "logo": "None", "latitude": 49.874652, "longitude": -119.47343611786569}, "119248250RR0001": {"name": "THE OKANAGAN FESTIVAL SINGERS ASSOCIATION", "designationCode": "C", "categoryCode": "22", "address": "BOX 21106 ORCHARD PARK RPO", "city": "KELOWNA", "province": "BC", "country": "CA", "postalCode": "V1Y9N8", "twitter": "None", "instagram": "None", "facebook": "None", "youtube": "None", "website": "None", "summary": "None", "logo": "None", "latitude": 49.881860000000074, "longitude": -119.45378999999997}, "107793580RR0001": {"name": "THE OKANAGAN INDIAN EDUCATIONAL RESOURCES SOCIETY", "designationCode": "C", "categoryCode": "50", "address": "SITE 50, COMP 8               RR 2 LCD MAIN", "city": "PENTICTON", "province": "BC", "country": "CA", "postalCode": "V2A6J7", "twitter": "None", "instagram": "None", "facebook": "None", "youtube": "None", "website": "None", "summary": "None", "logo": "None", "latitude": 49.48779893232429, "longitude": -119.58722160008561}, "119248276RR0001": {"name": "THE OKANAGAN REGION WILDLIFE HERITAGE FUND SOCIETY", "designationCode": "C", "categoryCode": "52", "address": "101-916 ETHEL ST", "city": "KELOWNA", "province": "BC", "country": "CA", "postalCode": "V1Y2W2", "twitter": "None", "instagram": "None", "facebook": "None", "youtube": "None", "website": "None", "summary": "None", "logo": "None", "latitude": 49.89857517346644, "longitude": -119.48278610286205}, "119066207RR0001": {"name": "THE OKANAGAN SCHOOL OF THE ARTS", "designationCode": "C", "categoryCode": "22", "address": "PO BOX 21051", "city": "PENTICTON", "province": "BC", "country": "CA", "postalCode": "V2A8K8", "twitter": "None", "instagram": "None", "facebook": "None", "youtube": "None", "website": "None", "summary": "None", "logo": "None", "latitude": 49.50021300000006, "longitude": -119.59384399999993}, "107793499RR0001": {"name": "THE OKANAGAN SIKH TEMPLE AND CULTURAL SOCIETY, KELOWNA", "designationCode": "C", "categoryCode": "62", "address": "1111 RUTLAND RD", "city": "KELOWNA", "province": "BC", "country": "CA", "postalCode": "V1X4Y9", "twitter": "None", "instagram": "None", "facebook": "None", "youtube": "None", "website": "None", "summary": "None", "logo": "None", "latitude": 49.902419651313394, "longitude": -119.38678101363995}, "134370311RR0001": {"name": "THE OKEMA SOCIETY FOR CHRISTIAN DEVELOPMENT", "designationCode": "C", "categoryCode": "56", "address": "PO BOX 21090", "city": "SASKATOON", "province": "SK", "country": "CA", "postalCode": "S7H5N9", "twitter": "None", "instagram": "None", "facebook": "None", "youtube": "None", "website": "None", "summary": "None", "logo": "None", "latitude": 52.13049000000005, "longitude": -106.65926449999994}, "890405376RR0001": {"name": "THE OKOTOKS FOODBANK", "designationCode": "C", "categoryCode": "09", "address": "BOX 942", "city": "OKOTOKS", "province": "AB", "country": "CA", "postalCode": "T1S1B1", "twitter": "None", "instagram": "None", "facebook": "None", "youtube": "None", "website": "None", "summary": "None", "logo": "None", "latitude": 50.72589600000006, "longitude": -113.97494149999994}, "119248300RR0001": {"name": "THE OKOTOKS LIBRARY BOARD", "designationCode": "C", "categoryCode": "50", "address": "BOX 310", "city": "OKOTOKS", "province": "AB", "country": "CA", "postalCode": "T1S1A6", "twitter": "None", "instagram": "None", "facebook": "None", "youtube": "None", "website": "None", "summary": "None", "logo": "None", "latitude": 50.72589600000006, "longitude": -113.97494149999994}, "119248326RR0001": {"name": "THE OLD APOSTOLIC LUTHERAN CHURCH OF VANDERHOOF", "designationCode": "C", "categoryCode": "32", "address": "BOX 1903", "city": "VANDERHOOF", "province": "BC", "country": "CA", "postalCode": "V0J3A0", "twitter": "None", "instagram": "None", "facebook": "None", "youtube": "None", "website": "None", "summary": "None", "logo": "None", "latitude": 54.01397400000006, "longitude": -124.01297449999993}, "119248342RR0001": {"name": "THE OLD CATHOLIC CHURCH OF BC & SOCIETY", "designationCode": "C", "categoryCode": "39", "address": "715 51ST AVE E", "city": "VANCOUVER", "province": "BC", "country": "CA", "postalCode": "V5X1E2", "twitter": "None", "instagram": "None", "facebook": "None", "youtube": "None", "website": "None", "summary": "None", "logo": "None", "latitude": 49.22363346768411, "longitude": -123.0900612485429}, "139072078RR0001": {"name": "THE OLD CHURCH THEATRE SOCIETY", "designationCode": "C", "categoryCode": "22", "address": "1146 DENNY RD", "city": "COMOX", "province": "BC", "country": "CA", "postalCode": "V9M4B5", "twitter": "None", "instagram": "None", "facebook": "None", "youtube": "None", "website": "None", "summary": "None", "logo": "None", "latitude": 49.73463239884239, "longitude": -124.90682359633067}, "896669520RR0001": {"name": "THE OLD OTTAWA SOUTH FIREHALL REDEVELOPMENT FUND", "designationCode": "C", "categoryCode": "56", "address": "260 SUNNYSIDE AVENUE", "city": "OTTAWA", "province": "ON", "country": "CA", "postalCode": "K1S0R7", "twitter": "None", "instagram": "None", "facebook": "None", "youtube": "None", "website": "None", "summary": "None", "logo": "None", "latitude": 45.394821640285166, "longitude": -75.6819624719546}, "855974531RR0001": {"name": "THE OLD PERLICAN HERITAGE COMMITTEE INC.", "designationCode": "C", "categoryCode": "52", "address": "PO BOX 165", "city": "OLD PERLICAN", "province": "NL", "country": "CA", "postalCode": "A0A3G0", "twitter": "None", "instagram": "None", "facebook": "None", "youtube": "None", "website": "None", "summary": "None", "logo": "None", "latitude": 48.08319000000006, "longitude": -53.01475999999997}, "842819070RR0001": {"name": "THE OLD ROAD FOUNDATION OF CANADA/LA FONDATION OLD ROAD DU CANADA", "designationCode": "C", "categoryCode": "09", "address": "1 TORONTO STREET              SUITE 808 BOX 19", "city": "TORONTO", "province": "ON", "country": "CA", "postalCode": "M5C2V6", "twitter": "None", "instagram": "None", "facebook": "None", "youtube": "None", "website": "None", "summary": "None", "logo": "None", "latitude": 43.64988730558597, "longitude": -79.37604079929623}, "811239250RR0001": {"name": "THE OLD SCHOOL COMMUNITY GATHERING PLACE CO-OPERATIVE LIMITED", "designationCode": "C", "categoryCode": "56", "address": "PO BOX 185", "city": "MUSQUODOBOIT HARBOUR", "province": "NS", "country": "CA", "postalCode": "B0J2L0", "twitter": "None", "instagram": "None", "facebook": "None", "youtube": "None", "website": "None", "summary": "None", "logo": "None", "latitude": 44.786579926712626, "longitude": -63.14877998110121}, "119106763RR0001": {"name": "THE OLD SCHOOL HOUSE ARTS CENTRE", "designationCode": "C", "categoryCode": "22", "address": "PO BOX 791                    122 W FERN RD", "city": "QUALICUM BEACH", "province": "BC", "country": "CA", "postalCode": "V9K1T2", "twitter": "None", "instagram": "None", "facebook": "None", "youtube": "None", "website": "None", "summary": "None", "logo": "None", "latitude": 49.34614154342441, "longitude": -124.44225283236193}, "119248375RR0001": {"name": "THE OLD ST. THOMAS CHURCH RESTORATION & MAINTENANCE CORPORATION", "designationCode": "C", "categoryCode": "52", "address": "P.O. BOX 20055", "city": "ST-THOMAS", "province": "ON", "country": "CA", "postalCode": "N5P4H4", "twitter": "None", "instagram": "None", "facebook": "None", "youtube": "None", "website": "None", "summary": "None", "logo": "None", "latitude": 42.778932000000054, "longitude": -81.19315249999994}, "107794364RR0001": {"name": "THE OLD SYDNEY SOCIETY", "designationCode": "C", "categoryCode": "52", "address": "P.O. BOX 912", "city": "SYDNEY", "province": "NS", "country": "CA", "postalCode": "B1P6J4", "twitter": "None", "instagram": "None", "facebook": "None", "youtube": "None", "website": "None", "summary": "None", "logo": "None", "latitude": 46.137372000000056, "longitude": -60.19552249999994}, "894506682RR0001": {"name": "THE OLD 78TH FRASER'S HIGHLANDERS (FORT CALGARY) HISTORICAL TRUST", "designationCode": "C", "categoryCode": "50", "address": "569 9 AVE NW", "city": "CALGARY", "province": "AB", "country": "CA", "postalCode": "T2N4S9", "twitter": "None", "instagram": "None", "facebook": "None", "youtube": "None", "website": "None", "summary": "None", "logo": "None", "latitude": 51.06099444607834, "longitude": -114.07503110512421}, "107794000RR0001": {"name": "THE OLDE FORGE COMMUNITY RESOURCE CENTRE", "designationCode": "C", "categoryCode": "59", "address": "2730 CARLING AVENUE", "city": "OTTAWA", "province": "ON", "country": "CA", "postalCode": "K2B7J1", "twitter": "None", "instagram": "None", "facebook": "None", "youtube": "None", "website": "None", "summary": "None", "logo": "None", "latitude": 45.35975768356533, "longitude": -75.79424953785582}, "119248359RR0001": {"name": "THE OLDS AGRICULTURAL SOCIETY", "designationCode": "C", "categoryCode": "56", "address": "BOX 3751", "city": "OLDS", "province": "AB", "country": "CA", "postalCode": "T4H1P5", "twitter": "None", "instagram": "None", "facebook": "None", "youtube": "None", "website": "None", "summary": "None", "logo": "None", "latitude": 51.791613000000055, "longitude": -114.11061199999993}, "886963792RR0001": {"name": "THE OLDS AND DISTRICT EVERGREEN CLUB", "designationCode": "C", "categoryCode": "56", "address": "5237 52 ST", "city": "OLDS", "province": "AB", "country": "CA", "postalCode": "T4H1H7", "twitter": "None", "instagram": "None", "facebook": "None", "youtube": "None", "website": "None", "summary": "None", "logo": "None", "latitude": 51.79147169663575, "longitude": -114.11252629600666}, "860172683RR0001": {"name": "THE OLIGNY SALVATI FOUNDATION/LA FONDATION OLIGNY SALVATI", "designationCode": "B", "categoryCode": "09", "address": "3922 DES PIVOINES", "city": "VAL-MORIN", "province": "QC", "country": "CA", "postalCode": "J0T2R0", "twitter": "None", "instagram": "None", "facebook": "None", "youtube": "None", "website": "None", "summary": "None", "logo": "None", "latitude": 45.96147765779897, "longitude": -74.25929962536749}, "875224214RR0001": {"name": "THE OLINDA CHILDREN'S ASSOCIATION", "designationCode": "A", "categoryCode": "23", "address": "5011 SMITH AVENUE", "city": "BURNABY", "province": "BC", "country": "CA", "postalCode": "V5G2W6", "twitter": "None", "instagram": "None", "facebook": "None", "youtube": "None", "website": "None", "summary": "None", "logo": "None", "latitude": 49.23919046267733, "longitude": -123.01995951794048}, "864535505RR0001": {"name": "THE OLIVE BRANCH COMMUNITY CHURCH", "designationCode": "C", "categoryCode": "39", "address": "175 ANDERSON AVE", "city": "MARKHAM", "province": "ON", "country": "CA", "postalCode": "L6E1A4", "twitter": "None", "instagram": "None", "facebook": "None", "youtube": "None", "website": "None", "summary": "None", "logo": "None", "latitude": 43.903753564256405, "longitude": -79.26451518088228}, "810125948RR0001": {"name": "THE OLIVE BRANCH FOR CHILDREN", "designationCode": "B", "categoryCode": "01", "address": "14 - 3650 LANGSTAFF RD        SUITE #377", "city": "WOODBRIDGE", "province": "ON", "country": "CA", "postalCode": "L4L9A8", "twitter": "None", "instagram": "None", "facebook": "None", "youtube": "None", "website": "None", "summary": "None", "logo": "None", "latitude": 43.808387359483696, "longitude": -79.5492470311038}, "893169169RR0001": {"name": "THE OLIVE BRANCH FOUNDATION", "designationCode": "B", "categoryCode": "02", "address": "22 OLD PARK LANE", "city": "RICHMOND HILL", "province": "ON", "country": "CA", "postalCode": "L4B2L4", "twitter": "None", "instagram": "None", "facebook": "None", "youtube": "None", "website": "None", "summary": "None", "logo": "None", "latitude": 43.86746318870122, "longitude": -79.4076374257889}, "861916013RR0001": {"name": "THE OLIVE BRANCH OF HOPE", "designationCode": "C", "categoryCode": "11", "address": "845 WILSON AVENUE             SUITE 103", "city": "TORONTO", "province": "ON", "country": "CA", "postalCode": "M3K1E6", "twitter": "None", "instagram": "None", "facebook": "None", "youtube": "None", "website": "None", "summary": "None", "logo": "None", "latitude": 43.73106580930822, "longitude": -79.46470690576496}, "895453405RR0001": {"name": "THE OLIVE MOUNT CHURCH", "designationCode": "C", "categoryCode": "39", "address": "892 THISTLE DOWN CIR", "city": "MISSISSAUGA", "province": "ON", "country": "CA", "postalCode": "L5C3K5", "twitter": "None", "instagram": "None", "facebook": "None", "youtube": "None", "website": "None", "summary": "None", "logo": "None", "latitude": 43.576606625021725, "longitude": -79.65921403217166}, "890438641RR0001": {"name": "THE OLIVE ONA MILLER FOUNDATION", "designationCode": "B", "categoryCode": "03", "address": "511 BOND STREET WEST", "city": "OSHAWA", "province": "ON", "country": "CA", "postalCode": "L1J2M2", "twitter": "None", "instagram": "None", "facebook": "None", "youtube": "None", "website": "None", "summary": "None", "logo": "None", "latitude": 43.89412975823776, "longitude": -78.88274809893824}}