{"108004227RR0001": {"name": "ST. ANDREW'S EVANGELICAL LUTHERAN LATVIAN CONGREGATION IN TORONTO", "designationCode": "C", "categoryCode": "32", "address": "200 BALMORAL AVE", "city": "TORONTO", "province": "ON", "country": "CA", "postalCode": "M4V1J6", "twitter": "None", "instagram": "None", "facebook": "None", "youtube": "None", "website": "None", "summary": "None", "logo": "None", "latitude": 43.68388615072985, "longitude": -79.40254825757393}, "119163533RR0001": {"name": "ST. ANDREW'S FOUNDATION INC.", "designationCode": "C", "categoryCode": "43", "address": "P.O. BOX 22021 PRO DOWNTOWN", "city": "MOOSE JAW", "province": "SK", "country": "CA", "postalCode": "S6H8A7", "twitter": "None", "instagram": "None", "facebook": "None", "youtube": "None", "website": "None", "summary": "None", "logo": "None", "latitude": 50.39688300000006, "longitude": -105.53701399999993}, "119163558RR0001": {"name": "ST. ANDREW'S HALL", "designationCode": "C", "categoryCode": "01", "address": "6040 IONA DR", "city": "VANCOUVER", "province": "BC", "country": "CA", "postalCode": "V6T2E8", "twitter": "None", "instagram": "None", "facebook": "None", "youtube": "None", "website": "None", "summary": "None", "logo": "None", "latitude": 49.27095412462254, "longitude": -123.25155615736763}, "119163566RR0001": {"name": "ST. ANDREW'S HERITAGE TRUST", "designationCode": "A", "categoryCode": "43", "address": "73 SIMCOE ST", "city": "TORONTO", "province": "ON", "country": "CA", "postalCode": "M5J1W9", "twitter": "None", "instagram": "None", "facebook": "None", "youtube": "None", "website": "None", "summary": "None", "logo": "None", "latitude": 43.64672158979165, "longitude": -79.38577946361607}, "108004243RR0001": {"name": "ST. ANDREW'S HESPELER PRESBYTERIAN CHURCH", "designationCode": "C", "categoryCode": "37", "address": "73 QUEEN ST EAST", "city": "CAMBRIDGE", "province": "ON", "country": "CA", "postalCode": "N3C2A9", "twitter": "None", "instagram": "None", "facebook": "None", "youtube": "None", "website": "None", "summary": "None", "logo": "None", "latitude": 43.432537054128865, "longitude": -80.30840471109111}, "119163590RR0001": {"name": "ST. ANDREW'S JAPANESE CONGREGATION", "designationCode": "C", "categoryCode": "30", "address": "49 DONLANDS AVENUE", "city": "TORONTO", "province": "ON", "country": "CA", "postalCode": "M4J3N5", "twitter": "None", "instagram": "None", "facebook": "None", "youtube": "None", "website": "None", "summary": "None", "logo": "None", "latitude": 43.680900582578296, "longitude": -79.33746045582579}, "862117777RR0001": {"name": "ST. ANDREW'S L'AMABLE CEMETERY BOARD", "designationCode": "C", "categoryCode": "59", "address": "95 OLD HASTINGS ROAD          R.R. #1", "city": "L'AMABLE", "province": "ON", "country": "CA", "postalCode": "K0L2L0", "twitter": "None", "instagram": "None", "facebook": "None", "youtube": "None", "website": "None", "summary": "None", "logo": "None", "latitude": 44.995582247013694, "longitude": -77.78637877531887}, "104988746RR0001": {"name": "ST. ANDREW'S LAND CORPORATION", "designationCode": "A", "categoryCode": "43", "address": "40 KING ST. WEST              SUITE 5800", "city": "TORONTO", "province": "ON", "country": "CA", "postalCode": "M5H3S1", "twitter": "None", "instagram": "None", "facebook": "None", "youtube": "None", "website": "None", "summary": "None", "logo": "None", "latitude": 43.649634071037106, "longitude": -79.37885526054544}, "119163640RR0001": {"name": "ST. ANDREW'S LODGE NO. 13 A.F. & A.M. CRIPPLED AND HANDICAPPED CHILDREN'S FUND", "designationCode": "C", "categoryCode": "11", "address": "374 LOWER MONTAGUE RD         RR#2", "city": "MONTAGUE", "province": "PE", "country": "CA", "postalCode": "C0A1R0", "twitter": "None", "instagram": "None", "facebook": "None", "youtube": "None", "website": "None", "summary": "None", "logo": "None", "latitude": 46.16922465999202, "longitude": -62.56550720982171}, "119163657RR0001": {"name": "ST. ANDREW'S LUTHERAN CHURCH", "designationCode": "C", "categoryCode": "32", "address": "2378 HIGHWAY 10", "city": "WEST NORTHFIELD", "province": "NS", "country": "CA", "postalCode": "B4V5C6", "twitter": "None", "instagram": "None", "facebook": "None", "youtube": "None", "website": "None", "summary": "None", "logo": "None", "latitude": 44.45928438599637, "longitude": -64.6051611428169}, "108004300RR0003": {"name": "ST. ANDREW'S MEMORIAL ANGLICAN CHURCH", "designationCode": "C", "categoryCode": "30", "address": "275 MILL ST", "city": "KITCHENER", "province": "ON", "country": "CA", "postalCode": "N2M3R4", "twitter": "None", "instagram": "None", "facebook": "None", "youtube": "None", "website": "None", "summary": "None", "logo": "None", "latitude": 43.43602113514928, "longitude": -80.48607153583565}, "119163681RR0001": {"name": "ST. ANDREW'S MISSION DIOCESE OF KEEWATIN", "designationCode": "C", "categoryCode": "30", "address": "BOX 640", "city": "GILLAM", "province": "MB", "country": "CA", "postalCode": "R0B0L0", "twitter": "None", "instagram": "None", "facebook": "None", "youtube": "None", "website": "None", "summary": "None", "logo": "None", "latitude": 56.351459640273056, "longitude": -94.70644381714189}, "107020331RR0003": {"name": "ST. ANDREW'S PARISH", "designationCode": "C", "categoryCode": "38", "address": "4464 WATER STREET             ATTN: REV. CLAUDE DAIGLE", "city": "MIRAMICHI", "province": "NB", "country": "CA", "postalCode": "E1N4L8", "twitter": "None", "instagram": "None", "facebook": "None", "youtube": "None", "website": "None", "summary": "None", "logo": "None", "latitude": 47.07180596157316, "longitude": -65.37733943815452}, "107020331RR0053": {"name": "ST. ANDREW'S PARISH", "designationCode": "C", "categoryCode": "38", "address": "212 PARR STREET", "city": "ST-ANDREWS", "province": "NB", "country": "CA", "postalCode": "E5B1M3", "twitter": "None", "instagram": "None", "facebook": "None", "youtube": "None", "website": "None", "summary": "None", "logo": "None", "latitude": 45.07629511547111, "longitude": -67.05015940784243}, "118849470RR0051": {"name": "ST. ANDREW'S PARISH", "designationCode": "C", "categoryCode": "38", "address": "480 E 47TH AVE", "city": "VANCOUVER", "province": "BC", "country": "CA", "postalCode": "V5W2B4", "twitter": "None", "instagram": "None", "facebook": "None", "youtube": "None", "website": "None", "summary": "None", "logo": "None", "latitude": 49.227413927762974, "longitude": -123.09476197345597}, "119110450RR0096": {"name": "ST. ANDREW'S PARISH", "designationCode": "C", "categoryCode": "38", "address": "47 REYNOLDS STREET", "city": "OAKVILLE", "province": "ON", "country": "CA", "postalCode": "L6J3J9", "twitter": "None", "instagram": "None", "facebook": "None", "youtube": "None", "website": "None", "summary": "None", "logo": "None", "latitude": 43.44701747766744, "longitude": -79.66359783790186}, "119122778RR0021": {"name": "ST. ANDREW'S PARISH", "designationCode": "C", "categoryCode": "38", "address": "PO BOX 30", "city": "ST-ANDREW'S WEST", "province": "ON", "country": "CA", "postalCode": "K0C2A0", "twitter": "None", "instagram": "None", "facebook": "None", "youtube": "None", "website": "None", "summary": "None", "logo": "None", "latitude": 45.11509014931717, "longitude": -74.81246888496928}, "119122786RR0015": {"name": "ST. ANDREW'S PARISH", "designationCode": "C", "categoryCode": "38", "address": "6500 SOUTHRIDGE AVE", "city": "PRINCE GEORGE", "province": "BC", "country": "CA", "postalCode": "V2N5P9", "twitter": "None", "instagram": "None", "facebook": "None", "youtube": "None", "website": "None", "summary": "None", "logo": "None", "latitude": 53.86420563941114, "longitude": -122.78374828519728}, "108005711RR0001": {"name": "ST. ANDREW'S PARISH BLAINE LAKE", "designationCode": "C", "categoryCode": "38", "address": "PO BOX 158", "city": "BLAINE LAKE", "province": "SK", "country": "CA", "postalCode": "S0J0J0", "twitter": "None", "instagram": "None", "facebook": "None", "youtube": "None", "website": "None", "summary": "None", "logo": "None", "latitude": 54.27596858551914, "longitude": -107.4281867350292}, "106880107RR0028": {"name": "ST. ANDREW'S PARISH, JUDIQUE", "designationCode": "C", "categoryCode": "38", "address": "P.O. BOX 1", "city": "JUDIQUE", "province": "NS", "country": "CA", "postalCode": "B0E1P0", "twitter": "None", "instagram": "None", "facebook": "None", "youtube": "None", "website": "None", "summary": "None", "logo": "None", "latitude": 45.87677000000008, "longitude": -61.49064999999996}, "106880107RR0005": {"name": "ST. ANDREW'S PARISH, ST. ANDREW'S", "designationCode": "C", "categoryCode": "38", "address": "PO BOX 1", "city": "ST ANDREWS", "province": "NS", "country": "CA", "postalCode": "B0H1X0", "twitter": "None", "instagram": "None", "facebook": "None", "youtube": "None", "website": "None", "summary": "None", "logo": "None", "latitude": 45.55525000000006, "longitude": -61.88908999999995}, "119163871RR0001": {"name": "ST. ANDREW'S PLACE, SUDBURY", "designationCode": "C", "categoryCode": "56", "address": "128 PINE STREET SUITE 102", "city": "SUDBURY", "province": "ON", "country": "CA", "postalCode": "P3C1X3", "twitter": "None", "instagram": "None", "facebook": "None", "youtube": "None", "website": "None", "summary": "None", "logo": "None", "latitude": 46.494066087484725, "longitude": -81.0006938550736}, "119164572RR0002": {"name": "ST. ANDREW'S PRESBYTERIAN CEMETERY", "designationCode": "C", "categoryCode": "59", "address": "PO BOX 164", "city": "BEETON", "province": "ON", "country": "CA", "postalCode": "L0G1A0", "twitter": "None", "instagram": "None", "facebook": "None", "youtube": "None", "website": "None", "summary": "None", "logo": "None", "latitude": 44.078820000000064, "longitude": -79.78498999999994}, "107856585RR0001": {"name": "ST. ANDREW'S PRESBYTERIAN CHURCH", "designationCode": "C", "categoryCode": "37", "address": "4186 SQUIRE RD", "city": "APPLE HILL", "province": "ON", "country": "CA", "postalCode": "K0C1B0", "twitter": "None", "instagram": "None", "facebook": "None", "youtube": "None", "website": "None", "summary": "None", "logo": "None", "latitude": 45.21472350793278, "longitude": -74.73170876487762}, "108004458RR0001": {"name": "ST. ANDREW'S PRESBYTERIAN CHURCH", "designationCode": "C", "categoryCode": "37", "address": "PO BOX 254", "city": "PICTOU", "province": "NS", "country": "CA", "postalCode": "B0K1H0", "twitter": "None", "instagram": "None", "facebook": "None", "youtube": "None", "website": "None", "summary": "None", "logo": "None", "latitude": 45.67583400000005, "longitude": -62.70865099999993}, "108004466RR0001": {"name": "ST. ANDREW'S PRESBYTERIAN CHURCH", "designationCode": "C", "categoryCode": "37", "address": "643 MAIN STREET", "city": "SYDNEY MINES", "province": "NS", "country": "CA", "postalCode": "B1V2L1", "twitter": "None", "instagram": "None", "facebook": "None", "youtube": "None", "website": "None", "summary": "None", "logo": "None", "latitude": 46.24015736912123, "longitude": -60.224246442985596}, "108004474RR0001": {"name": "ST. ANDREW'S PRESBYTERIAN CHURCH", "designationCode": "C", "categoryCode": "37", "address": "37 MOUNTAIN ROAD", "city": "NEW GLASGOW", "province": "NS", "country": "CA", "postalCode": "B2H3W4", "twitter": "None", "instagram": "None", "facebook": "None", "youtube": "None", "website": "None", "summary": "None", "logo": "None", "latitude": 45.58929686759201, "longitude": -62.64164749154588}, "108004482RR0001": {"name": "ST. ANDREW'S PRESBYTERIAN CHURCH", "designationCode": "C", "categoryCode": "37", "address": "216 SCHOOL ST", "city": "DARTMOUTH", "province": "NS", "country": "CA", "postalCode": "B3A2Y4", "twitter": "None", "instagram": "None", "facebook": "None", "youtube": "None", "website": "None", "summary": "None", "logo": "None", "latitude": 44.67460465445209, "longitude": -63.57278361971294}, "108004508RR0001": {"name": "ST. ANDREW'S PRESBYTERIAN CHURCH", "designationCode": "C", "categoryCode": "37", "address": "36 BRIDGE ST", "city": "SACKVILLE", "province": "NB", "country": "CA", "postalCode": "E4L3N7", "twitter": "None", "instagram": "None", "facebook": "None", "youtube": "None", "website": "None", "summary": "None", "logo": "None", "latitude": 45.89725227451082, "longitude": -64.36528845974959}, "108004532RR0001": {"name": "ST. ANDREW'S PRESBYTERIAN CHURCH", "designationCode": "C", "categoryCode": "37", "address": "1827 BOUL. VALCARTIER         BOX 591", "city": "SAINT-GABRIEL-VALCARTIER", "province": "QC", "country": "CA", "postalCode": "G0A4S0", "twitter": "None", "instagram": "None", "facebook": "None", "youtube": "None", "website": "None", "summary": "None", "logo": "None", "latitude": 46.937914093254086, "longitude": -71.47073090175424}, "108004649RR0001": {"name": "ST. ANDREW'S PRESBYTERIAN CHURCH", "designationCode": "C", "categoryCode": "37", "address": "30 MILL STREET", "city": "CHESTERVILLE", "province": "ON", "country": "CA", "postalCode": "K0C1H0", "twitter": "None", "instagram": "None", "facebook": "None", "youtube": "None", "website": "None", "summary": "None", "logo": "None", "latitude": 45.102045656673795, "longitude": -75.23069713266777}, "108004664RR0001": {"name": "ST. ANDREW'S PRESBYTERIAN CHURCH", "designationCode": "C", "categoryCode": "37", "address": "BOX 94", "city": "PRESCOTT", "province": "ON", "country": "CA", "postalCode": "K0E1T0", "twitter": "None", "instagram": "None", "facebook": "None", "youtube": "None", "website": "None", "summary": "None", "logo": "None", "latitude": 44.72333933695445, "longitude": -75.52230856910072}, "108004706RR0001": {"name": "ST. ANDREW'S PRESBYTERIAN CHURCH", "designationCode": "C", "categoryCode": "37", "address": "31 KING ST.", "city": "PICTON", "province": "ON", "country": "CA", "postalCode": "K0K2T0", "twitter": "None", "instagram": "None", "facebook": "None", "youtube": "None", "website": "None", "summary": "None", "logo": "None", "latitude": 44.00713276966339, "longitude": -77.14535428062766}, "108004714RR0001": {"name": "ST. ANDREW'S PRESBYTERIAN CHURCH", "designationCode": "C", "categoryCode": "37", "address": "P O BOX 435", "city": "TWEED", "province": "ON", "country": "CA", "postalCode": "K0K3J0", "twitter": "None", "instagram": "None", "facebook": "None", "youtube": "None", "website": "None", "summary": "None", "logo": "None", "latitude": 44.51884534534283, "longitude": -77.11593882304619}, "108004730RR0001": {"name": "ST. ANDREW'S PRESBYTERIAN CHURCH", "designationCode": "C", "categoryCode": "37", "address": "270 REID SETTLEMENT RD, RR5", "city": "MADOC", "province": "ON", "country": "CA", "postalCode": "K0K2K0", "twitter": "None", "instagram": "None", "facebook": "None", "youtube": "None", "website": "None", "summary": "None", "logo": "None", "latitude": 44.381419825985304, "longitude": -77.49267095129548}, "108004896RR0001": {"name": "ST. ANDREW'S PRESBYTERIAN CHURCH", "designationCode": "C", "categoryCode": "37", "address": "35 CHURCH STREET N", "city": "AJAX", "province": "ON", "country": "CA", "postalCode": "L1T2W4", "twitter": "None", "instagram": "None", "facebook": "None", "youtube": "None", "website": "None", "summary": "None", "logo": "None", "latitude": 43.85599965987996, "longitude": -79.05614758948109}, "108004904RR0001": {"name": "ST. ANDREW'S PRESBYTERIAN CHURCH", "designationCode": "C", "categoryCode": "37", "address": "24 CLAIRMONT ST", "city": "THOROLD", "province": "ON", "country": "CA", "postalCode": "L2V1R3", "twitter": "None", "instagram": "None", "facebook": "None", "youtube": "None", "website": "None", "summary": "None", "logo": "None", "latitude": 43.12357744604403, "longitude": -79.19869388926077}, "108004920RR0001": {"name": "ST. ANDREW'S PRESBYTERIAN CHURCH", "designationCode": "C", "categoryCode": "37", "address": "29 BALD ST", "city": "WELLAND", "province": "ON", "country": "CA", "postalCode": "L3C5B7", "twitter": "None", "instagram": "None", "facebook": "None", "youtube": "None", "website": "None", "summary": "None", "logo": "None", "latitude": 42.990712659992006, "longitude": -79.2531684328294}, "108004979RR0001": {"name": "ST. ANDREW'S PRESBYTERIAN CHURCH", "designationCode": "C", "categoryCode": "37", "address": "47 OWEN ST", "city": "BARRIE", "province": "ON", "country": "CA", "postalCode": "L4M3G9", "twitter": "None", "instagram": "None", "facebook": "None", "youtube": "None", "website": "None", "summary": "None", "logo": "None", "latitude": 44.391358121011024, "longitude": -79.68786463584176}, "108005000RR0001": {"name": "ST. ANDREW'S PRESBYTERIAN CHURCH", "designationCode": "C", "categoryCode": "37", "address": "9860 KEELE ST", "city": "MAPLE", "province": "ON", "country": "CA", "postalCode": "L6A3Y4", "twitter": "None", "instagram": "None", "facebook": "None", "youtube": "None", "website": "None", "summary": "None", "logo": "None", "latitude": 43.85085138689483, "longitude": -79.51150064117921}, "108005026RR0001": {"name": "ST. ANDREW'S PRESBYTERIAN CHURCH", "designationCode": "C", "categoryCode": "37", "address": "31 SULPHUR SPRINGS RD", "city": "ANCASTER", "province": "ON", "country": "CA", "postalCode": "L9G1L7", "twitter": "None", "instagram": "None", "facebook": "None", "youtube": "None", "website": "None", "summary": "None", "logo": "None", "latitude": 43.226389275087726, "longitude": -79.97794589327147}, "108005042RR0001": {"name": "ST. ANDREW'S PRESBYTERIAN CHURCH", "designationCode": "C", "categoryCode": "37", "address": "73 SIMCOE ST", "city": "TORONTO", "province": "ON", "country": "CA", "postalCode": "M5J1W9", "twitter": "None", "instagram": "None", "facebook": "None", "youtube": "None", "website": "None", "summary": "None", "logo": "None", "latitude": 43.64672158979165, "longitude": -79.38577946361607}, "108005059RR0001": {"name": "ST. ANDREW'S PRESBYTERIAN CHURCH", "designationCode": "C", "categoryCode": "37", "address": "3819 BLOOR ST W", "city": "TORONTO", "province": "ON", "country": "CA", "postalCode": "M9B1K7", "twitter": "None", "instagram": "None", "facebook": "None", "youtube": "None", "website": "None", "summary": "None", "logo": "None", "latitude": 43.64144495141106, "longitude": -79.53691545100702}, "108005067RR0001": {"name": "ST. ANDREW'S PRESBYTERIAN CHURCH", "designationCode": "C", "categoryCode": "37", "address": "1579 ROYAL YORK RD", "city": "ETOBICOKE", "province": "ON", "country": "CA", "postalCode": "M9P3C5", "twitter": "None", "instagram": "None", "facebook": "None", "youtube": "None", "website": "None", "summary": "None", "logo": "None", "latitude": 43.69937663947713, "longitude": -79.53400822851894}, "108005166RR0001": {"name": "ST. ANDREW'S PRESBYTERIAN CHURCH", "designationCode": "C", "categoryCode": "37", "address": "416 QUEEN ST", "city": "PETROLIA", "province": "ON", "country": "CA", "postalCode": "N0N1R0", "twitter": "None", "instagram": "None", "facebook": "None", "youtube": "None", "website": "None", "summary": "None", "logo": "None", "latitude": 42.88072790251123, "longitude": -82.15112926475497}, "108005208RR0001": {"name": "ST. ANDREW'S PRESBYTERIAN CHURCH", "designationCode": "C", "categoryCode": "37", "address": "46 BROCK ST W", "city": "TILLSONBURG", "province": "ON", "country": "CA", "postalCode": "N4G2A5", "twitter": "None", "instagram": "None", "facebook": "None", "youtube": "None", "website": "None", "summary": "None", "logo": "None", "latitude": 42.85943945730227, "longitude": -80.7289070642416}, "108005224RR0001": {"name": "ST. ANDREW'S PRESBYTERIAN CHURCH", "designationCode": "C", "categoryCode": "37", "address": "25 ST-ANDREW STREET", "city": "STRATFORD", "province": "ON", "country": "CA", "postalCode": "N5A1A2", "twitter": "None", "instagram": "None", "facebook": "None", "youtube": "None", "website": "None", "summary": "None", "logo": "None", "latitude": 43.37102267441875, "longitude": -80.98565663030185}, "108005232RR0001": {"name": "ST. ANDREW'S PRESBYTERIAN CHURCH", "designationCode": "C", "categoryCode": "37", "address": "152 ALBERT ST", "city": "STRATHROY", "province": "ON", "country": "CA", "postalCode": "N7G1V5", "twitter": "None", "instagram": "None", "facebook": "None", "youtube": "None", "website": "None", "summary": "None", "logo": "None", "latitude": 42.95545453621104, "longitude": -81.62659286081136}, "108005240RR0001": {"name": "ST. ANDREW'S PRESBYTERIAN CHURCH", "designationCode": "C", "categoryCode": "37", "address": "261 CHRISTINA ST NORTH", "city": "SARNIA", "province": "ON", "country": "CA", "postalCode": "N7T5V4", "twitter": "None", "instagram": "None", "facebook": "None", "youtube": "None", "website": "None", "summary": "None", "logo": "None", "latitude": 42.97510711237053, "longitude": -82.4061425770942}, "108005414RR0001": {"name": "ST. ANDREW'S PRESBYTERIAN CHURCH", "designationCode": "C", "categoryCode": "37", "address": "PO BOX 547", "city": "TISDALE", "province": "SK", "country": "CA", "postalCode": "S0E1T0", "twitter": "None", "instagram": "None", "facebook": "None", "youtube": "None", "website": "None", "summary": "None", "logo": "None", "latitude": 52.84785000000005, "longitude": -104.04749999999996}, "108005463RR0001": {"name": "ST. ANDREW'S PRESBYTERIAN CHURCH", "designationCode": "C", "categoryCode": "37", "address": "610 - 19TH AVENUE NE", "city": "SWIFT CURRENT", "province": "SK", "country": "CA", "postalCode": "S9H2Y5", "twitter": "None", "instagram": "None", "facebook": "None", "youtube": "None", "website": "None", "summary": "None", "logo": "None", "latitude": 50.29071935035201, "longitude": -107.77498772364163}, "108005471RR0001": {"name": "ST. ANDREW'S PRESBYTERIAN CHURCH", "designationCode": "C", "categoryCode": "37", "address": "208 - 848 4 AVE", "city": "WAINWRIGHT", "province": "AB", "country": "CA", "postalCode": "T9W1V6", "twitter": "None", "instagram": "None", "facebook": "None", "youtube": "None", "website": "None", "summary": "None", "logo": "None", "latitude": 52.836601745184694, "longitude": -110.86240183948354}, "108005497RR0001": {"name": "ST. ANDREW'S PRESBYTERIAN CHURCH", "designationCode": "C", "categoryCode": "37", "address": "5024-44 ST", "city": "INNISFAIL", "province": "AB", "country": "CA", "postalCode": "T4G1L5", "twitter": "None", "instagram": "None", "facebook": "None", "youtube": "None", "website": "None", "summary": "None", "logo": "None", "latitude": 52.021950485429045, "longitude": -113.95160163918865}, "108005554RR0001": {"name": "ST. ANDREW'S PRESBYTERIAN CHURCH", "designationCode": "C", "categoryCode": "37", "address": "1981 9 AVE. NE", "city": "SALMON ARM", "province": "BC", "country": "CA", "postalCode": "V1E2L2", "twitter": "None", "instagram": "None", "facebook": "None", "youtube": "None", "website": "None", "summary": "None", "logo": "None", "latitude": 50.70633297771747, "longitude": -119.26325758777773}, "108005562RR0001": {"name": "ST. ANDREW'S PRESBYTERIAN CHURCH", "designationCode": "C", "categoryCode": "37", "address": "157 WADE AVENUE W.", "city": "PENTICTON", "province": "BC", "country": "CA", "postalCode": "V2A1T7", "twitter": "None", "instagram": "None", "facebook": "None", "youtube": "None", "website": "None", "summary": "None", "logo": "None", "latitude": 49.496833277829055, "longitude": -119.59306910866178}, "108005570RR0001": {"name": "ST. ANDREW'S PRESBYTERIAN CHURCH", "designationCode": "C", "categoryCode": "37", "address": "1136 6TH AVE", "city": "KAMLOOPS", "province": "BC", "country": "CA", "postalCode": "V2C3S1", "twitter": "None", "instagram": "None", "facebook": "None", "youtube": "None", "website": "None", "summary": "None", "logo": "None", "latitude": 50.6675443411045, "longitude": -120.32728680226775}, "119163913RR0001": {"name": "ST. ANDREW'S PRESBYTERIAN CHURCH", "designationCode": "C", "categoryCode": "37", "address": "PO BOX 6206", "city": "ST. JOHN'S", "province": "NL", "country": "CA", "postalCode": "A1C6J9", "twitter": "None", "instagram": "None", "facebook": "None", "youtube": "None", "website": "None", "summary": "None", "logo": "None", "latitude": 47.56082100000006, "longitude": -52.71219349999993}, "119163921RR0001": {"name": "ST. ANDREW'S PRESBYTERIAN CHURCH", "designationCode": "C", "categoryCode": "37", "address": "PO BOX 162", "city": "WHYCOCOMAGH", "province": "NS", "country": "CA", "postalCode": "B0E3M0", "twitter": "None", "instagram": "None", "facebook": "None", "youtube": "None", "website": "None", "summary": "None", "logo": "None", "latitude": 45.986578959739866, "longitude": -61.09164516623389}, "119163954RR0001": {"name": "ST. ANDREW'S PRESBYTERIAN CHURCH", "designationCode": "C", "categoryCode": "37", "address": "PORT HOWE                     R R #1", "city": "CUMBERLAND COUNTY", "province": "NS", "country": "CA", "postalCode": "B0K1K0", "twitter": "None", "instagram": "None", "facebook": "None", "youtube": "None", "website": "None", "summary": "None", "logo": "None", "latitude": 45.85173900000005, "longitude": -63.776761999999934}, "119164044RR0001": {"name": "ST. ANDREW'S PRESBYTERIAN CHURCH", "designationCode": "C", "categoryCode": "37", "address": "77 HILDEGARD DR", "city": "MONCTON", "province": "NB", "country": "CA", "postalCode": "E1G0Z6", "twitter": "None", "instagram": "None", "facebook": "None", "youtube": "None", "website": "None", "summary": "None", "logo": "None", "latitude": 46.1134769289629, "longitude": -64.84528009259026}, "119164077RR0001": {"name": "ST. ANDREW'S PRESBYTERIAN CHURCH", "designationCode": "C", "categoryCode": "37", "address": "339 DES ERABLES ST", "city": "INVERNESS", "province": "QC", "country": "CA", "postalCode": "G0S1K0", "twitter": "None", "instagram": "None", "facebook": "None", "youtube": "None", "website": "None", "summary": "None", "logo": "None", "latitude": 46.26038525145891, "longitude": -71.52283086547125}, "119164119RR0001": {"name": "ST. ANDREW'S PRESBYTERIAN CHURCH", "designationCode": "C", "categoryCode": "37", "address": "825 OLD ROAD", "city": "HEMMINGFORD", "province": "QC", "country": "CA", "postalCode": "J0L1H0", "twitter": "None", "instagram": "None", "facebook": "None", "youtube": "None", "website": "None", "summary": "None", "logo": "None", "latitude": 45.117807000000056, "longitude": -73.59103699999993}, "119164143RR0001": {"name": "ST. ANDREW'S PRESBYTERIAN CHURCH", "designationCode": "C", "categoryCode": "37", "address": "470 SWEDE ROAD", "city": "COMPTON", "province": "QC", "country": "CA", "postalCode": "J0B1L0", "twitter": "None", "instagram": "None", "facebook": "None", "youtube": "None", "website": "None", "summary": "None", "logo": "None", "latitude": 45.26514048730498, "longitude": -71.91237077699232}, "119164168RR0001": {"name": "ST. ANDREW'S PRESBYTERIAN CHURCH", "designationCode": "C", "categoryCode": "37", "address": "1 EARDLEY ROAD", "city": "GATINEAU", "province": "QC", "country": "CA", "postalCode": "J9H7V5", "twitter": "None", "instagram": "None", "facebook": "None", "youtube": "None", "website": "None", "summary": "None", "logo": "None", "latitude": 45.39597738022973, "longitude": -75.84517466209815}, "119164176RR0001": {"name": "ST. ANDREW'S PRESBYTERIAN CHURCH", "designationCode": "C", "categoryCode": "37", "address": "BOX 112", "city": "KINBURN", "province": "ON", "country": "CA", "postalCode": "K0A2H0", "twitter": "None", "instagram": "None", "facebook": "None", "youtube": "None", "website": "None", "summary": "None", "logo": "None", "latitude": 45.33578106406066, "longitude": -76.27758764145277}, "119164184RR0001": {"name": "ST. ANDREW'S PRESBYTERIAN CHURCH", "designationCode": "C", "categoryCode": "37", "address": "6810 RIDEAU VALLEY DRIVE SOUTHPOST OFFICE BOX 219", "city": "KARS", "province": "ON", "country": "CA", "postalCode": "K0A2E0", "twitter": "None", "instagram": "None", "facebook": "None", "youtube": "None", "website": "None", "summary": "None", "logo": "None", "latitude": 45.14375879211154, "longitude": -75.64621442079726}, "119164234RR0001": {"name": "ST. ANDREW'S PRESBYTERIAN CHURCH", "designationCode": "C", "categoryCode": "37", "address": "PO BOX 524", "city": "SOUTH LANCASTER", "province": "ON", "country": "CA", "postalCode": "K0C1N0", "twitter": "None", "instagram": "None", "facebook": "None", "youtube": "None", "website": "None", "summary": "None", "logo": "None", "latitude": 45.14048994713368, "longitude": -74.50269970753655}, "119164242RR0001": {"name": "ST. ANDREW'S PRESBYTERIAN CHURCH", "designationCode": "C", "categoryCode": "37", "address": "18183 CON 16", "city": "MAXVILLE", "province": "ON", "country": "CA", "postalCode": "K0C1T0", "twitter": "None", "instagram": "None", "facebook": "None", "youtube": "None", "website": "None", "summary": "None", "logo": "None", "latitude": 45.29893200000005, "longitude": -74.82162949999993}, "119164341RR0001": {"name": "ST. ANDREW'S PRESBYTERIAN CHURCH", "designationCode": "C", "categoryCode": "37", "address": "67 VICTORIA AVE", "city": "BELLEVILLE", "province": "ON", "country": "CA", "postalCode": "K8N2A1", "twitter": "None", "instagram": "None", "facebook": "None", "youtube": "None", "website": "None", "summary": "None", "logo": "None", "latitude": 44.16721489312725, "longitude": -77.38201687440136}, "119164358RR0001": {"name": "ST. ANDREW'S PRESBYTERIAN CHURCH", "designationCode": "C", "categoryCode": "37", "address": "3181 SHANNONVILLE ROAD RR1", "city": "PLAINFIELD", "province": "ON", "country": "CA", "postalCode": "K0K2V0", "twitter": "None", "instagram": "None", "facebook": "None", "youtube": "None", "website": "None", "summary": "None", "logo": "None", "latitude": 44.33213623536789, "longitude": -77.29746898882793}, "119164374RR0001": {"name": "ST. ANDREW'S PRESBYTERIAN CHURCH", "designationCode": "C", "categoryCode": "37", "address": "PO BOX 118", "city": "WARKWORTH", "province": "ON", "country": "CA", "postalCode": "K0K3K0", "twitter": "None", "instagram": "None", "facebook": "None", "youtube": "None", "website": "None", "summary": "None", "logo": "None", "latitude": 44.20071000000007, "longitude": -77.88983999999994}, "119164390RR0001": {"name": "ST. ANDREW'S PRESBYTERIAN CHURCH", "designationCode": "C", "categoryCode": "37", "address": "PO BOX 686", "city": "HASTINGS", "province": "ON", "country": "CA", "postalCode": "K0L1Y0", "twitter": "None", "instagram": "None", "facebook": "None", "youtube": "None", "website": "None", "summary": "None", "logo": "None", "latitude": 45.07491590035829, "longitude": -77.86144058303476}, "119164408RR0001": {"name": "ST. ANDREW'S PRESBYTERIAN CHURCH", "designationCode": "C", "categoryCode": "37", "address": "BOX 838", "city": "LAKEFIELD", "province": "ON", "country": "CA", "postalCode": "K0L2H0", "twitter": "None", "instagram": "None", "facebook": "None", "youtube": "None", "website": "None", "summary": "None", "logo": "None", "latitude": 44.42679000000004, "longitude": -78.26996999999994}, "119164424RR0001": {"name": "ST. ANDREW'S PRESBYTERIAN CHURCH", "designationCode": "C", "categoryCode": "37", "address": "54 BOLSOVER RD", "city": "BOLSOVER", "province": "ON", "country": "CA", "postalCode": "K0M1B0", "twitter": "None", "instagram": "None", "facebook": "None", "youtube": "None", "website": "None", "summary": "None", "logo": "None", "latitude": 44.5311999425529, "longitude": -79.06633374479199}, "119164432RR0001": {"name": "ST. ANDREW'S PRESBYTERIAN CHURCH", "designationCode": "C", "categoryCode": "37", "address": "BOX 1022", "city": "FENELON FALLS", "province": "ON", "country": "CA", "postalCode": "K0M1N0", "twitter": "None", "instagram": "None", "facebook": "None", "youtube": "None", "website": "None", "summary": "None", "logo": "None", "latitude": 44.53769008050088, "longitude": -78.74108993782103}, "119164507RR0001": {"name": "ST. ANDREW'S PRESBYTERIAN CHURCH", "designationCode": "C", "categoryCode": "37", "address": "130 CLERGY ST EAST", "city": "KINGSTON", "province": "ON", "country": "CA", "postalCode": "K7K3S3", "twitter": "None", "instagram": "None", "facebook": "None", "youtube": "None", "website": "None", "summary": "None", "logo": "None", "latitude": 44.232977231201986, "longitude": -76.48896616380024}, "119164549RR0001": {"name": "ST. ANDREW'S PRESBYTERIAN CHURCH", "designationCode": "C", "categoryCode": "37", "address": "200 KING ST W", "city": "COBOURG", "province": "ON", "country": "CA", "postalCode": "K9A2N1", "twitter": "None", "instagram": "None", "facebook": "None", "youtube": "None", "website": "None", "summary": "None", "logo": "None", "latitude": 43.95926537837475, "longitude": -78.17414237837473}, "119164564RR0001": {"name": "ST. ANDREW'S PRESBYTERIAN CHURCH", "designationCode": "C", "categoryCode": "37", "address": "P O BOX 312                   20858 DALTON RD", "city": "SUTTON WEST", "province": "ON", "country": "CA", "postalCode": "L0E1R0", "twitter": "None", "instagram": "None", "facebook": "None", "youtube": "None", "website": "None", "summary": "None", "logo": "None", "latitude": 44.306724688585646, "longitude": -79.3638662816086}, "119164572RR0001": {"name": "ST. ANDREW'S PRESBYTERIAN CHURCH", "designationCode": "C", "categoryCode": "37", "address": "PO BOX 164", "city": "BEETON", "province": "ON", "country": "CA", "postalCode": "L0G1A0", "twitter": "None", "instagram": "None", "facebook": "None", "youtube": "None", "website": "None", "summary": "None", "logo": "None", "latitude": 44.078820000000064, "longitude": -79.78498999999994}, "119164614RR0001": {"name": "ST. ANDREW'S PRESBYTERIAN CHURCH", "designationCode": "C", "categoryCode": "37", "address": "6 MILL STREET W.", "city": "HILLSDALE", "province": "ON", "country": "CA", "postalCode": "L0L1V0", "twitter": "None", "instagram": "None", "facebook": "None", "youtube": "None", "website": "None", "summary": "None", "logo": "None", "latitude": 44.57975016322333, "longitude": -79.76213400502031}, "119164655RR0001": {"name": "ST. ANDREW'S PRESBYTERIAN CHURCH", "designationCode": "C", "categoryCode": "37", "address": "103 BRADSHAW ST", "city": "BOWMANVILLE", "province": "ON", "country": "CA", "postalCode": "L1C2H4", "twitter": "None", "instagram": "None", "facebook": "None", "youtube": "None", "website": "None", "summary": "None", "logo": "None", "latitude": 43.9228589819666, "longitude": -78.67856092558736}, "119164713RR0001": {"name": "ST. ANDREW'S PRESBYTERIAN CHURCH", "designationCode": "C", "categoryCode": "37", "address": "BOX 954", "city": "BEAMSVILLE", "province": "ON", "country": "CA", "postalCode": "L0R1B0", "twitter": "None", "instagram": "None", "facebook": "None", "youtube": "None", "website": "None", "summary": "None", "logo": "None", "latitude": 43.16732700000006, "longitude": -79.47640249999994}, "119164747RR0001": {"name": "ST. ANDREW'S PRESBYTERIAN CHURCH", "designationCode": "C", "categoryCode": "37", "address": "32 MOSLEY STREET", "city": "AURORA", "province": "ON", "country": "CA", "postalCode": "L4G1G9", "twitter": "None", "instagram": "None", "facebook": "None", "youtube": "None", "website": "None", "summary": "None", "logo": "None", "latitude": 43.9985152018003, "longitude": -79.46500889676258}, "119164887RR0001": {"name": "ST. ANDREW'S PRESBYTERIAN CHURCH", "designationCode": "C", "categoryCode": "37", "address": "RR 5", "city": "FLESHERTON", "province": "ON", "country": "CA", "postalCode": "N0C1E0", "twitter": "None", "instagram": "None", "facebook": "None", "youtube": "None", "website": "None", "summary": "None", "logo": "None", "latitude": 44.30319000000006, "longitude": -80.51740549999994}, "119164937RR0001": {"name": "ST. ANDREW'S PRESBYTERIAN CHURCH", "designationCode": "C", "categoryCode": "37", "address": "196 BIRMINGHAM ST. E.", "city": "MOUNT FOREST", "province": "ON", "country": "CA", "postalCode": "N0G2L2", "twitter": "None", "instagram": "None", "facebook": "None", "youtube": "None", "website": "None", "summary": "None", "logo": "None", "latitude": 43.98394483008392, "longitude": -80.7358546957983}, "119164945RR0001": {"name": "ST. ANDREW'S PRESBYTERIAN CHURCH", "designationCode": "C", "categoryCode": "37", "address": "PO BOX 115", "city": "WINGHAM", "province": "ON", "country": "CA", "postalCode": "N0G2W0", "twitter": "None", "instagram": "None", "facebook": "None", "youtube": "None", "website": "None", "summary": "None", "logo": "None", "latitude": 43.88924000000003, "longitude": -81.31057999999996}, "119164960RR0001": {"name": "ST. ANDREW'S PRESBYTERIAN CHURCH", "designationCode": "C", "categoryCode": "37", "address": "BOX 295", "city": "CHATSWORTH", "province": "ON", "country": "CA", "postalCode": "N0H1G0", "twitter": "None", "instagram": "None", "facebook": "None", "youtube": "None", "website": "None", "summary": "None", "logo": "None", "latitude": 34.257250000000056, "longitude": -118.59093999999999}, "119164978RR0001": {"name": "ST. ANDREW'S PRESBYTERIAN CHURCH", "designationCode": "C", "categoryCode": "37", "address": "47 ALBERT STREET NORTH", "city": "SOUTHAMPTON", "province": "ON", "country": "CA", "postalCode": "N0H2L0", "twitter": "None", "instagram": "None", "facebook": "None", "youtube": "None", "website": "None", "summary": "None", "logo": "None", "latitude": 44.497161072040825, "longitude": -81.37021390720803}, "119165017RR0001": {"name": "ST. ANDREW'S PRESBYTERIAN CHURCH", "designationCode": "C", "categoryCode": "37", "address": "RR 1                          PO BOX 209", "city": "AILSA CRAIG", "province": "ON", "country": "CA", "postalCode": "N0M1A0", "twitter": "None", "instagram": "None", "facebook": "None", "youtube": "None", "website": "None", "summary": "None", "logo": "None", "latitude": 43.146930000000054, "longitude": -81.53308999999996}, "119165025RR0001": {"name": "ST. ANDREW'S PRESBYTERIAN CHURCH", "designationCode": "C", "categoryCode": "37", "address": "8249 EGREMONT RD", "city": "WATFORD", "province": "ON", "country": "CA", "postalCode": "N0M2S0", "twitter": "None", "instagram": "None", "facebook": "None", "youtube": "None", "website": "None", "summary": "None", "logo": "None", "latitude": 43.00425948514432, "longitude": -81.85107307660567}, "119165058RR0001": {"name": "ST. ANDREW'S PRESBYTERIAN CHURCH", "designationCode": "C", "categoryCode": "37", "address": "94 ST JAMES ST.", "city": "MOORETOWN", "province": "ON", "country": "CA", "postalCode": "N0N1M0", "twitter": "None", "instagram": "None", "facebook": "None", "youtube": "None", "website": "None", "summary": "None", "logo": "None", "latitude": 42.83878132823492, "longitude": -82.4622488355643}, "119165082RR0001": {"name": "ST. ANDREW'S PRESBYTERIAN CHURCH", "designationCode": "C", "categoryCode": "37", "address": "PO BOX 93", "city": "DRESDEN", "province": "ON", "country": "CA", "postalCode": "N0P1M0", "twitter": "None", "instagram": "None", "facebook": "None", "youtube": "None", "website": "None", "summary": "None", "logo": "None", "latitude": 42.58952000000005, "longitude": -82.17963999999995}, "119165116RR0001": {"name": "ST. ANDREW'S PRESBYTERIAN CHURCH", "designationCode": "C", "categoryCode": "37", "address": "54 QUEEN ST N", "city": "KITCHENER", "province": "ON", "country": "CA", "postalCode": "N2H2H2", "twitter": "None", "instagram": "None", "facebook": "None", "youtube": "None", "website": "None", "summary": "None", "logo": "None", "latitude": 43.452167604506826, "longitude": -80.4873378906744}, "119165199RR0001": {"name": "ST. ANDREW'S PRESBYTERIAN CHURCH", "designationCode": "C", "categoryCode": "37", "address": "156 MCDONALD AVE", "city": "AMHERSTBURG", "province": "ON", "country": "CA", "postalCode": "N9V1V9", "twitter": "None", "instagram": "None", "facebook": "None", "youtube": "None", "website": "None", "summary": "None", "logo": "None", "latitude": 42.054356460470736, "longitude": -83.11027033236194}, "119165207RR0001": {"name": "ST. ANDREW'S PRESBYTERIAN CHURCH", "designationCode": "C", "categoryCode": "37", "address": "BOX 249", "city": "BURKS FALLS", "province": "ON", "country": "CA", "postalCode": "P0A1C0", "twitter": "None", "instagram": "None", "facebook": "None", "youtube": "None", "website": "None", "summary": "None", "logo": "None", "latitude": 45.61840992339439, "longitude": -79.40771996667443}, "119165223RR0001": {"name": "ST. ANDREW'S PRESBYTERIAN CHURCH", "designationCode": "C", "categoryCode": "37", "address": "BOX 908", "city": "NEW LISKEARD", "province": "ON", "country": "CA", "postalCode": "P0J1P0", "twitter": "None", "instagram": "None", "facebook": "None", "youtube": "None", "website": "None", "summary": "None", "logo": "None", "latitude": 47.50254600000005, "longitude": -79.69562449999994}, "119165249RR0001": {"name": "ST. ANDREW'S PRESBYTERIAN CHURCH", "designationCode": "C", "categoryCode": "37", "address": "PO BOX 342", "city": "GERALDTON", "province": "ON", "country": "CA", "postalCode": "P0T1M0", "twitter": "None", "instagram": "None", "facebook": "None", "youtube": "None", "website": "None", "summary": "None", "logo": "None", "latitude": 49.73012979055605, "longitude": -86.95068883318625}, "119165272RR0001": {"name": "ST. ANDREW'S PRESBYTERIAN CHURCH", "designationCode": "C", "categoryCode": "37", "address": "207 SOUTH BRODIE STREET", "city": "THUNDER BAY", "province": "ON", "country": "CA", "postalCode": "P7E1C1", "twitter": "None", "instagram": "None", "facebook": "None", "youtube": "None", "website": "None", "summary": "None", "logo": "None", "latitude": 48.382355826761604, "longitude": -89.24664276816584}, "119165348RR0001": {"name": "ST. ANDREW'S PRESBYTERIAN CHURCH", "designationCode": "C", "categoryCode": "37", "address": "PO BOX 1102", "city": "THOMPSON", "province": "MB", "country": "CA", "postalCode": "R8N1N9", "twitter": "None", "instagram": "None", "facebook": "None", "youtube": "None", "website": "None", "summary": "None", "logo": "None", "latitude": 55.74417900000006, "longitude": -97.85067199999993}, "119165371RR0001": {"name": "ST. ANDREW'S PRESBYTERIAN CHURCH", "designationCode": "C", "categoryCode": "37", "address": "BOX 814", "city": "MOOSOMIN", "province": "SK", "country": "CA", "postalCode": "S0G3N0", "twitter": "None", "instagram": "None", "facebook": "None", "youtube": "None", "website": "None", "summary": "None", "logo": "None", "latitude": 50.14728000000008, "longitude": -101.66300999999999}}