{"899934343RR0001": {"name": "CHACKO & LIZE SIMON SCHOLARSHIP FUND", "designationCode": "B", "categoryCode": "23", "address": "2550 POINT GREY ROAD", "city": "VANCOUVER", "province": "BC", "country": "CA", "postalCode": "V6K1A3", "twitter": "None", "instagram": "None", "facebook": "None", "youtube": "None", "website": "None", "summary": "None", "logo": "None", "latitude": 49.273489499567305, "longitude": -123.16313105398464}, "890969082RR0001": {"name": "CHADHA FAMILY FOUNDATION", "designationCode": "B", "categoryCode": "25", "address": "621 CLARKE AVE", "city": "WESTMOUNT", "province": "QC", "country": "CA", "postalCode": "H3Y3E5", "twitter": "None", "instagram": "None", "facebook": "None", "youtube": "None", "website": "None", "summary": "None", "logo": "None", "latitude": 45.490748939234706, "longitude": -73.60254968192055}, "106905110RR0001": {"name": "CHAFFEY'S LOCK AND AREA HERITAGE SOCIETY", "designationCode": "C", "categoryCode": "50", "address": "1734 CHAFFEY'S LOCK RD.", "city": "ELGIN", "province": "ON", "country": "CA", "postalCode": "K0G1E0", "twitter": "None", "instagram": "None", "facebook": "None", "youtube": "None", "website": "None", "summary": "None", "logo": "None", "latitude": 44.57927153418172, "longitude": -76.3212901994576}, "118849058RR0001": {"name": "CHAI FOLK ARTS COUNCIL INC.", "designationCode": "C", "categoryCode": "22", "address": "C147-123 DONCASTER ST", "city": "WINNIPEG", "province": "MB", "country": "CA", "postalCode": "R3N2B2", "twitter": "None", "instagram": "None", "facebook": "None", "youtube": "None", "website": "None", "summary": "None", "logo": "None", "latitude": 49.86779026460563, "longitude": -97.20862592209049}, "858521610RR0001": {"name": "CHAI Immigrant Centre Inc.", "designationCode": "C", "categoryCode": "59", "address": "PO BOX 2274  STATION MAIN", "city": "WINNIPEG", "province": "MB", "country": "CA", "postalCode": "R3C4A6", "twitter": "None", "instagram": "None", "facebook": "None", "youtube": "None", "website": "None", "summary": "None", "logo": "None", "latitude": 49.899525000000054, "longitude": -97.14112999999993}, "856565536RR0001": {"name": "CHAI LIFELINE (CANADA) INC.", "designationCode": "C", "categoryCode": "09", "address": "300A WILSON AVENUE", "city": "TORONTO", "province": "ON", "country": "CA", "postalCode": "M3H1S8", "twitter": "None", "instagram": "None", "facebook": "None", "youtube": "None", "website": "None", "summary": "None", "logo": "None", "latitude": 43.737125821841914, "longitude": -79.43561299493338}, "118849082RR0001": {"name": "CHAI-TIKVAH FOUNDATION", "designationCode": "C", "categoryCode": "11", "address": "4600 BATHURST ST              SUITE 313", "city": "TORONTO", "province": "ON", "country": "CA", "postalCode": "M2R3V2", "twitter": "None", "instagram": "None", "facebook": "None", "youtube": "None", "website": "None", "summary": "None", "logo": "None", "latitude": 43.764549213428396, "longitude": -79.4407190577642}, "899810022RR0001": {"name": "CHAILEY HISTORICAL SOCIETY", "designationCode": "C", "categoryCode": "50", "address": "RR#1", "city": "MANNVILLE", "province": "AB", "country": "CA", "postalCode": "T0B2W0", "twitter": "None", "instagram": "None", "facebook": "None", "youtube": "None", "website": "None", "summary": "None", "logo": "None", "latitude": 53.332431971080155, "longitude": -111.14717836552201}, "118849066RR0001": {"name": "CHAINE DE TRAVAIL ADAPTE C.T.A. INC.", "designationCode": "C", "categoryCode": "09", "address": "750 DES PINS OUEST", "city": "ALMA", "province": "QC", "country": "CA", "postalCode": "G8B7R3", "twitter": "None", "instagram": "None", "facebook": "None", "youtube": "None", "website": "None", "summary": "None", "logo": "None", "latitude": 48.57192173212564, "longitude": -71.65021723010547}, "120587548RR0001": {"name": "CHAINON D'ENTRAIDE DE ST-ELEUTHERE", "designationCode": "C", "categoryCode": "09", "address": "1852 RUE SAINTE-MARIE", "city": "POHENEGAMOOK", "province": "QC", "country": "CA", "postalCode": "G0L1J0", "twitter": "None", "instagram": "None", "facebook": "None", "youtube": "None", "website": "None", "summary": "None", "logo": "None", "latitude": 47.48604991315122, "longitude": -69.2775957759827}, "118849074RR0001": {"name": "CHAIR OF ESTONIAN STUDIES FOUNDATION", "designationCode": "A", "categoryCode": "23", "address": "ATTN: TONIS LAAR              5140 YONGE ST, SUITE 1510", "city": "NORTHYORK", "province": "ON", "country": "CA", "postalCode": "M2N6L7", "twitter": "None", "instagram": "None", "facebook": "None", "youtube": "None", "website": "None", "summary": "None", "logo": "None", "latitude": 43.76854546488549, "longitude": -79.41274871818891}, "100909753RR0001": {"name": "CHAIR OF UKRAINIAN STUDIES FOUNDATION LA FONDATION DE LA CHAIRE DES ETUDES UKRAINIENNES", "designationCode": "A", "categoryCode": "23", "address": "620 SPADINA AVENUE", "city": "TORONTO", "province": "ON", "country": "CA", "postalCode": "M5S2H4", "twitter": "None", "instagram": "None", "facebook": "None", "youtube": "None", "website": "None", "summary": "None", "logo": "None", "latitude": 43.662010778233075, "longitude": -79.40183629173616}, "118849108RR0001": {"name": "CHALET DE LA BROQUERIE INC.", "designationCode": "C", "categoryCode": "01", "address": "CASIER POSTAL 1000", "city": "LA BROQUERIE", "province": "MB", "country": "CA", "postalCode": "R0A0W0", "twitter": "None", "instagram": "None", "facebook": "None", "youtube": "None", "website": "None", "summary": "None", "logo": "None", "latitude": 49.52402700000006, "longitude": -96.51053149999993}, "100910215RR0001": {"name": "CHALET MALOUIN INC.", "designationCode": "C", "categoryCode": "09", "address": "CP 1010                       14 ST. HILAIRE STREET", "city": "ST MALO", "province": "MB", "country": "CA", "postalCode": "R0A1T0", "twitter": "None", "instagram": "None", "facebook": "None", "youtube": "None", "website": "None", "summary": "None", "logo": "None", "latitude": 49.31837826409534, "longitude": -96.95172318318033}, "892304965RR0001": {"name": "CHALEUR REGIONAL HOSPITAL FOUNDATION INC / FONDATION DE L'HOPITAL REGIONAL CHALEUR INC", "designationCode": "A", "categoryCode": "13", "address": "1750 SUNSET DRIVE", "city": "BATHURST", "province": "NB", "country": "CA", "postalCode": "E2A4L7", "twitter": "None", "instagram": "None", "facebook": "None", "youtube": "None", "website": "None", "summary": "None", "logo": "None", "latitude": 47.64597338544208, "longitude": -65.69401318915024}, "892535386RR0001": {"name": "CHALEUR RESOURCE CENTERS FOR PARENTS INC.", "designationCode": "C", "categoryCode": "09", "address": "PO BOX 42                     895 ST. ANNE STREET", "city": "BATHURST", "province": "NB", "country": "CA", "postalCode": "E2A3Z1", "twitter": "None", "instagram": "None", "facebook": "None", "youtube": "None", "website": "None", "summary": "None", "logo": "None", "latitude": 47.62686856059243, "longitude": -65.68167914917197}, "131955312RR0001": {"name": "CHALK RIVER PASTORAL CHARGE,", "designationCode": "C", "categoryCode": "44", "address": "P.O. BOX 466                  PLANT RIVER", "city": "CHALK RIVER", "province": "ON", "country": "CA", "postalCode": "K0J1J0", "twitter": "None", "instagram": "None", "facebook": "None", "youtube": "None", "website": "None", "summary": "None", "logo": "None", "latitude": 46.02018632652612, "longitude": -77.44242674297064}, "106905318RR0001": {"name": "CHALLENGE - DISABILITY RESOURCE GROUP", "designationCode": "C", "categoryCode": "59", "address": "1148 FRONT ST", "city": "WHITEHORSE", "province": "YT", "country": "CA", "postalCode": "Y1A1A6", "twitter": "None", "instagram": "None", "facebook": "None", "youtube": "None", "website": "None", "summary": "None", "logo": "None", "latitude": 60.72302968299717, "longitude": -135.0526779196913}, "870693280RR0001": {"name": "CHALLENGE LEAGUE SPORTS", "designationCode": "C", "categoryCode": "56", "address": "85 VARCOE ROAD", "city": "COURTICE", "province": "ON", "country": "CA", "postalCode": "L1E1N2", "twitter": "None", "instagram": "None", "facebook": "None", "youtube": "None", "website": "None", "summary": "None", "logo": "None", "latitude": 43.91359093089615, "longitude": -78.81100094390924}, "891014979RR0001": {"name": "CHALLENGER MOTOR FREIGHT INC EMPLOYEES CHARITY TRUST", "designationCode": "B", "categoryCode": "75", "address": "300 MAPLE GROVE ROAD", "city": "CAMBRIDGE", "province": "ON", "country": "CA", "postalCode": "N3E1B7", "twitter": "None", "instagram": "None", "facebook": "None", "youtube": "None", "website": "None", "summary": "None", "logo": "None", "latitude": 43.42159562047416, "longitude": -80.38396357500304}, "131621880RR0001": {"name": "CHALMERS COMMUNITY CHURCH", "designationCode": "C", "categoryCode": "39", "address": "RR# 5", "city": "KINCARDINE", "province": "ON", "country": "CA", "postalCode": "N2Z2X6", "twitter": "None", "instagram": "None", "facebook": "None", "youtube": "None", "website": "None", "summary": "None", "logo": "None", "latitude": 44.17146600000005, "longitude": -81.41159149999993}, "858517725RR0001": {"name": "CHALMERS COMMUNITY SERVICES CENTRE OF THE UNITED CHURCH OF CANADA", "designationCode": "C", "categoryCode": "09", "address": "41 MACDONELL ST", "city": "GUELPH", "province": "ON", "country": "CA", "postalCode": "N1H2Z4", "twitter": "None", "instagram": "None", "facebook": "None", "youtube": "None", "website": "None", "summary": "None", "logo": "None", "latitude": 43.5443550092101, "longitude": -80.24875958477904}, "118849181RR0001": {"name": "CHALMERS FOUNDATION", "designationCode": "C", "categoryCode": "01", "address": "1450 W 12TH AVE", "city": "VANCOUVER", "province": "BC", "country": "CA", "postalCode": "V6H1M9", "twitter": "None", "instagram": "None", "facebook": "None", "youtube": "None", "website": "None", "summary": "None", "logo": "None", "latitude": 49.26073554674261, "longitude": -123.13746322162271}, "106905417RR0001": {"name": "CHALMERS PRESBYTERIAN CHURCH", "designationCode": "C", "categoryCode": "37", "address": "200 MOUNTAIN PARK AVE", "city": "HAMILTON", "province": "ON", "country": "CA", "postalCode": "L8V1A2", "twitter": "None", "instagram": "None", "facebook": "None", "youtube": "None", "website": "None", "summary": "None", "logo": "None", "latitude": 43.24230011573091, "longitude": -79.85088169692419}, "106905425RR0001": {"name": "CHALMERS PRESBYTERIAN CHURCH", "designationCode": "C", "categoryCode": "37", "address": "342 POND MILLS ROAD", "city": "LONDON", "province": "ON", "country": "CA", "postalCode": "N5Z3X5", "twitter": "None", "instagram": "None", "facebook": "None", "youtube": "None", "website": "None", "summary": "None", "logo": "None", "latitude": 42.96151935906807, "longitude": -81.20050902363637}, "118849215RR0001": {"name": "CHALMERS PRESBYTERIAN CHURCH", "designationCode": "C", "categoryCode": "37", "address": "565 CON 1 ROAD SOUTH          RR#1", "city": "CAYUGA", "province": "ON", "country": "CA", "postalCode": "N0A1E0", "twitter": "None", "instagram": "None", "facebook": "None", "youtube": "None", "website": "None", "summary": "None", "logo": "None", "latitude": 42.91134900000006, "longitude": -79.80364249999994}, "129494688RR0001": {"name": "CHALMERS UNITED CHURCH", "designationCode": "C", "categoryCode": "44", "address": "212 BARRIE ST", "city": "KINGSTON", "province": "ON", "country": "CA", "postalCode": "K7L3K3", "twitter": "None", "instagram": "None", "facebook": "None", "youtube": "None", "website": "None", "summary": "None", "logo": "None", "latitude": 44.22911936441804, "longitude": -76.491011277425}, "118849355RR0001": {"name": "CHALMERS-CASTLE DOWNS UNITED CHURCH", "designationCode": "C", "categoryCode": "44", "address": "12315-132 AVENUE", "city": "EDMONTON", "province": "AB", "country": "CA", "postalCode": "T5L3P6", "twitter": "None", "instagram": "None", "facebook": "None", "youtube": "None", "website": "None", "summary": "None", "logo": "None", "latitude": 53.59215752120739, "longitude": -113.534451}, "134058908RR0001": {"name": "CHALMERS-WESLEY UNITED CHURCH/EGLISE UNIE CHALMERS-WESLEY", "designationCode": "C", "categoryCode": "44", "address": "78 RUE SAINTE-URSULE", "city": "QUEBEC", "province": "QC", "country": "CA", "postalCode": "G1R4E8", "twitter": "None", "instagram": "None", "facebook": "None", "youtube": "None", "website": "None", "summary": "None", "logo": "None", "latitude": 46.81014437356464, "longitude": -71.20876357288341}, "100914647RR0001": {"name": "CHAM SHAN TEMPLE", "designationCode": "C", "categoryCode": "39", "address": "7254 BAYVIEW AVENUE", "city": "THORNHILL", "province": "ON", "country": "CA", "postalCode": "L3T2R6", "twitter": "None", "instagram": "None", "facebook": "None", "youtube": "None", "website": "None", "summary": "None", "logo": "None", "latitude": 43.809355362744604, "longitude": -79.39895868269902}, "858016728RR0001": {"name": "CHAMBER FACTORY: WORKS FOR SMALL ENSEMBLES", "designationCode": "C", "categoryCode": "22", "address": "34 MAPLEVIEW AVE", "city": "TORONTO", "province": "ON", "country": "CA", "postalCode": "M6S3A7", "twitter": "None", "instagram": "None", "facebook": "None", "youtube": "None", "website": "None", "summary": "None", "logo": "None", "latitude": 43.65880000943506, "longitude": -79.48050371163937}, "891305583RR0001": {"name": "CHAMBER MUSIC KELOWNA SOCIETY", "designationCode": "C", "categoryCode": "22", "address": "PO BOX 25093                  MISSION PARK", "city": "KELOWNA", "province": "BC", "country": "CA", "postalCode": "V1W3Y7", "twitter": "None", "instagram": "None", "facebook": "None", "youtube": "None", "website": "None", "summary": "None", "logo": "None", "latitude": 49.82063000000005, "longitude": -119.47531999999995}, "890050990RR0001": {"name": "CHAMBERLAIN CEMETERY FUND", "designationCode": "C", "categoryCode": "59", "address": "P.O. BOX 2", "city": "CHAMBERLAIN", "province": "SK", "country": "CA", "postalCode": "S0G0R0", "twitter": "None", "instagram": "None", "facebook": "None", "youtube": "None", "website": "None", "summary": "None", "logo": "None", "latitude": 50.635021481049044, "longitude": -104.25271035618137}, "132476086RR0001": {"name": "CHAMBRECLERC", "designationCode": "C", "categoryCode": "09", "address": "2060, RUE CLARK               SUITE 99", "city": "MONTREAL", "province": "QC", "country": "CA", "postalCode": "H2X2R7", "twitter": "None", "instagram": "None", "facebook": "None", "youtube": "None", "website": "None", "summary": "None", "logo": "None", "latitude": 45.51129696834795, "longitude": -73.56820262060698}, "843561424RR0001": {"name": "CHAMP Foundation / Fondation CHAMP", "designationCode": "C", "categoryCode": "56", "address": "17 COURS DU FLEUVE", "city": "VERDUN", "province": "QC", "country": "CA", "postalCode": "H3E1X1", "twitter": "None", "instagram": "None", "facebook": "None", "youtube": "None", "website": "None", "summary": "None", "logo": "None", "latitude": 45.465799169311516, "longitude": -73.53593173218293}, "890858517RR0001": {"name": "CHAMPBOISE", "designationCode": "C", "categoryCode": "49", "address": "C.P. 2813 SUCC BUCKINGHAM", "city": "GATINEAU", "province": "QC", "country": "CA", "postalCode": "J8L2X1", "twitter": "None", "instagram": "None", "facebook": "None", "youtube": "None", "website": "None", "summary": "None", "logo": "None", "latitude": 45.57624536432407, "longitude": -75.41287191744779}, "118849421RR0001": {"name": "CHAMPION CEMETERY MAINTENANCE ASSOCIATION", "designationCode": "C", "categoryCode": "59", "address": "BOX 99", "city": "CHAMPION", "province": "AB", "country": "CA", "postalCode": "T0L0R0", "twitter": "None", "instagram": "None", "facebook": "None", "youtube": "None", "website": "None", "summary": "None", "logo": "None", "latitude": 50.24045002553527, "longitude": -113.15025007660563}, "858184237RR0001": {"name": "CHAMPION CITY CHURCH OF EDMONTON CHRISTIAN COMMUNITY", "designationCode": "C", "categoryCode": "39", "address": "12709-52 ST", "city": "EDMONTON", "province": "AB", "country": "CA", "postalCode": "T5A4G2", "twitter": "None", "instagram": "None", "facebook": "None", "youtube": "None", "website": "None", "summary": "None", "logo": "None", "latitude": 53.58500949708582, "longitude": -113.42143721516008}, "131519498RR0001": {"name": "CHAMPION CONGREGATIONAL CHURCH", "designationCode": "C", "categoryCode": "39", "address": "BOX 251", "city": "CHAMPION", "province": "AB", "country": "CA", "postalCode": "T0L0R0", "twitter": "None", "instagram": "None", "facebook": "None", "youtube": "None", "website": "None", "summary": "None", "logo": "None", "latitude": 50.24045002553527, "longitude": -113.15025007660563}, "131636680RR0001": {"name": "CHAMPION EVANGELICAL FREE CHURCH,", "designationCode": "C", "categoryCode": "39", "address": "P.O. BOX 120", "city": "CHAMPION", "province": "AB", "country": "CA", "postalCode": "T0L0R0", "twitter": "None", "instagram": "None", "facebook": "None", "youtube": "None", "website": "None", "summary": "None", "logo": "None", "latitude": 50.24045002553527, "longitude": -113.15025007660563}, "898450093RR0001": {"name": "CHAMPION LIFE CENTRE", "designationCode": "C", "categoryCode": "39", "address": "PO BOX 51060 RPO CITY CENTER", "city": "BRAMPTON", "province": "ON", "country": "CA", "postalCode": "L6T5M2", "twitter": "None", "instagram": "None", "facebook": "None", "youtube": "None", "website": "None", "summary": "None", "logo": "None", "latitude": 43.68815049793295, "longitude": -79.75036075680674}, "891066748RR0001": {"name": "CHAMPION PIONEER CLUB", "designationCode": "C", "categoryCode": "56", "address": "BOX 88", "city": "CHAMPION", "province": "AB", "country": "CA", "postalCode": "T0L0R0", "twitter": "None", "instagram": "None", "facebook": "None", "youtube": "None", "website": "None", "summary": "None", "logo": "None", "latitude": 50.24045002553527, "longitude": -113.15025007660563}, "896001286RR0001": {"name": "CHAMPION SWIMMING POOL SOCIETY", "designationCode": "C", "categoryCode": "56", "address": "BOX 143", "city": "CHAMPION", "province": "AB", "country": "CA", "postalCode": "T0L0R0", "twitter": "None", "instagram": "None", "facebook": "None", "youtube": "None", "website": "None", "summary": "None", "logo": "None", "latitude": 50.24045002553527, "longitude": -113.15025007660563}, "855642336RR0001": {"name": "CHAMPIONS CAREER CENTRE LIMITED", "designationCode": "C", "categoryCode": "09", "address": "650-839 5 AVE SW", "city": "CALGARY", "province": "AB", "country": "CA", "postalCode": "T2P3C8", "twitter": "None", "instagram": "None", "facebook": "None", "youtube": "None", "website": "None", "summary": "None", "logo": "None", "latitude": 51.048860502885546, "longitude": -114.08056080544173}, "868858937RR0001": {"name": "CHAMPLAIN CHRISTIAN CENTER SEAFARER'S MISSION INC", "designationCode": "C", "categoryCode": "39", "address": "42 CONNORS LANE", "city": "BAYSIDE", "province": "NB", "country": "CA", "postalCode": "E5B2Y4", "twitter": "None", "instagram": "None", "facebook": "None", "youtube": "None", "website": "None", "summary": "None", "logo": "None", "latitude": 45.1582301446627, "longitude": -67.13566452555675}, "885072363RR0001": {"name": "CHAMPLAIN COMMUNITY CHILD CARE CENTRE INC.", "designationCode": "C", "categoryCode": "01", "address": "275 CHURCH AVE", "city": "WINNIPEG", "province": "MB", "country": "CA", "postalCode": "R2W1B9", "twitter": "None", "instagram": "None", "facebook": "None", "youtube": "None", "website": "None", "summary": "None", "logo": "None", "latitude": 49.92312092538489, "longitude": -97.13025167912194}, "833590722RR0001": {"name": "CHAMPLAIN TORAH EDUCATION CENTRE", "designationCode": "C", "categoryCode": "42", "address": "666 WILSON AVE", "city": "NORTH YORK", "province": "ON", "country": "CA", "postalCode": "M3K1E1", "twitter": "None", "instagram": "None", "facebook": "None", "youtube": "None", "website": "None", "summary": "None", "logo": "None", "latitude": 43.73188920032467, "longitude": -79.46150452526174}, "888229127RR0001": {"name": "CHAN BETTER WORLD FOUNDATION", "designationCode": "B", "categoryCode": "03", "address": "P.O.BOX 10426,777 DUNSMUIR ST KPMG LLP", "city": "VANCOUVER", "province": "BC", "country": "CA", "postalCode": "V7Y1K3", "twitter": "None", "instagram": "None", "facebook": "None", "youtube": "None", "website": "None", "summary": "None", "logo": "None", "latitude": 49.283979252322474, "longitude": -123.11691534049893}, "888228921RR0001": {"name": "CHAN FAMILY FOUNDATION", "designationCode": "B", "categoryCode": "03", "address": "BOX 10426 777 DUNSMUIR ST     KPMG LLP", "city": "VANCOUVER", "province": "BC", "country": "CA", "postalCode": "V7Y1K3", "twitter": "None", "instagram": "None", "facebook": "None", "youtube": "None", "website": "None", "summary": "None", "logo": "None", "latitude": 49.283979252322474, "longitude": -123.11691534049893}, "131785313RR0001": {"name": "CHAN FOUNDATION OF CANADA", "designationCode": "B", "categoryCode": "03", "address": "P.O. BOX 10426 PACIFIC CENTRE", "city": "VANCOUVER", "province": "BC", "country": "CA", "postalCode": "V7Y1K3", "twitter": "None", "instagram": "None", "facebook": "None", "youtube": "None", "website": "None", "summary": "None", "logo": "None", "latitude": 49.28299000000004, "longitude": -123.11890999999997}, "898596721RR0001": {"name": "CHAN SISTERS FOUNDATION", "designationCode": "B", "categoryCode": "03", "address": "520 - 4685 VALLEY DR", "city": "VANCOUVER", "province": "BC", "country": "CA", "postalCode": "V6J5M2", "twitter": "None", "instagram": "None", "facebook": "None", "youtube": "None", "website": "None", "summary": "None", "logo": "None", "latitude": 49.24392786424514, "longitude": -123.15105714077518}, "106906928RR0001": {"name": "CHANCE HARBOUR UNITED BAPTIST CHURCH", "designationCode": "C", "categoryCode": "31", "address": "26 CRANBERRY HEAD RD", "city": "CHANCE HARBOUR", "province": "NB", "country": "CA", "postalCode": "E5J2B5", "twitter": "None", "instagram": "None", "facebook": "None", "youtube": "None", "website": "None", "summary": "None", "logo": "None", "latitude": 45.13027322952855, "longitude": -66.35088364969157}, "701513897RR0001": {"name": "CHANCES Foundation", "designationCode": "A", "categoryCode": "03", "address": "77 UPPER PRINCE ST", "city": "CHARLOTTETOWN", "province": "PE", "country": "CA", "postalCode": "C1A4S6", "twitter": "None", "instagram": "None", "facebook": "None", "youtube": "None", "website": "None", "summary": "None", "logo": "None", "latitude": 46.241235419095176, "longitude": -63.12985836456225}, "803271865RR0001": {"name": "CHANCHLANI FOUNDATION", "designationCode": "B", "categoryCode": "03", "address": "2505 - 1900 THE COLLEGEWAY", "city": "MISSISSAUGA", "province": "ON", "country": "CA", "postalCode": "L5L5Y8", "twitter": "None", "instagram": "None", "facebook": "None", "youtube": "None", "website": "None", "summary": "None", "logo": "None", "latitude": 43.54494657559607, "longitude": -79.67007211088345}, "118849496RR0001": {"name": "CHANGE FOR CHILDREN ASSOCIATION (CFCA)", "designationCode": "C", "categoryCode": "09", "address": "2ND FLOOR 10808 124 STREET", "city": "EDMONTON", "province": "AB", "country": "CA", "postalCode": "T5M0H3", "twitter": "None", "instagram": "None", "facebook": "None", "youtube": "None", "website": "None", "summary": "None", "logo": "None", "latitude": 53.55288899999999, "longitude": -113.53597776536422}, "118849504RR0001": {"name": "CHANGE ISLANDS DISASTER COMMITTEE", "designationCode": "C", "categoryCode": "02", "address": "P.O, BOX 54", "city": "CHANGE ISLANDS", "province": "NL", "country": "CA", "postalCode": "A0G1R0", "twitter": "None", "instagram": "None", "facebook": "None", "youtube": "None", "website": "None", "summary": "None", "logo": "None", "latitude": 49.57127000000003, "longitude": -54.40464999999995}, "140525205RR0001": {"name": "CHANGE THE WORLD FOUNDATION", "designationCode": "C", "categoryCode": "09", "address": "1073 ROOSEVELT CRES.,", "city": "NORTH VANCOUVER", "province": "BC", "country": "CA", "postalCode": "V7P1M4", "twitter": "None", "instagram": "None", "facebook": "None", "youtube": "None", "website": "None", "summary": "None", "logo": "None", "latitude": 49.321903081454636, "longitude": -123.10361027692498}, "816148878RR0001": {"name": "CHANGED FOR ETERNITY MINISTRIES", "designationCode": "C", "categoryCode": "47", "address": "90 CHAPEL HILL CRES.", "city": "WELLAND", "province": "ON", "country": "CA", "postalCode": "L3C6G9", "twitter": "None", "instagram": "None", "facebook": "None", "youtube": "None", "website": "None", "summary": "None", "logo": "None", "latitude": 43.00668071328417, "longitude": -79.27519623968476}, "118865070RR0001": {"name": "CHANGES RECOVERY HOMES", "designationCode": "C", "categoryCode": "01", "address": "PO BOX 110", "city": "KEEWATIN", "province": "ON", "country": "CA", "postalCode": "P0X1C0", "twitter": "None", "instagram": "None", "facebook": "None", "youtube": "None", "website": "None", "summary": "None", "logo": "None", "latitude": 49.75863000000005, "longitude": -94.54708249999993}, "106907132RR0001": {"name": "CHANGING TOGETHER - A CENTRE FOR IMMIGRANT WOMEN ASSOCIATION", "designationCode": "C", "categoryCode": "21", "address": "3 - 9538 107 AVE NW", "city": "EDMONTON", "province": "AB", "country": "CA", "postalCode": "T5H0T7", "twitter": "None", "instagram": "None", "facebook": "None", "youtube": "None", "website": "None", "summary": "None", "logo": "None", "latitude": 53.55289940218694, "longitude": -113.48388591355524}, "130568371RR0001": {"name": "CHANGING WAYS (LONDON) INC", "designationCode": "C", "categoryCode": "09", "address": "825 BRADLEY AVE", "city": "LONDON", "province": "ON", "country": "CA", "postalCode": "N6E3C2", "twitter": "None", "instagram": "None", "facebook": "None", "youtube": "None", "website": "None", "summary": "None", "logo": "None", "latitude": 42.93497202034513, "longitude": -81.21794146766953}, "890738974RR0001": {"name": "CHANH DAO VIETNAMESE BUDDHIST ASSOCIATION OF MANITOBA INC.", "designationCode": "C", "categoryCode": "35", "address": "650 BURROWS AVENUE", "city": "WINNIPEG", "province": "MB", "country": "CA", "postalCode": "R2W2A8", "twitter": "None", "instagram": "None", "facebook": "None", "youtube": "None", "website": "None", "summary": "None", "logo": "None", "latitude": 49.92051103523009, "longitude": -97.14960056454487}, "118849538RR0001": {"name": "CHANH GIAC VIETNAMESE BUDDHIST ASSOCIATION OF ONTARIO", "designationCode": "C", "categoryCode": "35", "address": "1278 GERRARD ST E", "city": "TORONTO", "province": "ON", "country": "CA", "postalCode": "M4L1Y7", "twitter": "None", "instagram": "None", "facebook": "None", "youtube": "None", "website": "None", "summary": "None", "logo": "None", "latitude": 43.67107307412417, "longitude": -79.32741739967678}, "893032565RR0001": {"name": "CHANH TAM BUDDHIST CONGREGATION SASKATOON INC.", "designationCode": "C", "categoryCode": "35", "address": "219 AVENUE Y SOUTH", "city": "SASKATOON", "province": "SK", "country": "CA", "postalCode": "S7M3J4", "twitter": "None", "instagram": "None", "facebook": "None", "youtube": "None", "website": "None", "summary": "None", "logo": "None", "latitude": 52.12696500000001, "longitude": -106.7088547166597}, "888307253RR0001": {"name": "CHANH-TIN BUDDHIST ASSOCIATION OF REGINA INC", "designationCode": "C", "categoryCode": "35", "address": "901 CAMERON ST", "city": "REGINA", "province": "SK", "country": "CA", "postalCode": "S4T2S5", "twitter": "None", "instagram": "None", "facebook": "None", "youtube": "None", "website": "None", "summary": "None", "logo": "None", "latitude": 50.4643232514571, "longitude": -104.62538779929623}, "891606584RR0001": {"name": "CHANNEL PASTORAL CHARGE", "designationCode": "C", "categoryCode": "44", "address": "P.O. BOX 58", "city": "PORT AUX BASQUES", "province": "NL", "country": "CA", "postalCode": "A0M1C0", "twitter": "None", "instagram": "None", "facebook": "None", "youtube": "None", "website": "None", "summary": "None", "logo": "None", "latitude": 47.57576100000006, "longitude": -59.14099699999993}, "118849553RR0001": {"name": "CHANOCH LENOAR-EDUCATE THE YOUTH", "designationCode": "C", "categoryCode": "21", "address": "6280 WESTBURY AVE", "city": "MONTREAL", "province": "QC", "country": "CA", "postalCode": "H3W2X3", "twitter": "None", "instagram": "None", "facebook": "None", "youtube": "None", "website": "None", "summary": "None", "logo": "None", "latitude": 45.491910989988035, "longitude": -73.64174504068309}, "140625682RR0001": {"name": "CHANSON EN F\u00caTE DE ST-AMBROISE INC.", "designationCode": "C", "categoryCode": "22", "address": "156, RUE GAUDREAULT", "city": "ST-AMBROISE", "province": "QC", "country": "CA", "postalCode": "G7P2J9", "twitter": "None", "instagram": "None", "facebook": "None", "youtube": "None", "website": "None", "summary": "None", "logo": "None", "latitude": 48.55491336727397, "longitude": -71.30617712542575}, "100917020RR0001": {"name": "CHANTELAIT", "designationCode": "C", "categoryCode": "09", "address": "3180, AV. D'AMOURS", "city": "QUEBEC", "province": "QC", "country": "CA", "postalCode": "G1X1L9", "twitter": "None", "instagram": "None", "facebook": "None", "youtube": "None", "website": "None", "summary": "None", "logo": "None", "latitude": 46.775442968116806, "longitude": -71.31813876885532}, "867904617RR0001": {"name": "CHANTIER D'APPRENTISSAGE OPTIMAL (CHAPOP)", "designationCode": "C", "categoryCode": "59", "address": "4080, RUE WELLINGTON          BUREAU 209", "city": "MONTR\u00c9AL", "province": "QC", "country": "CA", "postalCode": "H4G1V4", "twitter": "None", "instagram": "None", "facebook": "None", "youtube": "None", "website": "None", "summary": "None", "logo": "None", "latitude": 45.4630120932541, "longitude": -73.56698321285147}, "103782793RR0001": {"name": "CHANTIERS JEUNESSE", "designationCode": "C", "categoryCode": "29", "address": "4545 AV PIERRE-DE COUBERTIN", "city": "MONTREAL", "province": "QC", "country": "CA", "postalCode": "H1V0B2", "twitter": "None", "instagram": "None", "facebook": "None", "youtube": "None", "website": "None", "summary": "None", "logo": "None", "latitude": 45.555920590080106, "longitude": -73.55036240097485}, "118849561RR0001": {"name": "CHANTIERS-JEUNESSE-LOISIRS DU PARC FERLAND INC. (C.J.L.)", "designationCode": "C", "categoryCode": "56", "address": "C.P. 122", "city": "SEPT-\u00ceLES", "province": "QC", "country": "CA", "postalCode": "G4R4K3", "twitter": "None", "instagram": "None", "facebook": "None", "youtube": "None", "website": "None", "summary": "None", "logo": "None", "latitude": 50.209593000000055, "longitude": -66.38952049999993}, "890381999RR0001": {"name": "CHANTRY CENTRE", "designationCode": "C", "categoryCode": "56", "address": "35 GREY ST S", "city": "SOUTHAMPTON", "province": "ON", "country": "CA", "postalCode": "N0H2L0", "twitter": "None", "instagram": "None", "facebook": "None", "youtube": "None", "website": "None", "summary": "None", "logo": "None", "latitude": 44.492178796655146, "longitude": -81.3663351553769}, "876641622RR0001": {"name": "CHAPAIS PENTECOSTAL CHURCH", "designationCode": "C", "categoryCode": "36", "address": "46 1ST AVE CP 280", "city": "CHAPAIS", "province": "QC", "country": "CA", "postalCode": "G0W1H0", "twitter": "None", "instagram": "None", "facebook": "None", "youtube": "None", "website": "None", "summary": "None", "logo": "None", "latitude": 49.77993000721336, "longitude": -74.86135429043809}, "118849595RR0001": {"name": "CHAPEL HILL HISTORICAL SOCIETY", "designationCode": "C", "categoryCode": "52", "address": "PO BOX 46                     5492 SHAG HARBOUR", "city": "SHAG HARBOUR", "province": "NS", "country": "CA", "postalCode": "B0W3B0", "twitter": "None", "instagram": "None", "facebook": "None", "youtube": "None", "website": "None", "summary": "None", "logo": "None", "latitude": 43.49863000000005, "longitude": -65.69980999999996}, "887936441RR0001": {"name": "CHAPEL OF CHRIST THE KING", "designationCode": "A", "categoryCode": "39", "address": "CANADIAN FORCES BASE SUFFIELD PO BOX 6000, STATION MAIN", "city": "MEDICINE HAT", "province": "AB", "country": "CA", "postalCode": "T1A8K8", "twitter": "None", "instagram": "None", "facebook": "None", "youtube": "None", "website": "None", "summary": "None", "logo": "None", "latitude": 50.04107700000006, "longitude": -110.67813349999993}, "888928264RR0001": {"name": "CHAPEL OF THE DELAWARES", "designationCode": "C", "categoryCode": "44", "address": "2965-4TH LINE RD              R.R. #1", "city": "OHSWEKEN", "province": "ON", "country": "CA", "postalCode": "N0A1M0", "twitter": "None", "instagram": "None", "facebook": "None", "youtube": "None", "website": "None", "summary": "None", "logo": "None", "latitude": 43.045462133379665, "longitude": -80.0549094580694}, "890980741RR0001": {"name": "CHAPEL OF THE GOOD SHEPHERD (FOXBORO)", "designationCode": "C", "categoryCode": "39", "address": "BOX 125                       ASHLEY ST", "city": "FOXBORO", "province": "ON", "country": "CA", "postalCode": "K0K2B0", "twitter": "None", "instagram": "None", "facebook": "None", "youtube": "None", "website": "None", "summary": "None", "logo": "None", "latitude": 44.23393834390009, "longitude": -77.42270037979779}, "893323568RR0001": {"name": "CHAPEL OF THE GOOD SHEPHERD, CFB WINNIPEG", "designationCode": "A", "categoryCode": "39", "address": "BLDG #64 ROOM 107 17 WING     PO BOX 17000 STATION FORCES", "city": "WINNIPEG", "province": "MB", "country": "CA", "postalCode": "R3J3Y5", "twitter": "None", "instagram": "None", "facebook": "None", "youtube": "None", "website": "None", "summary": "None", "logo": "None", "latitude": 49.88684400000005, "longitude": -97.23976099999993}, "131476483RR0001": {"name": "CHAPEL OF THE LIVING WATER", "designationCode": "C", "categoryCode": "38", "address": "685 WHITETAIL DR", "city": "TRACY", "province": "NB", "country": "CA", "postalCode": "E5L1G5", "twitter": "None", "instagram": "None", "facebook": "None", "youtube": "None", "website": "None", "summary": "None", "logo": "None", "latitude": 45.66912149783656, "longitude": -66.69437239278054}, "890037682RR0001": {"name": "CHAPEL OF THE NORTHERN LIGHTS, CFB GOOSE BAY", "designationCode": "A", "categoryCode": "39", "address": "5 WING GOOSE BAY              P.O. BOX 7002,STATION A", "city": "GOOSE BAY", "province": "NL", "country": "CA", "postalCode": "A0P1S0", "twitter": "None", "instagram": "None", "facebook": "None", "youtube": "None", "website": "None", "summary": "None", "logo": "None", "latitude": 53.29911000000004, "longitude": -60.39178999999996}, "118849728RR0001": {"name": "CHAPEL PLACE PRESBYTERIAN CHURCH", "designationCode": "C", "categoryCode": "39", "address": "8 CHAPEL PLACE", "city": "MARKHAM", "province": "ON", "country": "CA", "postalCode": "L3R9C4", "twitter": "None", "instagram": "None", "facebook": "None", "youtube": "None", "website": "None", "summary": "None", "logo": "None", "latitude": 43.86510256483333, "longitude": -79.36108341245871}, "867320855RR0001": {"name": "CHAPEL RESTORATION COMMITTEE - BLACKHEAD, CAPE SPEAR INC", "designationCode": "C", "categoryCode": "52", "address": "8 BLACKHEAD VILLAGE ROAD", "city": "ST JOHN'S", "province": "NL", "country": "CA", "postalCode": "A1C5H2", "twitter": "None", "instagram": "None", "facebook": "None", "youtube": "None", "website": "None", "summary": "None", "logo": "None", "latitude": 47.523311393271484, "longitude": -52.659524343441774}, "118977537RR0001": {"name": "CHAPEL RIDGE FREE METHODIST CHURCH", "designationCode": "C", "categoryCode": "39", "address": "5660 FLEWELLYN RD", "city": "STITTSVILLE", "province": "ON", "country": "CA", "postalCode": "K2S1B6", "twitter": "None", "instagram": "None", "facebook": "None", "youtube": "None", "website": "None", "summary": "None", "logo": "None", "latitude": 45.25583982255245, "longitude": -75.87329480073946}, "886430198RR0001": {"name": "CHAPELLE CHATEAU BEAURIVAGE", "designationCode": "C", "categoryCode": "49", "address": "6894 BLVD GOUIN EST           APT 11D", "city": "MONTR\u00c9AL-NORD", "province": "QC", "country": "CA", "postalCode": "H1G6N4", "twitter": "None", "instagram": "None", "facebook": "None", "youtube": "None", "website": "None", "summary": "None", "logo": "None", "latitude": 45.6281128042921, "longitude": -73.62070422261367}, "118849629RR0001": {"name": "CHAPELLE CHRETIENNE DU HAUT-RICHELIEU INC.", "designationCode": "C", "categoryCode": "36", "address": "345, 6E AVENUE", "city": "ST-JEAN-SUR-RICHELIEU", "province": "QC", "country": "CA", "postalCode": "J2X1R1", "twitter": "None", "instagram": "None", "facebook": "None", "youtube": "None", "website": "None", "summary": "None", "logo": "None", "latitude": 45.308630830948296, "longitude": -73.2353341913556}, "118849637RR0001": {"name": "CHAPELLE DE L'UNIVERSITE DE SHERBROOKE", "designationCode": "C", "categoryCode": "38", "address": "ANIMATEUR DE PASTORALE        2500 BOUL. DE L'UNIVERSITE", "city": "SHERBROOKE", "province": "QC", "country": "CA", "postalCode": "J1K2R1", "twitter": "None", "instagram": "None", "facebook": "None", "youtube": "None", "website": "None", "summary": "None", "logo": "None", "latitude": 45.381356656245536, "longitude": -71.93111333807403}, "892349259RR0001": {"name": "CHAPELLE EVANGELIQUE EMMANUEL", "designationCode": "C", "categoryCode": "39", "address": "4407-4411 RUEBEAUBIEN E", "city": "MONTREAL", "province": "QC", "country": "CA", "postalCode": "H1T1T2", "twitter": "None", "instagram": "None", "facebook": "None", "youtube": "None", "website": "None", "summary": "None", "logo": "None", "latitude": 45.56580000000005, "longitude": -73.57696999999993}, "118849652RR0002": {"name": "CHAPELLE EVANGELIQUE PENTECOTE DE GRANBY", "designationCode": "C", "categoryCode": "39", "address": "CP 368  360 DENISON EST", "city": "GRANBY", "province": "QC", "country": "CA", "postalCode": "J2G8E5", "twitter": "None", "instagram": "None", "facebook": "None", "youtube": "None", "website": "None", "summary": "None", "logo": "None", "latitude": 45.3888456063632, "longitude": -72.73565564332868}, "837191162RR0001": {"name": "CHAPELLE NOTRE-DAME-DE-LOURDES", "designationCode": "C", "categoryCode": "38", "address": "116 RUE NOTRE DAME OUEST", "city": "MONTREAL", "province": "QC", "country": "CA", "postalCode": "H2Y1T2", "twitter": "None", "instagram": "None", "facebook": "None", "youtube": "None", "website": "None", "summary": "None", "logo": "None", "latitude": 45.50420998831457, "longitude": -73.55711405182119}, "869017541RR0001": {"name": "CHAPELLE STE-THERESE 3E ESCADRE BFC BAGOTVILLE", "designationCode": "C", "categoryCode": "38", "address": "BFC BAGOTVILLE                C.P. 20", "city": "ALOUETTE", "province": "QC", "country": "CA", "postalCode": "G0V1A0", "twitter": "None", "instagram": "None", "facebook": "None", "youtube": "None", "website": "None", "summary": "None", "logo": "None", "latitude": 48.33934000000005, "longitude": -70.98781999999994}, "106907439RR0001": {"name": "CHAPELTIME MINISTRIES OF CANADA, INCORPORATED", "designationCode": "C", "categoryCode": "47", "address": "P O BOX 1178", "city": "BURLINGTON", "province": "ON", "country": "CA", "postalCode": "L7R4L8", "twitter": "None", "instagram": "None", "facebook": "None", "youtube": "None", "website": "None", "summary": "None", "logo": "None", "latitude": 43.326195000000055, "longitude": -79.79863399999994}, "888694593RR0001": {"name": "CHAPLEAU GENERAL HOSPITAL FOUNDATION", "designationCode": "A", "categoryCode": "13", "address": "BOX 757", "city": "CHAPLEAU", "province": "ON", "country": "CA", "postalCode": "P0M1K0", "twitter": "None", "instagram": "None", "facebook": "None", "youtube": "None", "website": "None", "summary": "None", "logo": "None", "latitude": 47.84247000000005, "longitude": -83.40489999999994}, "119288918RR0346": {"name": "CHAPLEAU ONTARIO CONGREGATION OF JEHOVAH'S WITNESSES", "designationCode": "C", "categoryCode": "61", "address": "BOX 951", "city": "CHAPLEAU", "province": "ON", "country": "CA", "postalCode": "P0M1K0", "twitter": "None", "instagram": "None", "facebook": "None", "youtube": "None", "website": "None", "summary": "None", "logo": "None", "latitude": 47.84247000000005, "longitude": -83.40489999999994}, "108141722RR0001": {"name": "CHAPLEAU PASTORAL CHARGE", "designationCode": "C", "categoryCode": "44", "address": "PO BOX 786", "city": "CHAPLEAU", "province": "ON", "country": "CA", "postalCode": "P0M1K0", "twitter": "None", "instagram": "None", "facebook": "None", "youtube": "None", "website": "None", "summary": "None", "logo": "None", "latitude": 47.84247000000005, "longitude": -83.40489999999994}, "867973539RR0001": {"name": "CHAPLEAU PENTECOSTAL CHURCH", "designationCode": "C", "categoryCode": "36", "address": "9 ELM STREET                  BOX 1147", "city": "CHAPLEAU", "province": "ON", "country": "CA", "postalCode": "P0M1K0", "twitter": "None", "instagram": "None", "facebook": "None", "youtube": "None", "website": "None", "summary": "None", "logo": "None", "latitude": 47.840700183100346, "longitude": -83.40301659493603}, "134499698RR0001": {"name": "CHAPLEAU, HORNEPAYNE, ALGOMA DISTRICT, WOMEN IN CRISIS, INC", "designationCode": "C", "categoryCode": "01", "address": "23 ALGOMA ST BOX 1580", "city": "WAWA", "province": "ON", "country": "CA", "postalCode": "P0S1K0", "twitter": "None", "instagram": "None", "facebook": "None", "youtube": "None", "website": "None", "summary": "None", "logo": "None", "latitude": 47.9994014787926, "longitude": -84.77363249999999}, "866268170RR0001": {"name": "CHAPLIN AND DISTRICT FIRST RESPONDERS", "designationCode": "C", "categoryCode": "11", "address": "BOX 155", "city": "CHAPLIN", "province": "SK", "country": "CA", "postalCode": "S0H0V0", "twitter": "None", "instagram": "None", "facebook": "None", "youtube": "None", "website": "None", "summary": "None", "logo": "None", "latitude": 50.45643295198069, "longitude": -105.87021267602051}, "118849819RR0001": {"name": "CHAPLIN LUTHERAN CHURCH CHAPLIN, SASKATCHEWAN, CANADA", "designationCode": "C", "categoryCode": "32", "address": "P O BOX 187", "city": "CHAPLIN", "province": "SK", "country": "CA", "postalCode": "S0H0V0", "twitter": "None", "instagram": "None", "facebook": "None", "youtube": "None", "website": "None", "summary": "None", "logo": "None", "latitude": 50.45643295198069, "longitude": -105.87021267602051}, "869708099RR0001": {"name": "CHAPLIN TOURISM COMMITTEE INC", "designationCode": "C", "categoryCode": "55", "address": "BOX 57", "city": "CHAPLIN", "province": "SK", "country": "CA", "postalCode": "S0H0V0", "twitter": "None", "instagram": "None", "facebook": "None", "youtube": "None", "website": "None", "summary": "None", "logo": "None", "latitude": 50.45643295198069, "longitude": -105.87021267602051}}