{"894149970RR0001": {"name": "TRANSCONA COUNCIL FOR SENIORS INC.", "designationCode": "C", "categoryCode": "09", "address": "845 REGENT W", "city": "WINNIPEG", "province": "MB", "country": "CA", "postalCode": "R2C3A9", "twitter": "None", "instagram": "None", "facebook": "None", "youtube": "None", "website": "None", "summary": "None", "logo": "None", "latitude": 49.89533448715981, "longitude": -97.02903222300768}, "119268449RR0001": {"name": "TRANSCONA HISTORICAL MUSEUM INC", "designationCode": "C", "categoryCode": "50", "address": "141 REGENT AVE W", "city": "WINNIPEG", "province": "MB", "country": "CA", "postalCode": "R2C1R1", "twitter": "None", "instagram": "None", "facebook": "None", "youtube": "None", "website": "None", "summary": "None", "logo": "None", "latitude": 49.895094518754554, "longitude": -97.00526241618097}, "108136383RR0001": {"name": "TRANSCONA JAYCEES DAYCARE CENTRE INC.", "designationCode": "C", "categoryCode": "01", "address": "1800 WINONA ST", "city": "WINNIPEG", "province": "MB", "country": "CA", "postalCode": "R2C2R2", "twitter": "None", "instagram": "None", "facebook": "None", "youtube": "None", "website": "None", "summary": "None", "logo": "None", "latitude": 49.90752821426511, "longitude": -97.00785092988654}, "108136417RR0001": {"name": "TRANSCONA MEMORIAL UNITED CHURCH", "designationCode": "C", "categoryCode": "44", "address": "209 YALE AVENUE WEST", "city": "WINNIPEG", "province": "MB", "country": "CA", "postalCode": "R2C1T9", "twitter": "None", "instagram": "None", "facebook": "None", "youtube": "None", "website": "None", "summary": "None", "logo": "None", "latitude": 49.89670446047075, "longitude": -97.00657199999999}, "848544698RR0001": {"name": "TRANSCONA RETIRED CITIZENS ORGANIZATION INC.", "designationCode": "C", "categoryCode": "09", "address": "328 WHITTIER AVENUE WEST", "city": "WINNIPEG", "province": "MB", "country": "CA", "postalCode": "R2C1Z8", "twitter": "None", "instagram": "None", "facebook": "None", "youtube": "None", "website": "None", "summary": "None", "logo": "None", "latitude": 49.89986851399405, "longitude": -97.01018027699232}, "119030666RR0047": {"name": "TRANSCONA SEVENTH-DAY ADVENTIST CHURCH", "designationCode": "C", "categoryCode": "41", "address": "1004 VICTORIA AVE", "city": "SASKATOON", "province": "SK", "country": "CA", "postalCode": "S7N0Z8", "twitter": "None", "instagram": "None", "facebook": "None", "youtube": "None", "website": "None", "summary": "None", "logo": "None", "latitude": 52.115409, "longitude": -106.66240826773014}, "872816269RR0001": {"name": "TRANSCONA-SPRINGFIELD EMPLOYMENT NETWORK INC.", "designationCode": "C", "categoryCode": "59", "address": "1600 REGENT AVE W", "city": "WINNIPEG", "province": "MB", "country": "CA", "postalCode": "R2C3B5", "twitter": "None", "instagram": "None", "facebook": "None", "youtube": "None", "website": "None", "summary": "None", "logo": "None", "latitude": 49.898450728230486, "longitude": -97.07034625679454}, "119268472RR0001": {"name": "TRANSFIGURATION LUTHERAN CHURCH", "designationCode": "C", "categoryCode": "32", "address": "232 FENNELL AVE EAST", "city": "HAMILTON", "province": "ON", "country": "CA", "postalCode": "L9A1S7", "twitter": "None", "instagram": "None", "facebook": "None", "youtube": "None", "website": "None", "summary": "None", "logo": "None", "latitude": 43.23521499916328, "longitude": -79.86846712634845}, "888806544RR0001": {"name": "TRANSFIGURATION OF OUR LORD ROMANIAN ORTHODOX CHURCH OF WOOD MOUNTAIN", "designationCode": "C", "categoryCode": "39", "address": "BOX 2105", "city": "ASSINIBOIA", "province": "SK", "country": "CA", "postalCode": "S0H0B0", "twitter": "None", "instagram": "None", "facebook": "None", "youtube": "None", "website": "None", "summary": "None", "logo": "None", "latitude": 49.63287300000006, "longitude": -105.99348049999993}, "118913185RR0001": {"name": "TRANSFORM CENTRAL MINISTRIES", "designationCode": "C", "categoryCode": "39", "address": "P.O. BOX 2525", "city": "ABBOTSFORD", "province": "BC", "country": "CA", "postalCode": "V2T6R3", "twitter": "None", "instagram": "None", "facebook": "None", "youtube": "None", "website": "None", "summary": "None", "logo": "None", "latitude": 49.05161700000005, "longitude": -122.32930399999994}, "880636428RR0001": {"name": "TRANSFORM INTERNATIONAL MINISTRIES", "designationCode": "C", "categoryCode": "47", "address": "2413 MCCALLUM RD", "city": "ABBOTSFORD", "province": "BC", "country": "CA", "postalCode": "V2S3P6", "twitter": "None", "instagram": "None", "facebook": "None", "youtube": "None", "website": "None", "summary": "None", "logo": "None", "latitude": 49.04574970552255, "longitude": -122.29351412978225}, "119268480RR0001": {"name": "TRANSFORMATION RESEARCH NETWORK", "designationCode": "C", "categoryCode": "23", "address": "29 DES ARCS ROAD", "city": "LAC DES ARCS", "province": "AB", "country": "CA", "postalCode": "T1W2W3", "twitter": "None", "instagram": "None", "facebook": "None", "youtube": "None", "website": "None", "summary": "None", "logo": "None", "latitude": 51.05421042293954, "longitude": -115.16078837289734}, "888426640RR0001": {"name": "TRANSFORMING EDUCATION SOCIETY", "designationCode": "C", "categoryCode": "21", "address": "714 WESTMORELAND CRES.", "city": "NORTH VANCOUVER", "province": "BC", "country": "CA", "postalCode": "V7P2G7", "twitter": "None", "instagram": "None", "facebook": "None", "youtube": "None", "website": "None", "summary": "None", "logo": "None", "latitude": 49.32954083709381, "longitude": -123.09223899085339}, "867204034RR0001": {"name": "TRANSFORMING FACES", "designationCode": "C", "categoryCode": "11", "address": "637 COLLEGE ST. SUITE 203", "city": "TORONTO", "province": "ON", "country": "CA", "postalCode": "M6G1B5", "twitter": "None", "instagram": "None", "facebook": "None", "youtube": "None", "website": "None", "summary": "None", "logo": "None", "latitude": 43.654909568959624, "longitude": -79.4152209343586}, "862536646RR0001": {"name": "TRANSFORMING LIVES", "designationCode": "C", "categoryCode": "09", "address": "64 - 141 CONDOR COURT", "city": "LONDON", "province": "ON", "country": "CA", "postalCode": "N5W6A1", "twitter": "None", "instagram": "None", "facebook": "None", "youtube": "None", "website": "None", "summary": "None", "logo": "None", "latitude": 42.98936144324539, "longitude": -81.17777834843345}, "865854301RR0001": {"name": "TRANSIT SEPT-ILES", "designationCode": "C", "categoryCode": "01", "address": "409 AVENUE GAMACHE", "city": "SEPT-ILES", "province": "QC", "country": "CA", "postalCode": "G4R2H8", "twitter": "None", "instagram": "None", "facebook": "None", "youtube": "None", "website": "None", "summary": "None", "logo": "None", "latitude": 50.20834740048483, "longitude": -66.37881014074652}, "135564854RR0001": {"name": "TRANSIT 24", "designationCode": "C", "categoryCode": "09", "address": "C.P. 35042", "city": "MONTREAL", "province": "QC", "country": "CA", "postalCode": "H2C3K4", "twitter": "None", "instagram": "None", "facebook": "None", "youtube": "None", "website": "None", "summary": "None", "logo": "None", "latitude": 45.56335200000005, "longitude": -73.65817699999994}, "131937096RR0001": {"name": "TRANSIT-JEUNESSE INC.", "designationCode": "C", "categoryCode": "01", "address": "2100 ST-CLEMENT", "city": "MONTREAL", "province": "QC", "country": "CA", "postalCode": "H1V3E8", "twitter": "None", "instagram": "None", "facebook": "None", "youtube": "None", "website": "None", "summary": "None", "logo": "None", "latitude": 45.55897717733293, "longitude": -73.53749084875056}, "895163491RR0001": {"name": "TRANSITION CENTRE-SUD", "designationCode": "C", "categoryCode": "56", "address": "1817 BOUL ROSEMONT", "city": "MONTREAL", "province": "QC", "country": "CA", "postalCode": "H2G1S5", "twitter": "None", "instagram": "None", "facebook": "None", "youtube": "None", "website": "None", "summary": "None", "logo": "None", "latitude": 45.5410054432454, "longitude": -73.59109710672853}, "890227283RR0001": {"name": "TRANSITION HOUSE ASSOCIATION OF NOVA SCOTIA", "designationCode": "C", "categoryCode": "09", "address": "204 - 6169 QUINPOOL RD", "city": "HALIFAX", "province": "NS", "country": "CA", "postalCode": "B3L4P8", "twitter": "None", "instagram": "None", "facebook": "None", "youtube": "None", "website": "None", "summary": "None", "logo": "None", "latitude": 44.646009997518505, "longitude": -63.59526082168612}, "865909386RR0001": {"name": "TRANSITION HOUSE COALITION OF NORTHUMBERLAND", "designationCode": "C", "categoryCode": "09", "address": "10 CHAPEL ST", "city": "COBOURG", "province": "ON", "country": "CA", "postalCode": "K9A1H9", "twitter": "None", "instagram": "None", "facebook": "None", "youtube": "None", "website": "None", "summary": "None", "logo": "None", "latitude": 43.96167005190718, "longitude": -78.16562758465575}, "892092172RR0001": {"name": "TRANSITION HOUSE FOUNDATION", "designationCode": "A", "categoryCode": "03", "address": "PO BOX 487                    47 BYNG AVENUE", "city": "SYDNEY", "province": "NS", "country": "CA", "postalCode": "B1P5B9", "twitter": "None", "instagram": "None", "facebook": "None", "youtube": "None", "website": "None", "summary": "None", "logo": "None", "latitude": 46.13273390065772, "longitude": -60.19257683983509}, "108136623RR0001": {"name": "TRANSITION HOUSE INCORPORATED", "designationCode": "C", "categoryCode": "01", "address": "162 MADISON AVE", "city": "TORONTO", "province": "ON", "country": "CA", "postalCode": "M5R2S6", "twitter": "None", "instagram": "None", "facebook": "None", "youtube": "None", "website": "None", "summary": "None", "logo": "None", "latitude": 43.67416693865779, "longitude": -79.405604411622}, "140482829RR0001": {"name": "TRANSITION POUR ELLES INC", "designationCode": "C", "categoryCode": "01", "address": "110 RUE DUFFERIN", "city": "GRANBY", "province": "QC", "country": "CA", "postalCode": "J2G4W9", "twitter": "None", "instagram": "None", "facebook": "None", "youtube": "None", "website": "None", "summary": "None", "logo": "None", "latitude": 45.40245945351718, "longitude": -72.72132379894951}, "865363311RR0001": {"name": "TRANSITION TO BETTERNESS FAMILY & HEALTH CARE", "designationCode": "A", "categoryCode": "13", "address": "3200 DEZIEL DRIVE, UNIT 307", "city": "WINDSOR", "province": "ON", "country": "CA", "postalCode": "N8W5K8", "twitter": "None", "instagram": "None", "facebook": "None", "youtube": "None", "website": "None", "summary": "None", "logo": "None", "latitude": 42.281993014252905, "longitude": -82.96967880881726}, "119162048RR0001": {"name": "TRANSITIONS REHABILITATION ASSOCIATION OF ST. ALBERT AND DISTRICT", "designationCode": "C", "categoryCode": "09", "address": "STE 100-365 CARLETON DRIVE", "city": "ST. ALBERT", "province": "AB", "country": "CA", "postalCode": "T8N7L1", "twitter": "None", "instagram": "None", "facebook": "None", "youtube": "None", "website": "None", "summary": "None", "logo": "None", "latitude": 53.645817497114464, "longitude": -113.5705005}, "890373442RR0001": {"name": "TRANSNISTRIA SURVIVORS' ASSOCIATION", "designationCode": "C", "categoryCode": "09", "address": "210-500 GLENCAIRN AVE", "city": "TORONTO", "province": "ON", "country": "CA", "postalCode": "M6B1Z1", "twitter": "None", "instagram": "None", "facebook": "None", "youtube": "None", "website": "None", "summary": "None", "logo": "None", "latitude": 43.712323165156576, "longitude": -79.42826817805408}, "131583999RR0001": {"name": "TRANSPORT ACTION ATLANTIC SOCIETY", "designationCode": "C", "categoryCode": "59", "address": "23 BROADWAY ST", "city": "LAKESIDE", "province": "NS", "country": "CA", "postalCode": "B3T1B1", "twitter": "None", "instagram": "None", "facebook": "None", "youtube": "None", "website": "None", "summary": "None", "logo": "None", "latitude": 44.63489444214888, "longitude": -63.702517992642406}, "119268571RR0001": {"name": "TRANSPORT ACTION CANADA", "designationCode": "C", "categoryCode": "59", "address": "P.O. BOX 858 STATION B", "city": "OTTAWA", "province": "ON", "country": "CA", "postalCode": "K1P5P9", "twitter": "None", "instagram": "None", "facebook": "None", "youtube": "None", "website": "None", "summary": "None", "logo": "None", "latitude": 45.42177300000006, "longitude": -75.69115999999994}, "140827981RR0001": {"name": "TRANSPORT ADAPTE LA CALECHE D'OR", "designationCode": "C", "categoryCode": "09", "address": "104-866 RUE ROYALE", "city": "MALARTIC", "province": "QC", "country": "CA", "postalCode": "J0Y1Z0", "twitter": "None", "instagram": "None", "facebook": "None", "youtube": "None", "website": "None", "summary": "None", "logo": "None", "latitude": 48.13604933971953, "longitude": -78.12650644004275}, "124630351RR0001": {"name": "TRANSPORT ADAPTE POUR NOUS INC.", "designationCode": "C", "categoryCode": "09", "address": "5401 RUE FOSTER", "city": "WATERLOO", "province": "QC", "country": "CA", "postalCode": "J0E2N0", "twitter": "None", "instagram": "None", "facebook": "None", "youtube": "None", "website": "None", "summary": "None", "logo": "None", "latitude": 45.34673219761668, "longitude": -72.51682608800262}, "140678467RR0001": {"name": "TRANSPORT BONAVENTURE AVIGNON", "designationCode": "C", "categoryCode": "09", "address": "146 C GRAND PRE", "city": "BONAVENTURE", "province": "QC", "country": "CA", "postalCode": "G0C1E0", "twitter": "None", "instagram": "None", "facebook": "None", "youtube": "None", "website": "None", "summary": "None", "logo": "None", "latitude": 48.04800640576496, "longitude": -65.48697789035728}, "140840661RR0001": {"name": "TRANSPORT FOR CHRIST", "designationCode": "C", "categoryCode": "47", "address": "6242 ROUTE 105", "city": "LOWER BRIGHTON", "province": "NB", "country": "CA", "postalCode": "E7P1B3", "twitter": "None", "instagram": "None", "facebook": "None", "youtube": "None", "website": "None", "summary": "None", "logo": "None", "latitude": 46.259001106068176, "longitude": -67.50254296252757}, "129289781RR0001": {"name": "TRANSPORT SOLEIL", "designationCode": "C", "categoryCode": "09", "address": "4 RUE SAINT-MICHEL", "city": "VAUDREUIL-DORION", "province": "QC", "country": "CA", "postalCode": "J7V1E7", "twitter": "None", "instagram": "None", "facebook": "None", "youtube": "None", "website": "None", "summary": "None", "logo": "None", "latitude": 45.39922381101031, "longitude": -74.02559699420027}, "892004805RR0001": {"name": "TRANSPORTATION ASSOCIATION OF CANADA FOUNDATION / FONDATION DE L'ASSOCIATION DES TRANSPORTS DU CANADA", "designationCode": "B", "categoryCode": "03", "address": "2323 ST. LAURENT BOULEVARD", "city": "OTTAWA", "province": "ON", "country": "CA", "postalCode": "K1G4J8", "twitter": "None", "instagram": "None", "facebook": "None", "youtube": "None", "website": "None", "summary": "None", "logo": "None", "latitude": 45.384331121790424, "longitude": -75.61923289783044}, "870803145RR0001": {"name": "TRANSPORTATION WEST INC.", "designationCode": "C", "categoryCode": "09", "address": "PO BOX 398", "city": "O'LEARY", "province": "PE", "country": "CA", "postalCode": "C0B1V0", "twitter": "None", "instagram": "None", "facebook": "None", "youtube": "None", "website": "None", "summary": "None", "logo": "None", "latitude": 46.71305115704506, "longitude": -64.19110057190973}, "105366793RR0001": {"name": "TRANSPORTS ACCES INC.", "designationCode": "C", "categoryCode": "09", "address": "SUITE 12, 100 RUE KEPLER", "city": "CHATEAUGUAY", "province": "QC", "country": "CA", "postalCode": "J6K5E4", "twitter": "None", "instagram": "None", "facebook": "None", "youtube": "None", "website": "None", "summary": "None", "logo": "None", "latitude": 45.36121063113857, "longitude": -73.7130261268394}, "129259362RR0001": {"name": "TRAVAIL DE RUE / ACTION COMMUNAUTAIRE", "designationCode": "C", "categoryCode": "09", "address": "75 SIR GEORGES ETIENNE CARTIERLOCAL 212", "city": "MONTREAL", "province": "QC", "country": "CA", "postalCode": "H4C3A1", "twitter": "None", "instagram": "None", "facebook": "None", "youtube": "None", "website": "None", "summary": "None", "logo": "None", "latitude": 45.47273916322333, "longitude": -73.58398005326347}, "868922048RR0001": {"name": "TRAVAIL DE RUE COMMUNAUTAIRE DE LA MRC DE MASKINONGE", "designationCode": "C", "categoryCode": "09", "address": "121, RANG DE LA PETITE-RIVIERELOCAL 30", "city": "LOUISEVILLE", "province": "QC", "country": "CA", "postalCode": "J5V2H3", "twitter": "None", "instagram": "None", "facebook": "None", "youtube": "None", "website": "None", "summary": "None", "logo": "None", "latitude": 46.25327400000006, "longitude": -72.95148799999993}, "884219825RR0001": {"name": "TRAVAIL DE RUE DE L'ILE DE LAVAL (T.R.I.L.) INC.", "designationCode": "C", "categoryCode": "09", "address": "106, BOUL. DE LA CONCORDE EST", "city": "LAVAL", "province": "QC", "country": "CA", "postalCode": "H7G2B9", "twitter": "None", "instagram": "None", "facebook": "None", "youtube": "None", "website": "None", "summary": "None", "logo": "None", "latitude": 45.57275472912452, "longitude": -73.68830535235723}, "867657231RR0001": {"name": "TRAVAIL DE RUE REPENTIGNY", "designationCode": "C", "categoryCode": "09", "address": "CP 95", "city": "REPENTIGNY", "province": "QC", "country": "CA", "postalCode": "J6A5H7", "twitter": "None", "instagram": "None", "facebook": "None", "youtube": "None", "website": "None", "summary": "None", "logo": "None", "latitude": 45.741372000000055, "longitude": -73.45104199999993}, "895407740RR0001": {"name": "TRAVAILLEURS DE RUE LA TUQUE INC.", "designationCode": "C", "categoryCode": "09", "address": "522 RUE SAINT-ANTOINE", "city": "LA TUQUE", "province": "QC", "country": "CA", "postalCode": "G9X2Y4", "twitter": "None", "instagram": "None", "facebook": "None", "youtube": "None", "website": "None", "summary": "None", "logo": "None", "latitude": 47.44051032361938, "longitude": -72.78387054815626}, "119268621RR0001": {"name": "TRAVELLERS' AID SOCIETY OF TORONTO", "designationCode": "C", "categoryCode": "09", "address": "13 MOUNTALAN AVE", "city": "TORONTO", "province": "ON", "country": "CA", "postalCode": "M4J1H3", "twitter": "None", "instagram": "None", "facebook": "None", "youtube": "None", "website": "None", "summary": "None", "logo": "None", "latitude": 43.67889077655963, "longitude": -79.33042873382772}, "862866357RR0001": {"name": "TRAVIS AND MELVA MERSEREAU SCHOLARSHIP TRUST", "designationCode": "B", "categoryCode": "25", "address": "251 SUNBURY DR", "city": "FREDERICTON JUNCTION", "province": "NB", "country": "CA", "postalCode": "E5L1S3", "twitter": "None", "instagram": "None", "facebook": "None", "youtube": "None", "website": "None", "summary": "None", "logo": "None", "latitude": 45.66008959838999, "longitude": -66.6071043487219}, "839249679RR0001": {"name": "TRAX PROGRAM SUPPORT", "designationCode": "B", "categoryCode": "09", "address": "BOX 9-6                       412 KLAHOWYA ROAD", "city": "THETIS ISLAND", "province": "BC", "country": "CA", "postalCode": "V0R2Y0", "twitter": "None", "instagram": "None", "facebook": "None", "youtube": "None", "website": "None", "summary": "None", "logo": "None", "latitude": 49.00035300000006, "longitude": -123.68890249999993}, "860330489RR0001": {"name": "TRC (The Resource Centre) for Youth in Greater Saint John, Inc.", "designationCode": "C", "categoryCode": "09", "address": "28 RICHMOND ST.", "city": "SAINT JOHN", "province": "NB", "country": "CA", "postalCode": "E2L3B2", "twitter": "None", "instagram": "None", "facebook": "None", "youtube": "None", "website": "None", "summary": "None", "logo": "None", "latitude": 45.27746025644877, "longitude": -66.05523383403538}, "888709375RR0001": {"name": "TREASURE HOUSE MINISTRIES", "designationCode": "C", "categoryCode": "39", "address": "PO BOX 43509 RPO LOWER JAMES", "city": "HAMILTON", "province": "ON", "country": "CA", "postalCode": "L8P4X5", "twitter": "None", "instagram": "None", "facebook": "None", "youtube": "None", "website": "None", "summary": "None", "logo": "None", "latitude": 43.261962000000054, "longitude": -79.88800399999994}, "874183304RR0001": {"name": "TREASURE IN THE JAR", "designationCode": "C", "categoryCode": "49", "address": "3905 RIPPLETON LANE", "city": "MISSISSAUGA", "province": "ON", "country": "CA", "postalCode": "L5N6Z8", "twitter": "None", "instagram": "None", "facebook": "None", "youtube": "None", "website": "None", "summary": "None", "logo": "None", "latitude": 43.57494715488479, "longitude": -79.78292209827441}, "837035468RR0001": {"name": "TREC CHARITABLE FOUNDATION", "designationCode": "C", "categoryCode": "29", "address": "401 RICHMOND STREET WEST      SUITE 407", "city": "TORONTO", "province": "ON", "country": "CA", "postalCode": "M5V3A8", "twitter": "None", "instagram": "None", "facebook": "None", "youtube": "None", "website": "None", "summary": "None", "logo": "None", "latitude": 43.64803297305114, "longitude": -79.39483379779568}, "137708509RR0001": {"name": "TREE CANADA / ARBRES CANADA", "designationCode": "C", "categoryCode": "52", "address": "470 SOMERSET STREET WEST      UNIT 1", "city": "OTTAWA", "province": "ON", "country": "CA", "postalCode": "K1R5J8", "twitter": "None", "instagram": "None", "facebook": "None", "youtube": "None", "website": "None", "summary": "None", "logo": "None", "latitude": 45.4140305636795, "longitude": -75.69953186551454}, "890037146RR0001": {"name": "TREE HOUSE YOUTH THEATRE SOCIETY", "designationCode": "C", "categoryCode": "22", "address": "BOX 1154", "city": "RED DEER", "province": "AB", "country": "CA", "postalCode": "T4N6S6", "twitter": "None", "instagram": "None", "facebook": "None", "youtube": "None", "website": "None", "summary": "None", "logo": "None", "latitude": 52.26852300000006, "longitude": -113.80901299999994}, "119268670RR0001": {"name": "TREE OF LIFE", "designationCode": "C", "categoryCode": "47", "address": "PO BOX 622", "city": "SMITHVILLE", "province": "ON", "country": "CA", "postalCode": "L0R2A0", "twitter": "None", "instagram": "None", "facebook": "None", "youtube": "None", "website": "None", "summary": "None", "logo": "None", "latitude": 43.09114347619214, "longitude": -79.56149144437846}, "890403025RR0001": {"name": "TREE OF LIFE CHURCH OF CANADA/\u00c9GLISE ARBRE DE VIE DU CANADA", "designationCode": "C", "categoryCode": "39", "address": "4921 HIGHWAY 64", "city": "NOELVILLE", "province": "ON", "country": "CA", "postalCode": "P0M2N0", "twitter": "None", "instagram": "None", "facebook": "None", "youtube": "None", "website": "None", "summary": "None", "logo": "None", "latitude": 46.13273426172723, "longitude": -80.4316635}, "866584311RR0001": {"name": "TREES FOR GUELPH", "designationCode": "C", "categoryCode": "59", "address": "38 CHELTONWOOD AVE", "city": "GUELPH", "province": "ON", "country": "CA", "postalCode": "N1E4E3", "twitter": "None", "instagram": "None", "facebook": "None", "youtube": "None", "website": "None", "summary": "None", "logo": "None", "latitude": 43.56795864167016, "longitude": -80.2415171991459}, "119268696RR0001": {"name": "TREESBANK COMMUNITY CHURCH", "designationCode": "C", "categoryCode": "34", "address": "P.O. BOX 172", "city": "WAWANESA", "province": "MB", "country": "CA", "postalCode": "R0K2G0", "twitter": "None", "instagram": "None", "facebook": "None", "youtube": "None", "website": "None", "summary": "None", "logo": "None", "latitude": 49.59522000000004, "longitude": -99.68362999999994}, "119268688RR0001": {"name": "TREESBANK COMMUNITY CLUB INC", "designationCode": "C", "categoryCode": "56", "address": "PO BOX 244", "city": "WAWANESA", "province": "MB", "country": "CA", "postalCode": "R0K2G0", "twitter": "None", "instagram": "None", "facebook": "None", "youtube": "None", "website": "None", "summary": "None", "logo": "None", "latitude": 49.59522000000004, "longitude": -99.68362999999994}, "892616046RR0001": {"name": "TREHERNE AGRICULTURAL SOCIETY", "designationCode": "C", "categoryCode": "56", "address": "P.O. BOX 318", "city": "TREHERNE", "province": "MB", "country": "CA", "postalCode": "R0G2V0", "twitter": "None", "instagram": "None", "facebook": "None", "youtube": "None", "website": "None", "summary": "None", "logo": "None", "latitude": 49.635710000000074, "longitude": -98.69734999999997}, "889383667RR0001": {"name": "TREHERNE FRIENDSHIP CENTRE INC", "designationCode": "C", "categoryCode": "56", "address": "P.O. BOX 215                  190 BROADWAY STREET", "city": "TREHERNE", "province": "MB", "country": "CA", "postalCode": "R0G2V0", "twitter": "None", "instagram": "None", "facebook": "None", "youtube": "None", "website": "None", "summary": "None", "logo": "None", "latitude": 49.6274488817381, "longitude": -98.69759897762361}, "108137886RR0001": {"name": "TREHERNE MUSEUM", "designationCode": "C", "categoryCode": "50", "address": "215 BROADWAY STREET           BOX 30", "city": "TREHERNE", "province": "MB", "country": "CA", "postalCode": "R0G2V0", "twitter": "None", "instagram": "None", "facebook": "None", "youtube": "None", "website": "None", "summary": "None", "logo": "None", "latitude": 49.6274488817381, "longitude": -98.69759897762361}, "108137902RR0001": {"name": "TREHERNE PASTORAL CHARGE", "designationCode": "C", "categoryCode": "44", "address": "BOX 382", "city": "TREHERNE", "province": "MB", "country": "CA", "postalCode": "R0G2V0", "twitter": "None", "instagram": "None", "facebook": "None", "youtube": "None", "website": "None", "summary": "None", "logo": "None", "latitude": 49.635710000000074, "longitude": -98.69734999999997}, "833436835RR0001": {"name": "TRELOWEN FOUNDATION", "designationCode": "B", "categoryCode": "03", "address": "PO BOX 4", "city": "CARRYING PLACE", "province": "ON", "country": "CA", "postalCode": "K0K1L0", "twitter": "None", "instagram": "None", "facebook": "None", "youtube": "None", "website": "None", "summary": "None", "logo": "None", "latitude": 44.052302823100284, "longitude": -77.59198642347651}, "119268753RR0001": {"name": "TREMPLOY INC", "designationCode": "C", "categoryCode": "20", "address": "PO BOX 936", "city": "CHARLOTTETOWN", "province": "PE", "country": "CA", "postalCode": "C1A7M4", "twitter": "None", "instagram": "None", "facebook": "None", "youtube": "None", "website": "None", "summary": "None", "logo": "None", "latitude": 46.23659700000006, "longitude": -63.12815449999994}, "860379254RR0001": {"name": "TRENHOLM UNITED CHURCH", "designationCode": "C", "categoryCode": "44", "address": "36 MELBOURNE AVENUE NORTH", "city": "RICHMOND", "province": "QC", "country": "CA", "postalCode": "J0B2H0", "twitter": "None", "instagram": "None", "facebook": "None", "youtube": "None", "website": "None", "summary": "None", "logo": "None", "latitude": 45.66044776409482, "longitude": -72.14955592503911}, "108138025RR0001": {"name": "TRENT COMMUNITY CORRECTIONAL COMMITTEE INCORPORATED", "designationCode": "C", "categoryCode": "59", "address": "85 MARMORA ST", "city": "TRENTON", "province": "ON", "country": "CA", "postalCode": "K8V2J2", "twitter": "None", "instagram": "None", "facebook": "None", "youtube": "None", "website": "None", "summary": "None", "logo": "None", "latitude": 44.107808761873095, "longitude": -77.57590705952457}, "108138033RR0001": {"name": "TRENT DAY CARE CENTRE INC.", "designationCode": "C", "categoryCode": "01", "address": "1600 WEST BANK DR.", "city": "PETERBOROUGH", "province": "ON", "country": "CA", "postalCode": "K9J7B8", "twitter": "None", "instagram": "None", "facebook": "None", "youtube": "None", "website": "None", "summary": "None", "logo": "None", "latitude": 44.35258128767253, "longitude": -78.29721696102374}, "119268795RR0001": {"name": "TRENT MEMORIAL SCHOLARSHIP FUND", "designationCode": "B", "categoryCode": "21", "address": "PO BOX 626", "city": "MONCTON", "province": "NB", "country": "CA", "postalCode": "E1C8M7", "twitter": "None", "instagram": "None", "facebook": "None", "youtube": "None", "website": "None", "summary": "None", "logo": "None", "latitude": 46.08834900000005, "longitude": -64.77824149999994}, "119268910RR0001": {"name": "TRENT RADIO", "designationCode": "C", "categoryCode": "21", "address": "715 GEORGE ST NORTH", "city": "PETERBOROUGH", "province": "ON", "country": "CA", "postalCode": "K9H3T2", "twitter": "None", "instagram": "None", "facebook": "None", "youtube": "None", "website": "None", "summary": "None", "logo": "None", "latitude": 44.315784293092484, "longitude": -78.32075146728008}, "858835481RR0001": {"name": "TRENT TALBOT ENVIRONMENTAL ASSOCIATION", "designationCode": "C", "categoryCode": "53", "address": "108 BOLSOVER RD", "city": "BOLSOVER", "province": "ON", "country": "CA", "postalCode": "K0M1B0", "twitter": "None", "instagram": "None", "facebook": "None", "youtube": "None", "website": "None", "summary": "None", "logo": "None", "latitude": 44.533054914276384, "longitude": -79.07273440172558}, "119268928RR0001": {"name": "TRENT UNIVERSITY", "designationCode": "C", "categoryCode": "20", "address": "MGR OF ACCTS SVCS             TRENT UNIVERSITY", "city": "PETERBOROUGH", "province": "ON", "country": "CA", "postalCode": "K9L0G2", "twitter": "None", "instagram": "None", "facebook": "None", "youtube": "None", "website": "None", "summary": "None", "logo": "None", "latitude": 44.35346000000004, "longitude": -78.29596999999995}, "132638552RR0001": {"name": "TRENT VALLEY ARCHIVES", "designationCode": "C", "categoryCode": "50", "address": "567 CARNEGIE AVENUE           CORPORATE SECRETARY", "city": "PETERBOROUGH", "province": "ON", "country": "CA", "postalCode": "K9L1N1", "twitter": "None", "instagram": "None", "facebook": "None", "youtube": "None", "website": "None", "summary": "None", "logo": "None", "latitude": 44.35607332011321, "longitude": -78.31518230602644}, "141034421RR0001": {"name": "TRENT VALLEY ASSOCIATION OF BAPTIST CHURCHES", "designationCode": "C", "categoryCode": "31", "address": "PO BOX 1300", "city": "CAMPBELLFORD", "province": "ON", "country": "CA", "postalCode": "K0L1L0", "twitter": "None", "instagram": "None", "facebook": "None", "youtube": "None", "website": "None", "summary": "None", "logo": "None", "latitude": 44.287060000000054, "longitude": -77.80936999999994}, "849260153RR0001": {"name": "TRENT VALLEY BAPTIST CAMP DEVELOPMENT ORGANIZATION INC", "designationCode": "C", "categoryCode": "56", "address": "1010 HATFIELD CRES.", "city": "PETERBOROUGH", "province": "ON", "country": "CA", "postalCode": "K9H6L8", "twitter": "None", "instagram": "None", "facebook": "None", "youtube": "None", "website": "None", "summary": "None", "logo": "None", "latitude": 44.3314016297536, "longitude": -78.31978189783045}, "108138215RR0001": {"name": "TRENT VALLEY LITERACY ASSOCIATION", "designationCode": "C", "categoryCode": "20", "address": "825 CHEMONG ROAD", "city": "PETERBOROUGH", "province": "ON", "country": "CA", "postalCode": "K9H5Z5", "twitter": "None", "instagram": "None", "facebook": "None", "youtube": "None", "website": "None", "summary": "None", "logo": "None", "latitude": 44.31814380512461, "longitude": -78.33069520615676}, "849753231RR0001": {"name": "TRENTON BAPTIST CHURCH", "designationCode": "C", "categoryCode": "31", "address": "125 DIXON DR", "city": "TRENTON", "province": "ON", "country": "CA", "postalCode": "K8V1W7", "twitter": "None", "instagram": "None", "facebook": "None", "youtube": "None", "website": "None", "summary": "None", "logo": "None", "latitude": 44.110068498990394, "longitude": -77.56920069164407}, "119268845RR0001": {"name": "TRENTON CARE & SHARE FOOD BANK", "designationCode": "C", "categoryCode": "01", "address": "38 GUELPH STREET", "city": "TRENTON", "province": "ON", "country": "CA", "postalCode": "K8V4G4", "twitter": "None", "instagram": "None", "facebook": "None", "youtube": "None", "website": "None", "summary": "None", "logo": "None", "latitude": 44.105812239252074, "longitude": -77.58610240094619}, "108138074RR0001": {"name": "TRENTON CHILDREN'S CENTRES", "designationCode": "C", "categoryCode": "20", "address": "25 JOHN ST.", "city": "TRENTON", "province": "ON", "country": "CA", "postalCode": "K8V1J5", "twitter": "None", "instagram": "None", "facebook": "None", "youtube": "None", "website": "None", "summary": "None", "logo": "None", "latitude": 44.104137252006836, "longitude": -77.56772720081149}, "119268837RR0001": {"name": "TRENTON CHRISTIAN SCHOOL SOCIETY", "designationCode": "C", "categoryCode": "20", "address": "340 SECOND DUG HILL RD RR 4", "city": "TRENTON", "province": "ON", "country": "CA", "postalCode": "K8V5P7", "twitter": "None", "instagram": "None", "facebook": "None", "youtube": "None", "website": "None", "summary": "None", "logo": "None", "latitude": 44.09000459504311, "longitude": -77.6008821892199}, "119268852RR0001": {"name": "TRENTON MEMORIAL HOSPITAL AUXILIARY", "designationCode": "C", "categoryCode": "19", "address": "242 KING STREET", "city": "TRENTON", "province": "ON", "country": "CA", "postalCode": "K8V5S6", "twitter": "None", "instagram": "None", "facebook": "None", "youtube": "None", "website": "None", "summary": "None", "logo": "None", "latitude": 44.09904051604233, "longitude": -77.58784805818404}, "119268860RR0001": {"name": "TRENTON MEMORIAL HOSPITAL FOUNDATION", "designationCode": "A", "categoryCode": "13", "address": "242 KING STREET", "city": "TRENTON", "province": "ON", "country": "CA", "postalCode": "K8V5S6", "twitter": "None", "instagram": "None", "facebook": "None", "youtube": "None", "website": "None", "summary": "None", "logo": "None", "latitude": 44.09904051604233, "longitude": -77.58784805818404}, "894527233RR0001": {"name": "TRENTON MILITARY FAMILY RESOURCE CENTRE", "designationCode": "C", "categoryCode": "09", "address": "50 RIVERS DRIVE EAST          P O BOX 1000", "city": "ASTRA", "province": "ON", "country": "CA", "postalCode": "K0K3W0", "twitter": "None", "instagram": "None", "facebook": "None", "youtube": "None", "website": "None", "summary": "None", "logo": "None", "latitude": 44.20570735203528, "longitude": -77.5912941693459}, "119268886RR0001": {"name": "TRENTON SENIOR CITIZENS CLUB #105", "designationCode": "C", "categoryCode": "56", "address": "61 BAY STREET", "city": "TRENTON", "province": "ON", "country": "CA", "postalCode": "K8V1H6", "twitter": "None", "instagram": "None", "facebook": "None", "youtube": "None", "website": "None", "summary": "None", "logo": "None", "latitude": 44.10348257227784, "longitude": -77.56642577852152}, "119268894RR0001": {"name": "TRENTON WESLEYAN CHURCH", "designationCode": "C", "categoryCode": "39", "address": "274 2ND DUG HILL RD", "city": "TRENTON", "province": "ON", "country": "CA", "postalCode": "K8V5P7", "twitter": "None", "instagram": "None", "facebook": "None", "youtube": "None", "website": "None", "summary": "None", "logo": "None", "latitude": 44.08511913032105, "longitude": -77.59852842190612}, "128009594RR0001": {"name": "TRENTSIDE BAPTIST CHURCH", "designationCode": "C", "categoryCode": "31", "address": "BOX 339", "city": "FENELON FALLS", "province": "ON", "country": "CA", "postalCode": "K0M1N0", "twitter": "None", "instagram": "None", "facebook": "None", "youtube": "None", "website": "None", "summary": "None", "logo": "None", "latitude": 44.53769008050088, "longitude": -78.74108993782103}, "870444841RR0001": {"name": "TREV DEELEY FOUNDATION", "designationCode": "B", "categoryCode": "50", "address": "1875 BOUNDARY RD", "city": "VANCOUVER", "province": "BC", "country": "CA", "postalCode": "V5M3Y7", "twitter": "None", "instagram": "None", "facebook": "None", "youtube": "None", "website": "None", "summary": "None", "logo": "None", "latitude": 49.26755604443402, "longitude": -123.02377311278711}, "871967188RR0001": {"name": "TREVOR LINDEN FOUNDATION", "designationCode": "A", "categoryCode": "03", "address": "BOX 62 SUITE 1250-1500        WEST GEORGIA ST", "city": "VANCOUVER", "province": "BC", "country": "CA", "postalCode": "V6G2Z6", "twitter": "None", "instagram": "None", "facebook": "None", "youtube": "None", "website": "None", "summary": "None", "logo": "None", "latitude": 49.29013479542975, "longitude": -123.1300069287031}, "118847235RR0001": {"name": "TRI AREA MEDICAL CENTRE", "designationCode": "C", "categoryCode": "11", "address": "2-52 ST. LAWRENCE ST. EAST", "city": "MADOC", "province": "ON", "country": "CA", "postalCode": "K0K2K0", "twitter": "None", "instagram": "None", "facebook": "None", "youtube": "None", "website": "None", "summary": "None", "logo": "None", "latitude": 44.50539387425335, "longitude": -77.4717637699981}, "119268993RR0001": {"name": "TRI CITY HORTICULTURAL SOCIETY", "designationCode": "C", "categoryCode": "56", "address": "PO BOX 353", "city": "NIPAWIN", "province": "SK", "country": "CA", "postalCode": "S0E1E0", "twitter": "None", "instagram": "None", "facebook": "None", "youtube": "None", "website": "None", "summary": "None", "logo": "None", "latitude": 53.396118, "longitude": -104.00834700000001}, "130808785RR0001": {"name": "TRI COUNTY MENNONITE HOMES", "designationCode": "C", "categoryCode": "01", "address": "200 BOULLEE ST", "city": "NEW HAMBURG", "province": "ON", "country": "CA", "postalCode": "N3A2K4", "twitter": "None", "instagram": "None", "facebook": "None", "youtube": "None", "website": "None", "summary": "None", "logo": "None", "latitude": 43.379706927573984, "longitude": -80.70229802725838}, "885291203RR0001": {"name": "TRI DISTRICT FIRE/RESCUE", "designationCode": "C", "categoryCode": "59", "address": "3785 HWY 325", "city": "NEWCOMBVILLE", "province": "NS", "country": "CA", "postalCode": "B4V7V7", "twitter": "None", "instagram": "None", "facebook": "None", "youtube": "None", "website": "None", "summary": "None", "logo": "None", "latitude": 44.37447383176446, "longitude": -64.60045501758279}, "896147246RR0001": {"name": "TRI FAMILY ASSOCIATION FOR COMMUNITY LIVING", "designationCode": "C", "categoryCode": "09", "address": "6832-39 AVENUE", "city": "EDMONTON", "province": "AB", "country": "CA", "postalCode": "T6K1T8", "twitter": "None", "instagram": "None", "facebook": "None", "youtube": "None", "website": "None", "summary": "None", "logo": "None", "latitude": 53.47522031836792, "longitude": -113.44478458782973}, "893238899RR0001": {"name": "TRI-CITIES INTERNATIONAL COMMUNITY CHURCH", "designationCode": "C", "categoryCode": "30", "address": "1676 PRAIRIE AVE.", "city": "PORT COQUITLAM", "province": "BC", "country": "CA", "postalCode": "V3B1T7", "twitter": "None", "instagram": "None", "facebook": "None", "youtube": "None", "website": "None", "summary": "None", "logo": "None", "latitude": 49.27116152842076, "longitude": -122.76107083236194}, "868644170RR0001": {"name": "TRI-CITY CANAAN CHURCH", "designationCode": "C", "categoryCode": "39", "address": "3433 COAST MERIDIAN ROAD", "city": "PORT COQUITLAM", "province": "BC", "country": "CA", "postalCode": "V3B3N7", "twitter": "None", "instagram": "None", "facebook": "None", "youtube": "None", "website": "None", "summary": "None", "logo": "None", "latitude": 49.273920000000004, "longitude": -122.75621458552114}, "861229979RR0001": {"name": "TRI-CITY CENTRE FOR MULTICULTURAL DEVELOPMENT", "designationCode": "C", "categoryCode": "56", "address": "533 WEBER STREET EAST", "city": "KITCHENER", "province": "ON", "country": "CA", "postalCode": "N2H1G6", "twitter": "None", "instagram": "None", "facebook": "None", "youtube": "None", "website": "None", "summary": "None", "logo": "None", "latitude": 43.44390476905781, "longitude": -80.46706273873248}, "134692649RR0001": {"name": "TRI-CITY FAMILY PLACE SOCIETY", "designationCode": "C", "categoryCode": "01", "address": "3435 VICTORIA DRIVE", "city": "COQUITLAM", "province": "BC", "country": "CA", "postalCode": "V3B2V6", "twitter": "None", "instagram": "None", "facebook": "None", "youtube": "None", "website": "None", "summary": "None", "logo": "None", "latitude": 49.28576349379624, "longitude": -122.74934400000001}, "141008060RR0001": {"name": "TRI-COMMUNITY BAPTIST CHURCH", "designationCode": "C", "categoryCode": "31", "address": "BOX 217", "city": "BEISEKER", "province": "AB", "country": "CA", "postalCode": "T0M0G0", "twitter": "None", "instagram": "None", "facebook": "None", "youtube": "None", "website": "None", "summary": "None", "logo": "None", "latitude": 51.386990000000026, "longitude": -113.52201999999994}, "130913387RR0001": {"name": "TRI-COUNTY COMMUNITY SUPPORT SERVICES", "designationCode": "C", "categoryCode": "09", "address": "302-349A GEORGE ST N", "city": "PETERBOROUGH", "province": "ON", "country": "CA", "postalCode": "K9H3P9", "twitter": "None", "instagram": "None", "facebook": "None", "youtube": "None", "website": "None", "summary": "None", "logo": "None", "latitude": 44.30404815281046, "longitude": -78.31992343948646}, "129358008RR0001": {"name": "TRI-COUNTY COMPLEX INC.", "designationCode": "C", "categoryCode": "56", "address": "49 PRIDES LANDING ROAD", "city": "FREDERICTON JUNCTION", "province": "NB", "country": "CA", "postalCode": "E5L1Y1", "twitter": "None", "instagram": "None", "facebook": "None", "youtube": "None", "website": "None", "summary": "None", "logo": "None", "latitude": 45.66004391339778, "longitude": -66.59743098900299}, "119269033RR0001": {"name": "TRI-COUNTY GROUND SEARCH AND RESCUE GROUP INC", "designationCode": "C", "categoryCode": "59", "address": "PO BOX 28021", "city": "MONCTON", "province": "NB", "country": "CA", "postalCode": "E1C9N4", "twitter": "None", "instagram": "None", "facebook": "None", "youtube": "None", "website": "None", "summary": "None", "logo": "None", "latitude": 46.08834900000005, "longitude": -64.77824149999994}, "840748941RR0001": {"name": "TRI-COUNTY HEALTHCARE FOUNDATION", "designationCode": "A", "categoryCode": "13", "address": "242 KING ST.", "city": "TRENTON", "province": "ON", "country": "CA", "postalCode": "K8V5S6", "twitter": "None", "instagram": "None", "facebook": "None", "youtube": "None", "website": "None", "summary": "None", "logo": "None", "latitude": 44.09904051604233, "longitude": -77.58784805818404}, "119269041RR0001": {"name": "TRI-COUNTY LITERACY COUNCIL", "designationCode": "C", "categoryCode": "59", "address": "101 SECOND ST WEST", "city": "CORNWALL", "province": "ON", "country": "CA", "postalCode": "K6J1G9", "twitter": "None", "instagram": "None", "facebook": "None", "youtube": "None", "website": "None", "summary": "None", "logo": "None", "latitude": 45.01763499030515, "longitude": -74.73110762421366}}