{"853353787RR0001": {"name": "Greenfield Community Resource Centre Society", "designationCode": "C", "categoryCode": "21", "address": "PO BOX 121", "city": "GREENFIELD", "province": "NS", "country": "CA", "postalCode": "B0T1E0", "twitter": "None", "instagram": "None", "facebook": "None", "youtube": "None", "website": "None", "summary": "None", "logo": "None", "latitude": 45.00940000000003, "longitude": -64.32401999999996}, "852655018RR0001": {"name": "Greenfield Education Society", "designationCode": "A", "categoryCode": "03", "address": "PO BOX 121", "city": "GREENFIELD", "province": "NS", "country": "CA", "postalCode": "B0T1E0", "twitter": "None", "instagram": "None", "facebook": "None", "youtube": "None", "website": "None", "summary": "None", "logo": "None", "latitude": 45.00940000000003, "longitude": -64.32401999999996}, "846958668RR0001": {"name": "Greenhills Christian Fellowship - Peel", "designationCode": "C", "categoryCode": "39", "address": "33 CITY CENTRE DRIVE,         SUITE 582", "city": "MISSISSAUGA", "province": "ON", "country": "CA", "postalCode": "L5B2N5", "twitter": "None", "instagram": "None", "facebook": "None", "youtube": "None", "website": "None", "summary": "None", "logo": "None", "latitude": 43.594569541808276, "longitude": -79.63961689586854}, "845989565RR0001": {"name": "Greenhills Christian Fellowship - Toronto", "designationCode": "C", "categoryCode": "39", "address": "305 MORRISH ROAD", "city": "SCARBOROUGH", "province": "ON", "country": "CA", "postalCode": "M1C1E9", "twitter": "None", "instagram": "None", "facebook": "None", "youtube": "None", "website": "None", "summary": "None", "logo": "None", "latitude": 43.785548684719174, "longitude": -79.17153745193065}, "845953900RR0001": {"name": "Greenhills Christian Fellowship - Winnipeg (GCFW), Inc.", "designationCode": "C", "categoryCode": "39", "address": "226 MOSSELLE DR", "city": "WINNIPEG", "province": "MB", "country": "CA", "postalCode": "R2P1N6", "twitter": "None", "instagram": "None", "facebook": "None", "youtube": "None", "website": "None", "summary": "None", "logo": "None", "latitude": 49.97075009351391, "longitude": -97.17241042535622}, "829855311RR0001": {"name": "Greenhills Christian Fellowship - York", "designationCode": "C", "categoryCode": "39", "address": "32 DERRYWOOD DRIVE", "city": "CONCORD", "province": "ON", "country": "CA", "postalCode": "L4K5H5", "twitter": "None", "instagram": "None", "facebook": "None", "youtube": "None", "website": "None", "summary": "None", "logo": "None", "latitude": 43.83258138525007, "longitude": -79.48634291658499}, "842231391RR0001": {"name": "Greenhills Christian Fellowship Calgary", "designationCode": "C", "categoryCode": "39", "address": "1212 1 ST NW", "city": "CALGARY", "province": "AB", "country": "CA", "postalCode": "T2M2S3", "twitter": "None", "instagram": "None", "facebook": "None", "youtube": "None", "website": "None", "summary": "None", "logo": "None", "latitude": 51.06276941909516, "longitude": -114.06491977531887}, "860091461RR0001": {"name": "Greening Nipissing Ecologisation Nipissing", "designationCode": "C", "categoryCode": "59", "address": "PO BOX 23038 RPO FERRIS", "city": "NORTH BAY", "province": "ON", "country": "CA", "postalCode": "P1A4K6", "twitter": "None", "instagram": "None", "facebook": "None", "youtube": "None", "website": "None", "summary": "None", "logo": "None", "latitude": 46.26554778780042, "longitude": -79.41574457644543}, "803643881RR0001": {"name": "Greenrock Charitable Trust", "designationCode": "B", "categoryCode": "05", "address": "64 MERTON STREET", "city": "TORONTO", "province": "ON", "country": "CA", "postalCode": "M4S1A1", "twitter": "None", "instagram": "None", "facebook": "None", "youtube": "None", "website": "None", "summary": "None", "logo": "None", "latitude": 43.696549191268716, "longitude": -79.39413654705973}, "119288918RR0686": {"name": "Greenview Congregation of Jehovah's Witnesses, St. Albert, Alberta", "designationCode": "C", "categoryCode": "61", "address": "26 LACOMBE PT", "city": "ST. ALBERT", "province": "AB", "country": "CA", "postalCode": "T8N3P7", "twitter": "None", "instagram": "None", "facebook": "None", "youtube": "None", "website": "None", "summary": "None", "logo": "None", "latitude": 53.6463929125743, "longitude": -113.64946359201335}, "118947779RR0001": {"name": "Greenwood Drive Baptist Church Inc.", "designationCode": "C", "categoryCode": "39", "address": "150 GREENWOOD DRIVE,          P.O.BOX 3637 STN B", "city": "FREDERICTON", "province": "NB", "country": "CA", "postalCode": "E3A5L7", "twitter": "None", "instagram": "None", "facebook": "None", "youtube": "None", "website": "None", "summary": "None", "logo": "None", "latitude": 45.953375543424386, "longitude": -66.60821164071785}, "866369374RR0001": {"name": "Greenwood Neighbourhood Place Society", "designationCode": "C", "categoryCode": "09", "address": "PO BOX 1846", "city": "SUNDRE", "province": "AB", "country": "CA", "postalCode": "T0M1X0", "twitter": "None", "instagram": "None", "facebook": "None", "youtube": "None", "website": "None", "summary": "None", "logo": "None", "latitude": 51.797180000000026, "longitude": -114.64119999999997}, "118887355RR0001": {"name": "Greenwood United Church", "designationCode": "C", "categoryCode": "44", "address": "1044 COUNTY RD 4", "city": "DOURO-DUMMER", "province": "ON", "country": "CA", "postalCode": "K0L2H0", "twitter": "None", "instagram": "None", "facebook": "None", "youtube": "None", "website": "None", "summary": "None", "logo": "None", "latitude": 44.436167433197795, "longitude": -78.13413768893406}, "857035125RR0001": {"name": "Greeny Lake Volunteer Fire Department Society", "designationCode": "C", "categoryCode": "59", "address": "BOX 67                        5392 N. GREENY LAKE ROAD", "city": "LAC LA HACHE", "province": "BC", "country": "CA", "postalCode": "V0K1T0", "twitter": "None", "instagram": "None", "facebook": "None", "youtube": "None", "website": "None", "summary": "None", "logo": "None", "latitude": 51.81317000000007, "longitude": -121.47386999999998}, "804294338RR0001": {"name": "Gregory and Anita Mason Family Foundation", "designationCode": "B", "categoryCode": "25", "address": "1505 DUNDAS STREET EAST", "city": "WHITBY", "province": "ON", "country": "CA", "postalCode": "L1N2K6", "twitter": "None", "instagram": "None", "facebook": "None", "youtube": "None", "website": "None", "summary": "None", "logo": "None", "latitude": 43.885323230102316, "longitude": -78.91752989452041}, "832333793RR0001": {"name": "Grenfell Apostolic Church Inc.", "designationCode": "C", "categoryCode": "36", "address": "PO BOX 28", "city": "GRENFELL", "province": "SK", "country": "CA", "postalCode": "S0G2B0", "twitter": "None", "instagram": "None", "facebook": "None", "youtube": "None", "website": "None", "summary": "None", "logo": "None", "latitude": 50.411193000000054, "longitude": -102.92259049999993}, "856198759RR0001": {"name": "Grenfell District Health Foundation", "designationCode": "A", "categoryCode": "19", "address": "PO BOX 1120", "city": "GRENFELL", "province": "SK", "country": "CA", "postalCode": "S0G2B0", "twitter": "None", "instagram": "None", "facebook": "None", "youtube": "None", "website": "None", "summary": "None", "logo": "None", "latitude": 50.411193000000054, "longitude": -102.92259049999993}, "819104779RR0001": {"name": "Grey Birch Foundation", "designationCode": "B", "categoryCode": "03", "address": "84 CENTRE ST. W", "city": "RICHMOND HILL", "province": "ON", "country": "CA", "postalCode": "L4C3P7", "twitter": "None", "instagram": "None", "facebook": "None", "youtube": "None", "website": "None", "summary": "None", "logo": "None", "latitude": 43.874978859801736, "longitude": -79.44220642449085}, "820111300RR0001": {"name": "Grey Bruce Aboriginal Qimmiq Team", "designationCode": "C", "categoryCode": "54", "address": "113456 GREY ROAD 3            RR#1", "city": "HANOVER", "province": "ON", "country": "CA", "postalCode": "N4N3B8", "twitter": "None", "instagram": "None", "facebook": "None", "youtube": "None", "website": "None", "summary": "None", "logo": "None", "latitude": 44.17011867003089, "longitude": -80.95806803900783}, "869701862RR0001": {"name": "Grey Bruce Pregnancy Centre", "designationCode": "C", "categoryCode": "09", "address": "259 10TH ST E", "city": "OWEN SOUND", "province": "ON", "country": "CA", "postalCode": "N4K1S4", "twitter": "None", "instagram": "None", "facebook": "None", "youtube": "None", "website": "None", "summary": "None", "logo": "None", "latitude": 44.56782264167016, "longitude": -80.94222054509784}, "841015985RR0001": {"name": "Grey Dog Foundation", "designationCode": "C", "categoryCode": "11", "address": "202-5819 2 ST SW", "city": "CALGARY", "province": "AB", "country": "CA", "postalCode": "T3H0H3", "twitter": "None", "instagram": "None", "facebook": "None", "youtube": "None", "website": "None", "summary": "None", "logo": "None", "latitude": 51.0814662220323, "longitude": -114.22939265166286}, "805486024RR0001": {"name": "Grey Sisters Dominican Republic", "designationCode": "C", "categoryCode": "09", "address": "700 MACKAY STREET", "city": "PEMBROKE", "province": "ON", "country": "CA", "postalCode": "K8A1G6", "twitter": "None", "instagram": "None", "facebook": "None", "youtube": "None", "website": "None", "summary": "None", "logo": "None", "latitude": 45.81455873546046, "longitude": -77.10831354173837}, "834014516RR0001": {"name": "Grey/Bruce Special Hockey Foundation", "designationCode": "C", "categoryCode": "56", "address": "PO BOX 406 STN MAIN", "city": "HANOVER", "province": "ON", "country": "CA", "postalCode": "N4N3L9", "twitter": "None", "instagram": "None", "facebook": "None", "youtube": "None", "website": "None", "summary": "None", "logo": "None", "latitude": 44.152395000000055, "longitude": -81.02554999999994}, "825231970RR0001": {"name": "Greyhound Pets - NL Inc.", "designationCode": "C", "categoryCode": "54", "address": "SUITE 150, UNIT 50 HAMELYN RD.PLAZA", "city": "ST.JOHN'S", "province": "NL", "country": "CA", "postalCode": "A1E5S7", "twitter": "None", "instagram": "None", "facebook": "None", "youtube": "None", "website": "None", "summary": "None", "logo": "None", "latitude": 47.53405500000005, "longitude": -52.77325399999994}, "808546394RR0001": {"name": "Greyhound Pets of America - Canada", "designationCode": "C", "categoryCode": "54", "address": "6703 COUNTY RD 46             RR 3", "city": "MAIDSTONE", "province": "ON", "country": "CA", "postalCode": "N0R1K0", "twitter": "None", "instagram": "None", "facebook": "None", "youtube": "None", "website": "None", "summary": "None", "logo": "None", "latitude": 42.22921128562897, "longitude": -82.92393429319402}, "801788258RR0001": {"name": "Greystone Classic for Parkinson's Inc.", "designationCode": "B", "categoryCode": "03", "address": "300-1230 BLACKFOOT DRIVE", "city": "REGINA", "province": "SK", "country": "CA", "postalCode": "S4S7G4", "twitter": "None", "instagram": "None", "facebook": "None", "youtube": "None", "website": "None", "summary": "None", "logo": "None", "latitude": 50.42581930607874, "longitude": -104.59912088695336}, "836113977RR0001": {"name": "Griffin Foundation", "designationCode": "B", "categoryCode": "03", "address": "333 SEYMOUR STREET            SUITE 1600", "city": "VANCOUVER", "province": "BC", "country": "CA", "postalCode": "V6B0A4", "twitter": "None", "instagram": "None", "facebook": "None", "youtube": "None", "website": "None", "summary": "None", "logo": "None", "latitude": 49.285130321137856, "longitude": -123.11218777257757}, "828524157RR0001": {"name": "Grimsby Affordable Housing Partnership", "designationCode": "C", "categoryCode": "09", "address": "183 KING ST", "city": "ST CATHARINES", "province": "ON", "country": "CA", "postalCode": "L2R3J5", "twitter": "None", "instagram": "None", "facebook": "None", "youtube": "None", "website": "None", "summary": "None", "logo": "None", "latitude": 43.16135360035188, "longitude": -79.24354736112846}, "818353856RR0001": {"name": "Grimsby Bible Church", "designationCode": "C", "categoryCode": "39", "address": "377 PARK RD N", "city": "GRIMSBY", "province": "ON", "country": "CA", "postalCode": "L3M2P6", "twitter": "None", "instagram": "None", "facebook": "None", "youtube": "None", "website": "None", "summary": "None", "logo": "None", "latitude": 43.19226717652488, "longitude": -79.52514528201264}, "806788824RR0001": {"name": "Grimsby Life Centre Ministries", "designationCode": "C", "categoryCode": "39", "address": "18 ELM STREET,", "city": "GRIMSBY", "province": "ON", "country": "CA", "postalCode": "L3M1H3", "twitter": "None", "instagram": "None", "facebook": "None", "youtube": "None", "website": "None", "summary": "None", "logo": "None", "latitude": 43.192358019268916, "longitude": -79.56300908586002}, "139904783RR0001": {"name": "Grimshaw Pentecostal Church", "designationCode": "C", "categoryCode": "36", "address": "BOX 1007", "city": "GRIMSHAW", "province": "AB", "country": "CA", "postalCode": "T0H1W0", "twitter": "None", "instagram": "None", "facebook": "None", "youtube": "None", "website": "None", "summary": "None", "logo": "None", "latitude": 56.191580000000044, "longitude": -117.60929999999996}, "853024701RR0001": {"name": "Grins and Giggles Child Care Center Society", "designationCode": "C", "categoryCode": "20", "address": "1905 SPRINGFIELD RD", "city": "KELOWNA", "province": "BC", "country": "CA", "postalCode": "V1Y7V7", "twitter": "None", "instagram": "None", "facebook": "None", "youtube": "None", "website": "None", "summary": "None", "logo": "None", "latitude": 49.87720153895233, "longitude": -119.45394229961335}, "829032317RR0001": {"name": "Grist Mill Foundation", "designationCode": "C", "categoryCode": "52", "address": "2691 UPPER BENCH RD", "city": "KEREMEOS", "province": "BC", "country": "CA", "postalCode": "V0X1N4", "twitter": "None", "instagram": "None", "facebook": "None", "youtube": "None", "website": "None", "summary": "None", "logo": "None", "latitude": 49.21371075243604, "longitude": -119.8044551806488}, "839758398RR0001": {"name": "Grizzly Bear Foundation", "designationCode": "A", "categoryCode": "53", "address": "900-1333 W BROADWAY", "city": "VANCOUVER", "province": "BC", "country": "CA", "postalCode": "V6H4C2", "twitter": "None", "instagram": "None", "facebook": "None", "youtube": "None", "website": "None", "summary": "None", "logo": "None", "latitude": 49.2636048443685, "longitude": -123.13446441433003}, "842583551RR0001": {"name": "Grizzly Trail Pastoral Charge", "designationCode": "C", "categoryCode": "44", "address": "BOX 4062", "city": "BARRHEAD", "province": "AB", "country": "CA", "postalCode": "T7N1A1", "twitter": "None", "instagram": "None", "facebook": "None", "youtube": "None", "website": "None", "summary": "None", "logo": "None", "latitude": 54.12098400000005, "longitude": -114.40600999999992}, "829719129RR0001": {"name": "Gros Morne Summer Music Inc.", "designationCode": "C", "categoryCode": "22", "address": "30 ELSWICK ROAD", "city": "CORNER BROOK", "province": "NL", "country": "CA", "postalCode": "A2H2W6", "twitter": "None", "instagram": "None", "facebook": "None", "youtube": "None", "website": "None", "summary": "None", "logo": "None", "latitude": 48.946671608921555, "longitude": -57.93098656134222}, "835903485RR0001": {"name": "Groundbreakers Agriculture Association", "designationCode": "C", "categoryCode": "59", "address": "POST OFFICE BOX 2722", "city": "SMITHERS", "province": "BC", "country": "CA", "postalCode": "V0J2N0", "twitter": "None", "instagram": "None", "facebook": "None", "youtube": "None", "website": "None", "summary": "None", "logo": "None", "latitude": 54.78312000000005, "longitude": -127.16847999999999}, "804247807RR0001": {"name": "Groundling Theatre", "designationCode": "C", "categoryCode": "22", "address": "312 - 73 RICHMOND ST W", "city": "TORONTO", "province": "ON", "country": "CA", "postalCode": "M5H4E8", "twitter": "None", "instagram": "None", "facebook": "None", "youtube": "None", "website": "None", "summary": "None", "logo": "None", "latitude": 43.65076373122454, "longitude": -79.38307050453754}, "806560439RR0001": {"name": "Groundswell Church", "designationCode": "C", "categoryCode": "39", "address": "6 BONNYVIEW DR", "city": "ETOBICOKE", "province": "ON", "country": "CA", "postalCode": "M8Y3G6", "twitter": "None", "instagram": "None", "facebook": "None", "youtube": "None", "website": "None", "summary": "None", "logo": "None", "latitude": 43.629271606988326, "longitude": -79.4920997914477}, "810561845RR0001": {"name": "Groundswell Education Fund", "designationCode": "C", "categoryCode": "21", "address": "200 - 205 CHURCH ST", "city": "TORONTO", "province": "ON", "country": "CA", "postalCode": "M5B1Y7", "twitter": "None", "instagram": "None", "facebook": "None", "youtube": "None", "website": "None", "summary": "None", "logo": "None", "latitude": 43.655813622540244, "longitude": -79.37679700747317}, "795301894RR0001": {"name": "Group d'Entraide de la fibromyalgie et des douleurs chroniques des \u00eeles", "designationCode": "C", "categoryCode": "11", "address": "107 CH ARMAND-DECOSTE", "city": "FATIMA", "province": "QC", "country": "CA", "postalCode": "G4T2A5", "twitter": "None", "instagram": "None", "facebook": "None", "youtube": "None", "website": "None", "summary": "None", "logo": "None", "latitude": 47.41042289644547, "longitude": -61.89652426115196}, "802064451RR0001": {"name": "Group of Five and Friends Benevolent Society", "designationCode": "A", "categoryCode": "13", "address": "104-211 ASH ST", "city": "NEW WESTMINSTER", "province": "BC", "country": "CA", "postalCode": "V3M3M5", "twitter": "None", "instagram": "None", "facebook": "None", "youtube": "None", "website": "None", "summary": "None", "logo": "None", "latitude": 49.206270446303826, "longitude": -122.91586122104577}, "855427159RR0001": {"name": "Group ABA Childrens' Society", "designationCode": "C", "categoryCode": "20", "address": "1110 - 6900 GRAYBAR RD", "city": "RICHMOND", "province": "BC", "country": "CA", "postalCode": "V6W0A5", "twitter": "None", "instagram": "None", "facebook": "None", "youtube": "None", "website": "None", "summary": "None", "logo": "None", "latitude": 49.16433749627776, "longitude": -122.98946543663855}, "850791112RR0001": {"name": "Groupe accessibilit\u00e9 St-Augustin", "designationCode": "C", "categoryCode": "11", "address": "P. O. BOX 131", "city": "ST. AUGUSTIN", "province": "QC", "country": "CA", "postalCode": "G0G2R0", "twitter": "None", "instagram": "None", "facebook": "None", "youtube": "None", "website": "None", "summary": "None", "logo": "None", "latitude": 51.22602000000006, "longitude": -58.650169999999946}, "815104815RR0001": {"name": "Groupe choral Musikus Vivace!", "designationCode": "C", "categoryCode": "22", "address": "1436 RUE DE L'\u00c9TOILE", "city": "PR\u00c9VOST", "province": "QC", "country": "CA", "postalCode": "J0R1T0", "twitter": "None", "instagram": "None", "facebook": "None", "youtube": "None", "website": "None", "summary": "None", "logo": "None", "latitude": 45.88005053012285, "longitude": -74.06654410600738}, "140508276RR0001": {"name": "Groupe d'\u00e9ducation et d'\u00e9cosurveillance de l'eau (G3E)", "designationCode": "C", "categoryCode": "52", "address": "69 AVE JUCHEREAU              CP 700", "city": "QU\u00c9BEC", "province": "QC", "country": "CA", "postalCode": "G1R4S9", "twitter": "None", "instagram": "None", "facebook": "None", "youtube": "None", "website": "None", "summary": "None", "logo": "None", "latitude": 46.85971404607879, "longitude": -71.19524549584506}, "820953552RR0001": {"name": "Groupe d'action B\u00e9n\u00e9vole Ensemble de Sainte-Monique et de Saint-Henri", "designationCode": "C", "categoryCode": "09", "address": "138 RUE HONFLEUR", "city": "STE-MONIQUE", "province": "QC", "country": "CA", "postalCode": "G0W2T0", "twitter": "None", "instagram": "None", "facebook": "None", "youtube": "None", "website": "None", "summary": "None", "logo": "None", "latitude": 48.74137104662705, "longitude": -71.85088257928872}, "892767153RR0001": {"name": "Groupe d'entraide aux a\u00een\u00e9s", "designationCode": "C", "categoryCode": "09", "address": "42 RUE PRINCIPALE NORD", "city": "AMOS", "province": "QC", "country": "CA", "postalCode": "J9T2K6", "twitter": "None", "instagram": "None", "facebook": "None", "youtube": "None", "website": "None", "summary": "None", "logo": "None", "latitude": 48.57266658090484, "longitude": -78.1159485156388}, "828290221RR0001": {"name": "Groupe d'entraide cancer et vie", "designationCode": "C", "categoryCode": "11", "address": "106-37 RUE NOTRE-DAME OUEST", "city": "THETFORD MINES", "province": "QC", "country": "CA", "postalCode": "G6G1J1", "twitter": "None", "instagram": "None", "facebook": "None", "youtube": "None", "website": "None", "summary": "None", "logo": "None", "latitude": 46.08785312212363, "longitude": -71.30316086228751}, "812763795RR0001": {"name": "Groupe de la Sanctification et de le D\u00e9livrance", "designationCode": "C", "categoryCode": "39", "address": "1 - 265 MONTREAL RD", "city": "VANIER", "province": "ON", "country": "CA", "postalCode": "K1L6C4", "twitter": "None", "instagram": "None", "facebook": "None", "youtube": "None", "website": "None", "summary": "None", "logo": "None", "latitude": 45.43656146906908, "longitude": -75.66044296684738}, "102208881RR0001": {"name": "Groupe de recherche et d'\u00e9ducation sur les mammif\u00e8res Marins,GREMM", "designationCode": "C", "categoryCode": "21", "address": "108 CALE SECHE", "city": "TADOUSSAC", "province": "QC", "country": "CA", "postalCode": "G0T2A0", "twitter": "None", "instagram": "None", "facebook": "None", "youtube": "None", "website": "None", "summary": "None", "logo": "None", "latitude": 48.139247252293835, "longitude": -69.71904558451152}, "739423697RR0001": {"name": "Groupe de Sauvetage Animal One last Chance / One Last ChanceAnimal Rescue Team", "designationCode": "C", "categoryCode": "54", "address": "1357 AV OLIER-PAYETTE", "city": "LAVAL", "province": "QC", "country": "CA", "postalCode": "H7L0A3", "twitter": "None", "instagram": "None", "facebook": "None", "youtube": "None", "website": "None", "summary": "None", "logo": "None", "latitude": 45.61967097694627, "longitude": -73.77110959576424}, "852961580RR0001": {"name": "Groupe des Aidants du Sud-Ouest", "designationCode": "C", "categoryCode": "01", "address": "200 - 8564 BOUL NEWMAN", "city": "LASALLE", "province": "QC", "country": "CA", "postalCode": "H8N1Y5", "twitter": "None", "instagram": "None", "facebook": "None", "youtube": "None", "website": "None", "summary": "None", "logo": "None", "latitude": 45.431490290582325, "longitude": -73.63202371772755}, "874050404RR0001": {"name": "Groupe du bassin versant de la r\u00e9gion de Cap-Pel\u00e9 Inc.", "designationCode": "C", "categoryCode": "59", "address": "2647 CH ACADIE", "city": "CAP-PELE", "province": "NB", "country": "CA", "postalCode": "E4N1C2", "twitter": "None", "instagram": "None", "facebook": "None", "youtube": "None", "website": "None", "summary": "None", "logo": "None", "latitude": 46.21513538979904, "longitude": -64.27085740156939}, "803715069RR0001": {"name": "Groupe le tournant", "designationCode": "C", "categoryCode": "11", "address": "C.P 6123", "city": "ST-JEAN-SUR-RICHELIEU", "province": "QC", "country": "CA", "postalCode": "J2W2A1", "twitter": "None", "instagram": "None", "facebook": "None", "youtube": "None", "website": "None", "summary": "None", "logo": "None", "latitude": 45.30610500000006, "longitude": -73.25031049999993}, "812955367RR0001": {"name": "Groupe r\u00e9gional d'intervention sociale de l'Estrie (GRIS Est)", "designationCode": "C", "categoryCode": "59", "address": "505 RUE WELLINGTON S", "city": "SHERBROOKE", "province": "QC", "country": "CA", "postalCode": "J1H5E2", "twitter": "None", "instagram": "None", "facebook": "None", "youtube": "None", "website": "None", "summary": "None", "logo": "None", "latitude": 45.394864219256775, "longitude": -71.88660331461699}, "889757704RR0001": {"name": "Groupe r\u00e9gional d'intervention sociale(GRIS)-Mauricie/Centre-du-Qu\u00e9bec", "designationCode": "C", "categoryCode": "09", "address": "102 - 118 RUE RADISSON", "city": "TROIS-RIVIERES", "province": "QC", "country": "CA", "postalCode": "G9A2C4", "twitter": "None", "instagram": "None", "facebook": "None", "youtube": "None", "website": "None", "summary": "None", "logo": "None", "latitude": 46.34267208133754, "longitude": -72.54061537440136}, "831099866RR0001": {"name": "Groupe r\u00e9seau des assembl\u00e9es Chr\u00e9tiennes \u00e9vang\u00e9liques", "designationCode": "C", "categoryCode": "49", "address": "525 RUE MARTEL", "city": "ROUYN-NORANDA", "province": "QC", "country": "CA", "postalCode": "J9X3L8", "twitter": "None", "instagram": "None", "facebook": "None", "youtube": "None", "website": "None", "summary": "None", "logo": "None", "latitude": 48.2331206877776, "longitude": -78.99577370370486}, "140939463RR0001": {"name": "Groupe ressources des moulins", "designationCode": "C", "categoryCode": "09", "address": "208 CHEMIN DES ANGLAIS", "city": "MASCOUCHE", "province": "QC", "country": "CA", "postalCode": "J7L3N8", "twitter": "None", "instagram": "None", "facebook": "None", "youtube": "None", "website": "None", "summary": "None", "logo": "None", "latitude": 45.72960422647014, "longitude": -73.6564008534251}, "892846767RR0001": {"name": "Groupe scout de Beloeil (District de St-Hyacinthe) inc.", "designationCode": "C", "categoryCode": "29", "address": "C.P. 23534 CSP CP DES VILLAS", "city": "BELOEIL", "province": "QC", "country": "CA", "postalCode": "J3G6N2", "twitter": "None", "instagram": "None", "facebook": "None", "youtube": "None", "website": "None", "summary": "None", "logo": "None", "latitude": 45.56555549999999, "longitude": -73.22454675}, "891649469RR0001": {"name": "Groupe scout de Lauzon (District Rive-Sud/Beauce) inc.", "designationCode": "C", "categoryCode": "29", "address": "10, RUE GIGUERE", "city": "LEVIS", "province": "QC", "country": "CA", "postalCode": "G6V1N6", "twitter": "None", "instagram": "None", "facebook": "None", "youtube": "None", "website": "None", "summary": "None", "logo": "None", "latitude": 46.82420115901107, "longitude": -71.1709182909577}, "140998261RR0001": {"name": "Groupe scout de Terrebonne (District Saint-J\u00e9r\u00f4me)", "designationCode": "C", "categoryCode": "29", "address": "105, RUE DE SAINT-EMILION", "city": "TERREBONNE", "province": "QC", "country": "CA", "postalCode": "J6W2L2", "twitter": "None", "instagram": "None", "facebook": "None", "youtube": "None", "website": "None", "summary": "None", "logo": "None", "latitude": 45.71384338080665, "longitude": -73.61167275962275}, "847679313RR0001": {"name": "Groupe vaillants soldats de J\u00e9sus-Christ", "designationCode": "C", "categoryCode": "39", "address": "2742,AVENUE CHARLAND", "city": "MONTREAL", "province": "QC", "country": "CA", "postalCode": "H1Z1C9", "twitter": "None", "instagram": "None", "facebook": "None", "youtube": "None", "website": "None", "summary": "None", "logo": "None", "latitude": 45.57416123452022, "longitude": -73.63672579972892}, "827218728RR0001": {"name": "Groupe vocal vivace lt\u00e9e", "designationCode": "C", "categoryCode": "22", "address": "530 BOUL DE LA COTE-VERTU     UNITE 606", "city": "SAINT-LAURENT", "province": "QC", "country": "CA", "postalCode": "H4L1X9", "twitter": "None", "instagram": "None", "facebook": "None", "youtube": "None", "website": "None", "summary": "None", "logo": "None", "latitude": 45.52291902746847, "longitude": -73.67250255534096}, "107453524RR0001": {"name": "Groupe Alter justice", "designationCode": "C", "categoryCode": "01", "address": "203-275 RUE DU PARVIS", "city": "QU\u00c9BEC", "province": "QC", "country": "CA", "postalCode": "G1K6G7", "twitter": "None", "instagram": "None", "facebook": "None", "youtube": "None", "website": "None", "summary": "None", "logo": "None", "latitude": 46.81592147155058, "longitude": -71.22445367638063}, "121671275RR0001": {"name": "Groupe Aptas Inc.", "designationCode": "C", "categoryCode": "59", "address": "1332 BOUL VACHON NORD", "city": "SAINTE-MARIE", "province": "QC", "country": "CA", "postalCode": "G6E1N3", "twitter": "None", "instagram": "None", "facebook": "None", "youtube": "None", "website": "None", "summary": "None", "logo": "None", "latitude": 46.46136948739096, "longitude": -71.0414695226793}, "895694073RR0001": {"name": "Groupe I.M.A.G.E. de l'Abitibi-T\u00e9miscamingue", "designationCode": "C", "categoryCode": "09", "address": "29, RUE DES OBLATS N", "city": "VILLE-MARIE", "province": "QC", "country": "CA", "postalCode": "J9V1H9", "twitter": "None", "instagram": "None", "facebook": "None", "youtube": "None", "website": "None", "summary": "None", "logo": "None", "latitude": 47.33519458673322, "longitude": -79.4370845145996}, "120590187RR0001": {"name": "Groupe Information Travail inc.", "designationCode": "C", "categoryCode": "09", "address": "1585 BOUL RENE-LEVESQUE EST", "city": "MONTREAL", "province": "QC", "country": "CA", "postalCode": "H2L4L2", "twitter": "None", "instagram": "None", "facebook": "None", "youtube": "None", "website": "None", "summary": "None", "logo": "None", "latitude": 45.520421081049065, "longitude": -73.5508549005135}, "892658253RR0001": {"name": "Groupe Le Vivier", "designationCode": "C", "categoryCode": "22", "address": "1200, RUE DE BLEURY", "city": "MONTREAL", "province": "QC", "country": "CA", "postalCode": "H3B3J3", "twitter": "None", "instagram": "None", "facebook": "None", "youtube": "None", "website": "None", "summary": "None", "logo": "None", "latitude": 45.50574589837872, "longitude": -73.5659029718677}, "803250588RR0001": {"name": "Groupe McPeak-Sirois de recherche clinique en cancer du sein/ McPeak-Sirois Group for Clinical Research in Breast Cancer", "designationCode": "C", "categoryCode": "11", "address": "500 - 460 RUE MCGILL", "city": "MONTREAL", "province": "QC", "country": "CA", "postalCode": "H2Y2H2", "twitter": "None", "instagram": "None", "facebook": "None", "youtube": "None", "website": "None", "summary": "None", "logo": "None", "latitude": 45.50073031943577, "longitude": -73.55883192827041}, "713092898RR0001": {"name": "Groupe O'Drey", "designationCode": "B", "categoryCode": "09", "address": "8485 PLACE DE LA GOUVERNANTE", "city": "QUEBEC", "province": "QC", "country": "CA", "postalCode": "G1G3G7", "twitter": "None", "instagram": "None", "facebook": "None", "youtube": "None", "website": "None", "summary": "None", "logo": "None", "latitude": 46.87172165973222, "longitude": -71.26430554359727}, "892640061RR0001": {"name": "Groupe Paradoxe", "designationCode": "C", "categoryCode": "09", "address": "5959 BOULEVARD MONK", "city": "MONTREAL", "province": "QC", "country": "CA", "postalCode": "H4E3H5", "twitter": "None", "instagram": "None", "facebook": "None", "youtube": "None", "website": "None", "summary": "None", "logo": "None", "latitude": 45.45873502969018, "longitude": -73.59614452738155}, "807086749RR0001": {"name": "Groupe Rubberbandance / Rubberbandance Group", "designationCode": "C", "categoryCode": "22", "address": "859 BOUL DE MAISONNEUVE E     BUREAU 202", "city": "MONTREAL", "province": "QC", "country": "CA", "postalCode": "H2L1Y8", "twitter": "None", "instagram": "None", "facebook": "None", "youtube": "None", "website": "None", "summary": "None", "logo": "None", "latitude": 45.516693519851074, "longitude": -73.5598743408447}, "118948785RR0001": {"name": "Groupe Scout de Cap-Rouge (District de Qu\u00e9bec) Inc.", "designationCode": "C", "categoryCode": "29", "address": "4473 RUE ST-FELIX", "city": "QUEBEC", "province": "QC", "country": "CA", "postalCode": "G1Y3A6", "twitter": "None", "instagram": "None", "facebook": "None", "youtube": "None", "website": "None", "summary": "None", "logo": "None", "latitude": 46.741389298892194, "longitude": -71.35496781995536}, "860109917RR0001": {"name": "Groupe Scout le Bac, St-Lambert de Lauzon (District Rive-Sud/Beauce) inc.", "designationCode": "C", "categoryCode": "29", "address": "CASE POSTALE 67", "city": "ST-LAMBERT DE LAUZON", "province": "QC", "country": "CA", "postalCode": "G0S2W0", "twitter": "None", "instagram": "None", "facebook": "None", "youtube": "None", "website": "None", "summary": "None", "logo": "None", "latitude": 46.59240300000006, "longitude": -71.19931399999993}, "124920232RR0001": {"name": "Groupe Scout Saint-Bruno-de-Montarville Inc.", "designationCode": "C", "categoryCode": "39", "address": "C.P. 334 SUCC BUREAU-CHEF", "city": "SAINT-BRUNO", "province": "QC", "country": "CA", "postalCode": "J3V5G8", "twitter": "None", "instagram": "None", "facebook": "None", "youtube": "None", "website": "None", "summary": "None", "logo": "None", "latitude": 45.52679400000005, "longitude": -73.34480599999993}, "830031597RR0001": {"name": "Groupe Scout Sept-\u00celes (District \u00c9pinette) Inc.", "designationCode": "C", "categoryCode": "29", "address": "550, AVENUE CARTIER C.P. 362", "city": "SEPT-ILES", "province": "QC", "country": "CA", "postalCode": "G4R4K6", "twitter": "None", "instagram": "None", "facebook": "None", "youtube": "None", "website": "None", "summary": "None", "logo": "None", "latitude": 50.20899860341032, "longitude": -66.38685079317939}, "898586888RR0001": {"name": "Groupes bibliques universitaires et coll\u00e9giaux du Canada", "designationCode": "C", "categoryCode": "47", "address": "4824, CHEMIN COTE-DES-NEIGES  BUREAU 301", "city": "MONTREAL", "province": "QC", "country": "CA", "postalCode": "H3V1G4", "twitter": "None", "instagram": "None", "facebook": "None", "youtube": "None", "website": "None", "summary": "None", "logo": "None", "latitude": 45.49532050288555, "longitude": -73.61328180391251}, "841127566RR0001": {"name": "Growing Chefs Society", "designationCode": "C", "categoryCode": "29", "address": "500 - 610 MAIN ST", "city": "VANCOUVER", "province": "BC", "country": "CA", "postalCode": "V6A2V3", "twitter": "None", "instagram": "None", "facebook": "None", "youtube": "None", "website": "None", "summary": "None", "logo": "None", "latitude": 49.279329707163114, "longitude": -123.09969365930993}, "858959026RR0001": {"name": "Growing Chefs! Ontario Society", "designationCode": "C", "categoryCode": "29", "address": "458-462 KING ST.", "city": "LONDON", "province": "ON", "country": "CA", "postalCode": "N6B1S9", "twitter": "None", "instagram": "None", "facebook": "None", "youtube": "None", "website": "None", "summary": "None", "logo": "None", "latitude": 42.98605292091283, "longitude": -81.23640946378896}, "820919413RR0001": {"name": "Growing Minds Child Care Centre Inc.", "designationCode": "C", "categoryCode": "01", "address": "PO BOX 296", "city": "NIVERVILLE", "province": "MB", "country": "CA", "postalCode": "R0A1E0", "twitter": "None", "instagram": "None", "facebook": "None", "youtube": "None", "website": "None", "summary": "None", "logo": "None", "latitude": 49.60599000000006, "longitude": -97.04598199999994}, "841816887RR0001": {"name": "Growing Young Farmers Society", "designationCode": "C", "categoryCode": "21", "address": "5566 ALDERLEY RD", "city": "VICTORIA", "province": "BC", "country": "CA", "postalCode": "V8Y1Y1", "twitter": "None", "instagram": "None", "facebook": "None", "youtube": "None", "website": "None", "summary": "None", "logo": "None", "latitude": 48.541869147094516, "longitude": -123.3857945307571}, "831515101RR0001": {"name": "Grunthal Caring Hands Food Bank Inc.", "designationCode": "C", "categoryCode": "09", "address": "POST OFFICE BOX 579", "city": "GRUNTHAL", "province": "MB", "country": "CA", "postalCode": "R0A0R0", "twitter": "None", "instagram": "None", "facebook": "None", "youtube": "None", "website": "None", "summary": "None", "logo": "None", "latitude": 49.40668000000005, "longitude": -96.85131999999999}, "822138400RR0001": {"name": "Guardian Angel Animal Rescue, Saskatchewan Inc.", "designationCode": "C", "categoryCode": "54", "address": "POST OFFICE BOX 1751", "city": "YORKTON", "province": "SK", "country": "CA", "postalCode": "S3N3L4", "twitter": "None", "instagram": "None", "facebook": "None", "youtube": "None", "website": "None", "summary": "None", "logo": "None", "latitude": 51.20403900000005, "longitude": -102.44985199999994}, "107910259RR0127": {"name": "Guardian Angels Parish", "designationCode": "C", "categoryCode": "38", "address": "115 WEST ST N", "city": "ORILLIA", "province": "ON", "country": "CA", "postalCode": "L3V5C4", "twitter": "None", "instagram": "None", "facebook": "None", "youtube": "None", "website": "None", "summary": "None", "logo": "None", "latitude": 44.61141375019598, "longitude": -79.42232368801953}, "107910259RR0231": {"name": "Guardian Angels Parish", "designationCode": "C", "categoryCode": "38", "address": "46 ELSINORE STREET", "city": "BRAMPTON", "province": "ON", "country": "CA", "postalCode": "L7A1Z7", "twitter": "None", "instagram": "None", "facebook": "None", "youtube": "None", "website": "None", "summary": "None", "logo": "None", "latitude": 43.68163829975757, "longitude": -79.82297330365272}, "801583907RR0001": {"name": "Guelph Black Heritage Society", "designationCode": "C", "categoryCode": "50", "address": "304 STONE ROAD WEST           SUITE 214", "city": "GUELPH", "province": "ON", "country": "CA", "postalCode": "N1G4W4", "twitter": "None", "instagram": "None", "facebook": "None", "youtube": "None", "website": "None", "summary": "None", "logo": "None", "latitude": 43.51865389892697, "longitude": -80.23544417464987}, "851660068RR0001": {"name": "Guelph Canadian Reformed Elementary School", "designationCode": "C", "categoryCode": "20", "address": "108 FOREST ST", "city": "GUELPH", "province": "ON", "country": "CA", "postalCode": "N1G1H9", "twitter": "None", "instagram": "None", "facebook": "None", "youtube": "None", "website": "None", "summary": "None", "logo": "None", "latitude": 43.53008275682413, "longitude": -80.24591503546122}, "834845513RR0001": {"name": "Guelph Christian Church (Disciples of Christ) New Church Trust", "designationCode": "A", "categoryCode": "45", "address": "21 BRENTWOOD DRIVE", "city": "GUELPH", "province": "ON", "country": "CA", "postalCode": "N1H5M6", "twitter": "None", "instagram": "None", "facebook": "None", "youtube": "None", "website": "None", "summary": "None", "logo": "None", "latitude": 43.55350198272454, "longitude": -80.27740763631921}, "845103043RR0001": {"name": "Guelph Neighbourhood Support Coalition", "designationCode": "C", "categoryCode": "59", "address": "10 CARDEN STREET              UNIT CW3", "city": "GUELPH", "province": "ON", "country": "CA", "postalCode": "N1H3A2", "twitter": "None", "instagram": "None", "facebook": "None", "youtube": "None", "website": "None", "summary": "None", "logo": "None", "latitude": 43.543657864013994, "longitude": -80.24913334652885}, "886212919RR0001": {"name": "Guelph Symphony Orchestra", "designationCode": "C", "categoryCode": "22", "address": "35 WOOLWICH ST", "city": "GUELPH", "province": "ON", "country": "CA", "postalCode": "N1H3V1", "twitter": "None", "instagram": "None", "facebook": "None", "youtube": "None", "website": "None", "summary": "None", "logo": "None", "latitude": 43.54726036612012, "longitude": -80.24609430128679}, "807240445RR0001": {"name": "Guelph Vietnamese Community Church of the Christian and Missionary Alliance", "designationCode": "C", "categoryCode": "39", "address": "501 WHITELAW ROAD", "city": "GUELPH", "province": "ON", "country": "CA", "postalCode": "N1H1E7", "twitter": "None", "instagram": "None", "facebook": "None", "youtube": "None", "website": "None", "summary": "None", "logo": "None", "latitude": 43.511907309304824, "longitude": -80.27799910944023}, "118949478RR0001": {"name": "Guid'amies franco-canadiennes, Guid'amies franco-manitobaines", "designationCode": "C", "categoryCode": "29", "address": "273 TACH\u00c9 AVE", "city": "WINNIPEG", "province": "MB", "country": "CA", "postalCode": "R2H1Z8", "twitter": "None", "instagram": "None", "facebook": "None", "youtube": "None", "website": "None", "summary": "None", "logo": "None", "latitude": 49.88031070552253, "longitude": -97.12335380365272}, "899571574RR0001": {"name": "Guid'Amies franco-canadiennes", "designationCode": "C", "categoryCode": "29", "address": "87 RUE DESMEURONS", "city": "WINNIPEG", "province": "MB", "country": "CA", "postalCode": "R2H2M2", "twitter": "None", "instagram": "None", "facebook": "None", "youtube": "None", "website": "None", "summary": "None", "logo": "None", "latitude": 49.87476600000005, "longitude": -97.11009349999993}, "837147776RR0001": {"name": "Guide Us Home German Shepherd Rescue Society", "designationCode": "C", "categoryCode": "54", "address": "7126 GRANT ROAD WEST", "city": "SOOKE", "province": "BC", "country": "CA", "postalCode": "V9Z0N6", "twitter": "None", "instagram": "None", "facebook": "None", "youtube": "None", "website": "None", "summary": "None", "logo": "None", "latitude": 48.3736500107495, "longitude": -123.74690608284727}, "817485295RR0001": {"name": "Guild Festival Theatre", "designationCode": "C", "categoryCode": "22", "address": "118 CATALINA DR", "city": "SCARBOROUGH", "province": "ON", "country": "CA", "postalCode": "M1M1K8", "twitter": "None", "instagram": "None", "facebook": "None", "youtube": "None", "website": "None", "summary": "None", "logo": "None", "latitude": 43.7399997371746, "longitude": -79.20659245103568}, "846918571RR0001": {"name": "Guildford Islamic Cultural Center", "designationCode": "C", "categoryCode": "60", "address": "235-11590 CAMBIE RD           AZIM DAHYA & COMPANY, CGA", "city": "RICHMOND", "province": "BC", "country": "CA", "postalCode": "V6X3Z5", "twitter": "None", "instagram": "None", "facebook": "None", "youtube": "None", "website": "None", "summary": "None", "logo": "None", "latitude": 49.184479200963075, "longitude": -123.09378269676493}, "118818491RR0106": {"name": "Guildford Seventh-day Adventist Church", "designationCode": "C", "categoryCode": "41", "address": "1626 MCCALLUM ROAD            P.O. BOX 1000", "city": "ABBOTSFORD", "province": "BC", "country": "CA", "postalCode": "V2S4P5", "twitter": "None", "instagram": "None", "facebook": "None", "youtube": "None", "website": "None", "summary": "None", "logo": "None", "latitude": 49.03168545045878, "longitude": -122.29310866535904}, "815483706RR0001": {"name": "Guitare Montr\u00e9al", "designationCode": "C", "categoryCode": "22", "address": "530, 44I\u00c8ME AVENUE", "city": "LACHINE", "province": "QC", "country": "CA", "postalCode": "H8T2K8", "twitter": "None", "instagram": "None", "facebook": "None", "youtube": "None", "website": "None", "summary": "None", "logo": "None", "latitude": 45.44262269248079, "longitude": -73.70516171187052}, "829974757RR0001": {"name": "Guitars not Guns", "designationCode": "C", "categoryCode": "22", "address": "405 - 65 SCADDING AVE", "city": "TORONTO", "province": "ON", "country": "CA", "postalCode": "M5A4L1", "twitter": "None", "instagram": "None", "facebook": "None", "youtube": "None", "website": "None", "summary": "None", "logo": "None", "latitude": 43.64903891866247, "longitude": -79.36524503482605}}