{"118942986RR0002": {"name": "GRACE ANGLICAN CHURCH", "designationCode": "C", "categoryCode": "30", "address": "29145 TALBOT LINE", "city": "WALLACETOWN", "province": "ON", "country": "CA", "postalCode": "N0L2M0", "twitter": "None", "instagram": "None", "facebook": "None", "youtube": "None", "website": "None", "summary": "None", "logo": "None", "latitude": 42.62711445429659, "longitude": -81.47624372724954}, "118942994RR0001": {"name": "GRACE ANGLICAN CHURCH", "designationCode": "C", "categoryCode": "30", "address": "22686 HYDE PARK RD            RR 3", "city": "ILDERTON", "province": "ON", "country": "CA", "postalCode": "N0M2A0", "twitter": "None", "instagram": "None", "facebook": "None", "youtube": "None", "website": "None", "summary": "None", "logo": "None", "latitude": 43.081953882335874, "longitude": -81.37568021504451}, "118943000RR0002": {"name": "GRACE ANGLICAN CHURCH", "designationCode": "C", "categoryCode": "30", "address": "BOX 1812", "city": "BLENHEIM", "province": "ON", "country": "CA", "postalCode": "N0P1A0", "twitter": "None", "instagram": "None", "facebook": "None", "youtube": "None", "website": "None", "summary": "None", "logo": "None", "latitude": 42.34040003332553, "longitude": -82.00492995224775}, "118943018RR0002": {"name": "GRACE ANGLICAN CHURCH", "designationCode": "C", "categoryCode": "30", "address": "12 GRANT CRT                  RR 1", "city": "SOUTH RIVER", "province": "ON", "country": "CA", "postalCode": "P0A1X0", "twitter": "None", "instagram": "None", "facebook": "None", "youtube": "None", "website": "None", "summary": "None", "logo": "None", "latitude": 45.84608787121599, "longitude": -79.38903029644212}, "890169170RR0002": {"name": "GRACE ANGLICAN CHURCH, L'ACADIE", "designationCode": "C", "categoryCode": "30", "address": "370 CHEMIN GRAND PRE", "city": "SAINT-JEAN-SUR-RICHELIEU", "province": "QC", "country": "CA", "postalCode": "J2Y1E3", "twitter": "None", "instagram": "None", "facebook": "None", "youtube": "None", "website": "None", "summary": "None", "logo": "None", "latitude": 45.32863055813958, "longitude": -73.34752834433581}, "886374396RR0001": {"name": "GRACE APOSTOLIC CHURCH OF SCARBOROUGH CORPORATION", "designationCode": "C", "categoryCode": "39", "address": "801 PROGRESS AVENUE", "city": "SCARBOROUGH", "province": "ON", "country": "CA", "postalCode": "M1H2X4", "twitter": "None", "instagram": "None", "facebook": "None", "youtube": "None", "website": "None", "summary": "None", "logo": "None", "latitude": 43.780269786514296, "longitude": -79.24329651843743}, "861477040RR0001": {"name": "GRACE ASSEMBLY", "designationCode": "C", "categoryCode": "36", "address": "6179 PERTH ST UNIT 30", "city": "RICHMOND", "province": "ON", "country": "CA", "postalCode": "K0A2Z0", "twitter": "None", "instagram": "None", "facebook": "None", "youtube": "None", "website": "None", "summary": "None", "logo": "None", "latitude": 45.192713131859726, "longitude": -75.84151628077188}, "107443442RR0001": {"name": "GRACE BAPTIST CHURCH", "designationCode": "C", "categoryCode": "31", "address": "50 KIRKDALE ROAD", "city": "CHARLOTTETOWN", "province": "PE", "country": "CA", "postalCode": "C1E1N6", "twitter": "None", "instagram": "None", "facebook": "None", "youtube": "None", "website": "None", "summary": "None", "logo": "None", "latitude": 46.2647001484795, "longitude": -63.1643125814531}, "107443509RR0001": {"name": "GRACE BAPTIST CHURCH", "designationCode": "C", "categoryCode": "31", "address": "321 SOPHIA ST", "city": "SELKIRK", "province": "MB", "country": "CA", "postalCode": "R1A1Z2", "twitter": "None", "instagram": "None", "facebook": "None", "youtube": "None", "website": "None", "summary": "None", "logo": "None", "latitude": 50.143733635589086, "longitude": -96.88247419790653}, "107443541RR0001": {"name": "GRACE BAPTIST CHURCH", "designationCode": "C", "categoryCode": "31", "address": "1009 EAST LAKE BLVD", "city": "AIRDRIE", "province": "AB", "country": "CA", "postalCode": "T4A1R3", "twitter": "None", "instagram": "None", "facebook": "None", "youtube": "None", "website": "None", "summary": "None", "logo": "None", "latitude": 51.27730782528323, "longitude": -113.98988706438288}, "118803568RR0001": {"name": "GRACE BAPTIST CHURCH", "designationCode": "C", "categoryCode": "31", "address": "120 TALBOT ROAD NORTH", "city": "ESSEX", "province": "ON", "country": "CA", "postalCode": "N8M2C4", "twitter": "None", "instagram": "None", "facebook": "None", "youtube": "None", "website": "None", "summary": "None", "logo": "None", "latitude": 42.21134289884578, "longitude": -82.86088644892766}, "118943067RR0001": {"name": "GRACE BAPTIST CHURCH", "designationCode": "C", "categoryCode": "31", "address": "51 ATHORPE DRIVE", "city": "DARTMOUTH", "province": "NS", "country": "CA", "postalCode": "B2W1K9", "twitter": "None", "instagram": "None", "facebook": "None", "youtube": "None", "website": "None", "summary": "None", "logo": "None", "latitude": 44.67342288199008, "longitude": -63.5355796431411}, "118943133RR0001": {"name": "GRACE BAPTIST CHURCH", "designationCode": "C", "categoryCode": "31", "address": "220 BAYVIEW ST                BOX 207", "city": "SCHREIBER", "province": "ON", "country": "CA", "postalCode": "P0T2S0", "twitter": "None", "instagram": "None", "facebook": "None", "youtube": "None", "website": "None", "summary": "None", "logo": "None", "latitude": 48.80192333054428, "longitude": -87.268684022217}, "118943141RR0001": {"name": "GRACE BAPTIST CHURCH", "designationCode": "C", "categoryCode": "31", "address": "PO BOX 503", "city": "STE ROSE DU LAC", "province": "MB", "country": "CA", "postalCode": "R0L1S0", "twitter": "None", "instagram": "None", "facebook": "None", "youtube": "None", "website": "None", "summary": "None", "logo": "None", "latitude": 51.05911000000003, "longitude": -99.52392999999995}, "118943190RR0001": {"name": "GRACE BAPTIST CHURCH", "designationCode": "C", "categoryCode": "31", "address": "1150 GLENMORE DRIVE", "city": "KELOWNA", "province": "BC", "country": "CA", "postalCode": "V1Y4P3", "twitter": "None", "instagram": "None", "facebook": "None", "youtube": "None", "website": "None", "summary": "None", "logo": "None", "latitude": 49.89387616763807, "longitude": -119.45454461570131}, "118943976RR0001": {"name": "GRACE BAPTIST CHURCH", "designationCode": "C", "categoryCode": "31", "address": "BOX 295", "city": "SUNDERLAND", "province": "ON", "country": "CA", "postalCode": "L0C1H0", "twitter": "None", "instagram": "None", "facebook": "None", "youtube": "None", "website": "None", "summary": "None", "logo": "None", "latitude": 44.19987900000005, "longitude": -79.03574449999994}, "140326935RR0001": {"name": "GRACE BAPTIST CHURCH", "designationCode": "C", "categoryCode": "47", "address": "13570 78 AVENUE", "city": "SURREY", "province": "BC", "country": "CA", "postalCode": "V3W8V3", "twitter": "None", "instagram": "None", "facebook": "None", "youtube": "None", "website": "None", "summary": "None", "logo": "None", "latitude": 49.14449046681873, "longitude": -122.84662419317328}, "891558975RR0001": {"name": "GRACE BAPTIST CHURCH", "designationCode": "C", "categoryCode": "31", "address": "3800 RIDGEPOINT WAY", "city": "MISSISSAUGA", "province": "ON", "country": "CA", "postalCode": "L5N7T8", "twitter": "None", "instagram": "None", "facebook": "None", "youtube": "None", "website": "None", "summary": "None", "logo": "None", "latitude": 43.56473465055694, "longitude": -79.76333088285546}, "893180778RR0001": {"name": "GRACE BAPTIST CHURCH", "designationCode": "C", "categoryCode": "31", "address": "1378 KINGSTON ROAD", "city": "SCARBOROUGH", "province": "ON", "country": "CA", "postalCode": "M1N1R2", "twitter": "None", "instagram": "None", "facebook": "None", "youtube": "None", "website": "None", "summary": "None", "logo": "None", "latitude": 43.6863196722257, "longitude": -79.27311984430715}, "894813781RR0001": {"name": "GRACE BAPTIST CHURCH (INDEPENDENT) OF MONCTON INC.", "designationCode": "C", "categoryCode": "31", "address": "48032 HOMESTEAD ROAD", "city": "LUTES MOUNTAIN", "province": "NB", "country": "CA", "postalCode": "E1G2P7", "twitter": "None", "instagram": "None", "facebook": "None", "youtube": "None", "website": "None", "summary": "None", "logo": "None", "latitude": 46.123759640510116, "longitude": -64.92170645706476}, "845987742RR0001": {"name": "GRACE BAPTIST CHURCH - STRATHROY", "designationCode": "C", "categoryCode": "31", "address": "3355 LOBELIA DRIVE", "city": "ALVINSTON", "province": "ON", "country": "CA", "postalCode": "N0N1A0", "twitter": "None", "instagram": "None", "facebook": "None", "youtube": "None", "website": "None", "summary": "None", "logo": "None", "latitude": 42.811675317878844, "longitude": -81.83190149111508}, "118943083RR0001": {"name": "GRACE BAPTIST CHURCH ALLISTON", "designationCode": "C", "categoryCode": "31", "address": "BOX 527", "city": "ALLISTON", "province": "ON", "country": "CA", "postalCode": "L9R1V7", "twitter": "None", "instagram": "None", "facebook": "None", "youtube": "None", "website": "None", "summary": "None", "logo": "None", "latitude": 44.15432100000005, "longitude": -79.86752449999993}, "134970573RR0001": {"name": "GRACE BAPTIST CHURCH INC", "designationCode": "C", "categoryCode": "31", "address": "20 GOOD CORNER RD", "city": "GOOD CORNER", "province": "NB", "country": "CA", "postalCode": "E7K1B9", "twitter": "None", "instagram": "None", "facebook": "None", "youtube": "None", "website": "None", "summary": "None", "logo": "None", "latitude": 46.38476215068215, "longitude": -67.73966639866055}, "128883170RR0001": {"name": "GRACE BAPTIST CHURCH OF CALGARY", "designationCode": "C", "categoryCode": "31", "address": "2670 RADCLIFFE DR SE", "city": "CALGARY", "province": "AB", "country": "CA", "postalCode": "T2A7M2", "twitter": "None", "instagram": "None", "facebook": "None", "youtube": "None", "website": "None", "summary": "None", "logo": "None", "latitude": 51.045911918922286, "longitude": -113.99319468140095}, "850057944RR0001": {"name": "GRACE BAPTIST CHURCH OF OTTAWA", "designationCode": "C", "categoryCode": "39", "address": "PO BOX 558                    2470 HUNTLEY ROAD", "city": "STITTSVILLE", "province": "ON", "country": "CA", "postalCode": "K2S1B8", "twitter": "None", "instagram": "None", "facebook": "None", "youtube": "None", "website": "None", "summary": "None", "logo": "None", "latitude": 45.22063214317071, "longitude": -75.8890500027117}, "118943224RR0001": {"name": "GRACE BAPTIST CHURCH OF RICHMOND HILL", "designationCode": "C", "categoryCode": "31", "address": "270 WELDRICK RD W", "city": "RICHMOND HILL", "province": "ON", "country": "CA", "postalCode": "L4C3V3", "twitter": "None", "instagram": "None", "facebook": "None", "youtube": "None", "website": "None", "summary": "None", "logo": "None", "latitude": 43.85503516905171, "longitude": -79.45943594783303}, "894078872RR0001": {"name": "GRACE BAPTIST CHURCH OF SIMCOE, INC.", "designationCode": "C", "categoryCode": "31", "address": "735 NORFOLK ST N", "city": "SIMCOE", "province": "ON", "country": "CA", "postalCode": "N3Y3R6", "twitter": "None", "instagram": "None", "facebook": "None", "youtube": "None", "website": "None", "summary": "None", "logo": "None", "latitude": 42.854798157654734, "longitude": -80.31012684355736}, "894585165RR0001": {"name": "GRACE BAPTIST CHURCH OF THE COMOX VALLEY", "designationCode": "C", "categoryCode": "39", "address": "1280 THORPE AVENUE", "city": "COURTENAY", "province": "BC", "country": "CA", "postalCode": "V9N7K7", "twitter": "None", "instagram": "None", "facebook": "None", "youtube": "None", "website": "None", "summary": "None", "logo": "None", "latitude": 49.700550424663746, "longitude": -124.967783370766}, "118943232RR0001": {"name": "GRACE BAPTIST CHURCH OF VICTORIA", "designationCode": "C", "categoryCode": "31", "address": "2731 MATSON RD", "city": "VICTORIA", "province": "BC", "country": "CA", "postalCode": "V9B4M5", "twitter": "None", "instagram": "None", "facebook": "None", "youtube": "None", "website": "None", "summary": "None", "logo": "None", "latitude": 48.45356520231988, "longitude": -123.50560319631862}, "862631108RR0001": {"name": "GRACE BAPTIST CHURCH OF WINDSOR", "designationCode": "C", "categoryCode": "31", "address": "3150 TECUMSEH ROAD EAST", "city": "WINDSOR", "province": "ON", "country": "CA", "postalCode": "N8W1H1", "twitter": "None", "instagram": "None", "facebook": "None", "youtube": "None", "website": "None", "summary": "None", "logo": "None", "latitude": 42.30420626729745, "longitude": -82.98504517513989}, "893932327RR0001": {"name": "GRACE BAPTIST CHURCH SHELBURNE", "designationCode": "C", "categoryCode": "31", "address": "50 JOHN ST                    BOX 753", "city": "SHELBURNE", "province": "NS", "country": "CA", "postalCode": "B0T1W0", "twitter": "None", "instagram": "None", "facebook": "None", "youtube": "None", "website": "None", "summary": "None", "logo": "None", "latitude": 43.76311677549176, "longitude": -65.3188512505048}, "132112624RR0001": {"name": "GRACE BIBLE CHAPEL, PARKHILL", "designationCode": "C", "categoryCode": "39", "address": "277 MAIN STREET", "city": "PARKHILL", "province": "ON", "country": "CA", "postalCode": "N0M2K0", "twitter": "None", "instagram": "None", "facebook": "None", "youtube": "None", "website": "None", "summary": "None", "logo": "None", "latitude": 43.16507564266733, "longitude": -81.84273940053752}, "107443657RR0001": {"name": "GRACE BIBLE CHURCH", "designationCode": "C", "categoryCode": "39", "address": "1910 MOUNTAIN RD", "city": "DAUPHIN", "province": "MB", "country": "CA", "postalCode": "R7N3J6", "twitter": "None", "instagram": "None", "facebook": "None", "youtube": "None", "website": "None", "summary": "None", "logo": "None", "latitude": 51.15494211368147, "longitude": -100.039851}, "118943299RR0001": {"name": "GRACE BIBLE CHURCH", "designationCode": "C", "categoryCode": "39", "address": "PO BOX 9", "city": "LITTLE CURRENT", "province": "ON", "country": "CA", "postalCode": "P0P1K0", "twitter": "None", "instagram": "None", "facebook": "None", "youtube": "None", "website": "None", "summary": "None", "logo": "None", "latitude": 45.82642761199063, "longitude": -82.15772370619678}, "894169135RR0001": {"name": "GRACE BIBLE CHURCH", "designationCode": "C", "categoryCode": "31", "address": "PO BOX 32173", "city": "CAMBRIDGE", "province": "ON", "country": "CA", "postalCode": "N3H5M2", "twitter": "None", "instagram": "None", "facebook": "None", "youtube": "None", "website": "None", "summary": "None", "logo": "None", "latitude": 43.393209000000056, "longitude": -80.35917199999993}, "889228870RR0001": {"name": "GRACE BIBLE CHURCH INTERNATIONAL OF TORONTO", "designationCode": "C", "categoryCode": "39", "address": "P.O. BOX 80589                2300 LAWRENCE AVE E.", "city": "SCARBOROUGH", "province": "ON", "country": "CA", "postalCode": "M1P2R2", "twitter": "None", "instagram": "None", "facebook": "None", "youtube": "None", "website": "None", "summary": "None", "logo": "None", "latitude": 43.7492616812254, "longitude": -79.27658929999521}, "856327762RR0001": {"name": "GRACE BIBLE CHURCH OF VERNON", "designationCode": "C", "categoryCode": "34", "address": "5661 SILVER STAR ROAD", "city": "VERNON", "province": "BC", "country": "CA", "postalCode": "V1B3P5", "twitter": "None", "instagram": "None", "facebook": "None", "youtube": "None", "website": "None", "summary": "None", "logo": "None", "latitude": 50.286737175242145, "longitude": -119.2269921902524}, "873936603RR0001": {"name": "GRACE BIBLE CHURCH OF WINDSOR", "designationCode": "A", "categoryCode": "39", "address": "1089 HARRISON AVE", "city": "WINDSOR", "province": "ON", "country": "CA", "postalCode": "N9C3J2", "twitter": "None", "instagram": "None", "facebook": "None", "youtube": "None", "website": "None", "summary": "None", "logo": "None", "latitude": 42.29439996779969, "longitude": -83.06461955441732}, "135431203RR0001": {"name": "GRACE BIBLE CHURCH OF WINNIPEG", "designationCode": "C", "categoryCode": "39", "address": "366 OAKWOOD AVE", "city": "WINNIPEG", "province": "MB", "country": "CA", "postalCode": "R3L1E9", "twitter": "None", "instagram": "None", "facebook": "None", "youtube": "None", "website": "None", "summary": "None", "logo": "None", "latitude": 49.86296617733293, "longitude": -97.1316134070057}, "118943323RR0001": {"name": "GRACE BIBLE FELLOWSHIP OF SEXSMITH ALBERTA", "designationCode": "C", "categoryCode": "39", "address": "BOX 363", "city": "SEXSMITH", "province": "AB", "country": "CA", "postalCode": "T0H3C0", "twitter": "None", "instagram": "None", "facebook": "None", "youtube": "None", "website": "None", "summary": "None", "logo": "None", "latitude": 55.348520000000065, "longitude": -118.78230999999994}, "130653348RR0001": {"name": "GRACE CANADIAN LUTHERAN CHURCH", "designationCode": "C", "categoryCode": "32", "address": "BOX 67", "city": "BROADVIEW", "province": "SK", "country": "CA", "postalCode": "S0G0K0", "twitter": "None", "instagram": "None", "facebook": "None", "youtube": "None", "website": "None", "summary": "None", "logo": "None", "latitude": 50.378010000000074, "longitude": -102.58020999999997}, "130638257RR0001": {"name": "GRACE CANADIAN REFORMED CHURCH AT KERWOOD, ONTARIO", "designationCode": "C", "categoryCode": "39", "address": "PO BOX 276", "city": "STRATHROY", "province": "ON", "country": "CA", "postalCode": "N7G3J2", "twitter": "None", "instagram": "None", "facebook": "None", "youtube": "None", "website": "None", "summary": "None", "logo": "None", "latitude": 42.95607900000006, "longitude": -81.62186299999993}, "106866015RR0001": {"name": "GRACE CANADIAN REFORMED CHURCH OF BRAMPTON", "designationCode": "C", "categoryCode": "39", "address": "17 HARDWICK DR", "city": "BRAMPTON", "province": "ON", "country": "CA", "postalCode": "L6W2Z5", "twitter": "None", "instagram": "None", "facebook": "None", "youtube": "None", "website": "None", "summary": "None", "logo": "None", "latitude": 43.68725444630383, "longitude": -79.7462931017082}, "118835545RR0001": {"name": "GRACE CANADIAN REFORMED CHURCH OF WINNIPEG", "designationCode": "C", "categoryCode": "39", "address": "P.O.BOX 43021                 RPO KILDONAN PLACE", "city": "WINNIPEG", "province": "MB", "country": "CA", "postalCode": "R2C5G5", "twitter": "None", "instagram": "None", "facebook": "None", "youtube": "None", "website": "None", "summary": "None", "logo": "None", "latitude": 49.86555900000006, "longitude": -97.03020949999993}, "844541219RR0001": {"name": "GRACE CAPSTONE MINISTRIES INC.", "designationCode": "C", "categoryCode": "20", "address": "180 ST LAWRENCE CRESCENT", "city": "SASKATOON", "province": "SK", "country": "CA", "postalCode": "S7K3W7", "twitter": "None", "instagram": "None", "facebook": "None", "youtube": "None", "website": "None", "summary": "None", "logo": "None", "latitude": 52.16391200138498, "longitude": -106.64296294584247}, "118943356RR0001": {"name": "GRACE CHAPEL", "designationCode": "C", "categoryCode": "39", "address": "P O BOX 502", "city": "STIRLING", "province": "ON", "country": "CA", "postalCode": "K0K3E0", "twitter": "None", "instagram": "None", "facebook": "None", "youtube": "None", "website": "None", "summary": "None", "logo": "None", "latitude": 44.29383000389519, "longitude": -77.55681006939226}, "134000868RR0001": {"name": "GRACE CHAPEL", "designationCode": "C", "categoryCode": "39", "address": "PO BOX 51005                  RPO ROCKINGHAM RDGE", "city": "HALIFAX", "province": "NS", "country": "CA", "postalCode": "B3M4R8", "twitter": "None", "instagram": "None", "facebook": "None", "youtube": "None", "website": "None", "summary": "None", "logo": "None", "latitude": 44.67586000000006, "longitude": -63.669329999999945}, "118943349RR0001": {"name": "GRACE CHAPEL ASSEMBLY", "designationCode": "C", "categoryCode": "39", "address": "199 LAKESHORE LANE", "city": "TIMMINS", "province": "ON", "country": "CA", "postalCode": "P4N7A2", "twitter": "None", "instagram": "None", "facebook": "None", "youtube": "None", "website": "None", "summary": "None", "logo": "None", "latitude": 48.480095535003144, "longitude": -81.32183954265419}, "118943372RR0001": {"name": "GRACE CHAPEL INC.", "designationCode": "C", "categoryCode": "39", "address": "19 BERRYDALE AVE", "city": "WINNIPEG", "province": "MB", "country": "CA", "postalCode": "R2M1M1", "twitter": "None", "instagram": "None", "facebook": "None", "youtube": "None", "website": "None", "summary": "None", "logo": "None", "latitude": 49.842170819348844, "longitude": -97.11131131559794}, "118943380RR0001": {"name": "GRACE CHAPEL OF THE CHRISTIAN BRETHREN CHURCH", "designationCode": "C", "categoryCode": "39", "address": "1380 RUE PLEASANT VIEW", "city": "SHERBROOKE", "province": "QC", "country": "CA", "postalCode": "J1M0C6", "twitter": "None", "instagram": "None", "facebook": "None", "youtube": "None", "website": "None", "summary": "None", "logo": "None", "latitude": 45.34294253952927, "longitude": -71.84663049708581}, "887460954RR0001": {"name": "GRACE CHEN-EN CHRISTIAN CHURCH", "designationCode": "C", "categoryCode": "39", "address": "12315 56 AVE", "city": "SURREY", "province": "BC", "country": "CA", "postalCode": "V3X2X2", "twitter": "None", "instagram": "None", "facebook": "None", "youtube": "None", "website": "None", "summary": "None", "logo": "None", "latitude": 49.10496357591318, "longitude": -122.88164959423504}, "134998186RR0001": {"name": "GRACE CHINESE GOSPEL CHURCH OF NORTH YORK", "designationCode": "C", "categoryCode": "39", "address": "201 TEMPO AVE.", "city": "NORTH YORK", "province": "ON", "country": "CA", "postalCode": "M2H2R9", "twitter": "None", "instagram": "None", "facebook": "None", "youtube": "None", "website": "None", "summary": "None", "logo": "None", "latitude": 43.80575890697704, "longitude": -79.33991420578234}, "107443830RR0001": {"name": "GRACE CHRISTIAN CENTRE OF ELLIOT LAKE", "designationCode": "C", "categoryCode": "39", "address": "1 COLLEGE PLACE BOX 130", "city": "ELLIOT LAKE", "province": "ON", "country": "CA", "postalCode": "P5A2J6", "twitter": "None", "instagram": "None", "facebook": "None", "youtube": "None", "website": "None", "summary": "None", "logo": "None", "latitude": 46.371805444786396, "longitude": -82.61516642777633}, "881225916RR0001": {"name": "GRACE CHRISTIAN CHAPEL", "designationCode": "C", "categoryCode": "34", "address": "#4-440 MAIN ST.", "city": "VANCOUVER", "province": "BC", "country": "CA", "postalCode": "V6A2T4", "twitter": "None", "instagram": "None", "facebook": "None", "youtube": "None", "website": "None", "summary": "None", "logo": "None", "latitude": 49.280652136274455, "longitude": -123.09964936340843}, "139218192RR0001": {"name": "GRACE CHRISTIAN CHURCH", "designationCode": "C", "categoryCode": "44", "address": "92 GARDEN PATH", "city": "CHATHAM", "province": "ON", "country": "CA", "postalCode": "N7L5L6", "twitter": "None", "instagram": "None", "facebook": "None", "youtube": "None", "website": "None", "summary": "None", "logo": "None", "latitude": 42.40410230945244, "longitude": -82.21772705978437}, "878692102RR0001": {"name": "GRACE CHRISTIAN FELLOWSHIP OF FERGUS", "designationCode": "C", "categoryCode": "39", "address": "35 FARLEY ROAD", "city": "FERGUS", "province": "ON", "country": "CA", "postalCode": "N1M2W3", "twitter": "None", "instagram": "None", "facebook": "None", "youtube": "None", "website": "None", "summary": "None", "logo": "None", "latitude": 43.65273231403404, "longitude": -79.7503812619565}, "107443905RR0001": {"name": "GRACE CHRISTIAN REFORMED CHURCH OF CHATHAM", "designationCode": "C", "categoryCode": "39", "address": "PO BOX 337 STN MAIN", "city": "CHATHAM", "province": "ON", "country": "CA", "postalCode": "N7M5K4", "twitter": "None", "instagram": "None", "facebook": "None", "youtube": "None", "website": "None", "summary": "None", "logo": "None", "latitude": 42.404613000000055, "longitude": -82.18960099999994}, "107443863RR0001": {"name": "GRACE CHRISTIAN REFORMED CHURCH OF COBOURG", "designationCode": "C", "categoryCode": "39", "address": "440 KING STREET EAST", "city": "COBOURG", "province": "ON", "country": "CA", "postalCode": "K9A1M6", "twitter": "None", "instagram": "None", "facebook": "None", "youtube": "None", "website": "None", "summary": "None", "logo": "None", "latitude": 43.96496114741163, "longitude": -78.1440002431472}, "107443889RR0001": {"name": "GRACE CHRISTIAN REFORMED CHURCH OF SCARBOROUGH", "designationCode": "C", "categoryCode": "39", "address": "25 CHANNEL NINE COURT", "city": "SCARBOROUGH", "province": "ON", "country": "CA", "postalCode": "M1S4B5", "twitter": "None", "instagram": "None", "facebook": "None", "youtube": "None", "website": "None", "summary": "None", "logo": "None", "latitude": 43.78427104218364, "longitude": -79.25644630656691}, "107443871RR0001": {"name": "GRACE CHRISTIAN REFORMED CHURCH OF WELLAND", "designationCode": "C", "categoryCode": "39", "address": "660 SOUTH PELHAM RD", "city": "WELLAND", "province": "ON", "country": "CA", "postalCode": "L3C3C8", "twitter": "None", "instagram": "None", "facebook": "None", "youtube": "None", "website": "None", "summary": "None", "logo": "None", "latitude": 43.00689527699234, "longitude": -79.28530593176245}, "107445298RR0001": {"name": "GRACE CHURCH", "designationCode": "C", "categoryCode": "39", "address": "895 EMPIRE ROAD", "city": "SHERKSTON", "province": "ON", "country": "CA", "postalCode": "L0S1R0", "twitter": "None", "instagram": "None", "facebook": "None", "youtube": "None", "website": "None", "summary": "None", "logo": "None", "latitude": 42.888653580904844, "longitude": -79.13449250000093}, "108099771RR0006": {"name": "GRACE CHURCH", "designationCode": "C", "categoryCode": "30", "address": "317 MAIN ST EAST", "city": "MILTON", "province": "ON", "country": "CA", "postalCode": "L9T1P5", "twitter": "None", "instagram": "None", "facebook": "None", "youtube": "None", "website": "None", "summary": "None", "logo": "None", "latitude": 43.51545498531348, "longitude": -79.88075181380894}, "108099771RR0031": {"name": "GRACE CHURCH", "designationCode": "C", "categoryCode": "30", "address": "P.O. BOX 184", "city": "ARTHUR", "province": "ON", "country": "CA", "postalCode": "N0G1A0", "twitter": "None", "instagram": "None", "facebook": "None", "youtube": "None", "website": "None", "summary": "None", "logo": "None", "latitude": 44.05516430804911, "longitude": -80.92867545949541}, "108099771RR0096": {"name": "GRACE CHURCH", "designationCode": "C", "categoryCode": "30", "address": "28 EAGLESON DR", "city": "ST CATHARINES", "province": "ON", "country": "CA", "postalCode": "L2M7J4", "twitter": "None", "instagram": "None", "facebook": "None", "youtube": "None", "website": "None", "summary": "None", "logo": "None", "latitude": 43.18914524672525, "longitude": -79.21911358575227}, "118943497RR0002": {"name": "GRACE CHURCH", "designationCode": "C", "categoryCode": "30", "address": "52 PRINCIPALE SUD", "city": "SUTTON", "province": "QC", "country": "CA", "postalCode": "J0E2K0", "twitter": "None", "instagram": "None", "facebook": "None", "youtube": "None", "website": "None", "summary": "None", "logo": "None", "latitude": 45.10311013070587, "longitude": -72.61784441768151}, "869975649RR0001": {"name": "GRACE CHURCH", "designationCode": "C", "categoryCode": "30", "address": "7 CHURCH RD                   BOX 28", "city": "ARUNDEL", "province": "QC", "country": "CA", "postalCode": "J0T1A0", "twitter": "None", "instagram": "None", "facebook": "None", "youtube": "None", "website": "None", "summary": "None", "logo": "None", "latitude": 45.96256520315662, "longitude": -74.61763729525686}, "107443970RR0002": {"name": "GRACE CHURCH (ANGLICAN)", "designationCode": "C", "categoryCode": "30", "address": "4 PEARL ST", "city": "BRANTFORD", "province": "ON", "country": "CA", "postalCode": "N3T3N4", "twitter": "None", "instagram": "None", "facebook": "None", "youtube": "None", "website": "None", "summary": "None", "logo": "None", "latitude": 43.14204895605403, "longitude": -80.26796366236313}, "837037068RR0001": {"name": "GRACE CHURCH NEWMARKET", "designationCode": "C", "categoryCode": "39", "address": "221 CARLSON DRIVE", "city": "NEWMARKET", "province": "ON", "country": "CA", "postalCode": "L3Y3H4", "twitter": "None", "instagram": "None", "facebook": "None", "youtube": "None", "website": "None", "summary": "None", "logo": "None", "latitude": 44.05609276363254, "longitude": -79.43567787417113}, "107444010RR0001": {"name": "GRACE CHURCH OF THE MENNONITE BRETHREN", "designationCode": "C", "categoryCode": "34", "address": "BOX 179", "city": "CRANBERRY PORTAGE", "province": "MB", "country": "CA", "postalCode": "R0B0H0", "twitter": "None", "instagram": "None", "facebook": "None", "youtube": "None", "website": "None", "summary": "None", "logo": "None", "latitude": 54.58665000000008, "longitude": -101.37787999999995}, "131789703RR0001": {"name": "GRACE CHURCH OF THE NAZARENE,", "designationCode": "C", "categoryCode": "39", "address": "651 OWEN SOUND ST", "city": "SHELBURNE", "province": "ON", "country": "CA", "postalCode": "L9V2W9", "twitter": "None", "instagram": "None", "facebook": "None", "youtube": "None", "website": "None", "summary": "None", "logo": "None", "latitude": 44.08615467109398, "longitude": -80.20643313596553}, "118943646RR0001": {"name": "GRACE CHURCH-ON-THE-HILL", "designationCode": "C", "categoryCode": "30", "address": "300 LONSDALE ROAD", "city": "TORONTO", "province": "ON", "country": "CA", "postalCode": "M4V1X4", "twitter": "None", "instagram": "None", "facebook": "None", "youtube": "None", "website": "None", "summary": "None", "logo": "None", "latitude": 43.6893271906918, "longitude": -79.40961648488079}, "132348863RR0001": {"name": "GRACE CHURCH, MARKHAM,", "designationCode": "C", "categoryCode": "30", "address": "19 PARKWAY AVENUE", "city": "MARKHAM", "province": "ON", "country": "CA", "postalCode": "L3P2E9", "twitter": "None", "instagram": "None", "facebook": "None", "youtube": "None", "website": "None", "summary": "None", "logo": "None", "latitude": 43.88189581594465, "longitude": -79.25834648277466}, "134624535RR0001": {"name": "GRACE COMMUNITY BAPTIST CHURCH", "designationCode": "C", "categoryCode": "31", "address": "6825 KERR STREET", "city": "VANCOUVER", "province": "BC", "country": "CA", "postalCode": "V5S3C7", "twitter": "None", "instagram": "None", "facebook": "None", "youtube": "None", "website": "None", "summary": "None", "logo": "None", "latitude": 49.22200932001268, "longitude": -123.04125580131544}, "138806633RR0001": {"name": "GRACE COMMUNITY BIBLE CHURCH, SHAWVILLE/EGLISE COMMUNAUTAIRE BIBLIQUE DE GRACE, SHAWVILLE", "designationCode": "C", "categoryCode": "39", "address": "BOX 501", "city": "SHAWVILLE", "province": "QC", "country": "CA", "postalCode": "J0X2Y0", "twitter": "None", "instagram": "None", "facebook": "None", "youtube": "None", "website": "None", "summary": "None", "logo": "None", "latitude": 45.599560000000054, "longitude": -76.49331999999998}, "107444093RR0001": {"name": "GRACE COMMUNITY CHURCH", "designationCode": "C", "categoryCode": "39", "address": "801 WHEELER ST", "city": "WHITEHORSE", "province": "YT", "country": "CA", "postalCode": "Y1A2P8", "twitter": "None", "instagram": "None", "facebook": "None", "youtube": "None", "website": "None", "summary": "None", "logo": "None", "latitude": 60.72264067110051, "longitude": -135.06867701511922}, "118850320RR0001": {"name": "GRACE COMMUNITY CHURCH", "designationCode": "C", "categoryCode": "36", "address": "P.O. BOX 46072 R.P.O. WESTDALE", "city": "WINNIPEG", "province": "MB", "country": "CA", "postalCode": "R3R3S3", "twitter": "None", "instagram": "None", "facebook": "None", "youtube": "None", "website": "None", "summary": "None", "logo": "None", "latitude": 49.85603700000006, "longitude": -97.28689849999994}, "118943679RR0001": {"name": "GRACE COMMUNITY CHURCH", "designationCode": "C", "categoryCode": "39", "address": "16 HILLSIDE COURT BOX 1284", "city": "ST MARY'S", "province": "ON", "country": "CA", "postalCode": "N4X1B8", "twitter": "None", "instagram": "None", "facebook": "None", "youtube": "None", "website": "None", "summary": "None", "logo": "None", "latitude": 43.25961468108008, "longitude": -81.12133823044535}, "888124195RR0001": {"name": "GRACE COMMUNITY CHURCH", "designationCode": "C", "categoryCode": "34", "address": "BOX 577", "city": "HERBERT", "province": "SK", "country": "CA", "postalCode": "S0H2A0", "twitter": "None", "instagram": "None", "facebook": "None", "youtube": "None", "website": "None", "summary": "None", "logo": "None", "latitude": 50.42651921542417, "longitude": -107.22535903213169}, "895981744RR0001": {"name": "GRACE COMMUNITY CHURCH INC.", "designationCode": "C", "categoryCode": "39", "address": "2831 SUNNINGHILL CRES", "city": "REGINA", "province": "SK", "country": "CA", "postalCode": "S4V0N7", "twitter": "None", "instagram": "None", "facebook": "None", "youtube": "None", "website": "None", "summary": "None", "logo": "None", "latitude": 50.43458613962135, "longitude": -104.52859592977097}, "118943687RR0001": {"name": "GRACE COMMUNITY CHURCH OF GUELPH", "designationCode": "C", "categoryCode": "47", "address": "7427 WELLINGTON ROAD 30       RR 5", "city": "GUELPH", "province": "ON", "country": "CA", "postalCode": "N1H6J2", "twitter": "None", "instagram": "None", "facebook": "None", "youtube": "None", "website": "None", "summary": "None", "logo": "None", "latitude": 43.580541585556944, "longitude": -80.30656731641072}, "132226416RR0001": {"name": "GRACE COMMUNITY CHURCH OF THOROLD INC", "designationCode": "C", "categoryCode": "39", "address": "241 ST DAVID'S RD W", "city": "THOROLD", "province": "ON", "country": "CA", "postalCode": "L2V2M2", "twitter": "None", "instagram": "None", "facebook": "None", "youtube": "None", "website": "None", "summary": "None", "logo": "None", "latitude": 43.12441641825843, "longitude": -79.22273134970284}, "871864245RR0001": {"name": "GRACE COMMUNITY EVANGELICAL FREE CHURCH", "designationCode": "C", "categoryCode": "39", "address": "3161 SECHELT DRIVE", "city": "COQUITLAM", "province": "BC", "country": "CA", "postalCode": "V3B5X8", "twitter": "None", "instagram": "None", "facebook": "None", "youtube": "None", "website": "None", "summary": "None", "logo": "None", "latitude": 49.28542204417551, "longitude": -122.78088520670687}, "893849661RR0001": {"name": "GRACE CONFERENCES", "designationCode": "C", "categoryCode": "49", "address": "400 - 7015 MACLEOD TRAIL SW", "city": "CALGARY", "province": "AB", "country": "CA", "postalCode": "T2H2K6", "twitter": "None", "instagram": "None", "facebook": "None", "youtube": "None", "website": "None", "summary": "None", "logo": "None", "latitude": 50.99439991848855, "longitude": -114.0716953460148}, "891111742RR0001": {"name": "GRACE COVENANT CHURCH", "designationCode": "C", "categoryCode": "39", "address": "1260 SHEFFIELD ROAD", "city": "SHEFFIELD", "province": "ON", "country": "CA", "postalCode": "L0R1Z0", "twitter": "None", "instagram": "None", "facebook": "None", "youtube": "None", "website": "None", "summary": "None", "logo": "None", "latitude": 43.32646741326678, "longitude": -80.20915277306851}, "107445181RR0001": {"name": "GRACE COVENANT CHURCH SUNSHINE COAST", "designationCode": "C", "categoryCode": "37", "address": "837 MANSFIELD RD", "city": "ROBERTS CREEK", "province": "BC", "country": "CA", "postalCode": "V0N2W5", "twitter": "None", "instagram": "None", "facebook": "None", "youtube": "None", "website": "None", "summary": "None", "logo": "None", "latitude": 49.41065224709967, "longitude": -123.56973044246881}, "898621800RR0001": {"name": "GRACE DISCIPLES EVANGELIZING THE WORLD SOCIETY", "designationCode": "C", "categoryCode": "39", "address": "16705 - 109 AVENUE", "city": "SURREY", "province": "BC", "country": "CA", "postalCode": "V4N5H6", "twitter": "None", "instagram": "None", "facebook": "None", "youtube": "None", "website": "None", "summary": "None", "logo": "None", "latitude": 49.200431405505164, "longitude": -122.7591368308614}, "891719973RR0001": {"name": "GRACE EDIE MEMORIAL TRUST FUND", "designationCode": "B", "categoryCode": "25", "address": "#202, 14964-121A AVE", "city": "EDMONTON", "province": "AB", "country": "CA", "postalCode": "T5V1A3", "twitter": "None", "instagram": "None", "facebook": "None", "youtube": "None", "website": "None", "summary": "None", "logo": "None", "latitude": 53.573544, "longitude": -113.58011474999999}, "891830374RR0001": {"name": "GRACE ESSENCE MEDITATION SCHOOL INC", "designationCode": "C", "categoryCode": "39", "address": "119 KINGSTON ROW", "city": "WINNIPEG", "province": "MB", "country": "CA", "postalCode": "R2M0S7", "twitter": "None", "instagram": "None", "facebook": "None", "youtube": "None", "website": "None", "summary": "None", "logo": "None", "latitude": 49.855361005308794, "longitude": -97.12248181406873}, "865848139RR0001": {"name": "GRACE ETHIOPIAN EVANGELICAL CHURCH", "designationCode": "C", "categoryCode": "39", "address": "7895 CANADA WAY", "city": "BURNABY", "province": "BC", "country": "CA", "postalCode": "V3N3K8", "twitter": "None", "instagram": "None", "facebook": "None", "youtube": "None", "website": "None", "summary": "None", "logo": "None", "latitude": 49.217180963067804, "longitude": -122.93190934390313}, "107443962RR0001": {"name": "GRACE EVANGELICAL BIBLE CHURCH SOCIETY", "designationCode": "C", "categoryCode": "34", "address": "2087 MCMILLAN ROAD", "city": "ABBOTSFORD", "province": "BC", "country": "CA", "postalCode": "V2S4Y3", "twitter": "None", "instagram": "None", "facebook": "None", "youtube": "None", "website": "None", "summary": "None", "logo": "None", "latitude": 49.04039346928396, "longitude": -122.26062568690617}, "896596830RR0001": {"name": "GRACE EVANGELICAL FREE CHURCH OF THUNDER BAY", "designationCode": "C", "categoryCode": "39", "address": "289 COURT ST N", "city": "THUNDER BAY", "province": "ON", "country": "CA", "postalCode": "P7A4W3", "twitter": "None", "instagram": "None", "facebook": "None", "youtube": "None", "website": "None", "summary": "None", "logo": "None", "latitude": 48.4441878523286, "longitude": -89.21249222866317}, "107444242RR0001": {"name": "GRACE EVANGELICAL LUTHERAN CHURCH", "designationCode": "C", "categoryCode": "32", "address": "1273 FORT ST", "city": "VICTORIA", "province": "BC", "country": "CA", "postalCode": "V8V3L4", "twitter": "None", "instagram": "None", "facebook": "None", "youtube": "None", "website": "None", "summary": "None", "logo": "None", "latitude": 48.42335993640742, "longitude": -123.346214283773}, "118943752RR0001": {"name": "GRACE EVANGELICAL LUTHERAN CHURCH", "designationCode": "C", "categoryCode": "32", "address": "304-5 CRANDALL ST", "city": "PEMBROKE", "province": "ON", "country": "CA", "postalCode": "K8A8H6", "twitter": "None", "instagram": "None", "facebook": "None", "youtube": "None", "website": "None", "summary": "None", "logo": "None", "latitude": 45.83354791717366, "longitude": -77.14636781785144}, "118943760RR0001": {"name": "GRACE EVANGELICAL LUTHERAN CHURCH", "designationCode": "C", "categoryCode": "32", "address": "BOX 238", "city": "LANGRUTH", "province": "MB", "country": "CA", "postalCode": "R0H0N0", "twitter": "None", "instagram": "None", "facebook": "None", "youtube": "None", "website": "None", "summary": "None", "logo": "None", "latitude": 50.38602000000003, "longitude": -98.67416999999995}, "118943778RR0001": {"name": "GRACE EVANGELICAL LUTHERAN CHURCH", "designationCode": "C", "categoryCode": "32", "address": "PO BOX 206", "city": "RUSSELL", "province": "MB", "country": "CA", "postalCode": "R0J1W0", "twitter": "None", "instagram": "None", "facebook": "None", "youtube": "None", "website": "None", "summary": "None", "logo": "None", "latitude": 50.69676379161792, "longitude": -101.40612232134879}, "891456675RR0001": {"name": "GRACE EVANGELICAL LUTHERAN CHURCH", "designationCode": "C", "categoryCode": "32", "address": "RR 4", "city": "KINCARDINE", "province": "ON", "country": "CA", "postalCode": "N2Z2X5", "twitter": "None", "instagram": "None", "facebook": "None", "youtube": "None", "website": "None", "summary": "None", "logo": "None", "latitude": 44.09750400000006, "longitude": -81.41922799999993}, "107444226RR0001": {"name": "GRACE EVANGELICAL LUTHERAN CHURCH (ELCIC) HAMILTON", "designationCode": "C", "categoryCode": "32", "address": "1107 MAIN ST W", "city": "HAMILTON", "province": "ON", "country": "CA", "postalCode": "L8S1B8", "twitter": "None", "instagram": "None", "facebook": "None", "youtube": "None", "website": "None", "summary": "None", "logo": "None", "latitude": 43.25812055727421, "longitude": -79.9100969203359}, "130006141RR0001": {"name": "GRACE EVANGELICAL LUTHERAN CHURCH (OAKVILLE)", "designationCode": "C", "categoryCode": "32", "address": "304 SPRUCE STREET", "city": "OAKVILLE", "province": "ON", "country": "CA", "postalCode": "L6J2H1", "twitter": "None", "instagram": "None", "facebook": "None", "youtube": "None", "website": "None", "summary": "None", "logo": "None", "latitude": 43.45474281098165, "longitude": -79.67623020800404}, "131858037RR0001": {"name": "GRACE EVANGELICAL LUTHERAN CHURCH (OSHAWA)", "designationCode": "C", "categoryCode": "32", "address": "540 CROMWELL AVE", "city": "OSHAWA", "province": "ON", "country": "CA", "postalCode": "L1J4V4", "twitter": "None", "instagram": "None", "facebook": "None", "youtube": "None", "website": "None", "summary": "None", "logo": "None", "latitude": 43.880039332059724, "longitude": -78.86915520351337}, "107444838RR0001": {"name": "GRACE EVANGELICAL LUTHERAN CHURCH LOCKSLEY", "designationCode": "C", "categoryCode": "32", "address": "174 BIGGS ROAD RR6", "city": "PEMBROKE", "province": "ON", "country": "CA", "postalCode": "K8A6W7", "twitter": "None", "instagram": "None", "facebook": "None", "youtube": "None", "website": "None", "summary": "None", "logo": "None", "latitude": 45.83131226736752, "longitude": -77.21764411043387}}