{"118932326RR0001": {"name": "FRIENDS CEMETERY CO. LTD.", "designationCode": "C", "categoryCode": "59", "address": "361 BOUL NEPTUNE", "city": "DORVAL", "province": "QC", "country": "CA", "postalCode": "H9S2L5", "twitter": "None", "instagram": "None", "facebook": "None", "youtube": "None", "website": "None", "summary": "None", "logo": "None", "latitude": 45.445820301142575, "longitude": -73.77324779583377}, "878494962RR0001": {"name": "FRIENDS CHURCH (CALGARY) FELLOWSHIP", "designationCode": "C", "categoryCode": "39", "address": "#900-47TH AVE SW", "city": "CALGARY", "province": "AB", "country": "CA", "postalCode": "T2S3C8", "twitter": "None", "instagram": "None", "facebook": "None", "youtube": "None", "website": "None", "summary": "None", "logo": "None", "latitude": 51.01144947879262, "longitude": -114.08353433097696}, "106875370RR0001": {"name": "FRIENDS COMMUNITY CHURCH (MENNONITE BRETHREN CONFERENCE)", "designationCode": "C", "categoryCode": "34", "address": "BOX 696", "city": "CARMAN", "province": "MB", "country": "CA", "postalCode": "R0G0J0", "twitter": "None", "instagram": "None", "facebook": "None", "youtube": "None", "website": "None", "summary": "None", "logo": "None", "latitude": 49.50860000000006, "longitude": -98.00231999999994}, "107407785RR0001": {"name": "FRIENDS DAY CARE CENTRE", "designationCode": "C", "categoryCode": "01", "address": "60 LOWTHER AVE", "city": "TORONTO", "province": "ON", "country": "CA", "postalCode": "M5R1C7", "twitter": "None", "instagram": "None", "facebook": "None", "youtube": "None", "website": "None", "summary": "None", "logo": "None", "latitude": 43.67028511798125, "longitude": -79.3985961154711}, "132753799RR0001": {"name": "FRIENDS FOR WORLD DEVELOPMENT SOCIETY", "designationCode": "C", "categoryCode": "29", "address": "5425 55 ST", "city": "ST PAUL", "province": "AB", "country": "CA", "postalCode": "T0A3A1", "twitter": "None", "instagram": "None", "facebook": "None", "youtube": "None", "website": "None", "summary": "None", "logo": "None", "latitude": 53.99571475449006, "longitude": -111.30798424298567}, "843836925RR0001": {"name": "FRIENDS FOR ZAMBIA SOCIETY", "designationCode": "C", "categoryCode": "20", "address": "3775 EDGEMONT BLVD", "city": "NORTH VANCOUVER", "province": "BC", "country": "CA", "postalCode": "V7R2P6", "twitter": "None", "instagram": "None", "facebook": "None", "youtube": "None", "website": "None", "summary": "None", "logo": "None", "latitude": 49.34334354555565, "longitude": -123.11089717027224}, "891490575RR0001": {"name": "FRIENDS HELPING FRIENDS", "designationCode": "C", "categoryCode": "09", "address": "115A - 282 LINWELL RD", "city": "ST CATHARINES", "province": "ON", "country": "CA", "postalCode": "L2N6N5", "twitter": "None", "instagram": "None", "facebook": "None", "youtube": "None", "website": "None", "summary": "None", "logo": "None", "latitude": 43.19531532996734, "longitude": -79.23791111890489}, "102163045RR0001": {"name": "FRIENDS HOUSING INC.", "designationCode": "C", "categoryCode": "01", "address": "100-890 STURGEON RD", "city": "WINNIPEG", "province": "MB", "country": "CA", "postalCode": "R2Y0L2", "twitter": "None", "instagram": "None", "facebook": "None", "youtube": "None", "website": "None", "summary": "None", "logo": "None", "latitude": 49.89065122492743, "longitude": -97.27813539247695}, "887982643RR0001": {"name": "FRIENDS IN EDUCATION & COMMUNITY BUILDING OF SOUTH CALGARY SOCIETY", "designationCode": "C", "categoryCode": "23", "address": "11 CANATA CLOSE SW", "city": "CALGARY", "province": "AB", "country": "CA", "postalCode": "T2W1P6", "twitter": "None", "instagram": "None", "facebook": "None", "youtube": "None", "website": "None", "summary": "None", "logo": "None", "latitude": 50.9442814962491, "longitude": -114.08719030099833}, "118933373RR0001": {"name": "FRIENDS IN FORMATION", "designationCode": "C", "categoryCode": "47", "address": "BOX 48004", "city": "WINNIPEG", "province": "MB", "country": "CA", "postalCode": "R2J4A3", "twitter": "None", "instagram": "None", "facebook": "None", "youtube": "None", "website": "None", "summary": "None", "logo": "None", "latitude": 49.899525000000054, "longitude": -97.14112999999993}, "889138772RR0001": {"name": "FRIENDS IN NEED FOOD BANK SOCIETY", "designationCode": "C", "categoryCode": "09", "address": "8-22726 DEWDNEY TRUNK RD", "city": "MAPLE RIDGE", "province": "BC", "country": "CA", "postalCode": "V2X8K9", "twitter": "None", "instagram": "None", "facebook": "None", "youtube": "None", "website": "None", "summary": "None", "logo": "None", "latitude": 49.22032754436891, "longitude": -122.59212757600446}, "894502996RR0001": {"name": "FRIENDS IN SPORTFISHING", "designationCode": "C", "categoryCode": "56", "address": "P.O. BOX 5124", "city": "OTTAWA", "province": "ON", "country": "CA", "postalCode": "K2C3H4", "twitter": "None", "instagram": "None", "facebook": "None", "youtube": "None", "website": "None", "summary": "None", "logo": "None", "latitude": 45.34429200000005, "longitude": -75.76434349999994}, "872897368RR0001": {"name": "FRIENDS IN SUPPORT OF HALLS HARBOUR SOCIETY", "designationCode": "C", "categoryCode": "52", "address": "3586 HIGHWAY 359              R.R.#3", "city": "CENTREVILLE", "province": "NS", "country": "CA", "postalCode": "B0P1J0", "twitter": "None", "instagram": "None", "facebook": "None", "youtube": "None", "website": "None", "summary": "None", "logo": "None", "latitude": 45.18738090731222, "longitude": -64.58743864425212}, "118785336RR0001": {"name": "FRIENDS IN THE WEST", "designationCode": "C", "categoryCode": "09", "address": "PO BOX 3100", "city": "LANGLEY", "province": "BC", "country": "CA", "postalCode": "V3A4R3", "twitter": "None", "instagram": "None", "facebook": "None", "youtube": "None", "website": "None", "summary": "None", "logo": "None", "latitude": 49.10435700000005, "longitude": -122.65652149999994}, "858948516RR0001": {"name": "FRIENDS OF \"88\" SQUADRON SOCIETY", "designationCode": "C", "categoryCode": "29", "address": "PO BOX 20027                  EAST AIRDRIE RPO", "city": "AIRDRIE", "province": "AB", "country": "CA", "postalCode": "T4B0C2", "twitter": "None", "instagram": "None", "facebook": "None", "youtube": "None", "website": "None", "summary": "None", "logo": "None", "latitude": 51.28273000000007, "longitude": -114.00126999999998}, "136224037RR0001": {"name": "FRIENDS OF ABANDONED PETS", "designationCode": "C", "categoryCode": "54", "address": "PO BOX 67052", "city": "OTTAWA", "province": "ON", "country": "CA", "postalCode": "K2A4E4", "twitter": "None", "instagram": "None", "facebook": "None", "youtube": "None", "website": "None", "summary": "None", "logo": "None", "latitude": 45.42177300000006, "longitude": -75.69115999999994}, "813625316RR0001": {"name": "FRIENDS OF AFRICAN NURSING (CANADA) CORPORATION", "designationCode": "C", "categoryCode": "20", "address": "24 OLD MILL TERRACE", "city": "TORONTO", "province": "ON", "country": "CA", "postalCode": "M8X1A2", "twitter": "None", "instagram": "None", "facebook": "None", "youtube": "None", "website": "None", "summary": "None", "logo": "None", "latitude": 43.649073343903126, "longitude": -79.49793996517394}, "889797379RR0001": {"name": "FRIENDS OF AGAPE INC", "designationCode": "C", "categoryCode": "09", "address": "4 STORNWOOD COURT", "city": "BRAMPTON", "province": "ON", "country": "CA", "postalCode": "L6W4H4", "twitter": "None", "instagram": "None", "facebook": "None", "youtube": "None", "website": "None", "summary": "None", "logo": "None", "latitude": 43.66502879508564, "longitude": -79.72961803538384}, "101894277RR0001": {"name": "FRIENDS OF ALBERTA JUNIOR HOCKEY SOCIETY", "designationCode": "C", "categoryCode": "21", "address": "BOX 1294", "city": "CARSTAIRS", "province": "AB", "country": "CA", "postalCode": "T0M0N0", "twitter": "None", "instagram": "None", "facebook": "None", "youtube": "None", "website": "None", "summary": "None", "logo": "None", "latitude": 51.562880000000064, "longitude": -114.09537999999998}, "871529731RR0001": {"name": "FRIENDS OF ALTERNATIVE & COMPLEMENTARY THERAPIES SOCIETY", "designationCode": "C", "categoryCode": "29", "address": "178 JARVIS ST., UNIT 107", "city": "TORONTO", "province": "ON", "country": "CA", "postalCode": "M5B2K7", "twitter": "None", "instagram": "None", "facebook": "None", "youtube": "None", "website": "None", "summary": "None", "logo": "None", "latitude": 43.65584382930352, "longitude": -79.37412583169811}, "890799349RR0001": {"name": "FRIENDS OF AMANECER CANADA", "designationCode": "C", "categoryCode": "09", "address": "5451 ALDERLEY ROAD", "city": "VICTORIA", "province": "BC", "country": "CA", "postalCode": "V8Y1X9", "twitter": "None", "instagram": "None", "facebook": "None", "youtube": "None", "website": "None", "summary": "None", "logo": "None", "latitude": 48.53643511437459, "longitude": -123.3854952277978}, "106707961RR0002": {"name": "FRIENDS OF AMETHYST WOMENS ADDICTION CENTRE", "designationCode": "A", "categoryCode": "53", "address": "488 WILBROD ST", "city": "OTTAWA", "province": "ON", "country": "CA", "postalCode": "K1N6M8", "twitter": "None", "instagram": "None", "facebook": "None", "youtube": "None", "website": "None", "summary": "None", "logo": "None", "latitude": 45.43006767303375, "longitude": -75.67462916942708}, "896048824RR0001": {"name": "FRIENDS OF BALMY BEACH COMMUNITY SCHOOL", "designationCode": "C", "categoryCode": "21", "address": "14 PINE AVE", "city": "TORONTO", "province": "ON", "country": "CA", "postalCode": "M4E1L6", "twitter": "None", "instagram": "None", "facebook": "None", "youtube": "None", "website": "None", "summary": "None", "logo": "None", "latitude": 43.67615027840596, "longitude": -79.2896778326504}, "895099117RR0001": {"name": "FRIENDS OF BEACON MINISTRIES", "designationCode": "C", "categoryCode": "49", "address": "2925 MCKAY AVENUE", "city": "WINDSOR", "province": "ON", "country": "CA", "postalCode": "N9E2R1", "twitter": "None", "instagram": "None", "facebook": "None", "youtube": "None", "website": "None", "summary": "None", "logo": "None", "latitude": 42.268664337209366, "longitude": -83.02730776397922}, "889369583RR0001": {"name": "FRIENDS OF BERTHA KENNEDY SCHOOL SOCIETY", "designationCode": "C", "categoryCode": "21", "address": "175 LAROSE DRIVE", "city": "ST ALBERT", "province": "AB", "country": "CA", "postalCode": "T8N2G7", "twitter": "None", "instagram": "None", "facebook": "None", "youtube": "None", "website": "None", "summary": "None", "logo": "None", "latitude": 53.64665797807147, "longitude": -113.64170187096755}, "879047215RR0001": {"name": "FRIENDS OF BIRDS HILL PARK INC.", "designationCode": "C", "categoryCode": "53", "address": "BOX 29, GROUP 8, RR2", "city": "DUGALD", "province": "MB", "country": "CA", "postalCode": "R0E0K0", "twitter": "None", "instagram": "None", "facebook": "None", "youtube": "None", "website": "None", "summary": "None", "logo": "None", "latitude": 49.88499864004564, "longitude": -96.36123557915003}, "863190740RR0001": {"name": "FRIENDS OF BISHOP ALLEN", "designationCode": "C", "categoryCode": "21", "address": "721 ROYAL YORK ROAD", "city": "TORONTO", "province": "ON", "country": "CA", "postalCode": "M8Y2T3", "twitter": "None", "instagram": "None", "facebook": "None", "youtube": "None", "website": "None", "summary": "None", "logo": "None", "latitude": 43.63413395117992, "longitude": -79.50582128879425}, "891716730RR0001": {"name": "FRIENDS OF BON ECHO PARK", "designationCode": "C", "categoryCode": "52", "address": "16151 HIGHWAY 41              RR 1", "city": "CLOYNE", "province": "ON", "country": "CA", "postalCode": "K0H1K0", "twitter": "None", "instagram": "None", "facebook": "None", "youtube": "None", "website": "None", "summary": "None", "logo": "None", "latitude": 44.82626750442586, "longitude": -77.18667925884917}, "890542384RR0001": {"name": "FRIENDS OF BONNECHERE PARKS", "designationCode": "C", "categoryCode": "52", "address": "4024 ROUND LAKE ROAD          RURAL ROUTE 5", "city": "KILLALOE", "province": "ON", "country": "CA", "postalCode": "K0J2A0", "twitter": "None", "instagram": "None", "facebook": "None", "youtube": "None", "website": "None", "summary": "None", "logo": "None", "latitude": 45.65770341908285, "longitude": -77.58020180624275}, "894820133RR0001": {"name": "FRIENDS OF BRONTE CREEK PARK", "designationCode": "C", "categoryCode": "59", "address": "1219 BURLOAK DRIVE", "city": "OAKVILLE", "province": "ON", "country": "CA", "postalCode": "L6M4J7", "twitter": "None", "instagram": "None", "facebook": "None", "youtube": "None", "website": "None", "summary": "None", "logo": "None", "latitude": 43.400694708540904, "longitude": -79.76389631701933}, "859926289RR0001": {"name": "FRIENDS OF CAMP CONNECTIONS", "designationCode": "C", "categoryCode": "49", "address": "1447 MERROW RD", "city": "MISSISSAUGA", "province": "ON", "country": "CA", "postalCode": "L5J3C4", "twitter": "None", "instagram": "None", "facebook": "None", "youtube": "None", "website": "None", "summary": "None", "logo": "None", "latitude": 43.53030414767143, "longitude": -79.63049237619036}, "892502543RR0001": {"name": "FRIENDS OF CANADIAN CROSSROADS FOUNDATION", "designationCode": "A", "categoryCode": "23", "address": "49 BATHURST STREET            SUITE 201", "city": "TORONTO", "province": "ON", "country": "CA", "postalCode": "M5V2P2", "twitter": "None", "instagram": "None", "facebook": "None", "youtube": "None", "website": "None", "summary": "None", "logo": "None", "latitude": 43.64270783152521, "longitude": -79.40170555897629}, "888435823RR0001": {"name": "FRIENDS OF CANADIAN LIBRARIES (FOCAL)", "designationCode": "C", "categoryCode": "50", "address": "29 ORION ST", "city": "SAULT STE MARIE", "province": "ON", "country": "CA", "postalCode": "P6B3K5", "twitter": "None", "instagram": "None", "facebook": "None", "youtube": "None", "website": "None", "summary": "None", "logo": "None", "latitude": 46.51679820483005, "longitude": -84.29677276080524}, "856191549RR0001": {"name": "FRIENDS OF CARDINAL CARTER ACADEMY FOR THE ARTS", "designationCode": "C", "categoryCode": "22", "address": "36 GREENFIELD AVENUE", "city": "TORONTO", "province": "ON", "country": "CA", "postalCode": "M2N3C8", "twitter": "None", "instagram": "None", "facebook": "None", "youtube": "None", "website": "None", "summary": "None", "logo": "None", "latitude": 43.76373120569542, "longitude": -79.40957791217026}, "861652204RR0001": {"name": "FRIENDS OF CARSTAIRS PUBLIC LIBRARY SOCIETY", "designationCode": "A", "categoryCode": "53", "address": "PO BOX 941", "city": "CARSTAIRS", "province": "AB", "country": "CA", "postalCode": "T0M0N0", "twitter": "None", "instagram": "None", "facebook": "None", "youtube": "None", "website": "None", "summary": "None", "logo": "None", "latitude": 51.562880000000064, "longitude": -114.09537999999998}, "896711272RR0001": {"name": "FRIENDS OF CENTRE HASTINGS COMMUNITY ASSOCIATION", "designationCode": "C", "categoryCode": "21", "address": "PO BOX 520", "city": "MADOC", "province": "ON", "country": "CA", "postalCode": "K0K2K0", "twitter": "None", "instagram": "None", "facebook": "None", "youtube": "None", "website": "None", "summary": "None", "logo": "None", "latitude": 44.506080000000054, "longitude": -77.47461999999996}, "118932474RR0001": {"name": "FRIENDS OF CHAMBER MUSIC", "designationCode": "C", "categoryCode": "22", "address": "6025 CARNARVON ST", "city": "VANCOUVER", "province": "BC", "country": "CA", "postalCode": "V6N1J9", "twitter": "None", "instagram": "None", "facebook": "None", "youtube": "None", "website": "None", "summary": "None", "logo": "None", "latitude": 49.23162807799065, "longitude": -123.17313203776891}, "139821805RR0001": {"name": "FRIENDS OF CLINTON STREET PUBLIC SCHOOL-TORONTO", "designationCode": "C", "categoryCode": "21", "address": "460 MANNING AVE", "city": "TORONTO", "province": "ON", "country": "CA", "postalCode": "M6G2V7", "twitter": "None", "instagram": "None", "facebook": "None", "youtube": "None", "website": "None", "summary": "None", "logo": "None", "latitude": 43.657736668878805, "longitude": -79.41356318627705}, "892827767RR0001": {"name": "FRIENDS OF COMMUNITY SCHOOLS ONTARIO", "designationCode": "C", "categoryCode": "09", "address": "109 - 35 DURNFORD RD", "city": "SCARBOROUGH", "province": "ON", "country": "CA", "postalCode": "M1B5T7", "twitter": "None", "instagram": "None", "facebook": "None", "youtube": "None", "website": "None", "summary": "None", "logo": "None", "latitude": 43.79962351180099, "longitude": -79.15043815970354}, "133362889RR0001": {"name": "FRIENDS OF CORTES ISLAND SOCIETY", "designationCode": "C", "categoryCode": "52", "address": "PO BOX 278", "city": "MANSONS LANDING", "province": "BC", "country": "CA", "postalCode": "V0P1K0", "twitter": "None", "instagram": "None", "facebook": "None", "youtube": "None", "website": "None", "summary": "None", "logo": "None", "latitude": 50.036434079347345, "longitude": -124.97587983491626}, "868794363RR0001": {"name": "FRIENDS OF CRESCENT BEACH, GREEN BAY AND AREA SOCIETY", "designationCode": "C", "categoryCode": "52", "address": "BOX 148", "city": "LAHAVE", "province": "NS", "country": "CA", "postalCode": "B0R1C0", "twitter": "None", "instagram": "None", "facebook": "None", "youtube": "None", "website": "None", "summary": "None", "logo": "None", "latitude": 44.2955633567451, "longitude": -64.36452308474158}, "897637708RR0001": {"name": "FRIENDS OF CYPRESS HILLS PARK INC.", "designationCode": "C", "categoryCode": "52", "address": "P. O. BOX 1107", "city": "MAPLE CREEK", "province": "SK", "country": "CA", "postalCode": "S0N1N0", "twitter": "None", "instagram": "None", "facebook": "None", "youtube": "None", "website": "None", "summary": "None", "logo": "None", "latitude": 49.91416000000004, "longitude": -109.46959999999996}, "892492372RR0001": {"name": "FRIENDS OF CYPRESS PROVINCIAL PARK SOCIETY", "designationCode": "C", "categoryCode": "52", "address": "3924 W. 19TH AVENUE,", "city": "VANCOUVER", "province": "BC", "country": "CA", "postalCode": "V6S1E1", "twitter": "None", "instagram": "None", "facebook": "None", "youtube": "None", "website": "None", "summary": "None", "logo": "None", "latitude": 49.25556751399404, "longitude": -123.1915711902591}, "837345560RR0001": {"name": "FRIENDS OF DISMAS INCORPORATED", "designationCode": "C", "categoryCode": "59", "address": "1730 BUR OAK AVE              BLDG G PO BOX 3005 BURK OAK PO", "city": "MARKHAM", "province": "ON", "country": "CA", "postalCode": "L6E0J1", "twitter": "None", "instagram": "None", "facebook": "None", "youtube": "None", "website": "None", "summary": "None", "logo": "None", "latitude": 43.90004317294685, "longitude": -79.26680938233585}, "884728510RR0001": {"name": "FRIENDS OF DOMINION BROOK PARK", "designationCode": "C", "categoryCode": "52", "address": "9839 FIFTH ST                 BOX 20007", "city": "SIDNEY", "province": "BC", "country": "CA", "postalCode": "V8L5C9", "twitter": "None", "instagram": "None", "facebook": "None", "youtube": "None", "website": "None", "summary": "None", "logo": "None", "latitude": 48.64989707480862, "longitude": -123.4002477083545}, "118932516RR0001": {"name": "FRIENDS OF DYKELAND", "designationCode": "C", "categoryCode": "11", "address": "124 COTTAGE STREET", "city": "WINDSOR", "province": "NS", "country": "CA", "postalCode": "B0N2T0", "twitter": "None", "instagram": "None", "facebook": "None", "youtube": "None", "website": "None", "summary": "None", "logo": "None", "latitude": 44.98052778815907, "longitude": -64.12701461726012}, "869100164RR0001": {"name": "FRIENDS OF ECOLE FATHER JAN COMMUNITY SCHOOL SOCIETY", "designationCode": "C", "categoryCode": "21", "address": "15 MISSION AVENUE", "city": "ST ALBERT", "province": "AB", "country": "CA", "postalCode": "T8N1H6", "twitter": "None", "instagram": "None", "facebook": "None", "youtube": "None", "website": "None", "summary": "None", "logo": "None", "latitude": 53.635145215678754, "longitude": -113.6292524380226}, "869531343RR0001": {"name": "FRIENDS OF ECOLOGICAL AND ENVIRONMENTAL LEARNING", "designationCode": "A", "categoryCode": "55", "address": "1692 HORSESHOE LAKE RD RR 1", "city": "MINDEN", "province": "ON", "country": "CA", "postalCode": "K0M2K0", "twitter": "None", "instagram": "None", "facebook": "None", "youtube": "None", "website": "None", "summary": "None", "logo": "None", "latitude": 44.96267202640237, "longitude": -78.69392097719911}, "884620626RR0001": {"name": "FRIENDS OF ELMWOOD CEMETERY INC", "designationCode": "C", "categoryCode": "59", "address": "88 HESPELER AVE", "city": "WINNIPEG", "province": "MB", "country": "CA", "postalCode": "R2L0L3", "twitter": "None", "instagram": "None", "facebook": "None", "youtube": "None", "website": "None", "summary": "None", "logo": "None", "latitude": 49.914389086300545, "longitude": -97.12129237428579}, "118932540RR0001": {"name": "FRIENDS OF EMPATHY", "designationCode": "A", "categoryCode": "55", "address": "360 SUNNYSIDE AVENUE", "city": "OTTAWA", "province": "ON", "country": "CA", "postalCode": "K1S0S4", "twitter": "None", "instagram": "None", "facebook": "None", "youtube": "None", "website": "None", "summary": "None", "logo": "None", "latitude": 45.39303258921474, "longitude": -75.6863117561603}, "883580318RR0001": {"name": "FRIENDS OF FATHER JOHN REDMOND CATHOLIC SECONDARY SCHOOL", "designationCode": "C", "categoryCode": "21", "address": "28 COLONEL SAMUEL SMITH PARK  DRIVE", "city": "TORONTO", "province": "ON", "country": "CA", "postalCode": "M8V4B7", "twitter": "None", "instagram": "None", "facebook": "None", "youtube": "None", "website": "None", "summary": "None", "logo": "None", "latitude": 43.59529232249418, "longitude": -79.51576589543492}, "890955545RR0001": {"name": "FRIENDS OF FERRIS", "designationCode": "A", "categoryCode": "55", "address": "474 COUNTY RD 8               RR 5", "city": "CAMPBELLFORD", "province": "ON", "country": "CA", "postalCode": "K0L1L0", "twitter": "None", "instagram": "None", "facebook": "None", "youtube": "None", "website": "None", "summary": "None", "logo": "None", "latitude": 44.28944397627671, "longitude": -77.78462353462615}, "864640123RR0001": {"name": "FRIENDS OF FINTRY PROVINCIAL PARK", "designationCode": "C", "categoryCode": "52", "address": "2201 25 AVE", "city": "VERNON", "province": "BC", "country": "CA", "postalCode": "V1T1N4", "twitter": "None", "instagram": "None", "facebook": "None", "youtube": "None", "website": "None", "summary": "None", "logo": "None", "latitude": 50.26014449321932, "longitude": -119.26102033236194}, "891199747RR0001": {"name": "FRIENDS OF FISH CREEK PROVINCIAL PARK SOCIETY", "designationCode": "C", "categoryCode": "52", "address": "PO BOX 2780 STN M", "city": "CALGARY", "province": "AB", "country": "CA", "postalCode": "T2P2M7", "twitter": "None", "instagram": "None", "facebook": "None", "youtube": "None", "website": "None", "summary": "None", "logo": "None", "latitude": 51.04531500000006, "longitude": -114.06301099999993}, "872988381RR0001": {"name": "FRIENDS OF FOLEY MOUNTAIN", "designationCode": "C", "categoryCode": "52", "address": "P.O. BOX 244", "city": "WESTPORT", "province": "ON", "country": "CA", "postalCode": "K0G1X0", "twitter": "None", "instagram": "None", "facebook": "None", "youtube": "None", "website": "None", "summary": "None", "logo": "None", "latitude": 39.63902000000007, "longitude": -123.78490999999997}, "893748061RR0001": {"name": "FRIENDS OF FORT ERIE'S CREEKS", "designationCode": "C", "categoryCode": "59", "address": "1465 THOMPSON RD", "city": "FORT ERIE", "province": "ON", "country": "CA", "postalCode": "L2A5M4", "twitter": "None", "instagram": "None", "facebook": "None", "youtube": "None", "website": "None", "summary": "None", "logo": "None", "latitude": 42.91619279516996, "longitude": -78.94080886612014}, "895286052RR0001": {"name": "FRIENDS OF FORT MALDEN", "designationCode": "C", "categoryCode": "52", "address": "1560 D'AMORE DR", "city": "WINDSOR", "province": "ON", "country": "CA", "postalCode": "N9H0A5", "twitter": "None", "instagram": "None", "facebook": "None", "youtube": "None", "website": "None", "summary": "None", "logo": "None", "latitude": 42.23788559123802, "longitude": -83.02031260856013}, "135597854RR0001": {"name": "FRIENDS OF FORT ST. JAMES NATIONAL HISTORIC PARK SOCIETY", "designationCode": "C", "categoryCode": "52", "address": "BOX 1421", "city": "FORT ST. JAMES", "province": "BC", "country": "CA", "postalCode": "V0J1P0", "twitter": "None", "instagram": "None", "facebook": "None", "youtube": "None", "website": "None", "summary": "None", "logo": "None", "latitude": 54.44540000000006, "longitude": -124.25099999999998}, "129805263RR0001": {"name": "FRIENDS OF FORT STEELE SOCIETY", "designationCode": "C", "categoryCode": "52", "address": "GENERAL DELIVERY              9851 HIGHWAY 93/95", "city": "FORT STEELE", "province": "BC", "country": "CA", "postalCode": "V0B1N0", "twitter": "None", "instagram": "None", "facebook": "None", "youtube": "None", "website": "None", "summary": "None", "logo": "None", "latitude": 49.61838536279569, "longitude": -115.62733047362005}, "882057789RR0001": {"name": "FRIENDS OF FOSTER PARK", "designationCode": "C", "categoryCode": "56", "address": "670 FOSTER DR.", "city": "PARKSVILLE", "province": "BC", "country": "CA", "postalCode": "V9P1A8", "twitter": "None", "instagram": "None", "facebook": "None", "youtube": "None", "website": "None", "summary": "None", "logo": "None", "latitude": 49.335851453683375, "longitude": -124.34417391821054}, "868415894RR0001": {"name": "FRIENDS OF FOWLER SCHOOL SOCIETY", "designationCode": "A", "categoryCode": "21", "address": "65 SIR WINSTON CHURCHILL AVE", "city": "ST. ALBERT", "province": "AB", "country": "CA", "postalCode": "T8N0G5", "twitter": "None", "instagram": "None", "facebook": "None", "youtube": "None", "website": "None", "summary": "None", "logo": "None", "latitude": 53.63748306257952, "longitude": -113.60697657151806}, "896027984RR0001": {"name": "FRIENDS OF FOX CREEK HOSPITAL SOCIETY", "designationCode": "C", "categoryCode": "19", "address": "BOX 852", "city": "FOX CREEK", "province": "AB", "country": "CA", "postalCode": "T0H1P0", "twitter": "None", "instagram": "None", "facebook": "None", "youtube": "None", "website": "None", "summary": "None", "logo": "None", "latitude": 54.39207000000005, "longitude": -116.80049999999994}, "864877501RR0001": {"name": "FRIENDS OF FRENCH CREEK CONSERVATION SOCIETY", "designationCode": "C", "categoryCode": "59", "address": "P O BOX 331", "city": "QUALICUM BEACH", "province": "BC", "country": "CA", "postalCode": "V9K1S8", "twitter": "None", "instagram": "None", "facebook": "None", "youtube": "None", "website": "None", "summary": "None", "logo": "None", "latitude": 49.34772600000005, "longitude": -124.44434449999994}, "889946398RR0001": {"name": "FRIENDS OF FRIDHEM SOCIETY", "designationCode": "C", "categoryCode": "31", "address": "RR 1", "city": "FERINTOSH", "province": "AB", "country": "CA", "postalCode": "T0B1M0", "twitter": "None", "instagram": "None", "facebook": "None", "youtube": "None", "website": "None", "summary": "None", "logo": "None", "latitude": 52.76784572794733, "longitude": -112.96655684762285}, "892465774RR0001": {"name": "FRIENDS OF FULFORD PLACE ASSOCIATION", "designationCode": "C", "categoryCode": "50", "address": "287 KING ST EAST", "city": "BROCKVILLE", "province": "ON", "country": "CA", "postalCode": "K6V1E1", "twitter": "None", "instagram": "None", "facebook": "None", "youtube": "None", "website": "None", "summary": "None", "logo": "None", "latitude": 44.599123691086476, "longitude": -75.66944686694264}, "892746686RR0001": {"name": "FRIENDS OF GATEWAY", "designationCode": "C", "categoryCode": "19", "address": "671 FRANK ST PO BOX 10", "city": "WIARTON", "province": "ON", "country": "CA", "postalCode": "N0H2T0", "twitter": "None", "instagram": "None", "facebook": "None", "youtube": "None", "website": "None", "summary": "None", "logo": "None", "latitude": 44.740500232080294, "longitude": -81.1285878162251}, "894404003RR0001": {"name": "FRIENDS OF GLANMORE NATIONAL HISTORIC SITE OF CANADA", "designationCode": "C", "categoryCode": "50", "address": "257 BRIDGE STREET EAST", "city": "BELLEVILLE", "province": "ON", "country": "CA", "postalCode": "K8N1P4", "twitter": "None", "instagram": "None", "facebook": "None", "youtube": "None", "website": "None", "summary": "None", "logo": "None", "latitude": 44.16733089702239, "longitude": -77.36783716971553}, "868335175RR0001": {"name": "FRIENDS OF GLENBOW EDUCATION SOCIETY", "designationCode": "C", "categoryCode": "21", "address": "55 GLENPATRICK RD", "city": "COCHRANE", "province": "AB", "country": "CA", "postalCode": "T4C1X7", "twitter": "None", "instagram": "None", "facebook": "None", "youtube": "None", "website": "None", "summary": "None", "logo": "None", "latitude": 51.19180140588146, "longitude": -114.48396458087618}, "893374520RR0001": {"name": "FRIENDS OF GLENGARRY TRAILS ASSOCIATION - LES AMIS DES SENTIERS DE GLENGARRY", "designationCode": "C", "categoryCode": "56", "address": "PO BOX 108", "city": "ALEXANDRIA", "province": "ON", "country": "CA", "postalCode": "K0C1A0", "twitter": "None", "instagram": "None", "facebook": "None", "youtube": "None", "website": "None", "summary": "None", "logo": "None", "latitude": 45.324006000000054, "longitude": -74.57325649999993}, "877825141RR0001": {"name": "FRIENDS OF GUS WETTER HIGH SCHOOL FOUNDATION", "designationCode": "C", "categoryCode": "21", "address": "BOX 119", "city": "CASTOR", "province": "AB", "country": "CA", "postalCode": "T0C0X0", "twitter": "None", "instagram": "None", "facebook": "None", "youtube": "None", "website": "None", "summary": "None", "logo": "None", "latitude": 52.21792000000005, "longitude": -111.90889999999996}, "140773649RR0001": {"name": "FRIENDS OF H.M.C.S. Haida", "designationCode": "C", "categoryCode": "50", "address": "658 CATHARINE ST N", "city": "HAMILTON", "province": "ON", "country": "CA", "postalCode": "L8L4V7", "twitter": "None", "instagram": "None", "facebook": "None", "youtube": "None", "website": "None", "summary": "None", "logo": "None", "latitude": 43.2752491043626, "longitude": -79.85646897706185}, "863251609RR0001": {"name": "FRIENDS OF HARMONY PARK SOCIETY", "designationCode": "C", "categoryCode": "56", "address": "479 COGMAGUN ROAD, RR #1", "city": "CENTRE BURLINGTON", "province": "NS", "country": "CA", "postalCode": "B0N1E0", "twitter": "None", "instagram": "None", "facebook": "None", "youtube": "None", "website": "None", "summary": "None", "logo": "None", "latitude": 45.08822933337154, "longitude": -64.08899603537431}, "869767038RR0001": {"name": "FRIENDS OF HISTORIC HAT CREEK RANCH", "designationCode": "C", "categoryCode": "50", "address": "3484 JACKSON ROAD             PO BOX 878", "city": "CACHE CREEK", "province": "BC", "country": "CA", "postalCode": "V0K1H0", "twitter": "None", "instagram": "None", "facebook": "None", "youtube": "None", "website": "None", "summary": "None", "logo": "None", "latitude": 50.882829362346904, "longitude": -121.408914445802}, "891313199RR0001": {"name": "FRIENDS OF HONDURAN CHILDREN", "designationCode": "B", "categoryCode": "03", "address": "PO BOX 853", "city": "PETERBOROUGH", "province": "ON", "country": "CA", "postalCode": "K9J7A2", "twitter": "None", "instagram": "None", "facebook": "None", "youtube": "None", "website": "None", "summary": "None", "logo": "None", "latitude": 44.30591700000005, "longitude": -78.31950199999993}, "869641308RR0001": {"name": "FRIENDS OF HONDURAS SOCIETY--SOCIEDAD DE AMIGOS DE HONDURAS", "designationCode": "C", "categoryCode": "09", "address": "3801 ASCOT DRIVE", "city": "VICTORIA", "province": "BC", "country": "CA", "postalCode": "V8P3S2", "twitter": "None", "instagram": "None", "facebook": "None", "youtube": "None", "website": "None", "summary": "None", "logo": "None", "latitude": 48.46303848127412, "longitude": -123.34647415632801}, "891283814RR0001": {"name": "FRIENDS OF HOWARD PUBLIC SCHOOL TRUST", "designationCode": "C", "categoryCode": "21", "address": "30 MARMADUKE ST", "city": "TORONTO", "province": "ON", "country": "CA", "postalCode": "M6R1T2", "twitter": "None", "instagram": "None", "facebook": "None", "youtube": "None", "website": "None", "summary": "None", "logo": "None", "latitude": 43.65021427061567, "longitude": -79.45192921510183}, "895889715RR0001": {"name": "FRIENDS OF HUDSON'S HOPE SOCIETY", "designationCode": "C", "categoryCode": "09", "address": "10324 GETHING ST              P.O. BOX 247", "city": "HUDSON'S HOPE", "province": "BC", "country": "CA", "postalCode": "V0C1V0", "twitter": "None", "instagram": "None", "facebook": "None", "youtube": "None", "website": "None", "summary": "None", "logo": "None", "latitude": 56.026453493131534, "longitude": -121.91281972729787}, "871558227RR0001": {"name": "FRIENDS OF HULLETT", "designationCode": "C", "categoryCode": "54", "address": "BOX 81", "city": "GORRIE", "province": "ON", "country": "CA", "postalCode": "N0G1X0", "twitter": "None", "instagram": "None", "facebook": "None", "youtube": "None", "website": "None", "summary": "None", "logo": "None", "latitude": 43.8847341644906, "longitude": -81.11296531624073}, "118932599RR0001": {"name": "FRIENDS OF HUMBERSIDE COLLEGIATE INSTITUTE (TORONTO)", "designationCode": "C", "categoryCode": "21", "address": "25 EASSON AVE", "city": "TORONTO", "province": "ON", "country": "CA", "postalCode": "M6S3W6", "twitter": "None", "instagram": "None", "facebook": "None", "youtube": "None", "website": "None", "summary": "None", "logo": "None", "latitude": 43.643868609238694, "longitude": -79.48058985596391}, "139820666RR0001": {"name": "FRIENDS OF IVY MEADOWS RESIDENTS SOCIETY", "designationCode": "C", "categoryCode": "09", "address": "32 GLENDALE AVENUE, UNIT # 2", "city": "LOWER SACKVILLE", "province": "NS", "country": "CA", "postalCode": "B4C3M1", "twitter": "None", "instagram": "None", "facebook": "None", "youtube": "None", "website": "None", "summary": "None", "logo": "None", "latitude": 44.75890541776749, "longitude": -63.657071707455785}, "123635559RR0001": {"name": "FRIENDS OF JASPER NATIONAL PARK ASSOCIATION", "designationCode": "C", "categoryCode": "52", "address": "POST OFFICE BOX 992", "city": "JASPER", "province": "AB", "country": "CA", "postalCode": "T0E1E0", "twitter": "None", "instagram": "None", "facebook": "None", "youtube": "None", "website": "None", "summary": "None", "logo": "None", "latitude": 52.877214088900075, "longitude": -118.08111710055249}, "858886542RR0001": {"name": "FRIENDS OF JERICHO ARTS CENTRE SOCIETY", "designationCode": "C", "categoryCode": "22", "address": "1675 DISCOVERY STREET", "city": "VANCOUVER", "province": "BC", "country": "CA", "postalCode": "V6R4K5", "twitter": "None", "instagram": "None", "facebook": "None", "youtube": "None", "website": "None", "summary": "None", "logo": "None", "latitude": 49.27235964155625, "longitude": -123.2027122625971}, "898178033RR0001": {"name": "FRIENDS OF JESUS CHRIST, CANADA (ONTARIO)", "designationCode": "C", "categoryCode": "39", "address": "13 BOBCAT TERRACE", "city": "SCARBOROUGH", "province": "ON", "country": "CA", "postalCode": "M1B6G5", "twitter": "None", "instagram": "None", "facebook": "None", "youtube": "None", "website": "None", "summary": "None", "logo": "None", "latitude": 43.80790389953255, "longitude": -79.18286712404078}, "890214430RR0001": {"name": "FRIENDS OF KANANASKIS COUNTRY COOPERATING ASSOCIATION", "designationCode": "C", "categoryCode": "53", "address": "SUITE 201 800 RAILWAY AVENUE", "city": "CANMORE", "province": "AB", "country": "CA", "postalCode": "T1W1P1", "twitter": "None", "instagram": "None", "facebook": "None", "youtube": "None", "website": "None", "summary": "None", "logo": "None", "latitude": 51.08935583435249, "longitude": -115.35318328305185}, "866086887RR0001": {"name": "FRIENDS OF KEJI COOPERATING ASSOCIATION", "designationCode": "C", "categoryCode": "52", "address": "50 PINETREE CRESCENT", "city": "HAMMONDS PLAINS", "province": "NS", "country": "CA", "postalCode": "B3Z1K4", "twitter": "None", "instagram": "None", "facebook": "None", "youtube": "None", "website": "None", "summary": "None", "logo": "None", "latitude": 44.72464135524278, "longitude": -63.81917071423645}, "133126003RR0001": {"name": "FRIENDS OF KILLARNEY PARK", "designationCode": "C", "categoryCode": "52", "address": "KILLARNEY PROV. PARK, HWY 637", "city": "KILLARNEY", "province": "ON", "country": "CA", "postalCode": "P0M2A0", "twitter": "None", "instagram": "None", "facebook": "None", "youtube": "None", "website": "None", "summary": "None", "logo": "None", "latitude": 45.97128600000005, "longitude": -81.51085699999993}, "856024013RR0001": {"name": "FRIENDS OF KIRYAT HAYELED, JERUSALEM", "designationCode": "C", "categoryCode": "01", "address": "264 ARNOLD AVENUE", "city": "THORNHILL", "province": "ON", "country": "CA", "postalCode": "L4J1C2", "twitter": "None", "instagram": "None", "facebook": "None", "youtube": "None", "website": "None", "summary": "None", "logo": "None", "latitude": 43.806432161838345, "longitude": -79.44766764100632}, "891920639RR0001": {"name": "FRIENDS OF KOOTENAY NATIONAL PARK ASSOCIATION", "designationCode": "A", "categoryCode": "52", "address": "PO BOX 512", "city": "RADIUM HOT SPRINGS", "province": "BC", "country": "CA", "postalCode": "V0A1M0", "twitter": "None", "instagram": "None", "facebook": "None", "youtube": "None", "website": "None", "summary": "None", "logo": "None", "latitude": 50.62132994503449, "longitude": -116.07172003390237}, "867341687RR0001": {"name": "FRIENDS OF LAMONT ELEMENTARY SCHOOL SOCIETY", "designationCode": "C", "categoryCode": "21", "address": "4931-48TH STREET, BAG 540     LAMONT ELEMENTARY SCHOOL", "city": "LAMONT", "province": "AB", "country": "CA", "postalCode": "T0B2R0", "twitter": "None", "instagram": "None", "facebook": "None", "youtube": "None", "website": "None", "summary": "None", "logo": "None", "latitude": 53.759958000000054, "longitude": -112.77839149999994}, "894065861RR0001": {"name": "FRIENDS OF LAURIER WOODS", "designationCode": "C", "categoryCode": "52", "address": "15 JANEY AVENUE", "city": "NORTH BAY", "province": "ON", "country": "CA", "postalCode": "P1C1N1", "twitter": "None", "instagram": "None", "facebook": "None", "youtube": "None", "website": "None", "summary": "None", "logo": "None", "latitude": 46.338098629168506, "longitude": -79.43391456217144}, "890541196RR0001": {"name": "FRIENDS OF LIVING AND LEARNING THROUGH LOSS", "designationCode": "C", "categoryCode": "09", "address": "1027 PANDORA AVE", "city": "VICTORIA", "province": "BC", "country": "CA", "postalCode": "V8V3P6", "twitter": "None", "instagram": "None", "facebook": "None", "youtube": "None", "website": "None", "summary": "None", "logo": "None", "latitude": 48.42687855785111, "longitude": -123.3546639775232}, "860779644RR0001": {"name": "FRIENDS OF LORETTO ABBEY CATHOLIC SECONDARY SCHOOL", "designationCode": "C", "categoryCode": "21", "address": "101 MASON BLVD", "city": "TORONTO", "province": "ON", "country": "CA", "postalCode": "M5M3E2", "twitter": "None", "instagram": "None", "facebook": "None", "youtube": "None", "website": "None", "summary": "None", "logo": "None", "latitude": 43.74092769917456, "longitude": -79.41138910886426}, "118932649RR0001": {"name": "FRIENDS OF LUBAVITCH,LONDON,ONTARIO", "designationCode": "C", "categoryCode": "49", "address": "1114 RICHMOND ST", "city": "LONDON", "province": "ON", "country": "CA", "postalCode": "N6A3K5", "twitter": "None", "instagram": "None", "facebook": "None", "youtube": "None", "website": "None", "summary": "None", "logo": "None", "latitude": 43.007410664464075, "longitude": -81.25953862888821}, "874049422RR0001": {"name": "FRIENDS OF MACAULAY HERITAGE PARK", "designationCode": "C", "categoryCode": "52", "address": "35 CHURCH ST", "city": "PICTON", "province": "ON", "country": "CA", "postalCode": "K0K2T0", "twitter": "None", "instagram": "None", "facebook": "None", "youtube": "None", "website": "None", "summary": "None", "logo": "None", "latitude": 44.00583720463012, "longitude": -77.13242560442745}, "890404999RR0001": {"name": "FRIENDS OF MAKERERE IN CANADA, INCORPORATED", "designationCode": "C", "categoryCode": "21", "address": "PMB 150                       30-360 MAIN ST, UNIT 13B", "city": "WINNIPEG", "province": "MB", "country": "CA", "postalCode": "R3C3Z8", "twitter": "None", "instagram": "None", "facebook": "None", "youtube": "None", "website": "None", "summary": "None", "logo": "None", "latitude": 49.89459781320337, "longitude": -97.1381563866637}, "877220293RR0001": {"name": "FRIENDS OF MALAWI FELLOWSHIP", "designationCode": "C", "categoryCode": "47", "address": "PO BOX 82114 RPO YELLOWBIRD", "city": "EDMONTON", "province": "AB", "country": "CA", "postalCode": "T6J7E6", "twitter": "None", "instagram": "None", "facebook": "None", "youtube": "None", "website": "None", "summary": "None", "logo": "None", "latitude": 53.45952900000006, "longitude": -113.52241249999994}, "894187418RR0001": {"name": "FRIENDS OF MASHKINONJE", "designationCode": "C", "categoryCode": "52", "address": "1692 ROBIN AVE", "city": "VAL CARON", "province": "ON", "country": "CA", "postalCode": "P3N1M3", "twitter": "None", "instagram": "None", "facebook": "None", "youtube": "None", "website": "None", "summary": "None", "logo": "None", "latitude": 46.577884277447914, "longitude": -80.99153626500842}, "856435904RR0001": {"name": "FRIENDS OF MAYANOT CANADA", "designationCode": "C", "categoryCode": "21", "address": "10500 BATHURST STREET", "city": "MAPLE", "province": "ON", "country": "CA", "postalCode": "L6A0H2", "twitter": "None", "instagram": "None", "facebook": "None", "youtube": "None", "website": "None", "summary": "None", "logo": "None", "latitude": 43.881069060217044, "longitude": -79.4666990883484}, "892615923RR0001": {"name": "FRIENDS OF MCCOY SOCIETY", "designationCode": "C", "categoryCode": "21", "address": "202 8 ST NE", "city": "MEDICINE HAT", "province": "AB", "country": "CA", "postalCode": "T1A5R6", "twitter": "None", "instagram": "None", "facebook": "None", "youtube": "None", "website": "None", "summary": "None", "logo": "None", "latitude": 50.04984047821568, "longitude": -110.68134291618097}, "888474194RR0001": {"name": "FRIENDS OF MCNAB'S ISLAND SOCIETY", "designationCode": "C", "categoryCode": "52", "address": "PO BOX 31240                  GLADSTONE RPO", "city": "HALIFAX", "province": "NS", "country": "CA", "postalCode": "B3K5Y1", "twitter": "None", "instagram": "None", "facebook": "None", "youtube": "None", "website": "None", "summary": "None", "logo": "None", "latitude": 44.65368668731068, "longitude": -63.59844402681182}}