{"131788101RR0001": {"name": "ST ANDREW'S CHURCH", "designationCode": "C", "categoryCode": "30", "address": "BOX 548", "city": "MAIDSTONE", "province": "SK", "country": "CA", "postalCode": "S0M1M0", "twitter": "None", "instagram": "None", "facebook": "None", "youtube": "None", "website": "None", "summary": "None", "logo": "None", "latitude": 53.087690000000066, "longitude": -109.29660999999999}, "886566991RR0001": {"name": "ST ANDREW'S CHURCH", "designationCode": "C", "categoryCode": "30", "address": "BOX 296", "city": "TOMPKINS", "province": "SK", "country": "CA", "postalCode": "S0N2S0", "twitter": "None", "instagram": "None", "facebook": "None", "youtube": "None", "website": "None", "summary": "None", "logo": "None", "latitude": 50.063720000000046, "longitude": -108.80139999999994}, "888064599RR0002": {"name": "ST ANDREW'S CHURCH", "designationCode": "C", "categoryCode": "30", "address": "547 CYPRESS AVE", "city": "LONDON", "province": "ON", "country": "CA", "postalCode": "N6H3R4", "twitter": "None", "instagram": "None", "facebook": "None", "youtube": "None", "website": "None", "summary": "None", "logo": "None", "latitude": 42.970337098534216, "longitude": -81.31064960724812}, "888307592RR0001": {"name": "ST ANDREW'S CHURCH", "designationCode": "C", "categoryCode": "30", "address": "PO BOX 128", "city": "NEW CARLISLE", "province": "QC", "country": "CA", "postalCode": "G0C1Z0", "twitter": "None", "instagram": "None", "facebook": "None", "youtube": "None", "website": "None", "summary": "None", "logo": "None", "latitude": 48.00876000000005, "longitude": -65.33776999999998}, "119163509RR0001": {"name": "ST ANDREW'S EAST PRESBYTERIAN CHURCH", "designationCode": "C", "categoryCode": "37", "address": "5 JOHN ABBOTT ST.", "city": "ST.ANDRE D'ARGENTEUIL", "province": "QC", "country": "CA", "postalCode": "J0V1X0", "twitter": "None", "instagram": "None", "facebook": "None", "youtube": "None", "website": "None", "summary": "None", "logo": "None", "latitude": 45.55978858116465, "longitude": -74.34031214227572}, "891619181RR0001": {"name": "ST ANDREW'S LODGE SUNSHINE FUND", "designationCode": "A", "categoryCode": "05", "address": "35 MEADOWLARK CRES.", "city": "HALIFAX", "province": "NS", "country": "CA", "postalCode": "B3M1R6", "twitter": "None", "instagram": "None", "facebook": "None", "youtube": "None", "website": "None", "summary": "None", "logo": "None", "latitude": 44.66745008272252, "longitude": -63.65766575258227}, "884728965RR0001": {"name": "ST ANDREW'S OUTREACH OF PETROLIA, ONTARIO", "designationCode": "C", "categoryCode": "09", "address": "410 QUEEN ST", "city": "PETROLIA", "province": "ON", "country": "CA", "postalCode": "N0N1R0", "twitter": "None", "instagram": "None", "facebook": "None", "youtube": "None", "website": "None", "summary": "None", "logo": "None", "latitude": 42.88110246572219, "longitude": -82.15113605006083}, "135127454RR0001": {"name": "ST ANDREW'S PRESBYTERAIN CHURCH", "designationCode": "C", "categoryCode": "37", "address": "PO BOX 1443", "city": "CAMPBELLFORD", "province": "ON", "country": "CA", "postalCode": "K0L1L0", "twitter": "None", "instagram": "None", "facebook": "None", "youtube": "None", "website": "None", "summary": "None", "logo": "None", "latitude": 44.287060000000054, "longitude": -77.80936999999994}, "126582428RR0001": {"name": "ST ANDREW'S PRESBYTERIAN CHURCH", "designationCode": "C", "categoryCode": "37", "address": "BOX 441", "city": "NIAGARA ON THE LAKE", "province": "ON", "country": "CA", "postalCode": "L0S1J0", "twitter": "None", "instagram": "None", "facebook": "None", "youtube": "None", "website": "None", "summary": "None", "logo": "None", "latitude": 43.23448500000005, "longitude": -79.16177149999993}, "126805670RR0001": {"name": "ST ANDREW'S PRESBYTERIAN CHURCH", "designationCode": "C", "categoryCode": "37", "address": "325 ST GEORGE ST W", "city": "FERGUS", "province": "ON", "country": "CA", "postalCode": "N1M1J4", "twitter": "None", "instagram": "None", "facebook": "None", "youtube": "None", "website": "None", "summary": "None", "logo": "None", "latitude": 43.70468779239998, "longitude": -80.38160935971482}, "128975471RR0001": {"name": "ST ANDREW'S PRESBYTERIAN CHURCH", "designationCode": "C", "categoryCode": "37", "address": "161 NORFOLK ST", "city": "GUELPH", "province": "ON", "country": "CA", "postalCode": "N1H4J8", "twitter": "None", "instagram": "None", "facebook": "None", "youtube": "None", "website": "None", "summary": "None", "logo": "None", "latitude": 43.547449807951885, "longitude": -80.25410981040473}, "129090965RR0001": {"name": "ST ANDREW'S PRESBYTERIAN CHURCH", "designationCode": "C", "categoryCode": "37", "address": "82 KENT STREET", "city": "OTTAWA", "province": "ON", "country": "CA", "postalCode": "K1P5N9", "twitter": "None", "instagram": "None", "facebook": "None", "youtube": "None", "website": "None", "summary": "None", "logo": "None", "latitude": 45.42053552011089, "longitude": -75.70369847962932}, "129394938RR0001": {"name": "ST ANDREW'S PRESBYTERIAN CHURCH", "designationCode": "C", "categoryCode": "37", "address": "PO BOX 161  STN MAIN", "city": "PERTH", "province": "ON", "country": "CA", "postalCode": "K7H3E3", "twitter": "None", "instagram": "None", "facebook": "None", "youtube": "None", "website": "None", "summary": "None", "logo": "None", "latitude": 44.89893600000005, "longitude": -76.24831399999994}, "129796918RR0001": {"name": "ST ANDREW'S PRESBYTERIAN CHURCH", "designationCode": "C", "categoryCode": "37", "address": "437 COLBORNE ST", "city": "CORUNNA", "province": "ON", "country": "CA", "postalCode": "N0N1G0", "twitter": "None", "instagram": "None", "facebook": "None", "youtube": "None", "website": "None", "summary": "None", "logo": "None", "latitude": 42.88618038046586, "longitude": -82.44251805753257}, "129894184RR0001": {"name": "ST ANDREW'S PRESBYTERIAN CHURCH", "designationCode": "C", "categoryCode": "37", "address": "16 MARMORA STREET", "city": "TRENTON", "province": "ON", "country": "CA", "postalCode": "K8V2H5", "twitter": "None", "instagram": "None", "facebook": "None", "youtube": "None", "website": "None", "summary": "None", "logo": "None", "latitude": 44.10542109212891, "longitude": -77.5713349997402}, "129898615RR0001": {"name": "ST ANDREW'S PRESBYTERIAN CHURCH", "designationCode": "C", "categoryCode": "37", "address": "1401-98TH STREET", "city": "NORTH BATTLEFORD", "province": "SK", "country": "CA", "postalCode": "S9A0M3", "twitter": "None", "instagram": "None", "facebook": "None", "youtube": "None", "website": "None", "summary": "None", "logo": "None", "latitude": 52.778402360811356, "longitude": -108.30204641996053}, "129904132RR0001": {"name": "ST ANDREW'S PRESBYTERIAN CHURCH", "designationCode": "C", "categoryCode": "37", "address": "80 DANIEL ST N", "city": "ARNPRIOR", "province": "ON", "country": "CA", "postalCode": "K7S2K8", "twitter": "None", "instagram": "None", "facebook": "None", "youtube": "None", "website": "None", "summary": "None", "logo": "None", "latitude": 45.4319876245852, "longitude": -76.35439639630306}, "130162365RR0001": {"name": "ST ANDREW'S PRESBYTERIAN CHURCH", "designationCode": "C", "categoryCode": "37", "address": "8715 118 AVENUE", "city": "EDMONTON", "province": "AB", "country": "CA", "postalCode": "T5B0T2", "twitter": "None", "instagram": "None", "facebook": "None", "youtube": "None", "website": "None", "summary": "None", "logo": "None", "latitude": 53.57035448124545, "longitude": -113.47535152553523}, "130166952RR0001": {"name": "ST ANDREW'S PRESBYTERIAN CHURCH", "designationCode": "C", "categoryCode": "37", "address": "361 RUSSELL ST", "city": "BRANDON", "province": "MB", "country": "CA", "postalCode": "R7A5H6", "twitter": "None", "instagram": "None", "facebook": "None", "youtube": "None", "website": "None", "summary": "None", "logo": "None", "latitude": 49.843998, "longitude": -99.93619743709989}, "130230972RR0001": {"name": "ST ANDREW'S PRESBYTERIAN CHURCH", "designationCode": "C", "categoryCode": "37", "address": "512 CHARLOTTE STREET", "city": "FREDERICTON", "province": "NB", "country": "CA", "postalCode": "E3B1M2", "twitter": "None", "instagram": "None", "facebook": "None", "youtube": "None", "website": "None", "summary": "None", "logo": "None", "latitude": 45.95801665139367, "longitude": -66.64363340328346}, "130706492RR0001": {"name": "ST ANDREW'S PRESBYTERIAN CHURCH", "designationCode": "C", "categoryCode": "37", "address": "496 BIRCH AVE", "city": "ST LAMBERT", "province": "QC", "country": "CA", "postalCode": "J4P2M8", "twitter": "None", "instagram": "None", "facebook": "None", "youtube": "None", "website": "None", "summary": "None", "logo": "None", "latitude": 45.5036426183853, "longitude": -73.51006174756196}, "130824568RR0001": {"name": "ST ANDREW'S PRESBYTERIAN CHURCH", "designationCode": "C", "categoryCode": "37", "address": "P.O. BOX 757", "city": "PEMBROKE", "province": "ON", "country": "CA", "postalCode": "K8A6X9", "twitter": "None", "instagram": "None", "facebook": "None", "youtube": "None", "website": "None", "summary": "None", "logo": "None", "latitude": 45.826494000000054, "longitude": -77.11217449999994}, "130827298RR0001": {"name": "ST ANDREW'S PRESBYTERIAN CHURCH", "designationCode": "C", "categoryCode": "37", "address": "BOX 821", "city": "COLDWATER", "province": "ON", "country": "CA", "postalCode": "L0K1E0", "twitter": "None", "instagram": "None", "facebook": "None", "youtube": "None", "website": "None", "summary": "None", "logo": "None", "latitude": 44.68099200000006, "longitude": -79.62548749999993}, "130921638RR0001": {"name": "ST ANDREW'S PRESBYTERIAN CHURCH", "designationCode": "C", "categoryCode": "37", "address": "3529 MCBEAN ST PO BOX 910", "city": "RICHMOND", "province": "ON", "country": "CA", "postalCode": "K0A2Z0", "twitter": "None", "instagram": "None", "facebook": "None", "youtube": "None", "website": "None", "summary": "None", "logo": "None", "latitude": 45.1908600533208, "longitude": -75.83450461460572}, "131634347RR0001": {"name": "ST ANDREW'S PRESBYTERIAN CHURCH", "designationCode": "C", "categoryCode": "37", "address": "33 PRINCE STREET", "city": "HUNTINGDON", "province": "QC", "country": "CA", "postalCode": "J0S1H0", "twitter": "None", "instagram": "None", "facebook": "None", "youtube": "None", "website": "None", "summary": "None", "logo": "None", "latitude": 45.0855025367593, "longitude": -74.176305465982}, "131968794RR0001": {"name": "ST ANDREW'S PRESBYTERIAN CHURCH", "designationCode": "C", "categoryCode": "37", "address": "BOX 586", "city": "NORWOOD", "province": "ON", "country": "CA", "postalCode": "K0L2V0", "twitter": "None", "instagram": "None", "facebook": "None", "youtube": "None", "website": "None", "summary": "None", "logo": "None", "latitude": 44.38304000000005, "longitude": -77.97911999999997}, "131969024RR0001": {"name": "ST ANDREW'S PRESBYTERIAN CHURCH", "designationCode": "C", "categoryCode": "37", "address": "BOX 20004 MIDTOWN PO", "city": "HANOVER", "province": "ON", "country": "CA", "postalCode": "N4N3T1", "twitter": "None", "instagram": "None", "facebook": "None", "youtube": "None", "website": "None", "summary": "None", "logo": "None", "latitude": 44.152395000000055, "longitude": -81.02554999999994}, "132018193RR0001": {"name": "ST ANDREW'S PRESBYTERIAN CHURCH", "designationCode": "C", "categoryCode": "37", "address": "44 CHURCH ST EAST", "city": "BRAMPTON", "province": "ON", "country": "CA", "postalCode": "L6V1G3", "twitter": "None", "instagram": "None", "facebook": "None", "youtube": "None", "website": "None", "summary": "None", "logo": "None", "latitude": 43.689570494056056, "longitude": -79.76105026397923}, "132026501RR0001": {"name": "ST ANDREW'S PRESBYTERIAN CHURCH", "designationCode": "C", "categoryCode": "37", "address": "209 COCHRANE ST", "city": "WHITBY", "province": "ON", "country": "CA", "postalCode": "L1N5H9", "twitter": "None", "instagram": "None", "facebook": "None", "youtube": "None", "website": "None", "summary": "None", "logo": "None", "latitude": 43.88017761783702, "longitude": -78.95289166908128}, "132075672RR0001": {"name": "ST ANDREW'S PRESBYTERIAN CHURCH", "designationCode": "C", "categoryCode": "37", "address": "BOX 787", "city": "CAMPBELLFORD", "province": "ON", "country": "CA", "postalCode": "K0L1L0", "twitter": "None", "instagram": "None", "facebook": "None", "youtube": "None", "website": "None", "summary": "None", "logo": "None", "latitude": 44.287060000000054, "longitude": -77.80936999999994}, "132193301RR0001": {"name": "ST ANDREW'S PRESBYTERIAN CHURCH", "designationCode": "C", "categoryCode": "37", "address": "111 TOWNSEND STREET           PO BOX 218", "city": "LUNENBURG", "province": "NS", "country": "CA", "postalCode": "B0J2C0", "twitter": "None", "instagram": "None", "facebook": "None", "youtube": "None", "website": "None", "summary": "None", "logo": "None", "latitude": 44.378224438253746, "longitude": -64.30993004079866}, "132323064RR0001": {"name": "ST ANDREW'S PRESBYTERIAN CHURCH", "designationCode": "C", "categoryCode": "37", "address": "83 TRAFALGAR ROAD             P.O. BOX 16", "city": "HILLSBURGH", "province": "ON", "country": "CA", "postalCode": "N0B1Z0", "twitter": "None", "instagram": "None", "facebook": "None", "youtube": "None", "website": "None", "summary": "None", "logo": "None", "latitude": 43.44713918235324, "longitude": -79.66607774104108}, "132712746RR0001": {"name": "ST ANDREW'S PRESBYTERIAN CHURCH", "designationCode": "C", "categoryCode": "37", "address": "143 MAIN ST N", "city": "MARKHAM", "province": "ON", "country": "CA", "postalCode": "L3P1Y2", "twitter": "None", "instagram": "None", "facebook": "None", "youtube": "None", "website": "None", "summary": "None", "logo": "None", "latitude": 43.92940200000005, "longitude": -79.27345249999993}, "133909358RR0001": {"name": "ST ANDREW'S PRESBYTERIAN CHURCH", "designationCode": "C", "categoryCode": "37", "address": "PO BOX 705", "city": "HAGERSVILLE", "province": "ON", "country": "CA", "postalCode": "N0A1H0", "twitter": "None", "instagram": "None", "facebook": "None", "youtube": "None", "website": "None", "summary": "None", "logo": "None", "latitude": 42.96624567435869, "longitude": -80.04526476987148}, "888227592RR0001": {"name": "ST ANDREW'S PRESBYTERIAN CHURCH", "designationCode": "C", "categoryCode": "37", "address": "RR#2", "city": "NEWINGTON", "province": "ON", "country": "CA", "postalCode": "K0C1Y0", "twitter": "None", "instagram": "None", "facebook": "None", "youtube": "None", "website": "None", "summary": "None", "logo": "None", "latitude": 45.11761000000007, "longitude": -75.01142999999996}, "889008793RR0001": {"name": "ST ANDREW'S PRESBYTERIAN CHURCH", "designationCode": "C", "categoryCode": "37", "address": "484 WATER STREET", "city": "NEWMARKET", "province": "ON", "country": "CA", "postalCode": "L3Y1M5", "twitter": "None", "instagram": "None", "facebook": "None", "youtube": "None", "website": "None", "summary": "None", "logo": "None", "latitude": 44.051357747129266, "longitude": -79.45667694142773}, "889428595RR0001": {"name": "ST ANDREW'S PRESBYTERIAN CHURCH", "designationCode": "C", "categoryCode": "37", "address": "1 HIGH ST", "city": "HUNTSVILLE", "province": "ON", "country": "CA", "postalCode": "P1H1P2", "twitter": "None", "instagram": "None", "facebook": "None", "youtube": "None", "website": "None", "summary": "None", "logo": "None", "latitude": 45.32573630890418, "longitude": -79.2178334007733}, "889782041RR0001": {"name": "ST ANDREW'S PRESBYTERIAN CHURCH", "designationCode": "C", "categoryCode": "37", "address": "295 QUEEN ST S", "city": "MISSISSAUGA", "province": "ON", "country": "CA", "postalCode": "L5M1L9", "twitter": "None", "instagram": "None", "facebook": "None", "youtube": "None", "website": "None", "summary": "None", "logo": "None", "latitude": 43.57884000556858, "longitude": -79.70985493155997}, "889906848RR0001": {"name": "ST ANDREW'S PRESBYTERIAN CHURCH", "designationCode": "C", "categoryCode": "37", "address": "865 2ND AVE W", "city": "OWEN SOUND", "province": "ON", "country": "CA", "postalCode": "N4K4M6", "twitter": "None", "instagram": "None", "facebook": "None", "youtube": "None", "website": "None", "summary": "None", "logo": "None", "latitude": 44.56478876325419, "longitude": -80.94552438443726}, "890722945RR0001": {"name": "ST ANDREW'S PRESBYTERIAN CHURCH", "designationCode": "C", "categoryCode": "37", "address": "RR#2 8730 WELLINGTON ROAD 14", "city": "ARTHUR", "province": "ON", "country": "CA", "postalCode": "N0G1A0", "twitter": "None", "instagram": "None", "facebook": "None", "youtube": "None", "website": "None", "summary": "None", "logo": "None", "latitude": 43.87415134533376, "longitude": -80.5413224314978}, "891223190RR0001": {"name": "ST ANDREW'S PRESBYTERIAN CHURCH", "designationCode": "C", "categoryCode": "37", "address": "588304 CTY RD 17", "city": "MULMUR", "province": "ON", "country": "CA", "postalCode": "L9V0S7", "twitter": "None", "instagram": "None", "facebook": "None", "youtube": "None", "website": "None", "summary": "None", "logo": "None", "latitude": 44.173200005738884, "longitude": -80.02157772489247}, "891595241RR0001": {"name": "ST ANDREW'S PRESBYTERIAN CHURCH", "designationCode": "C", "categoryCode": "37", "address": "25959 NAPIER RD RR # 3", "city": "STRATHROY", "province": "ON", "country": "CA", "postalCode": "N7G3H5", "twitter": "None", "instagram": "None", "facebook": "None", "youtube": "None", "website": "None", "summary": "None", "logo": "None", "latitude": 42.87412500000005, "longitude": -81.74787649999993}, "892256645RR0001": {"name": "ST ANDREW'S PRESBYTERIAN CHURCH", "designationCode": "C", "categoryCode": "37", "address": "1220 ROUTE 465", "city": "CLAIRVILLE", "province": "NB", "country": "CA", "postalCode": "E4T2L7", "twitter": "None", "instagram": "None", "facebook": "None", "youtube": "None", "website": "None", "summary": "None", "logo": "None", "latitude": 46.385096231489335, "longitude": -65.09682384260866}, "892340845RR0001": {"name": "ST ANDREW'S PRESBYTERIAN CHURCH", "designationCode": "C", "categoryCode": "37", "address": "BOX 3 15 QUEEN ST", "city": "ALMA", "province": "ON", "country": "CA", "postalCode": "N0B1A0", "twitter": "None", "instagram": "None", "facebook": "None", "youtube": "None", "website": "None", "summary": "None", "logo": "None", "latitude": 43.72878044630384, "longitude": -80.50210418552723}, "892354267RR0001": {"name": "ST ANDREW'S PRESBYTERIAN CHURCH", "designationCode": "C", "categoryCode": "37", "address": "115 ST ANDREWS RD", "city": "SCARBOROUGH", "province": "ON", "country": "CA", "postalCode": "M1P4N2", "twitter": "None", "instagram": "None", "facebook": "None", "youtube": "None", "website": "None", "summary": "None", "logo": "None", "latitude": 43.76039251399405, "longitude": -79.25180868872988}, "892482365RR0001": {"name": "ST ANDREW'S PRESBYTERIAN CHURCH", "designationCode": "C", "categoryCode": "39", "address": "175 STONE ST S", "city": "GANANOQUE", "province": "ON", "country": "CA", "postalCode": "K7G2A2", "twitter": "None", "instagram": "None", "facebook": "None", "youtube": "None", "website": "None", "summary": "None", "logo": "None", "latitude": 44.32853030804242, "longitude": -76.16110492593835}, "135063584RR0001": {"name": "ST ANDREW'S PRESBYTERIAN CHURCH,", "designationCode": "C", "categoryCode": "37", "address": "7090 PERTH LINE 86            RR#1", "city": "LISTOWEL", "province": "ON", "country": "CA", "postalCode": "N4W3G6", "twitter": "None", "instagram": "None", "facebook": "None", "youtube": "None", "website": "None", "summary": "None", "logo": "None", "latitude": 43.690778375427, "longitude": -80.85458598895367}, "886690197RR0001": {"name": "ST ANDREW'S RESIDENCE, CHATHAM FOUNDATION", "designationCode": "A", "categoryCode": "13", "address": "99 PARK STREET", "city": "CHATHAM", "province": "ON", "country": "CA", "postalCode": "N7M3R5", "twitter": "None", "instagram": "None", "facebook": "None", "youtube": "None", "website": "None", "summary": "None", "logo": "None", "latitude": 42.40235910355453, "longitude": -82.17924800181767}, "119166445RR0001": {"name": "ST ANDREW'S UNITED CHURCH", "designationCode": "C", "categoryCode": "44", "address": "BOX 147", "city": "GLENELLA", "province": "MB", "country": "CA", "postalCode": "R0J0V0", "twitter": "None", "instagram": "None", "facebook": "None", "youtube": "None", "website": "None", "summary": "None", "logo": "None", "latitude": 50.55860000000007, "longitude": -99.19291999999996}, "129806725RR0001": {"name": "ST ANDREW'S UNITED CHURCH", "designationCode": "C", "categoryCode": "44", "address": "712 WELLINGTON ST E", "city": "SAULT STE MARIE", "province": "ON", "country": "CA", "postalCode": "P6A2M7", "twitter": "None", "instagram": "None", "facebook": "None", "youtube": "None", "website": "None", "summary": "None", "logo": "None", "latitude": 46.5093655226497, "longitude": -84.3245325}, "130056815RR0001": {"name": "ST ANDREW'S UNITED CHURCH", "designationCode": "C", "categoryCode": "44", "address": "1044 ST. GEORGES AVE", "city": "NORTH VANCOUVER", "province": "BC", "country": "CA", "postalCode": "V7L3H6", "twitter": "None", "instagram": "None", "facebook": "None", "youtube": "None", "website": "None", "summary": "None", "logo": "None", "latitude": 49.31730476372047, "longitude": -123.06932767310667}, "130153752RR0001": {"name": "ST ANDREW'S UNITED CHURCH", "designationCode": "C", "categoryCode": "44", "address": "2557 OLD MONTREAL RD", "city": "CUMBERLAND", "province": "ON", "country": "CA", "postalCode": "K4C1A1", "twitter": "None", "instagram": "None", "facebook": "None", "youtube": "None", "website": "None", "summary": "None", "logo": "None", "latitude": 45.517330380546845, "longitude": -75.40749388649081}, "131575193RR0001": {"name": "ST ANDREW'S UNITED CHURCH", "designationCode": "C", "categoryCode": "44", "address": "6036 COBURG ROAD", "city": "HALIFAX", "province": "NS", "country": "CA", "postalCode": "B3H1Y9", "twitter": "None", "instagram": "None", "facebook": "None", "youtube": "None", "website": "None", "summary": "None", "logo": "None", "latitude": 44.63986683484343, "longitude": -63.5875272352127}, "132201146RR0001": {"name": "ST ANDREW'S UNITED CHURCH", "designationCode": "C", "categoryCode": "44", "address": "9915 - 148 STREET", "city": "EDMONTON", "province": "AB", "country": "CA", "postalCode": "T5N3G1", "twitter": "None", "instagram": "None", "facebook": "None", "youtube": "None", "website": "None", "summary": "None", "logo": "None", "latitude": 53.538093, "longitude": -113.57621774401352}, "132463548RR0001": {"name": "ST ANDREW'S UNITED CHURCH", "designationCode": "C", "categoryCode": "44", "address": "BOX 354", "city": "INDIAN HEAD", "province": "SK", "country": "CA", "postalCode": "S0G2K0", "twitter": "None", "instagram": "None", "facebook": "None", "youtube": "None", "website": "None", "summary": "None", "logo": "None", "latitude": 50.52675000000005, "longitude": -103.66901999999999}, "135430882RR0001": {"name": "ST ANDREW'S UNITED CHURCH", "designationCode": "C", "categoryCode": "44", "address": "PO BOX 96", "city": "CREELMAN", "province": "SK", "country": "CA", "postalCode": "S0G0X0", "twitter": "None", "instagram": "None", "facebook": "None", "youtube": "None", "website": "None", "summary": "None", "logo": "None", "latitude": 49.87620103473389, "longitude": -103.43597826179274}, "886193994RR0001": {"name": "ST ANDREW'S UNITED CHURCH", "designationCode": "C", "categoryCode": "44", "address": "PO BOX 509", "city": "ROCKLAND", "province": "ON", "country": "CA", "postalCode": "K4K1K6", "twitter": "None", "instagram": "None", "facebook": "None", "youtube": "None", "website": "None", "summary": "None", "logo": "None", "latitude": 45.54602700000005, "longitude": -75.29304049999993}, "887283992RR0001": {"name": "ST ANDREW'S UNITED CHURCH", "designationCode": "C", "categoryCode": "44", "address": "847 BOSLEY RD, RR#2", "city": "MADOC", "province": "ON", "country": "CA", "postalCode": "K0K2K0", "twitter": "None", "instagram": "None", "facebook": "None", "youtube": "None", "website": "None", "summary": "None", "logo": "None", "latitude": 44.59196030529751, "longitude": -77.41436543868643}, "889178992RR0001": {"name": "ST ANDREW'S UNITED CHURCH", "designationCode": "C", "categoryCode": "44", "address": "116 CHURCH STREET", "city": "GRAND FALLS", "province": "NB", "country": "CA", "postalCode": "E3Z2N9", "twitter": "None", "instagram": "None", "facebook": "None", "youtube": "None", "website": "None", "summary": "None", "logo": "None", "latitude": 47.046631635672554, "longitude": -67.73831659251944}, "889504197RR0001": {"name": "ST ANDREW'S UNITED CHURCH", "designationCode": "C", "categoryCode": "44", "address": "PO BOX 153", "city": "MOOSE CREEK", "province": "ON", "country": "CA", "postalCode": "K0C1W0", "twitter": "None", "instagram": "None", "facebook": "None", "youtube": "None", "website": "None", "summary": "None", "logo": "None", "latitude": 45.26175000000006, "longitude": -74.97022999999996}, "892217258RR0001": {"name": "ST ANDREW'S UNITED CHURCH", "designationCode": "C", "categoryCode": "44", "address": "441 RUBIDGE ST", "city": "PETERBOROUGH", "province": "ON", "country": "CA", "postalCode": "K9H4E4", "twitter": "None", "instagram": "None", "facebook": "None", "youtube": "None", "website": "None", "summary": "None", "logo": "None", "latitude": 44.306980847625375, "longitude": -78.326921175457}, "892453473RR0001": {"name": "ST ANDREW'S UNITED CHURCH", "designationCode": "C", "categoryCode": "44", "address": "P O BOX 797", "city": "CONISTON", "province": "ON", "country": "CA", "postalCode": "P0M1M0", "twitter": "None", "instagram": "None", "facebook": "None", "youtube": "None", "website": "None", "summary": "None", "logo": "None", "latitude": 38.41491000000008, "longitude": -121.56022999999999}, "892633462RR0001": {"name": "ST ANDREW'S UNITED CHURCH", "designationCode": "C", "categoryCode": "44", "address": "89 MOUNTAINVIEW ROAD SOUTH", "city": "GEORGETOWN", "province": "ON", "country": "CA", "postalCode": "L7G4T9", "twitter": "None", "instagram": "None", "facebook": "None", "youtube": "None", "website": "None", "summary": "None", "logo": "None", "latitude": 43.645430282560895, "longitude": -79.89688213486082}, "891846271RR0001": {"name": "ST ANDREW'S UNITED CHURCH, GATINEAU, QUEBEC", "designationCode": "C", "categoryCode": "44", "address": "41 VINCENT LEGRIS", "city": "GATINEAU", "province": "QC", "country": "CA", "postalCode": "J8P6Z7", "twitter": "None", "instagram": "None", "facebook": "None", "youtube": "None", "website": "None", "summary": "None", "logo": "None", "latitude": 45.5008491288013, "longitude": -75.60555000764606}, "888964194RR0001": {"name": "ST ANDREW'S UNITED CHURCH, VALCARTIER VILLAGE", "designationCode": "C", "categoryCode": "44", "address": "1722 BLVD VALCARTIER", "city": "VALCARTIER VILLAGE", "province": "QC", "country": "CA", "postalCode": "G0A4S0", "twitter": "None", "instagram": "None", "facebook": "None", "youtube": "None", "website": "None", "summary": "None", "logo": "None", "latitude": 46.937096262615704, "longitude": -71.46954311456906}, "890775760RR0002": {"name": "ST ANDREWS & ST MARKS UNITED CHURCH", "designationCode": "C", "categoryCode": "44", "address": "P.O. BOX 204", "city": "HUBBARDS", "province": "NS", "country": "CA", "postalCode": "B0J1T0", "twitter": "None", "instagram": "None", "facebook": "None", "youtube": "None", "website": "None", "summary": "None", "logo": "None", "latitude": 44.503890000000055, "longitude": -64.06356499999993}, "129369419RR0002": {"name": "ST ANDREWS ANGLICAN CHURCH", "designationCode": "C", "categoryCode": "30", "address": "2700 PORTAGE AVENUE", "city": "WINNIPEG", "province": "MB", "country": "CA", "postalCode": "R3J0R1", "twitter": "None", "instagram": "None", "facebook": "None", "youtube": "None", "website": "None", "summary": "None", "logo": "None", "latitude": 49.87766684537501, "longitude": -97.27185957120999}, "137913885RR0001": {"name": "ST ANDREWS DISTRICT COMMUNITY CENTRE", "designationCode": "C", "categoryCode": "56", "address": "PO BOX 53", "city": "ST ANDREWS", "province": "NS", "country": "CA", "postalCode": "B0H1X0", "twitter": "None", "instagram": "None", "facebook": "None", "youtube": "None", "website": "None", "summary": "None", "logo": "None", "latitude": 45.55525000000006, "longitude": -61.88908999999995}, "132170853RR0001": {"name": "ST ANDREWS NEWTON PRESBYTERIAN CHURCH", "designationCode": "C", "categoryCode": "37", "address": "7147 124 ST", "city": "SURREY", "province": "BC", "country": "CA", "postalCode": "V3W3W9", "twitter": "None", "instagram": "None", "facebook": "None", "youtube": "None", "website": "None", "summary": "None", "logo": "None", "latitude": 49.13320349125743, "longitude": -122.87913488455756}, "130147077RR0002": {"name": "ST ANDREWS ON THE RED", "designationCode": "C", "categoryCode": "30", "address": "3 ST. ANDREWS ROAD", "city": "ST ANDREWS", "province": "MB", "country": "CA", "postalCode": "R1A2Y4", "twitter": "None", "instagram": "None", "facebook": "None", "youtube": "None", "website": "None", "summary": "None", "logo": "None", "latitude": 50.06643618742528, "longitude": -96.97687521933791}, "119165546RR0001": {"name": "ST ANDREWS PRESBYTERIAN CHURCH", "designationCode": "C", "categoryCode": "37", "address": "BOX 327", "city": "SLOCAN", "province": "BC", "country": "CA", "postalCode": "V0G2C0", "twitter": "None", "instagram": "None", "facebook": "None", "youtube": "None", "website": "None", "summary": "None", "logo": "None", "latitude": 49.89174301941569, "longitude": -116.90279100000001}, "129928446RR0001": {"name": "ST ANDREWS PRESBYTERIAN CHURCH", "designationCode": "C", "categoryCode": "37", "address": "24 STAVEBANK ROAD NORTH", "city": "MISSISSAUGA", "province": "ON", "country": "CA", "postalCode": "L5G2T5", "twitter": "None", "instagram": "None", "facebook": "None", "youtube": "None", "website": "None", "summary": "None", "logo": "None", "latitude": 43.55301275434262, "longitude": -79.58686610964271}, "131771115RR0001": {"name": "ST ANDREWS PRESBYTERIAN CHURCH", "designationCode": "C", "categoryCode": "37", "address": "1169 RTE 243", "city": "MELBOURNE", "province": "QC", "country": "CA", "postalCode": "J0B2B0", "twitter": "None", "instagram": "None", "facebook": "None", "youtube": "None", "website": "None", "summary": "None", "logo": "None", "latitude": 45.64344770084327, "longitude": -72.13961064619096}, "868316167RR0001": {"name": "ST ANDREWS SCHOOL ADVISORY COUNCIL FOR SCHOOL LEADERSHIP", "designationCode": "C", "categoryCode": "29", "address": "8 ST. ANDREWS ROAD", "city": "ST. ANDREWS", "province": "MB", "country": "CA", "postalCode": "R1A2Y1", "twitter": "None", "instagram": "None", "facebook": "None", "youtube": "None", "website": "None", "summary": "None", "logo": "None", "latitude": 50.06659618797268, "longitude": -96.97712626997827}, "129621074RR0001": {"name": "ST ANDREWS UNITED CHURCH", "designationCode": "C", "categoryCode": "44", "address": "BOX 39", "city": "SWAN RIVER", "province": "MB", "country": "CA", "postalCode": "R0L1Z0", "twitter": "None", "instagram": "None", "facebook": "None", "youtube": "None", "website": "None", "summary": "None", "logo": "None", "latitude": 52.11672730414978, "longitude": -101.25989472758229}, "131432221RR0001": {"name": "ST ANDREWS UNITED CHURCH", "designationCode": "C", "categoryCode": "44", "address": "BOX 729", "city": "ESTERHAZY", "province": "SK", "country": "CA", "postalCode": "S0A0X0", "twitter": "None", "instagram": "None", "facebook": "None", "youtube": "None", "website": "None", "summary": "None", "logo": "None", "latitude": 50.65157000000005, "longitude": -102.05784999999997}, "132459991RR0001": {"name": "ST ANDREWS UNITED CHURCH", "designationCode": "C", "categoryCode": "44", "address": "128 1 ST E                    TREASURER", "city": "COCHRANE", "province": "AB", "country": "CA", "postalCode": "T4C1Z3", "twitter": "None", "instagram": "None", "facebook": "None", "youtube": "None", "website": "None", "summary": "None", "logo": "None", "latitude": 51.188566074124175, "longitude": -114.46497307617298}, "132507344RR0001": {"name": "ST ANDREWS UNITED CHURCH", "designationCode": "C", "categoryCode": "44", "address": "P.O. BOX 162", "city": "GRAFTON", "province": "ON", "country": "CA", "postalCode": "K0K2G0", "twitter": "None", "instagram": "None", "facebook": "None", "youtube": "None", "website": "None", "summary": "None", "logo": "None", "latitude": 43.99255000000005, "longitude": -78.02367999999996}, "888167798RR0001": {"name": "ST ANDREWS UNITED CHURCH", "designationCode": "C", "categoryCode": "44", "address": "20049 HWY 540", "city": "SILVER WATER", "province": "ON", "country": "CA", "postalCode": "P0P1Y0", "twitter": "None", "instagram": "None", "facebook": "None", "youtube": "None", "website": "None", "summary": "None", "logo": "None", "latitude": 45.856958430465035, "longitude": -82.84306168754487}, "891115040RR0001": {"name": "ST ANDREWS UNITED CHURCH CEMETERY BOARD", "designationCode": "C", "categoryCode": "59", "address": "BOX 6", "city": "CAMPBELL'S BAY", "province": "QC", "country": "CA", "postalCode": "J0X1K0", "twitter": "None", "instagram": "None", "facebook": "None", "youtube": "None", "website": "None", "summary": "None", "logo": "None", "latitude": 45.67874163255157, "longitude": -76.54371060945196}, "131623407RR0001": {"name": "ST ANDREWS UNITED CHURCH WOMEN ATWATER", "designationCode": "A", "categoryCode": "45", "address": "BOX 66", "city": "BANGOR", "province": "SK", "country": "CA", "postalCode": "S0A0E0", "twitter": "None", "instagram": "None", "facebook": "None", "youtube": "None", "website": "None", "summary": "None", "logo": "None", "latitude": 50.85631799999999, "longitude": -102.35471849999999}, "129144549RR0043": {"name": "ST ANDREWS/ ALL SAINTS, CHASE", "designationCode": "C", "categoryCode": "30", "address": "BOX 100, 845 THOMPSON AVE", "city": "CHASE", "province": "BC", "country": "CA", "postalCode": "V0E1M0", "twitter": "None", "instagram": "None", "facebook": "None", "youtube": "None", "website": "None", "summary": "None", "logo": "None", "latitude": 50.81863296834794, "longitude": -119.68490866206947}, "130133374RR0001": {"name": "ST ANDREWS' UNITED CHURCH", "designationCode": "C", "categoryCode": "44", "address": "1A FIELDSTONE DR", "city": "SPRUCE GROVE", "province": "AB", "country": "CA", "postalCode": "T7X2Z3", "twitter": "None", "instagram": "None", "facebook": "None", "youtube": "None", "website": "None", "summary": "None", "logo": "None", "latitude": 53.55899267232437, "longitude": -113.90683054469314}, "129133575RR0001": {"name": "ST ANGELA'S ACADEMY FOUNDATION", "designationCode": "C", "categoryCode": "21", "address": "305 HILLIARD STREET EAST", "city": "SASKATOON", "province": "SK", "country": "CA", "postalCode": "S7J0E5", "twitter": "None", "instagram": "None", "facebook": "None", "youtube": "None", "website": "None", "summary": "None", "logo": "None", "latitude": 52.103623493219324, "longitude": -106.66399402553522}, "130091135RR0039": {"name": "ST ANN'S CHURCH", "designationCode": "C", "categoryCode": "38", "address": "202 MAIN ST", "city": "ELSIPOGTOG FIRST NATION", "province": "NB", "country": "CA", "postalCode": "E4W2X9", "twitter": "None", "instagram": "None", "facebook": "None", "youtube": "None", "website": "None", "summary": "None", "logo": "None", "latitude": 46.58515474597369, "longitude": -64.98640112774765}, "129930228RR0032": {"name": "ST ANN'S PARISH", "designationCode": "C", "categoryCode": "38", "address": "44 MARIAN DRIVE", "city": "PERTH ANDOVER", "province": "NB", "country": "CA", "postalCode": "E7H3A7", "twitter": "None", "instagram": "None", "facebook": "None", "youtube": "None", "website": "None", "summary": "None", "logo": "None", "latitude": 46.75970467884118, "longitude": -67.70267337910741}, "119167625RR0001": {"name": "ST ANN'S SPIRITUAL BAPTIST CHURCH OF TORONTO", "designationCode": "C", "categoryCode": "39", "address": "1855 DANFORTH AVENUE", "city": "TORONTO", "province": "ON", "country": "CA", "postalCode": "M4C1J3", "twitter": "None", "instagram": "None", "facebook": "None", "youtube": "None", "website": "None", "summary": "None", "logo": "None", "latitude": 43.68463084927018, "longitude": -79.31757482194591}, "108007410RR0001": {"name": "ST ANNE COMMUNITY AND NURSING CARE CENTRE", "designationCode": "C", "categoryCode": "10", "address": "2313 HIGHWAY 206              BOX 30", "city": "ARICHAT", "province": "NS", "country": "CA", "postalCode": "B0E1A0", "twitter": "None", "instagram": "None", "facebook": "None", "youtube": "None", "website": "None", "summary": "None", "logo": "None", "latitude": 45.510584360785906, "longitude": -61.03130744268932}, "122564743RR0001": {"name": "ST ANNE'S CHURCH", "designationCode": "C", "categoryCode": "38", "address": "P.O. BOX 250", "city": "PETERSFIELD", "province": "MB", "country": "CA", "postalCode": "R0C2L0", "twitter": "None", "instagram": "None", "facebook": "None", "youtube": "None", "website": "None", "summary": "None", "logo": "None", "latitude": 50.305500000000016, "longitude": -96.96204}, "888312790RR0001": {"name": "ST ANNE'S CHURCH", "designationCode": "C", "categoryCode": "30", "address": "171 PRINCIPAL STREET SOUTH", "city": "RICHMOND", "province": "QC", "country": "CA", "postalCode": "J0B2H0", "twitter": "None", "instagram": "None", "facebook": "None", "youtube": "None", "website": "None", "summary": "None", "logo": "None", "latitude": 45.65607287399734, "longitude": -72.14109996889619}, "131949877RR0001": {"name": "ST ANNE'S PARISH", "designationCode": "C", "categoryCode": "38", "address": "POST OFFICE BOX 360", "city": "KIPLING", "province": "SK", "country": "CA", "postalCode": "S0G2S0", "twitter": "None", "instagram": "None", "facebook": "None", "youtube": "None", "website": "None", "summary": "None", "logo": "None", "latitude": 50.94214200000001, "longitude": -104.50606274999998}, "892906975RR0001": {"name": "ST ANNE'S PARISH", "designationCode": "C", "categoryCode": "38", "address": "4609 50 AVE", "city": "ST PAUL", "province": "AB", "country": "CA", "postalCode": "T0A3A3", "twitter": "None", "instagram": "None", "facebook": "None", "youtube": "None", "website": "None", "summary": "None", "logo": "None", "latitude": 53.99135148730496, "longitude": -111.28695202553523}, "130977168RR0001": {"name": "ST ANSGAR'S LUTHERAN CHURCH", "designationCode": "C", "categoryCode": "32", "address": "4020 GRAND BLVD.", "city": "MONTREAL", "province": "QC", "country": "CA", "postalCode": "H4B2X5", "twitter": "None", "instagram": "None", "facebook": "None", "youtube": "None", "website": "None", "summary": "None", "logo": "None", "latitude": 45.46721685509854, "longitude": -73.62481473094219}, "119229920RR0032": {"name": "ST ANTHONY ANGLICAN PARISH", "designationCode": "C", "categoryCode": "30", "address": "P.O. BOX 218", "city": "ST. ANTHONY", "province": "NL", "country": "CA", "postalCode": "A0K4S0", "twitter": "None", "instagram": "None", "facebook": "None", "youtube": "None", "website": "None", "summary": "None", "logo": "None", "latitude": 51.372690000000034, "longitude": -55.597039999999936}, "128967353RR0032": {"name": "ST ANTHONY OF PADUA", "designationCode": "C", "categoryCode": "38", "address": "427 BOOTH", "city": "OTTAWA", "province": "ON", "country": "CA", "postalCode": "K1R7K8", "twitter": "None", "instagram": "None", "facebook": "None", "youtube": "None", "website": "None", "summary": "None", "logo": "None", "latitude": 45.405624959489785, "longitude": -75.70821185965751}, "131132839RR0001": {"name": "ST ANTHONY OF PADUA CHURCH", "designationCode": "C", "categoryCode": "38", "address": "250 BURRIN AVE", "city": "WINNIPEG", "province": "MB", "country": "CA", "postalCode": "R2V1E5", "twitter": "None", "instagram": "None", "facebook": "None", "youtube": "None", "website": "None", "summary": "None", "logo": "None", "latitude": 49.94006909351389, "longitude": -97.1192121483639}, "132410671RR0288": {"name": "ST ANTHONY OF PADUA CONFERENCE - SOCIETY OF ST VINCENT DE PAUL", "designationCode": "C", "categoryCode": "09", "address": "P.O. BOX 613", "city": "HARROW", "province": "ON", "country": "CA", "postalCode": "N0R1G0", "twitter": "None", "instagram": "None", "facebook": "None", "youtube": "None", "website": "None", "summary": "None", "logo": "None", "latitude": 42.03553000000005, "longitude": -82.91788999999994}, "890832546RR0001": {"name": "ST ANTHONY OF PADUA FRATERNITY OF THE SECULAR FRANCISCAN", "designationCode": "C", "categoryCode": "46", "address": "4451 WILLIAMS RD", "city": "RICHMOND", "province": "BC", "country": "CA", "postalCode": "V7E1J7", "twitter": "None", "instagram": "None", "facebook": "None", "youtube": "None", "website": "None", "summary": "None", "logo": "None", "latitude": 49.14117212823991, "longitude": -123.17559046540576}, "125345744RR0001": {"name": "ST ANTHONY OF PADUA MISSION AID", "designationCode": "C", "categoryCode": "47", "address": "100-1320 LESLIE STREET", "city": "TORONTO", "province": "ON", "country": "CA", "postalCode": "M3C2K9", "twitter": "None", "instagram": "None", "facebook": "None", "youtube": "None", "website": "None", "summary": "None", "logo": "None", "latitude": 43.73232031615045, "longitude": -79.35551402691739}, "888511649RR0001": {"name": "ST ANTHONY'S CHURCH", "designationCode": "C", "categoryCode": "38", "address": "365 BURNELL ST", "city": "WINNIPEG", "province": "MB", "country": "CA", "postalCode": "R3G2B1", "twitter": "None", "instagram": "None", "facebook": "None", "youtube": "None", "website": "None", "summary": "None", "logo": "None", "latitude": 49.88858242853022, "longitude": -97.17068766302177}}