{"863778965RR0001": {"name": "LA MAISON DERAGON INC.", "designationCode": "C", "categoryCode": "01", "address": "348 DERAGON", "city": "GRANBY", "province": "QC", "country": "CA", "postalCode": "J2G5J7", "twitter": "None", "instagram": "None", "facebook": "None", "youtube": "None", "website": "None", "summary": "None", "logo": "None", "latitude": 45.41281856869982, "longitude": -72.72584431865636}, "892136169RR0001": {"name": "LA MAISON DES AINES DE CHERTSEY", "designationCode": "C", "categoryCode": "09", "address": "552 DE L'\u00c9GLISE", "city": "CHERTSEY", "province": "QC", "country": "CA", "postalCode": "J0K3K0", "twitter": "None", "instagram": "None", "facebook": "None", "youtube": "None", "website": "None", "summary": "None", "logo": "None", "latitude": 46.07432939327148, "longitude": -73.88869572978834}, "138215751RR0001": {"name": "LA MAISON DES AINES DE LEVIS INC", "designationCode": "C", "categoryCode": "09", "address": "10 RUE GIGUERE", "city": "LEVIS", "province": "QC", "country": "CA", "postalCode": "G6V1N6", "twitter": "None", "instagram": "None", "facebook": "None", "youtube": "None", "website": "None", "summary": "None", "logo": "None", "latitude": 46.82420115901107, "longitude": -71.1709182909577}, "131582264RR0001": {"name": "LA MAISON DES AMIS DU PLATEAU MONT-ROYAL INC", "designationCode": "C", "categoryCode": "09", "address": "1370 BOUL SAINT-JOSEPH E", "city": "MONTREAL", "province": "QC", "country": "CA", "postalCode": "H2J1M3", "twitter": "None", "instagram": "None", "facebook": "None", "youtube": "None", "website": "None", "summary": "None", "logo": "None", "latitude": 45.532885809596664, "longitude": -73.58159085094358}, "895089324RR0001": {"name": "LA MAISON DES ARTS RIVE-SUD", "designationCode": "C", "categoryCode": "22", "address": "1705 VICTORIA                 C-117", "city": "SAINT-LAMBERT", "province": "QC", "country": "CA", "postalCode": "J4R2T7", "twitter": "None", "instagram": "None", "facebook": "None", "youtube": "None", "website": "None", "summary": "None", "logo": "None", "latitude": 45.48465246540509, "longitude": -73.48560772029504}, "897421400RR0001": {"name": "LA MAISON DES ENFANTS DE VARENNES", "designationCode": "C", "categoryCode": "09", "address": "98 RUE YOUVILLE", "city": "VARENNES", "province": "QC", "country": "CA", "postalCode": "J3X1R1", "twitter": "None", "instagram": "None", "facebook": "None", "youtube": "None", "website": "None", "summary": "None", "logo": "None", "latitude": 45.68311856399663, "longitude": -73.43871024075261}, "137705539RR0001": {"name": "LA MAISON DES FAMILLES DE CHICOUTIMI", "designationCode": "C", "categoryCode": "09", "address": "700 RUE B\u00c9GIN", "city": "CHICOUTIMI", "province": "QC", "country": "CA", "postalCode": "G7H7Y6", "twitter": "None", "instagram": "None", "facebook": "None", "youtube": "None", "website": "None", "summary": "None", "logo": "None", "latitude": 48.418256909284715, "longitude": -71.06257590712035}, "894360692RR0001": {"name": "LA MAISON DES FAMILLES DE LA MITIS", "designationCode": "C", "categoryCode": "09", "address": "46 AVE PIERRE-NORMAND", "city": "MONT-JOLI", "province": "QC", "country": "CA", "postalCode": "G5H2A4", "twitter": "None", "instagram": "None", "facebook": "None", "youtube": "None", "website": "None", "summary": "None", "logo": "None", "latitude": 48.58412040550517, "longitude": -68.18184789953254}, "874712797RR0001": {"name": "LA MAISON DES FAMILLES DE MERCIER-EST", "designationCode": "C", "categoryCode": "09", "address": "700 - GEORGES BIZET", "city": "MONTREAL", "province": "QC", "country": "CA", "postalCode": "H1L5S9", "twitter": "None", "instagram": "None", "facebook": "None", "youtube": "None", "website": "None", "summary": "None", "logo": "None", "latitude": 45.590965147902565, "longitude": -73.51100921775621}, "102950318RR0001": {"name": "LA MAISON DES FEMMES DES BOIS-FRANCS", "designationCode": "C", "categoryCode": "59", "address": "19 RUE DE COURVAL", "city": "VICTORIAVILLE", "province": "QC", "country": "CA", "postalCode": "G6P4W2", "twitter": "None", "instagram": "None", "facebook": "None", "youtube": "None", "website": "None", "summary": "None", "logo": "None", "latitude": 46.05792994615961, "longitude": -71.94755428862042}, "141603340RR0001": {"name": "LA MAISON DES FEMMES SOURDES DE MONTREAL", "designationCode": "C", "categoryCode": "09", "address": "4855 RUE BOYER                BUREAU 105", "city": "MONTREAL", "province": "QC", "country": "CA", "postalCode": "H2J3E6", "twitter": "None", "instagram": "None", "facebook": "None", "youtube": "None", "website": "None", "summary": "None", "logo": "None", "latitude": 45.52928927589581, "longitude": -73.58399111114326}, "870882750RR0001": {"name": "LA MAISON DES GRANDS-PARENTS DE SAINTE-FOY INC", "designationCode": "C", "categoryCode": "09", "address": "3180 RUE D'AMOURS", "city": "QU\u00c9BEC", "province": "QC", "country": "CA", "postalCode": "G1X1L9", "twitter": "None", "instagram": "None", "facebook": "None", "youtube": "None", "website": "None", "summary": "None", "logo": "None", "latitude": 46.775442968116806, "longitude": -71.31813876885532}, "883398000RR0001": {"name": "LA MAISON DES GRANDS-PARENTS DE TROIS-RIVIERES", "designationCode": "C", "categoryCode": "09", "address": "755 RUE CARRIER               BUREAU 105", "city": "TROIS-RIVIERES", "province": "QC", "country": "CA", "postalCode": "G9A5W6", "twitter": "None", "instagram": "None", "facebook": "None", "youtube": "None", "website": "None", "summary": "None", "logo": "None", "latitude": 46.32874210545912, "longitude": -72.57245402842075}, "891603482RR0001": {"name": "LA MAISON DES GRANDS-PARENTS DE VILLERAY INC.", "designationCode": "C", "categoryCode": "09", "address": "8078 RUE DROLET", "city": "MONTREAL", "province": "QC", "country": "CA", "postalCode": "H2R2C9", "twitter": "None", "instagram": "None", "facebook": "None", "youtube": "None", "website": "None", "summary": "None", "logo": "None", "latitude": 45.54181911183577, "longitude": -73.62929857605741}, "859403362RR0001": {"name": "LA MAISON DES GRANDS-PARENTS DU GRAND JOLIETTE", "designationCode": "C", "categoryCode": "09", "address": "200 RUE DE SALABERRY          SUITE 205", "city": "JOLIETTE", "province": "QC", "country": "CA", "postalCode": "J6E4G1", "twitter": "None", "instagram": "None", "facebook": "None", "youtube": "None", "website": "None", "summary": "None", "logo": "None", "latitude": 46.018426513762904, "longitude": -73.43291349685467}, "129445680RR0001": {"name": "LA MAISON DES JEUNES \"L'ESCALIER\" DE LACHINE INC", "designationCode": "C", "categoryCode": "29", "address": "560 5E AVE", "city": "LACHINE", "province": "QC", "country": "CA", "postalCode": "H8S2V9", "twitter": "None", "instagram": "None", "facebook": "None", "youtube": "None", "website": "None", "summary": "None", "logo": "None", "latitude": 45.43956092200935, "longitude": -73.6684538958972}, "886442839RR0001": {"name": "LA MAISON DES JEUNES \"LA BOITE\" DE RAGUENEAU", "designationCode": "C", "categoryCode": "09", "address": "519 ROUTE 138", "city": "RAGUENEAU", "province": "QC", "country": "CA", "postalCode": "G0H1S0", "twitter": "None", "instagram": "None", "facebook": "None", "youtube": "None", "website": "None", "summary": "None", "logo": "None", "latitude": 49.07397673852615, "longitude": -68.46535667522038}, "119004174RR0001": {"name": "LA MAISON DES JEUNES \"LA MARGINALE\" INC.", "designationCode": "C", "categoryCode": "09", "address": "1236 RUE DE LA DURANCE", "city": "CHARLESBOURG", "province": "QC", "country": "CA", "postalCode": "G2N1X2", "twitter": "None", "instagram": "None", "facebook": "None", "youtube": "None", "website": "None", "summary": "None", "logo": "None", "latitude": 46.91160330783634, "longitude": -71.33356853537431}, "896433042RR0001": {"name": "LA MAISON DES JEUNES \"LE BOUM\"", "designationCode": "C", "categoryCode": "09", "address": "52 RUE DU PORT                C.P. 1108", "city": "BEDFORD", "province": "QC", "country": "CA", "postalCode": "J0J1A0", "twitter": "None", "instagram": "None", "facebook": "None", "youtube": "None", "website": "None", "summary": "None", "logo": "None", "latitude": 45.125124000000056, "longitude": -72.97295749999994}, "132888678RR0001": {"name": "LA MAISON DES JEUNES \"PAR LA GRAND' PORTE\"", "designationCode": "C", "categoryCode": "59", "address": "CP 178 SUCC SAINT-MICHEL", "city": "MONTREAL", "province": "QC", "country": "CA", "postalCode": "H2A3M1", "twitter": "None", "instagram": "None", "facebook": "None", "youtube": "None", "website": "None", "summary": "None", "logo": "None", "latitude": 45.557373744886085, "longitude": -73.59418775487934}, "865801021RR0001": {"name": "LA MAISON DES JEUNES \u00abLES MAYAIS\u00bb", "designationCode": "C", "categoryCode": "09", "address": "401, ST-MICHEL", "city": "STE-\u00c9M\u00c9LIE-DE-L'\u00c9NERGIE", "province": "QC", "country": "CA", "postalCode": "J0K2K0", "twitter": "None", "instagram": "None", "facebook": "None", "youtube": "None", "website": "None", "summary": "None", "logo": "None", "latitude": 46.32319777826172, "longitude": -73.64348526155598}, "133638585RR0001": {"name": "LA MAISON DES JEUNES ACTIMAJE", "designationCode": "C", "categoryCode": "09", "address": "268 ST-JEAN OUEST", "city": "EAST-ANGUS", "province": "QC", "country": "CA", "postalCode": "J0B1R0", "twitter": "None", "instagram": "None", "facebook": "None", "youtube": "None", "website": "None", "summary": "None", "logo": "None", "latitude": 45.486604047463764, "longitude": -71.66361581181837}, "140718602RR0001": {"name": "LA MAISON DES JEUNES AU COEUR DES MONTAGNES", "designationCode": "C", "categoryCode": "09", "address": "251 RUE SAINT-PIERRE          R.R. 1", "city": "SAINT-ELIE", "province": "QC", "country": "CA", "postalCode": "G0X2N0", "twitter": "None", "instagram": "None", "facebook": "None", "youtube": "None", "website": "None", "summary": "None", "logo": "None", "latitude": 46.48718541935496, "longitude": -72.96128866732094}, "855076931RR0001": {"name": "LA MAISON DES JEUNES BON-CONSEIL LE TRAIT D'UNION", "designationCode": "C", "categoryCode": "09", "address": "1395 RTE 122", "city": "BON CONSEIL", "province": "QC", "country": "CA", "postalCode": "J0C1A0", "twitter": "None", "instagram": "None", "facebook": "None", "youtube": "None", "website": "None", "summary": "None", "logo": "None", "latitude": 46.00002410684957, "longitude": -72.34428511957549}, "863795092RR0001": {"name": "LA MAISON DES JEUNES D'OKA", "designationCode": "C", "categoryCode": "09", "address": "39, RUE ST-JACQUES", "city": "OKA", "province": "QC", "country": "CA", "postalCode": "J0N1E0", "twitter": "None", "instagram": "None", "facebook": "None", "youtube": "None", "website": "None", "summary": "None", "logo": "None", "latitude": 45.462631913411016, "longitude": -74.0865297897456}, "899597454RR0001": {"name": "LA MAISON DES JEUNES DE BLAINVILLE INC", "designationCode": "C", "categoryCode": "09", "address": "1177 BOUL DU CURE-LABELLE", "city": "BLAINVILLE", "province": "QC", "country": "CA", "postalCode": "J7C2N3", "twitter": "None", "instagram": "None", "facebook": "None", "youtube": "None", "website": "None", "summary": "None", "logo": "None", "latitude": 45.68133393753259, "longitude": -73.8922485466557}, "885059758RR0001": {"name": "LA MAISON DES JEUNES DE BOISCHATEL", "designationCode": "C", "categoryCode": "09", "address": "5274 AVENUE ROYAL", "city": "BOISCHATEL", "province": "QC", "country": "CA", "postalCode": "G0A1H0", "twitter": "None", "instagram": "None", "facebook": "None", "youtube": "None", "website": "None", "summary": "None", "logo": "None", "latitude": 46.896312458220386, "longitude": -71.13719112808015}, "891563074RR0001": {"name": "LA MAISON DES JEUNES DE BONAVENTURE", "designationCode": "C", "categoryCode": "56", "address": "141 LOUISBOURG", "city": "BONAVENTURE", "province": "QC", "country": "CA", "postalCode": "G0C1E0", "twitter": "None", "instagram": "None", "facebook": "None", "youtube": "None", "website": "None", "summary": "None", "logo": "None", "latitude": 48.05117764977756, "longitude": -65.48658472444998}, "102950334RR0001": {"name": "LA MAISON DES JEUNES DE CAP-ROUGE INC.", "designationCode": "C", "categoryCode": "09", "address": "4473 ST-FELIX", "city": "CAP-ROUGE", "province": "QC", "country": "CA", "postalCode": "G1Y3A6", "twitter": "None", "instagram": "None", "facebook": "None", "youtube": "None", "website": "None", "summary": "None", "logo": "None", "latitude": 46.741389298892194, "longitude": -71.35496781995536}, "896499431RR0001": {"name": "LA MAISON DES JEUNES DE CAUSAPSCAL", "designationCode": "C", "categoryCode": "09", "address": "100 RUE DE LA FABRIQUE        CP 896", "city": "CAUSAPSCAL", "province": "QC", "country": "CA", "postalCode": "G0J1J0", "twitter": "None", "instagram": "None", "facebook": "None", "youtube": "None", "website": "None", "summary": "None", "logo": "None", "latitude": 48.35605892922272, "longitude": -67.22115091753729}, "107593196RR0001": {"name": "LA MAISON DES JEUNES DE CHARNY INC.", "designationCode": "C", "categoryCode": "59", "address": "2324 DE LA GARE", "city": "CHARNY", "province": "QC", "country": "CA", "postalCode": "G6X1Z3", "twitter": "None", "instagram": "None", "facebook": "None", "youtube": "None", "website": "None", "summary": "None", "logo": "None", "latitude": 46.713290951151265, "longitude": -71.27043943865777}, "107593204RR0001": {"name": "LA MAISON DES JEUNES DE COATICOOK INC.", "designationCode": "C", "categoryCode": "09", "address": "70, RUE LAURENCE", "city": "COATICOOK", "province": "QC", "country": "CA", "postalCode": "J1A2L5", "twitter": "None", "instagram": "None", "facebook": "None", "youtube": "None", "website": "None", "summary": "None", "logo": "None", "latitude": 45.134918286715845, "longitude": -71.79940778723544}, "896858347RR0001": {"name": "LA MAISON DES JEUNES DE DESBIENS", "designationCode": "C", "categoryCode": "09", "address": "927 RUE HEBERT                CP 112 (EDIFICE MUNICIPAL)", "city": "DESBIENS", "province": "QC", "country": "CA", "postalCode": "G0W1N0", "twitter": "None", "instagram": "None", "facebook": "None", "youtube": "None", "website": "None", "summary": "None", "logo": "None", "latitude": 48.41797538718329, "longitude": -71.95010731626176}, "130735301RR0001": {"name": "LA MAISON DES JEUNES DE FARNHAM INC", "designationCode": "C", "categoryCode": "01", "address": "455 YAMASKA EST", "city": "FARNHAM", "province": "QC", "country": "CA", "postalCode": "J2N1J2", "twitter": "None", "instagram": "None", "facebook": "None", "youtube": "None", "website": "None", "summary": "None", "logo": "None", "latitude": 45.28575099226705, "longitude": -72.97419730221043}, "119004117RR0001": {"name": "LA MAISON DES JEUNES DE GASPE", "designationCode": "C", "categoryCode": "59", "address": "189, RUE JACQUES CARTIER      PORTE 8", "city": "GASPE", "province": "QC", "country": "CA", "postalCode": "G4X2P8", "twitter": "None", "instagram": "None", "facebook": "None", "youtube": "None", "website": "None", "summary": "None", "logo": "None", "latitude": 48.82981524283011, "longitude": -64.48918363431255}, "103033403RR0001": {"name": "LA MAISON DES JEUNES DE GRANBY INC.", "designationCode": "C", "categoryCode": "09", "address": "445, RUE NOTRE-DAME", "city": "GRANBY", "province": "QC", "country": "CA", "postalCode": "J2G3L7", "twitter": "None", "instagram": "None", "facebook": "None", "youtube": "None", "website": "None", "summary": "None", "logo": "None", "latitude": 45.40061046047075, "longitude": -72.73860217208147}, "133007757RR0001": {"name": "LA MAISON DES JEUNES DE GRANDE-RIVIERE INC", "designationCode": "C", "categoryCode": "09", "address": "3 GRANDE-ALLEE EST", "city": "GRANDE-RIVIERE", "province": "QC", "country": "CA", "postalCode": "G0C1V0", "twitter": "None", "instagram": "None", "facebook": "None", "youtube": "None", "website": "None", "summary": "None", "logo": "None", "latitude": 48.39767153756735, "longitude": -64.50818850842545}, "140484288RR0001": {"name": "LA MAISON DES JEUNES DE GRENVILLE ET AGGLOMERATION", "designationCode": "C", "categoryCode": "09", "address": "201 PRINCIPALE", "city": "GRENVILLE", "province": "QC", "country": "CA", "postalCode": "J0V1J0", "twitter": "None", "instagram": "None", "facebook": "None", "youtube": "None", "website": "None", "summary": "None", "logo": "None", "latitude": 45.630471551214676, "longitude": -74.600753996826}, "121029888RR0001": {"name": "LA MAISON DES JEUNES DE L'ANCIENNE-LORETTE INC", "designationCode": "C", "categoryCode": "09", "address": "1573, RUE TURMEL", "city": "L'ANCIENNE-LORETTE", "province": "QC", "country": "CA", "postalCode": "G2E3J5", "twitter": "None", "instagram": "None", "facebook": "None", "youtube": "None", "website": "None", "summary": "None", "logo": "None", "latitude": 46.79801088372085, "longitude": -71.36190598415963}, "894287747RR0001": {"name": "LA MAISON DES JEUNES DE L'ASSOMPTION", "designationCode": "C", "categoryCode": "09", "address": "312 RUE ST-JACQUES", "city": "L'ASSOMPTION", "province": "QC", "country": "CA", "postalCode": "J5W2A8", "twitter": "None", "instagram": "None", "facebook": "None", "youtube": "None", "website": "None", "summary": "None", "logo": "None", "latitude": 45.82663103635526, "longitude": -73.42275653482605}, "823370473RR0001": {"name": "LA MAISON DES JEUNES DE LA FRONTIERE", "designationCode": "C", "categoryCode": "09", "address": "505 FRONTIERE                 LOCAL 9", "city": "HEMMINGFORD", "province": "QC", "country": "CA", "postalCode": "J0L1H0", "twitter": "None", "instagram": "None", "facebook": "None", "youtube": "None", "website": "None", "summary": "None", "logo": "None", "latitude": 45.05190810222118, "longitude": -73.58545909337826}, "866755689RR0001": {"name": "LA MAISON DES JEUNES DE LA M.R.C. ROBERT-CLICHE", "designationCode": "C", "categoryCode": "09", "address": "1125 AVENUE DU PALAIS", "city": "ST-JOSEPH DE BEAUCE", "province": "QC", "country": "CA", "postalCode": "G0S2V0", "twitter": "None", "instagram": "None", "facebook": "None", "youtube": "None", "website": "None", "summary": "None", "logo": "None", "latitude": 46.299155111864415, "longitude": -70.87173709446618}, "880161526RR0001": {"name": "LA MAISON DES JEUNES DE LA PRAIRIE", "designationCode": "C", "categoryCode": "09", "address": "565 RUE NOTRE-DAME", "city": "LA PRAIRIE", "province": "QC", "country": "CA", "postalCode": "J5R5E5", "twitter": "None", "instagram": "None", "facebook": "None", "youtube": "None", "website": "None", "summary": "None", "logo": "None", "latitude": 45.41400808990723, "longitude": -73.49621942016302}, "102950383RR0001": {"name": "LA MAISON DES JEUNES DE LATERRIERE INC.", "designationCode": "C", "categoryCode": "09", "address": "882 DU BOULEVARD", "city": "LATERRIERE", "province": "QC", "country": "CA", "postalCode": "G7N1H7", "twitter": "None", "instagram": "None", "facebook": "None", "youtube": "None", "website": "None", "summary": "None", "logo": "None", "latitude": 48.30617644572689, "longitude": -71.11163570457025}, "103463428RR0001": {"name": "LA MAISON DES JEUNES DE MONT-JOLI INC.", "designationCode": "C", "categoryCode": "09", "address": "1643 BOUL. JACQUES-CARTIER    C.P. 81", "city": "MONT-JOLI", "province": "QC", "country": "CA", "postalCode": "G5H3K8", "twitter": "None", "instagram": "None", "facebook": "None", "youtube": "None", "website": "None", "summary": "None", "logo": "None", "latitude": 48.58515567805407, "longitude": -68.18623661627915}, "107655706RR0001": {"name": "LA MAISON DES JEUNES DE NEW RICHMOND", "designationCode": "C", "categoryCode": "09", "address": "120 RUE MELANCON", "city": "NEW-RICHMOND", "province": "QC", "country": "CA", "postalCode": "G0C2B0", "twitter": "None", "instagram": "None", "facebook": "None", "youtube": "None", "website": "None", "summary": "None", "logo": "None", "latitude": 48.16253417179302, "longitude": -65.85307742365413}, "868084484RR0001": {"name": "LA MAISON DES JEUNES DE NOTRE-DAME-DES-MONTS", "designationCode": "C", "categoryCode": "09", "address": "9, RUE PRINCIPALE", "city": "NOTRE-DAME-DES-MONTS", "province": "QC", "country": "CA", "postalCode": "G0T1L0", "twitter": "None", "instagram": "None", "facebook": "None", "youtube": "None", "website": "None", "summary": "None", "logo": "None", "latitude": 47.66608685603102, "longitude": -70.37971910166566}, "107655797RR0001": {"name": "LA MAISON DES JEUNES DE PLESSISVILLE INC.", "designationCode": "C", "categoryCode": "01", "address": "1663 DES ERABLES", "city": "PLESSISVILLE", "province": "QC", "country": "CA", "postalCode": "G6L2E3", "twitter": "None", "instagram": "None", "facebook": "None", "youtube": "None", "website": "None", "summary": "None", "logo": "None", "latitude": 46.21750958644478, "longitude": -71.77804830587442}, "889841656RR0001": {"name": "LA MAISON DES JEUNES DE POINTE-CALUMET INC.", "designationCode": "C", "categoryCode": "09", "address": "861, BOUL. DE LA CHAPELLE", "city": "POINTE-CALUMET", "province": "QC", "country": "CA", "postalCode": "J0N1G2", "twitter": "None", "instagram": "None", "facebook": "None", "youtube": "None", "website": "None", "summary": "None", "logo": "None", "latitude": 45.499771310837424, "longitude": -73.96717632679335}, "886053750RR0001": {"name": "LA MAISON DES JEUNES DE PONT-ROUGE 125 INC", "designationCode": "C", "categoryCode": "09", "address": "189 RUE DUPONT", "city": "PONT-ROUGE", "province": "QC", "country": "CA", "postalCode": "G3H1N4", "twitter": "None", "instagram": "None", "facebook": "None", "youtube": "None", "website": "None", "summary": "None", "logo": "None", "latitude": 46.75608364866507, "longitude": -71.69598880845234}, "119004125RR0001": {"name": "LA MAISON DES JEUNES DE PORT CARTIER INC.", "designationCode": "C", "categoryCode": "09", "address": "34 PARENT", "city": "PORT CARTIER", "province": "QC", "country": "CA", "postalCode": "G5B2G5", "twitter": "None", "instagram": "None", "facebook": "None", "youtube": "None", "website": "None", "summary": "None", "logo": "None", "latitude": 50.01977707354727, "longitude": -66.87538875578493}, "896407368RR0001": {"name": "LA MAISON DES JEUNES DE RIGAUD", "designationCode": "C", "categoryCode": "09", "address": "96, RUE ST-JEAN-BAPTISTE EST", "city": "RIGAUD", "province": "QC", "country": "CA", "postalCode": "J0P1P0", "twitter": "None", "instagram": "None", "facebook": "None", "youtube": "None", "website": "None", "summary": "None", "logo": "None", "latitude": 45.47936553563411, "longitude": -74.29532141756594}, "132008137RR0001": {"name": "LA MAISON DES JEUNES DE SAINTE-AGATHE", "designationCode": "C", "categoryCode": "09", "address": "19 RUE ST ANDRE               C.P.594", "city": "STE AGATHE DES MONTS", "province": "QC", "country": "CA", "postalCode": "J8C3K6", "twitter": "None", "instagram": "None", "facebook": "None", "youtube": "None", "website": "None", "summary": "None", "logo": "None", "latitude": 46.04822591395927, "longitude": -74.28398142434662}, "144816329RR0001": {"name": "LA MAISON DES JEUNES DE SAINTE-MONIQUE-DE-HONFLEUR", "designationCode": "C", "categoryCode": "09", "address": "100 RUE DE HONFLEUR", "city": "SAINTE-MONIQUE-LAC-SAINT-JEAN", "province": "QC", "country": "CA", "postalCode": "G0W2T0", "twitter": "None", "instagram": "None", "facebook": "None", "youtube": "None", "website": "None", "summary": "None", "logo": "None", "latitude": 48.74240763864039, "longitude": -71.85092865188368}, "102950441RR0001": {"name": "LA MAISON DES JEUNES DE SAYABEC", "designationCode": "C", "categoryCode": "59", "address": "6 A KEABLE", "city": "SAYABEC", "province": "QC", "country": "CA", "postalCode": "G0J3K0", "twitter": "None", "instagram": "None", "facebook": "None", "youtube": "None", "website": "None", "summary": "None", "logo": "None", "latitude": 48.564854232443274, "longitude": -67.68402775767767}, "120291265RR0001": {"name": "LA MAISON DES JEUNES DE SILLERY INC", "designationCode": "C", "categoryCode": "09", "address": "1225, AV DU CHANOINE-MOREL", "city": "QU\u00c9BEC", "province": "QC", "country": "CA", "postalCode": "G1S4B1", "twitter": "None", "instagram": "None", "facebook": "None", "youtube": "None", "website": "None", "summary": "None", "logo": "None"}, "141040485RR0001": {"name": "LA MAISON DES JEUNES DE ST-ALPHONSE INC.", "designationCode": "C", "categoryCode": "09", "address": "159 RUE PRINCIPALE O", "city": "SAINT-ALPHONSE-DE-CAPLAN", "province": "QC", "country": "CA", "postalCode": "G0C2V0", "twitter": "None", "instagram": "None", "facebook": "None", "youtube": "None", "website": "None", "summary": "None", "logo": "None", "latitude": 48.18654919341211, "longitude": -65.61937755452504}, "888430253RR0001": {"name": "LA MAISON DES JEUNES DE ST-ANDRE DE NEUFCHATEL", "designationCode": "C", "categoryCode": "09", "address": "2125 BOUL BASTIEN", "city": "QUEBEC", "province": "QC", "country": "CA", "postalCode": "G2B1B8", "twitter": "None", "instagram": "None", "facebook": "None", "youtube": "None", "website": "None", "summary": "None", "logo": "None", "latitude": 46.85822678250887, "longitude": -71.33521788230182}, "102950458RR0001": {"name": "LA MAISON DES JEUNES DE ST-ETIENNE-DE-LAUZON INC.", "designationCode": "C", "categoryCode": "29", "address": "9 DU PONT", "city": "ST ETIENNE DE LAUZON", "province": "QC", "country": "CA", "postalCode": "G6J1H6", "twitter": "None", "instagram": "None", "facebook": "None", "youtube": "None", "website": "None", "summary": "None", "logo": "None", "latitude": 46.65133912463413, "longitude": -71.3022540736284}, "869073965RR0001": {"name": "LA MAISON DES JEUNES DE ST-FELIX-DE-VALOIS", "designationCode": "C", "categoryCode": "09", "address": "5271 RUE PRINCIPALE", "city": "SAINT-FELIX-DE-VALOIS", "province": "QC", "country": "CA", "postalCode": "J0K2M0", "twitter": "None", "instagram": "None", "facebook": "None", "youtube": "None", "website": "None", "summary": "None", "logo": "None", "latitude": 46.167690510675804, "longitude": -73.43463052553523}, "102950433RR0001": {"name": "LA MAISON DES JEUNES DE ST-HYACINTHE", "designationCode": "C", "categoryCode": "56", "address": "990 RUE TURCOT", "city": "SAINT-HYACINTHE", "province": "QC", "country": "CA", "postalCode": "J2S1M2", "twitter": "None", "instagram": "None", "facebook": "None", "youtube": "None", "website": "None", "summary": "None", "logo": "None", "latitude": 45.63427989943411, "longitude": -72.95612171227113}, "119004158RR0001": {"name": "LA MAISON DES JEUNES DE ST-JEAN CHRYSOSTOME INC.", "designationCode": "C", "categoryCode": "57", "address": "940 RUE DE L'HOTEL-DE-VILLE", "city": "SAINT-JEAN-CHRYSOSTOME", "province": "QC", "country": "CA", "postalCode": "G6Z3H7", "twitter": "None", "instagram": "None", "facebook": "None", "youtube": "None", "website": "None", "summary": "None", "logo": "None", "latitude": 46.72023000000006, "longitude": -71.19501649999994}, "875549800RR0001": {"name": "LA MAISON DES JEUNES DE ST-NAZAIRE", "designationCode": "C", "categoryCode": "09", "address": "199, RUE PRINCIPALE", "city": "SAINT-NAZAIRE", "province": "QC", "country": "CA", "postalCode": "G0W2V0", "twitter": "None", "instagram": "None", "facebook": "None", "youtube": "None", "website": "None", "summary": "None", "logo": "None", "latitude": 48.58789723065374, "longitude": -71.55018676366211}, "868756792RR0001": {"name": "LA MAISON DES JEUNES DE ST-SULPICE", "designationCode": "C", "categoryCode": "09", "address": "1101 RUE NOTRE-DAME", "city": "ST SULPICE", "province": "QC", "country": "CA", "postalCode": "J5W3W2", "twitter": "None", "instagram": "None", "facebook": "None", "youtube": "None", "website": "None", "summary": "None", "logo": "None", "latitude": 45.826750947833034, "longitude": -73.35499648141834}, "129634903RR0001": {"name": "LA MAISON DES JEUNES DE STE-ANNE-DES-MONTS", "designationCode": "C", "categoryCode": "09", "address": "194 BOUL.STE-ANNE .O.", "city": "STE-ANNE-DES-MONTS", "province": "QC", "country": "CA", "postalCode": "G4V1R9", "twitter": "None", "instagram": "None", "facebook": "None", "youtube": "None", "website": "None", "summary": "None", "logo": "None", "latitude": 49.12323752842077, "longitude": -66.49622972286345}, "118847664RR0001": {"name": "LA MAISON DES JEUNES DE THETFORD-MINES", "designationCode": "C", "categoryCode": "59", "address": "CP 401 SUCC BUREAU-CHEF", "city": "THETFORD MINES", "province": "QC", "country": "CA", "postalCode": "G6G5T3", "twitter": "None", "instagram": "None", "facebook": "None", "youtube": "None", "website": "None", "summary": "None", "logo": "None", "latitude": 46.09057200000005, "longitude": -71.29926349999994}, "899510044RR0001": {"name": "LA MAISON DES JEUNES DE VAL-BRILLANT", "designationCode": "C", "categoryCode": "09", "address": "40 DES CEDRES", "city": "VAL BRILLANT", "province": "QC", "country": "CA", "postalCode": "G0J3L0", "twitter": "None", "instagram": "None", "facebook": "None", "youtube": "None", "website": "None", "summary": "None", "logo": "None", "latitude": 48.535691008050094, "longitude": -67.55165512822437}, "107593261RR0001": {"name": "LA MAISON DES JEUNES DES QUATRE FENETRES INC.", "designationCode": "C", "categoryCode": "09", "address": "CP 85007 345 BOUL LAURIER", "city": "MONT-SAINT-HILAIRE", "province": "QC", "country": "CA", "postalCode": "J3H5W1", "twitter": "None", "instagram": "None", "facebook": "None", "youtube": "None", "website": "None", "summary": "None", "logo": "None", "latitude": 45.5372277372551, "longitude": -73.20990798243304}, "102950474RR0001": {"name": "LA MAISON DES JEUNES DU BIC", "designationCode": "C", "categoryCode": "09", "address": "145 LOUIS JOSEPH PLANTE", "city": "RIMOUSKI", "province": "QC", "country": "CA", "postalCode": "G0L1B0", "twitter": "None", "instagram": "None", "facebook": "None", "youtube": "None", "website": "None", "summary": "None", "logo": "None", "latitude": 48.37205796583777, "longitude": -68.71019524811021}, "133773457RR0001": {"name": "LA MAISON DES JEUNES DU QUARTIER ST-JEAN-BAPTISTE", "designationCode": "C", "categoryCode": "09", "address": "655 ST-GABRIEL", "city": "QUEBEC", "province": "QC", "country": "CA", "postalCode": "G1R1W6", "twitter": "None", "instagram": "None", "facebook": "None", "youtube": "None", "website": "None", "summary": "None", "logo": "None", "latitude": 46.80983761864509, "longitude": -71.21903964778699}, "130873367RR0001": {"name": "LA MAISON DES JEUNES DU TEMISCAMINGUE INC.", "designationCode": "C", "categoryCode": "01", "address": "32 NOTRE-DAME OUEST POSTE REST", "city": "LORRAINVILLE", "province": "QC", "country": "CA", "postalCode": "J0Z2R0", "twitter": "None", "instagram": "None", "facebook": "None", "youtube": "None", "website": "None", "summary": "None", "logo": "None", "latitude": 47.35386954674263, "longitude": -79.35629399999999}, "136052669RR0001": {"name": "LA MAISON DES JEUNES L'AZYMUT EST * OUEST", "designationCode": "C", "categoryCode": "09", "address": "550 RUE DE LA SORBONNE", "city": "LEVIS", "province": "QC", "country": "CA", "postalCode": "G7A1Y1", "twitter": "None", "instagram": "None", "facebook": "None", "youtube": "None", "website": "None", "summary": "None", "logo": "None", "latitude": 46.70531435330953, "longitude": -71.30875781738695}, "107593220RR0001": {"name": "LA MAISON DES JEUNES L'ENVOL\u00c9E JEUNESSE INC.", "designationCode": "C", "categoryCode": "09", "address": "29 ROUTE CHAPADOS             CP 205", "city": "GASCONS", "province": "QC", "country": "CA", "postalCode": "G0C1P0", "twitter": "None", "instagram": "None", "facebook": "None", "youtube": "None", "website": "None", "summary": "None", "logo": "None", "latitude": 48.1955673044608, "longitude": -64.86502278146438}, "133533257RR0001": {"name": "LA MAISON DES JEUNES L'EXODE DE LIMOILOU", "designationCode": "C", "categoryCode": "09", "address": "369 10EME RUE", "city": "QUEBEC", "province": "QC", "country": "CA", "postalCode": "G1L2M8", "twitter": "None", "instagram": "None", "facebook": "None", "youtube": "None", "website": "None", "summary": "None", "logo": "None", "latitude": 46.82701047628245, "longitude": -71.22879150251016}, "107656274RR0001": {"name": "LA MAISON DES JEUNES LA PARENTHESE", "designationCode": "C", "categoryCode": "09", "address": "164 AV. PROULX", "city": "QUEBEC", "province": "QC", "country": "CA", "postalCode": "G1M1W7", "twitter": "None", "instagram": "None", "facebook": "None", "youtube": "None", "website": "None", "summary": "None", "logo": "None", "latitude": 46.81381002276528, "longitude": -71.25723599443141}, "103463501RR0001": {"name": "LA MAISON DES JEUNES LA SARRE INC.", "designationCode": "C", "categoryCode": "01", "address": "349 RUE 2E EST                C.P. 126", "city": "LA SARRE", "province": "QC", "country": "CA", "postalCode": "J9Z2X4", "twitter": "None", "instagram": "None", "facebook": "None", "youtube": "None", "website": "None", "summary": "None", "logo": "None"}, "102950490RR0001": {"name": "LA MAISON DES JEUNES LE PENTAGONE INC.", "designationCode": "C", "categoryCode": "09", "address": "975 RUE DU CENTRE SPORTIF", "city": "NORMANDIN", "province": "QC", "country": "CA", "postalCode": "G8M4S6", "twitter": "None", "instagram": "None", "facebook": "None", "youtube": "None", "website": "None", "summary": "None", "logo": "None", "latitude": 48.8358620644293, "longitude": -72.52531971738178}, "863432118RR0001": {"name": "LA MAISON DES JEUNES LE SPOTH DE CHUTE-AUX-OUTARDES", "designationCode": "C", "categoryCode": "56", "address": "37 RUE DE L'EGLISE", "city": "CHUTES AUX OUTARDES", "province": "QC", "country": "CA", "postalCode": "G0H1C0", "twitter": "None", "instagram": "None", "facebook": "None", "youtube": "None", "website": "None", "summary": "None", "logo": "None", "latitude": 49.12424883790186, "longitude": -68.3908099228174}, "107593162RR0001": {"name": "LA MAISON DES JEUNES QUINKA-BUZZ INC.", "designationCode": "C", "categoryCode": "56", "address": "2102 RUE FULLUM", "city": "MONTREAL", "province": "QC", "country": "CA", "postalCode": "H2K3N7", "twitter": "None", "instagram": "None", "facebook": "None", "youtube": "None", "website": "None", "summary": "None", "logo": "None", "latitude": 45.53111075685278, "longitude": -73.55663263310046}, "131908469RR0001": {"name": "LA MAISON DES JEUNES ST-R\u00c9MI INC.", "designationCode": "C", "categoryCode": "09", "address": "100 DE LA GARE", "city": "ST REMI", "province": "QC", "country": "CA", "postalCode": "J0L2L0", "twitter": "None", "instagram": "None", "facebook": "None", "youtube": "None", "website": "None", "summary": "None", "logo": "None", "latitude": 45.25579245822038, "longitude": -73.60939877820441}, "103018487RR0001": {"name": "LA MAISON DES JEUNES, CAFE-RENCONTRE 12-17 DU GRAND JOLIETTE", "designationCode": "C", "categoryCode": "09", "address": "48 GAUTHIER NORD", "city": "NOTRE-DAME-DES-PRAIRIES", "province": "QC", "country": "CA", "postalCode": "J6E1V1", "twitter": "None", "instagram": "None", "facebook": "None", "youtube": "None", "website": "None", "summary": "None", "logo": "None", "latitude": 46.038223351376296, "longitude": -73.43575022035328}, "895176535RR0001": {"name": "LA MAISON DES MOTS DES BASSES-LAURENTIDES", "designationCode": "C", "categoryCode": "21", "address": "4 CHEMIN DU RAVIN", "city": "SAINTE-TH\u00c9R\u00c8SE", "province": "QC", "country": "CA", "postalCode": "J7E2T2", "twitter": "None", "instagram": "None", "facebook": "None", "youtube": "None", "website": "None", "summary": "None", "logo": "None", "latitude": 45.64775064115184, "longitude": -73.8370216397465}, "132866930RR0001": {"name": "LA MAISON DES PARENTS D'ENFANTS HANDICAPES DE LAURENTIDES/LANAUDIERE", "designationCode": "C", "categoryCode": "09", "address": "909 RUE GUY", "city": "ST-JEROME", "province": "QC", "country": "CA", "postalCode": "J5L1P3", "twitter": "None", "instagram": "None", "facebook": "None", "youtube": "None", "website": "None", "summary": "None", "logo": "None", "latitude": 45.79858765500034, "longitude": -74.03205765234597}, "889920351RR0001": {"name": "LA MAISON DES PARENTS DE BORDEAUX-CARTIERVILLE", "designationCode": "C", "categoryCode": "09", "address": "2 - 5680 RUE DE SALABERRY", "city": "MONTREAL", "province": "QC", "country": "CA", "postalCode": "H4J1J7", "twitter": "None", "instagram": "None", "facebook": "None", "youtube": "None", "website": "None", "summary": "None", "logo": "None", "latitude": 45.52822516206949, "longitude": -73.71211233080406}, "119004216RR0001": {"name": "LA MAISON DES TOURNESOLS", "designationCode": "C", "categoryCode": "09", "address": "141 DE LA GARE                C.P. 392", "city": "MONT-JOLI", "province": "QC", "country": "CA", "postalCode": "G5H3L2", "twitter": "None", "instagram": "None", "facebook": "None", "youtube": "None", "website": "None", "summary": "None", "logo": "None", "latitude": 48.58989792587584, "longitude": -68.1853433531653}, "888182755RR0001": {"name": "LA MAISON DU BOULEAU BLANC INC", "designationCode": "C", "categoryCode": "10", "address": "2557 1ERE RUE EST", "city": "AMOS", "province": "QC", "country": "CA", "postalCode": "J9T3A1", "twitter": "None", "instagram": "None", "facebook": "None", "youtube": "None", "website": "None", "summary": "None", "logo": "None", "latitude": 48.59413475051778, "longitude": -78.10628885058675}, "134813435RR0001": {"name": "LA MAISON DU CHEMINEMENT", "designationCode": "C", "categoryCode": "09", "address": "86,AVE. ROBERVAL              C.P. 131", "city": "ROBERVAL", "province": "QC", "country": "CA", "postalCode": "G8H2N6", "twitter": "None", "instagram": "None", "facebook": "None", "youtube": "None", "website": "None", "summary": "None", "logo": "None", "latitude": 48.515158928385986, "longitude": -72.2220593948007}, "141515940RR0001": {"name": "LA MAISON DU COMPAGNON DE LA SARRE INC", "designationCode": "C", "categoryCode": "57", "address": "120 9E AV E", "city": "LA SARRE", "province": "QC", "country": "CA", "postalCode": "J9Z1P5", "twitter": "None", "instagram": "None", "facebook": "None", "youtube": "None", "website": "None", "summary": "None", "logo": "None", "latitude": 48.800319442148876, "longitude": -79.19903868720068}, "138689096RR0001": {"name": "LA MAISON DU GO\u00c9LAND DE LA RIVE-SUD", "designationCode": "C", "categoryCode": "09", "address": "66 RUE SAINT-PIERRE", "city": "SAINT-CONSTANT", "province": "QC", "country": "CA", "postalCode": "J5A1C1", "twitter": "None", "instagram": "None", "facebook": "None", "youtube": "None", "website": "None", "summary": "None", "logo": "None", "latitude": 45.380105687460485, "longitude": -73.56298212556997}, "119106987RR0001": {"name": "LA MAISON DU MARIN DE QUEBEC / QUEBEC SEAMEN'S INSTITUTE", "designationCode": "C", "categoryCode": "01", "address": "CP 80 SUCC HAUTE-VILLE", "city": "QUEBEC", "province": "QC", "country": "CA", "postalCode": "G1R4M8", "twitter": "None", "instagram": "None", "facebook": "None", "youtube": "None", "website": "None", "summary": "None", "logo": "None", "latitude": 46.81977000000006, "longitude": -71.23039999999997}, "129878773RR0001": {"name": "LA MAISON DU PARTAGE D'YOUVILLE INC.", "designationCode": "C", "categoryCode": "09", "address": "2221 RUE DE COLERAINE", "city": "MONTREAL", "province": "QC", "country": "CA", "postalCode": "H3K1S2", "twitter": "None", "instagram": "None", "facebook": "None", "youtube": "None", "website": "None", "summary": "None", "logo": "None", "latitude": 45.477795058572276, "longitude": -73.56154958272252}, "136715836RR0001": {"name": "LA MAISON DU PHARILLON", "designationCode": "C", "categoryCode": "01", "address": "4901 RUE ADAM", "city": "MONTR\u00c9AL", "province": "QC", "country": "CA", "postalCode": "H1V1W2", "twitter": "None", "instagram": "None", "facebook": "None", "youtube": "None", "website": "None", "summary": "None", "logo": "None", "latitude": 45.557555499047716, "longitude": -73.53176106139954}, "144053071RR0001": {"name": "LA MAISON DU POTIER DE MONTREAL", "designationCode": "C", "categoryCode": "47", "address": "75, 15E AVENUE", "city": "LACHINE", "province": "QC", "country": "CA", "postalCode": "H8S3L7", "twitter": "None", "instagram": "None", "facebook": "None", "youtube": "None", "website": "None", "summary": "None", "logo": "None", "latitude": 45.432890528449406, "longitude": -73.67747919239389}, "107656050RR0001": {"name": "LA MAISON DU RECONFORT", "designationCode": "C", "categoryCode": "09", "address": "C.P. 97558                    4061, RUE WELLINGTON", "city": "VERDUN", "province": "QC", "country": "CA", "postalCode": "H4G3M6", "twitter": "None", "instagram": "None", "facebook": "None", "youtube": "None", "website": "None", "summary": "None", "logo": "None", "latitude": 45.46301688121068, "longitude": -73.56706132321533}, "119004240RR0001": {"name": "LA MAISON DU RENOUVEAU CHARLESBOURG INC.", "designationCode": "C", "categoryCode": "38", "address": "870 CARR\u00c9 DE TRACY EST        C.P. 87127 SUCC. CHARLESBOURG", "city": "QUEBEC", "province": "QC", "country": "CA", "postalCode": "G1G5E1", "twitter": "None", "instagram": "None", "facebook": "None", "youtube": "None", "website": "None", "summary": "None", "logo": "None", "latitude": 46.882728000000014, "longitude": -71.24700328129148}, "893433011RR0001": {"name": "LA MAISON DU SERVITEUR", "designationCode": "C", "categoryCode": "47", "address": "9641 BOUL LASALLE", "city": "LASALLE", "province": "QC", "country": "CA", "postalCode": "H8R2N6", "twitter": "None", "instagram": "None", "facebook": "None", "youtube": "None", "website": "None", "summary": "None", "logo": "None", "latitude": 45.425029588406666, "longitude": -73.65840501788917}, "132286675RR0001": {"name": "LA MAISON DU SOLEIL LEVANT DE ROUYN-NORANDA", "designationCode": "C", "categoryCode": "09", "address": "93 AV. CARTER", "city": "ROUYN-NORANDA", "province": "QC", "country": "CA", "postalCode": "J9X1S2", "twitter": "None", "instagram": "None", "facebook": "None", "youtube": "None", "website": "None", "summary": "None", "logo": "None", "latitude": 48.248445434935526, "longitude": -79.01422902539099}, "892334665RR0001": {"name": "LA MAISON DU TONNERRE", "designationCode": "C", "categoryCode": "09", "address": "383 JACQUES CARTIER C P 68", "city": "RIVIERE AU TONNERRE", "province": "QC", "country": "CA", "postalCode": "G0G2L0", "twitter": "None", "instagram": "None", "facebook": "None", "youtube": "None", "website": "None", "summary": "None", "logo": "None", "latitude": 50.275466391078446, "longitude": -64.76986068720068}, "890227671RR0001": {"name": "LA MAISON DU TOURNANT INC.", "designationCode": "C", "categoryCode": "09", "address": "289 2E AV", "city": "LAC-ETCHEMIN", "province": "QC", "country": "CA", "postalCode": "G0R1S0", "twitter": "None", "instagram": "None", "facebook": "None", "youtube": "None", "website": "None", "summary": "None", "logo": "None", "latitude": 46.39853444434191, "longitude": -70.5132244711179}, "886063551RR0001": {"name": "LA MAISON DU VILLAGE, CENTRE D'EXPOSITION DE VAL-DAVID", "designationCode": "C", "categoryCode": "22", "address": "2495 DE L'EGLISE", "city": "VAL DAVID", "province": "QC", "country": "CA", "postalCode": "J0T2N0", "twitter": "None", "instagram": "None", "facebook": "None", "youtube": "None", "website": "None", "summary": "None", "logo": "None", "latitude": 46.02995207827911, "longitude": -74.20725052749712}}