{"846042398RR0001": {"name": "Habitations Cin\u00e9 des Coeurs", "designationCode": "C", "categoryCode": "09", "address": "87 RUE DU SACRE-COEUR", "city": "CHARLEMAGNE", "province": "QC", "country": "CA", "postalCode": "J5Z1W9", "twitter": "None", "instagram": "None", "facebook": "None", "youtube": "None", "website": "None", "summary": "None", "logo": "None", "latitude": 45.72162935527143, "longitude": -73.48688466859035}, "816675193RR0001": {"name": "Habitations Hestia", "designationCode": "C", "categoryCode": "09", "address": "62 RUE MAIN O", "city": "COATICOOK", "province": "QC", "country": "CA", "postalCode": "J1A1P2", "twitter": "None", "instagram": "None", "facebook": "None", "youtube": "None", "website": "None", "summary": "None", "logo": "None", "latitude": 45.1324017921682, "longitude": -71.80638998060198}, "821761814RR0001": {"name": "Habitations SM Drummond", "designationCode": "C", "categoryCode": "09", "address": "625 RUE LINDSAY", "city": "DRUMMONDVILLE", "province": "QC", "country": "CA", "postalCode": "J2B1H8", "twitter": "None", "instagram": "None", "facebook": "None", "youtube": "None", "website": "None", "summary": "None", "logo": "None", "latitude": 45.87702937243945, "longitude": -72.47741483031312}, "804746493RR0001": {"name": "Habonim Dror Camp Miriam Society", "designationCode": "C", "categoryCode": "56", "address": "303-950 41ST AVE W", "city": "VANCOUVER", "province": "BC", "country": "CA", "postalCode": "V5Z2N7", "twitter": "None", "instagram": "None", "facebook": "None", "youtube": "None", "website": "None", "summary": "None", "logo": "None", "latitude": 49.23387050620376, "longitude": -123.12594479822836}, "804888105RR0001": {"name": "Hacer Mayor Foundation", "designationCode": "A", "categoryCode": "03", "address": "SUITE 1165                    5328 CALGARY TRAIL NW", "city": "EDMONTON", "province": "AB", "country": "CA", "postalCode": "T6H4J8", "twitter": "None", "instagram": "None", "facebook": "None", "youtube": "None", "website": "None", "summary": "None", "logo": "None", "latitude": 53.49123769080735, "longitude": -113.49539595798925}, "843944638RR0001": {"name": "Hadi Islamic Association", "designationCode": "C", "categoryCode": "60", "address": "40 SOUTH STATION ST", "city": "YORK", "province": "ON", "country": "CA", "postalCode": "M9N2B3", "twitter": "None", "instagram": "None", "facebook": "None", "youtube": "None", "website": "None", "summary": "None", "logo": "None", "latitude": 43.70131397887952, "longitude": -79.51660241690212}, "746165927RR0001": {"name": "Hadracha Organization", "designationCode": "C", "categoryCode": "59", "address": "215 - 3089 BATHURST ST", "city": "NORTH YORK", "province": "ON", "country": "CA", "postalCode": "M6A2A4", "twitter": "None", "instagram": "None", "facebook": "None", "youtube": "None", "website": "None", "summary": "None", "logo": "None", "latitude": 43.72029554232787, "longitude": -79.42995586952526}, "817023468RR0001": {"name": "Hageman Family Foundation", "designationCode": "B", "categoryCode": "03", "address": "20 NORTH SHORE BLVD           SUITE A12", "city": "BURLINGTON", "province": "ON", "country": "CA", "postalCode": "L7T1A1", "twitter": "None", "instagram": "None", "facebook": "None", "youtube": "None", "website": "None", "summary": "None", "logo": "None", "latitude": 43.30244669882878, "longitude": -79.84957551517746}, "805903887RR0001": {"name": "Hagersville Food Bank", "designationCode": "C", "categoryCode": "09", "address": "5 MARATHON STREET             POST OFFICE BOX 525", "city": "HAGERSVILLE", "province": "ON", "country": "CA", "postalCode": "N0A1H0", "twitter": "None", "instagram": "None", "facebook": "None", "youtube": "None", "website": "None", "summary": "None", "logo": "None", "latitude": 42.9637940460788, "longitude": -80.049550086589}, "833633811RR0001": {"name": "Haida Gwaii Community Foundation", "designationCode": "B", "categoryCode": "03", "address": "1250-1500 W GEORGIA ST, BOX 62", "city": "VANCOUVER", "province": "BC", "country": "CA", "postalCode": "V6G2Z6", "twitter": "None", "instagram": "None", "facebook": "None", "youtube": "None", "website": "None", "summary": "None", "logo": "None", "latitude": 49.290187500000016, "longitude": -123.130035}, "823626627RR0001": {"name": "Haida Gwaii Higher Education Society", "designationCode": "C", "categoryCode": "20", "address": "PO BOX 927", "city": "QUEEN CHARLOTTE", "province": "BC", "country": "CA", "postalCode": "V0T1S0", "twitter": "None", "instagram": "None", "facebook": "None", "youtube": "None", "website": "None", "summary": "None", "logo": "None", "latitude": 53.50199672573152, "longitude": -132.2619050828624}, "819678954RR0001": {"name": "Haida Gwaii Tluu", "designationCode": "C", "categoryCode": "59", "address": "SUITE 400-725 GRANVILLE STREET", "city": "VANCOUVER", "province": "BC", "country": "CA", "postalCode": "V7Y1G5", "twitter": "None", "instagram": "None", "facebook": "None", "youtube": "None", "website": "None", "summary": "None", "logo": "None", "latitude": 49.282226677852066, "longitude": -123.11861344130163}, "806385837RR0001": {"name": "Haiti in My Heart Society", "designationCode": "C", "categoryCode": "21", "address": "434 GLENWOOD AVE", "city": "KELOWNA", "province": "BC", "country": "CA", "postalCode": "V1Y5M1", "twitter": "None", "instagram": "None", "facebook": "None", "youtube": "None", "website": "None", "summary": "None", "logo": "None", "latitude": 49.87545251543634, "longitude": -119.49323030682672}, "827437278RR0001": {"name": "Haitian Children's Aid Society", "designationCode": "C", "categoryCode": "09", "address": "PO BOX 46206", "city": "EDMONTON", "province": "AB", "country": "CA", "postalCode": "T6T0K8", "twitter": "None", "instagram": "None", "facebook": "None", "youtube": "None", "website": "None", "summary": "None", "logo": "None", "latitude": 53.45578500000006, "longitude": -113.36924149999993}, "801781659RR0001": {"name": "Haitian Education Society", "designationCode": "C", "categoryCode": "21", "address": "5149 COUNTRY HILLS BLVD NW    UNIT 119, SUITE 234", "city": "CALGARY", "province": "AB", "country": "CA", "postalCode": "T3A5K8", "twitter": "None", "instagram": "None", "facebook": "None", "youtube": "None", "website": "None", "summary": "None", "logo": "None", "latitude": 51.13869750678068, "longitude": -114.15904297446477}, "809207434RR0001": {"name": "Halacha Institute of Toronto", "designationCode": "C", "categoryCode": "49", "address": "3200 DUFFERIN STREET          SUITE 308", "city": "TORONTO", "province": "ON", "country": "CA", "postalCode": "M6A3B2", "twitter": "None", "instagram": "None", "facebook": "None", "youtube": "None", "website": "None", "summary": "None", "logo": "None", "latitude": 43.71839373466443, "longitude": -79.45566924314721}, "862343332RR0001": {"name": "Haldimand Pregnancy Care & Family Centre", "designationCode": "C", "categoryCode": "09", "address": "121 ALDER ST W", "city": "DUNNVILLE", "province": "ON", "country": "CA", "postalCode": "N1A1R2", "twitter": "None", "instagram": "None", "facebook": "None", "youtube": "None", "website": "None", "summary": "None", "logo": "None", "latitude": 42.9053367656988, "longitude": -79.61887782066175}, "828139642RR0001": {"name": "Haldimand War Memorial Charitable Corporation", "designationCode": "A", "categoryCode": "13", "address": "206 JOHN STREET", "city": "DUNNVILLE", "province": "ON", "country": "CA", "postalCode": "N1A2P7", "twitter": "None", "instagram": "None", "facebook": "None", "youtube": "None", "website": "None", "summary": "None", "logo": "None", "latitude": 42.906002659543056, "longitude": -79.6242925293119}, "835187691RR0001": {"name": "Haldimand 4-H Association", "designationCode": "C", "categoryCode": "29", "address": "30 CHURCH STREET", "city": "HAGERSVILLE", "province": "ON", "country": "CA", "postalCode": "N0A1H0", "twitter": "None", "instagram": "None", "facebook": "None", "youtube": "None", "website": "None", "summary": "None", "logo": "None", "latitude": 42.95832105490828, "longitude": -80.04918399018958}, "837019512RR0001": {"name": "Haley United Cemetery", "designationCode": "C", "categoryCode": "59", "address": "1925 HWY 60", "city": "RENFREW", "province": "ON", "country": "CA", "postalCode": "K7V3Z6", "twitter": "None", "instagram": "None", "facebook": "None", "youtube": "None", "website": "None", "summary": "None", "logo": "None", "latitude": 45.499656590370115, "longitude": -76.74412056345678}, "848154175RR0001": {"name": "Haliburton Assistance for Single Parents (HASP)", "designationCode": "C", "categoryCode": "09", "address": "PO BOX 281                    10 GEORGE ST", "city": "HALIBURTON", "province": "ON", "country": "CA", "postalCode": "K0M1S0", "twitter": "None", "instagram": "None", "facebook": "None", "youtube": "None", "website": "None", "summary": "None", "logo": "None", "latitude": 45.04810883939641, "longitude": -78.50636955214708}, "812513174RR0001": {"name": "Haliburton Pet Owners' Assistance Fund", "designationCode": "C", "categoryCode": "54", "address": "1975 WATTS ROAD", "city": "HALIBURTON", "province": "ON", "country": "CA", "postalCode": "K0M1S0", "twitter": "None", "instagram": "None", "facebook": "None", "youtube": "None", "website": "None", "summary": "None", "logo": "None", "latitude": 45.25451116223504, "longitude": -78.56896656460653}, "828634204RR0001": {"name": "Halifax Cat Rescue Society", "designationCode": "C", "categoryCode": "54", "address": "5264 VESTRY ST", "city": "HALIFAX", "province": "NS", "country": "CA", "postalCode": "B3K2N9", "twitter": "None", "instagram": "None", "facebook": "None", "youtube": "None", "website": "None", "summary": "None", "logo": "None", "latitude": 44.67105352094758, "longitude": -63.60476381750253}, "118950740RR0001": {"name": "Halifax Children's Foundation", "designationCode": "A", "categoryCode": "03", "address": "PO BOX 788  STN CENTRAL RP", "city": "HALIFAX", "province": "NS", "country": "CA", "postalCode": "B3J2V2", "twitter": "None", "instagram": "None", "facebook": "None", "youtube": "None", "website": "None", "summary": "None", "logo": "None", "latitude": 44.645478000000054, "longitude": -63.576552499999934}, "857509335RR0001": {"name": "Halifax Community Learning Network Association", "designationCode": "C", "categoryCode": "21", "address": "P.O. BOX 47058                2151 GOTTINGEN ST.", "city": "HALIFAX", "province": "NS", "country": "CA", "postalCode": "B3K5Y2", "twitter": "None", "instagram": "None", "facebook": "None", "youtube": "None", "website": "None", "summary": "None", "logo": "None", "latitude": 44.652463595620034, "longitude": -63.58398481320335}, "852589068RR0001": {"name": "Halifax Concert Band Society", "designationCode": "C", "categoryCode": "22", "address": "8381 ST.MARGARET'S BAY ROAD", "city": "BLACK POINT", "province": "NS", "country": "CA", "postalCode": "B0J1B0", "twitter": "None", "instagram": "None", "facebook": "None", "youtube": "None", "website": "None", "summary": "None", "logo": "None", "latitude": 44.65085627119261, "longitude": -63.977955332650396}, "832429815RR0001": {"name": "Halifax International Society for Krishna Consciousness (ISKCON HALIFAX)", "designationCode": "C", "categoryCode": "39", "address": "715 - 1472 MARTELLO ST", "city": "HALIFAX", "province": "NS", "country": "CA", "postalCode": "B3H4K8", "twitter": "None", "instagram": "None", "facebook": "None", "youtube": "None", "website": "None", "summary": "None", "logo": "None", "latitude": 44.641748137659455, "longitude": -63.58027784765404}, "829786219RR0001": {"name": "Halifax Stroke Club", "designationCode": "C", "categoryCode": "11", "address": "3657 ST MARGARETS BAY RD", "city": "HUBLEY", "province": "NS", "country": "CA", "postalCode": "B3Z1B7", "twitter": "None", "instagram": "None", "facebook": "None", "youtube": "None", "website": "None", "summary": "None", "logo": "None", "latitude": 44.67596511757628, "longitude": -63.80182621461276}, "845278522RR0001": {"name": "Halifax Summer Opera Festival Association", "designationCode": "C", "categoryCode": "22", "address": "PO BOX 1819", "city": "LUNENBURG", "province": "NS", "country": "CA", "postalCode": "B0J2C0", "twitter": "None", "instagram": "None", "facebook": "None", "youtube": "None", "website": "None", "summary": "None", "logo": "None", "latitude": 44.37886006217898, "longitude": -64.31792993782098}, "838737872RR0001": {"name": "Halifax, N.S. Down Syndrome Society", "designationCode": "C", "categoryCode": "11", "address": "POST OFFICE BOX 33144", "city": "HALIFAX", "province": "NS", "country": "CA", "postalCode": "B3L4T6", "twitter": "None", "instagram": "None", "facebook": "None", "youtube": "None", "website": "None", "summary": "None", "logo": "None", "latitude": 44.65086900000006, "longitude": -63.61343899999993}, "859342180RR0001": {"name": "Hallelujah Christian Fellowship Congregation", "designationCode": "C", "categoryCode": "37", "address": "P.O. BOX 21143", "city": "EDMONTON", "province": "AB", "country": "CA", "postalCode": "T6R2V4", "twitter": "None", "instagram": "None", "facebook": "None", "youtube": "None", "website": "None", "summary": "None", "logo": "None", "latitude": 53.46322800000006, "longitude": -113.58339649999994}, "840621981RR0001": {"name": "Halte Alimentaire de Val-Morin", "designationCode": "C", "categoryCode": "09", "address": "4350 CH DU LAC-FORTIER", "city": "VAL-MORIN", "province": "QC", "country": "CA", "postalCode": "J0T2R0", "twitter": "None", "instagram": "None", "facebook": "None", "youtube": "None", "website": "None", "summary": "None", "logo": "None", "latitude": 46.027808565066145, "longitude": -74.12896030673033}, "124267261RR0001": {"name": "Halton Community Legal Services", "designationCode": "C", "categoryCode": "59", "address": "420 - 690 DORVAL DR", "city": "OAKVILLE", "province": "ON", "country": "CA", "postalCode": "L6K3W7", "twitter": "None", "instagram": "None", "facebook": "None", "youtube": "None", "website": "None", "summary": "None", "logo": "None", "latitude": 43.44348002351602, "longitude": -79.69573674585892}, "847636958RR0001": {"name": "Halton Food for Thought", "designationCode": "C", "categoryCode": "09", "address": "BOARD TREASURER               200-4145 NORTH SERVICE ROAD", "city": "BURLINGTON", "province": "ON", "country": "CA", "postalCode": "L7L6A3", "twitter": "None", "instagram": "None", "facebook": "None", "youtube": "None", "website": "None", "summary": "None", "logo": "None", "latitude": 43.37131297478191, "longitude": -79.78324222335345}, "134883982RR0001": {"name": "Halton Hills Christian School", "designationCode": "C", "categoryCode": "39", "address": "11643 TRAFALGAR ROAD, RR 1", "city": "GEORGETOWN", "province": "ON", "country": "CA", "postalCode": "L7G4S4", "twitter": "None", "instagram": "None", "facebook": "None", "youtube": "None", "website": "None", "summary": "None", "logo": "None", "latitude": 43.64077616209815, "longitude": -79.93827443836932}, "843168535RR0001": {"name": "Halton Hills Family House of Worship", "designationCode": "C", "categoryCode": "39", "address": "22 MOWAT CRESCENT", "city": "GEORGETOWN", "province": "ON", "country": "CA", "postalCode": "L7G6C5", "twitter": "None", "instagram": "None", "facebook": "None", "youtube": "None", "website": "None", "summary": "None", "logo": "None", "latitude": 43.64954827226046, "longitude": -79.93676433429518}, "812765121RR0001": {"name": "Halton Poverty Roundtable", "designationCode": "C", "categoryCode": "29", "address": "4210 SOUTH SERVICE RD", "city": "BURLINGTON", "province": "ON", "country": "CA", "postalCode": "L7L4X5", "twitter": "None", "instagram": "None", "facebook": "None", "youtube": "None", "website": "None", "summary": "None", "logo": "None", "latitude": 43.37170707297034, "longitude": -79.78147313512062}, "810582015RR0001": {"name": "Ham or Jam Distributors", "designationCode": "C", "categoryCode": "09", "address": "10568 SUMAC PLACE", "city": "SURREY", "province": "BC", "country": "CA", "postalCode": "V4N1Y4", "twitter": "None", "instagram": "None", "facebook": "None", "youtube": "None", "website": "None", "summary": "None", "logo": "None", "latitude": 49.194519978071476, "longitude": -122.76528918774893}, "859038267RR0001": {"name": "Hamilton Academy of Performing Arts", "designationCode": "C", "categoryCode": "22", "address": "108 PARK STREET WEST", "city": "DUNDAS", "province": "ON", "country": "CA", "postalCode": "L9H1X4", "twitter": "None", "instagram": "None", "facebook": "None", "youtube": "None", "website": "None", "summary": "None", "logo": "None", "latitude": 43.26776260502644, "longitude": -79.95821486386977}, "832725931RR0001": {"name": "Hamilton Almanarah Presbyterian Church", "designationCode": "C", "categoryCode": "37", "address": "1423 UPPER WELLINGTON ST.", "city": "HAMILTON", "province": "ON", "country": "CA", "postalCode": "L9A3S8", "twitter": "None", "instagram": "None", "facebook": "None", "youtube": "None", "website": "None", "summary": "None", "logo": "None", "latitude": 43.20960774686946, "longitude": -79.8789112468408}, "833169964RR0001": {"name": "Hamilton Ark Church", "designationCode": "C", "categoryCode": "39", "address": "99 NORTH OVAL STREET", "city": "HAMILTON", "province": "ON", "country": "CA", "postalCode": "L8S3Z2", "twitter": "None", "instagram": "None", "facebook": "None", "youtube": "None", "website": "None", "summary": "None", "logo": "None", "latitude": 43.262216424635085, "longitude": -79.90710452065913}, "118951425RR0001": {"name": "Hamilton Arts Council", "designationCode": "C", "categoryCode": "22", "address": "51 STUART ST", "city": "HAMILTON", "province": "ON", "country": "CA", "postalCode": "L8L1B5", "twitter": "None", "instagram": "None", "facebook": "None", "youtube": "None", "website": "None", "summary": "None", "logo": "None", "latitude": 43.266479900340606, "longitude": -79.86729670650348}, "849799812RR0001": {"name": "Hamilton Association for Residential & Recreational Redevelopment Programs", "designationCode": "C", "categoryCode": "56", "address": "252 JAMES ST N", "city": "HAMILTON", "province": "ON", "country": "CA", "postalCode": "L8R2L3", "twitter": "None", "instagram": "None", "facebook": "None", "youtube": "None", "website": "None", "summary": "None", "logo": "None", "latitude": 43.26303055231121, "longitude": -79.866250127359}, "814184974RR0001": {"name": "Hamilton Bikers' Church", "designationCode": "C", "categoryCode": "39", "address": "94 EDGEMONT STREET NORTH", "city": "HAMILTON", "province": "ON", "country": "CA", "postalCode": "L8H4C8", "twitter": "None", "instagram": "None", "facebook": "None", "youtube": "None", "website": "None", "summary": "None", "logo": "None", "latitude": 43.244893771019704, "longitude": -79.81662737979704}, "840168611RR0001": {"name": "Hamilton Bulldogs Foundation Inc.", "designationCode": "A", "categoryCode": "03", "address": "101 YORK BOULEVARD", "city": "HAMILTON", "province": "ON", "country": "CA", "postalCode": "L8R3L4", "twitter": "None", "instagram": "None", "facebook": "None", "youtube": "None", "website": "None", "summary": "None", "logo": "None", "latitude": 43.25964599858637, "longitude": -79.87174742091283}, "124577420RR0001": {"name": "Hamilton Community Legal Clinic / Clinique Juridique Communautaire de Hamilton", "designationCode": "C", "categoryCode": "59", "address": "100 MAIN STREET EAST          SUITE 203", "city": "HAMILTON", "province": "ON", "country": "CA", "postalCode": "L8N3W4", "twitter": "None", "instagram": "None", "facebook": "None", "youtube": "None", "website": "None", "summary": "None", "logo": "None", "latitude": 43.25426302412158, "longitude": -79.86512817236992}, "851847954RR0001": {"name": "Hamilton Council on Aging", "designationCode": "C", "categoryCode": "29", "address": "88 MAPLEWOOD AVENUE", "city": "HAMILTON", "province": "ON", "country": "CA", "postalCode": "L8M1W9", "twitter": "None", "instagram": "None", "facebook": "None", "youtube": "None", "website": "None", "summary": "None", "logo": "None", "latitude": 43.24506699743253, "longitude": -79.83689106359259}, "820961217RR0001": {"name": "Hamilton Diocese Cursillo Movement", "designationCode": "C", "categoryCode": "49", "address": "700 KING ST W", "city": "HAMILTON", "province": "ON", "country": "CA", "postalCode": "L8P1C7", "twitter": "None", "instagram": "None", "facebook": "None", "youtube": "None", "website": "None", "summary": "None", "logo": "None", "latitude": 43.26284446770546, "longitude": -79.89023923809737}, "118951573RR0001": {"name": "Hamilton District Society for Disabled Children", "designationCode": "A", "categoryCode": "11", "address": "325 WELLINGTON STREET NORTH", "city": "HAMILTON", "province": "ON", "country": "CA", "postalCode": "L8L0A4", "twitter": "None", "instagram": "None", "facebook": "None", "youtube": "None", "website": "None", "summary": "None", "logo": "None", "latitude": 43.26359251180098, "longitude": -79.85508405609076}, "871851366RR0001": {"name": "Hamilton Downtown Mosque", "designationCode": "C", "categoryCode": "60", "address": "221 YORK BLVD", "city": "HAMILTON", "province": "ON", "country": "CA", "postalCode": "L8R1Y6", "twitter": "None", "instagram": "None", "facebook": "None", "youtube": "None", "website": "None", "summary": "None", "logo": "None", "latitude": 43.26149014902774, "longitude": -79.87530817765004}, "107797383RR0136": {"name": "Hamilton Filipino-Canadian Seventh-day Adventist Church", "designationCode": "C", "categoryCode": "41", "address": "30 CLARENDON AVE", "city": "HAMILTON", "province": "ON", "country": "CA", "postalCode": "L9A3A1", "twitter": "None", "instagram": "None", "facebook": "None", "youtube": "None", "website": "None", "summary": "None", "logo": "None", "latitude": 43.235404427981976, "longitude": -79.87453606330412}, "848054847RR0001": {"name": "Hamilton Gay Men's Chorus", "designationCode": "C", "categoryCode": "22", "address": "9 SOUTH STREET WEST", "city": "DUNDAS", "province": "ON", "country": "CA", "postalCode": "L9H4B9", "twitter": "None", "instagram": "None", "facebook": "None", "youtube": "None", "website": "None", "summary": "None", "logo": "None", "latitude": 43.26076473270253, "longitude": -79.94581871120668}, "808290480RR0001": {"name": "Hamilton Golf and Country Club Foundation", "designationCode": "A", "categoryCode": "03", "address": "323 GOLF LINKS ROAD,", "city": "ANCASTER", "province": "ON", "country": "CA", "postalCode": "L9G2N5", "twitter": "None", "instagram": "None", "facebook": "None", "youtube": "None", "website": "None", "summary": "None", "logo": "None", "latitude": 43.222213739103104, "longitude": -79.97327769758513}, "843083031RR0001": {"name": "Hamilton Grace Assembly", "designationCode": "C", "categoryCode": "39", "address": "94 GILDER DR", "city": "SCARBOROUGH", "province": "ON", "country": "CA", "postalCode": "M1K4P5", "twitter": "None", "instagram": "None", "facebook": "None", "youtube": "None", "website": "None", "summary": "None", "logo": "None", "latitude": 43.73632757008482, "longitude": -79.25358017081206}, "834033177RR0001": {"name": "Hamilton Health Sciences Research Institute", "designationCode": "A", "categoryCode": "13", "address": "PO BOX 2000 STN LCD 1", "city": "HAMILTON", "province": "ON", "country": "CA", "postalCode": "L8N3Z5", "twitter": "None", "instagram": "None", "facebook": "None", "youtube": "None", "website": "None", "summary": "None", "logo": "None", "latitude": 43.261962000000054, "longitude": -79.88800399999994}, "723480927RR0001": {"name": "Hamilton Landmark Sculpture", "designationCode": "C", "categoryCode": "22", "address": "50 MARKLAND STREET", "city": "HAMILTON", "province": "ON", "country": "CA", "postalCode": "L8P2J7", "twitter": "None", "instagram": "None", "facebook": "None", "youtube": "None", "website": "None", "summary": "None", "logo": "None", "latitude": 43.24848908523267, "longitude": -79.87512427226045}, "811174051RR0001": {"name": "Hamilton Literary Festival Association", "designationCode": "C", "categoryCode": "21", "address": "280 JAMES STREET NORTH", "city": "HAMILTON", "province": "ON", "country": "CA", "postalCode": "L8R2L3", "twitter": "None", "instagram": "None", "facebook": "None", "youtube": "None", "website": "None", "summary": "None", "logo": "None", "latitude": 43.26347252677598, "longitude": -79.86606960903714}, "809975618RR0001": {"name": "Hamilton Music Collective", "designationCode": "C", "categoryCode": "22", "address": "12 AUCHMAR ROAD", "city": "HAMILTON", "province": "ON", "country": "CA", "postalCode": "L9C1C5", "twitter": "None", "instagram": "None", "facebook": "None", "youtube": "None", "website": "None", "summary": "None", "logo": "None", "latitude": 43.243924114663024, "longitude": -79.89466750539569}, "769374927RR0001": {"name": "Hamilton Signals Association", "designationCode": "C", "categoryCode": "50", "address": "4 TYLER DR", "city": "STONEY CREEK", "province": "ON", "country": "CA", "postalCode": "L8E4W9", "twitter": "None", "instagram": "None", "facebook": "None", "youtube": "None", "website": "None", "summary": "None", "logo": "None", "latitude": 43.22793095141107, "longitude": -79.72894920941766}, "866986060RR0001": {"name": "Hamilton Steel CIty Wheelers Non-Profic Inc.", "designationCode": "C", "categoryCode": "56", "address": "329 MARGARET AVE", "city": "STONEY CREEK", "province": "ON", "country": "CA", "postalCode": "L8E2J3", "twitter": "None", "instagram": "None", "facebook": "None", "youtube": "None", "website": "None", "summary": "None", "logo": "None", "latitude": 43.22802941494022, "longitude": -79.71756696756853}, "826945883RR0001": {"name": "Hamilton Sustainable Victory Gardens Inc.", "designationCode": "C", "categoryCode": "09", "address": "504 UPPER SHERMAN AVE,", "city": "HAMILTON", "province": "ON", "country": "CA", "postalCode": "L8V3L8", "twitter": "None", "instagram": "None", "facebook": "None", "youtube": "None", "website": "None", "summary": "None", "logo": "None", "latitude": 43.2329644535172, "longitude": -79.84695361437458}, "840024558RR0001": {"name": "Hamilton's Centre for Civic Inclusion", "designationCode": "C", "categoryCode": "59", "address": "20 - 140 KING ST E", "city": "HAMILTON", "province": "ON", "country": "CA", "postalCode": "L8N1B2", "twitter": "None", "instagram": "None", "facebook": "None", "youtube": "None", "website": "None", "summary": "None", "logo": "None", "latitude": 43.2552723122224, "longitude": -79.86489240703436}, "851061044RR0001": {"name": "Hammer Heads Program", "designationCode": "C", "categoryCode": "20", "address": "2088 WESTON ROAD,", "city": "TORONTO", "province": "ON", "country": "CA", "postalCode": "M9N1X4", "twitter": "None", "instagram": "None", "facebook": "None", "youtube": "None", "website": "None", "summary": "None", "logo": "None", "latitude": 43.70200848707383, "longitude": -79.52291367542834}, "119288918RR1379": {"name": "Hammond Bay Congregation of Jehovah's Witnesses, Nanaimo, British Columbia", "designationCode": "C", "categoryCode": "61", "address": "4220 CLUBHOUSE DR", "city": "NANAIMO", "province": "BC", "country": "CA", "postalCode": "V9T4H7", "twitter": "None", "instagram": "None", "facebook": "None", "youtube": "None", "website": "None", "summary": "None", "logo": "None", "latitude": 49.21790552928614, "longitude": -124.0199806902591}, "840112916RR0001": {"name": "Hammond Isaacs Charitable Foundation", "designationCode": "B", "categoryCode": "05", "address": "500-34 KING STREET EAST", "city": "TORONTO", "province": "ON", "country": "CA", "postalCode": "M5C2X8", "twitter": "None", "instagram": "None", "facebook": "None", "youtube": "None", "website": "None", "summary": "None", "logo": "None", "latitude": 43.64945304137559, "longitude": -79.37651086984238}, "118918283RR0001": {"name": "Hammond Valley Community Church", "designationCode": "C", "categoryCode": "31", "address": "24 SUN RISE CRES", "city": "TITUSVILLE", "province": "NB", "country": "CA", "postalCode": "E5N0N4", "twitter": "None", "instagram": "None", "facebook": "None", "youtube": "None", "website": "None", "summary": "None", "logo": "None", "latitude": 45.52842000000004, "longitude": -65.78564871783567}, "889089447RR0001": {"name": "Hampton Free Methodist Church", "designationCode": "C", "categoryCode": "39", "address": "2930 MCCLOCKLIN RD", "city": "SASKATOON", "province": "SK", "country": "CA", "postalCode": "S7R0A1", "twitter": "None", "instagram": "None", "facebook": "None", "youtube": "None", "website": "None", "summary": "None", "logo": "None", "latitude": 52.151691391655355, "longitude": -106.71504671022574}, "853959872RR0001": {"name": "Hampton Rural Cemetery Company", "designationCode": "C", "categoryCode": "59", "address": "61 CEMETERY ROAD", "city": "HAMPTON", "province": "NB", "country": "CA", "postalCode": "E5N3A9", "twitter": "None", "instagram": "None", "facebook": "None", "youtube": "None", "website": "None", "summary": "None", "logo": "None", "latitude": 45.526176544001316, "longitude": -65.83403600793451}, "805838406RR0001": {"name": "Hampton-Piggs Peak Partnership Inc.", "designationCode": "C", "categoryCode": "21", "address": "1360 MAIN STREET              POST OFFICE BOX 1113", "city": "HAMPTON", "province": "NB", "country": "CA", "postalCode": "E5N8H1", "twitter": "None", "instagram": "None", "facebook": "None", "youtube": "None", "website": "None", "summary": "None", "logo": "None", "latitude": 45.55248063307181, "longitude": -65.83048949748984}, "835138983RR0001": {"name": "Han Church", "designationCode": "C", "categoryCode": "39", "address": "2727 PATRICIA AVE", "city": "PORT COQUITLAM", "province": "BC", "country": "CA", "postalCode": "V3B2H5", "twitter": "None", "instagram": "None", "facebook": "None", "youtube": "None", "website": "None", "summary": "None", "logo": "None", "latitude": 49.2766014532574, "longitude": -122.78886363918865}, "863585857RR0001": {"name": "Han-Logement", "designationCode": "C", "categoryCode": "09", "address": "70, RUE DES QUATRE-SAISONS", "city": "MAGOG", "province": "QC", "country": "CA", "postalCode": "J1X0H3", "twitter": "None", "instagram": "None", "facebook": "None", "youtube": "None", "website": "None", "summary": "None", "logo": "None", "latitude": 45.26245187470801, "longitude": -72.1363127110389}, "825321037RR0001": {"name": "Hana Mission Society", "designationCode": "C", "categoryCode": "09", "address": "203 - 1001 AUSTIN AVE", "city": "COQUITLAM", "province": "BC", "country": "CA", "postalCode": "V3K3N9", "twitter": "None", "instagram": "None", "facebook": "None", "youtube": "None", "website": "None", "summary": "None", "logo": "None", "latitude": 49.249019460470755, "longitude": -122.86722166763806}, "717110126RR0001": {"name": "Hana Perlmutter Family Foundation/ Fondation de la famille Hana Perlmutter", "designationCode": "B", "categoryCode": "03", "address": "5670 AV DUROCHER", "city": "OUTREMONT", "province": "QC", "country": "CA", "postalCode": "H2V3Y2", "twitter": "None", "instagram": "None", "facebook": "None", "youtube": "None", "website": "None", "summary": "None", "logo": "None", "latitude": 45.52148376406614, "longitude": -73.60483557481666}, "831247127RR0001": {"name": "Hancock Wildlife Foundation", "designationCode": "C", "categoryCode": "54", "address": "19313 0 AVE", "city": "SURREY", "province": "BC", "country": "CA", "postalCode": "V3Z9R9", "twitter": "None", "instagram": "None", "facebook": "None", "youtube": "None", "website": "None", "summary": "None", "logo": "None", "latitude": 49.002240456575606, "longitude": -122.6881919701656}, "834396392RR0001": {"name": "Hand Up From Hunger Toronto", "designationCode": "C", "categoryCode": "09", "address": "1 BLOOMINGDALE DR", "city": "BRAMPTON", "province": "ON", "country": "CA", "postalCode": "L6W3Z6", "twitter": "None", "instagram": "None", "facebook": "None", "youtube": "None", "website": "None", "summary": "None", "logo": "None", "latitude": 43.66321113209087, "longitude": -79.72045767511123}, "140713397RR0001": {"name": "Handi Apte", "designationCode": "C", "categoryCode": "09", "address": "928, RUE DU FEDERAL", "city": "SHERBROOKE", "province": "QC", "country": "CA", "postalCode": "J1H5A7", "twitter": "None", "instagram": "None", "facebook": "None", "youtube": "None", "website": "None", "summary": "None", "logo": "None", "latitude": 45.392014121011016, "longitude": -71.88595447971623}, "889046397RR0001": {"name": "Handi-Care Intl.", "designationCode": "C", "categoryCode": "09", "address": "711-168 BONIS AVENUE", "city": "SCARBOROUGH", "province": "ON", "country": "CA", "postalCode": "M1T3V6", "twitter": "None", "instagram": "None", "facebook": "None", "youtube": "None", "website": "None", "summary": "None", "logo": "None", "latitude": 43.78571898814077, "longitude": -79.29344730062296}, "780591129RR0001": {"name": "Handi-Ressources", "designationCode": "C", "categoryCode": "09", "address": "928 RUE DU FEDERAL", "city": "SHERBROOKE", "province": "QC", "country": "CA", "postalCode": "J1H5A7", "twitter": "None", "instagram": "None", "facebook": "None", "youtube": "None", "website": "None", "summary": "None", "logo": "None", "latitude": 45.392014121011016, "longitude": -71.88595447971623}, "844613646RR0001": {"name": "Handicap Action Int\u00e9gration H-A-I", "designationCode": "C", "categoryCode": "59", "address": "410, RUE LAFLEUR              BUREAU 7", "city": "LASALLE", "province": "QC", "country": "CA", "postalCode": "H8R3H6", "twitter": "None", "instagram": "None", "facebook": "None", "youtube": "None", "website": "None", "summary": "None", "logo": "None", "latitude": 45.43210997864839, "longitude": -73.64661534494138}, "829016013RR0001": {"name": "Handmaids of the Holy Child Jesus Canada Mission Inc.", "designationCode": "C", "categoryCode": "47", "address": "151 AVENUE DE LA CATHEDRALE", "city": "WINNIPEG", "province": "MB", "country": "CA", "postalCode": "R2H0H6", "twitter": "None", "instagram": "None", "facebook": "None", "youtube": "None", "website": "None", "summary": "None", "logo": "None", "latitude": 49.88967351154119, "longitude": -97.12280516625309}, "848384525RR0001": {"name": "Hands and Feet International Society", "designationCode": "C", "categoryCode": "39", "address": "3024 NEW BRIGHTON GDNS SE", "city": "CALGARY", "province": "AB", "country": "CA", "postalCode": "T2X0A5", "twitter": "None", "instagram": "None", "facebook": "None", "youtube": "None", "website": "None", "summary": "None", "logo": "None", "latitude": 50.91546053615047, "longitude": -113.95273190214532}, "848314225RR0001": {"name": "Hands at Work in Africa (Canada) Society", "designationCode": "C", "categoryCode": "09", "address": "156 SIGNAL RIDGE LINK", "city": "CALGARY", "province": "AB", "country": "CA", "postalCode": "T3H2J9", "twitter": "None", "instagram": "None", "facebook": "None", "youtube": "None", "website": "None", "summary": "None", "logo": "None", "latitude": 51.029314575076455, "longitude": -114.17388638467312}, "839763612RR0001": {"name": "Hands in Peace Society", "designationCode": "C", "categoryCode": "56", "address": "1925-26TH STREET", "city": "WEST VANCOUVER", "province": "BC", "country": "CA", "postalCode": "V7V4K3", "twitter": "None", "instagram": "None", "facebook": "None", "youtube": "None", "website": "None", "summary": "None", "logo": "None", "latitude": 49.342689419095166, "longitude": -123.1854621621268}, "831191754RR0001": {"name": "Hands in Poor Places Organization", "designationCode": "C", "categoryCode": "09", "address": "6045 CREDITVIEW RD            SUITE 205", "city": "MISSISSAUGA", "province": "ON", "country": "CA", "postalCode": "L5V0B1", "twitter": "None", "instagram": "None", "facebook": "None", "youtube": "None", "website": "None", "summary": "None", "logo": "None", "latitude": 43.5983403958103, "longitude": -79.71293644791994}, "140946567RR0001": {"name": "Hands in Service Canada", "designationCode": "C", "categoryCode": "59", "address": "206 - 1889 SPRINGFIELD RD", "city": "KELOWNA", "province": "BC", "country": "CA", "postalCode": "V1Y5V5", "twitter": "None", "instagram": "None", "facebook": "None", "youtube": "None", "website": "None", "summary": "None", "logo": "None", "latitude": 49.87710040660634, "longitude": -119.4548724756288}, "140591926RR0001": {"name": "Hands on Outreach & Development Centre Incorporated", "designationCode": "C", "categoryCode": "09", "address": "140 AVE F N", "city": "SASKATOON", "province": "SK", "country": "CA", "postalCode": "S7L1V8", "twitter": "None", "instagram": "None", "facebook": "None", "youtube": "None", "website": "None", "summary": "None", "logo": "None", "latitude": 52.130619869553925, "longitude": -106.67818834883748}, "856865464RR0001": {"name": "Hands Across the Sea Association", "designationCode": "C", "categoryCode": "01", "address": "PO BOX 101 STN MAIN", "city": "YARMOUTH", "province": "NS", "country": "CA", "postalCode": "B5A4B1", "twitter": "None", "instagram": "None", "facebook": "None", "youtube": "None", "website": "None", "summary": "None", "logo": "None", "latitude": 43.83439000000004, "longitude": -66.12014999999997}, "845687623RR0001": {"name": "Hands Up for Africa Society", "designationCode": "C", "categoryCode": "09", "address": "4314 PRINCE EDWARD STREET", "city": "VANCOUVER", "province": "BC", "country": "CA", "postalCode": "V5V3Y7", "twitter": "None", "instagram": "None", "facebook": "None", "youtube": "None", "website": "None", "summary": "None", "logo": "None", "latitude": 49.24641457507647, "longitude": -123.09681195833596}, "862298445RR0001": {"name": "Handsome Alice Theatre Foundation", "designationCode": "C", "categoryCode": "22", "address": "PO BOX 46059 RPO INGLEWOOD", "city": "CALGARY", "province": "AB", "country": "CA", "postalCode": "T2G5H7", "twitter": "None", "instagram": "None", "facebook": "None", "youtube": "None", "website": "None", "summary": "None", "logo": "None", "latitude": 51.04275304741815, "longitude": -114.01966341871173}, "833965437RR0001": {"name": "Hanging with Jesus Christian Education & Resource Centre", "designationCode": "C", "categoryCode": "47", "address": "3520 AVONDALE AVE", "city": "WINDSOR", "province": "ON", "country": "CA", "postalCode": "N9E1X9", "twitter": "None", "instagram": "None", "facebook": "None", "youtube": "None", "website": "None", "summary": "None", "logo": "None", "latitude": 42.26204505052218, "longitude": -83.01061294168753}, "858353113RR0001": {"name": "Hankooksaram/Canadasaram Seniors' Association in GTA", "designationCode": "C", "categoryCode": "09", "address": "240 - 7163 YONGE ST", "city": "THORNHILL", "province": "ON", "country": "CA", "postalCode": "L3T0C6", "twitter": "None", "instagram": "None", "facebook": "None", "youtube": "None", "website": "None", "summary": "None", "logo": "None", "latitude": 43.80216635477096, "longitude": -79.42110845813869}, "811869940RR0001": {"name": "Hanna & District Society for the Prevention of Cruelty to Animals", "designationCode": "C", "categoryCode": "54", "address": "P.O. BOX 2126", "city": "HANNA", "province": "AB", "country": "CA", "postalCode": "T0J1P0", "twitter": "None", "instagram": "None", "facebook": "None", "youtube": "None", "website": "None", "summary": "None", "logo": "None", "latitude": 51.64780345530559, "longitude": -111.93814762829588}, "842073033RR0001": {"name": "Hannah and Amelia's Angels Foundation", "designationCode": "B", "categoryCode": "20", "address": "10691 CAITHCART RD", "city": "RICHMOND", "province": "BC", "country": "CA", "postalCode": "V6X1N3", "twitter": "None", "instagram": "None", "facebook": "None", "youtube": "None", "website": "None", "summary": "None", "logo": "None", "latitude": 49.188929467684105, "longitude": -123.1038135}, "806996674RR0001": {"name": "Hannah Family Support Society", "designationCode": "C", "categoryCode": "47", "address": "201-1672 WESTFT AVENUE", "city": "VANCOUVER", "province": "BC", "country": "CA", "postalCode": "V6J1G1", "twitter": "None", "instagram": "None", "facebook": "None", "youtube": "None", "website": "None", "summary": "None", "logo": "None", "latitude": 49.270551000000054, "longitude": -123.14221099999993}, "819615352RR0001": {"name": "Hannah Foundation", "designationCode": "B", "categoryCode": "05", "address": "201-1672 1ST AVE W", "city": "VANCOUVER", "province": "BC", "country": "CA", "postalCode": "V6J1G1", "twitter": "None", "instagram": "None", "facebook": "None", "youtube": "None", "website": "None", "summary": "None", "logo": "None", "latitude": 49.27057951399405, "longitude": -123.14247172162271}, "831727268RR0001": {"name": "Hannah House Maternity Home", "designationCode": "C", "categoryCode": "01", "address": "4761 CHRYSLER AVENUE", "city": "NIAGARA FALLS", "province": "ON", "country": "CA", "postalCode": "L2E3V9", "twitter": "None", "instagram": "None", "facebook": "None", "youtube": "None", "website": "None", "summary": "None", "logo": "None", "latitude": 43.10504966472388, "longitude": -79.0687601281088}, "795276120RR0001": {"name": "Hanson and Vivian Goe Foundation", "designationCode": "B", "categoryCode": "03", "address": "44 FOREST GROVE DRIVE", "city": "NORTH YORK", "province": "ON", "country": "CA", "postalCode": "M2K1Z3", "twitter": "None", "instagram": "None", "facebook": "None", "youtube": "None", "website": "None", "summary": "None", "logo": "None", "latitude": 43.77979349321934, "longitude": -79.37939191949918}, "818514051RR0001": {"name": "Hants County Christmas Angels Society", "designationCode": "C", "categoryCode": "09", "address": "PO BOX 3877", "city": "WINDSOR", "province": "NS", "country": "CA", "postalCode": "B0N1T0", "twitter": "None", "instagram": "None", "facebook": "None", "youtube": "None", "website": "None", "summary": "None", "logo": "None", "latitude": 44.990170000000035, "longitude": -64.12904999999995}, "813757622RR0001": {"name": "Hanuree Drama Club", "designationCode": "C", "categoryCode": "22", "address": "103-511 ROCHESTER AVE", "city": "COQUITLAM", "province": "BC", "country": "CA", "postalCode": "V3K0A2", "twitter": "None", "instagram": "None", "facebook": "None", "youtube": "None", "website": "None", "summary": "None", "logo": "None", "latitude": 49.24549245657562, "longitude": -122.89068377699232}, "807598578RR0001": {"name": "Happily Ever Esther Farm Sanctuary", "designationCode": "C", "categoryCode": "54", "address": "8074 FIRST LINE, P.O. BOX 279", "city": "CAMPBELLVILLE", "province": "ON", "country": "CA", "postalCode": "L0P1B0", "twitter": "None", "instagram": "None", "facebook": "None", "youtube": "None", "website": "None", "summary": "None", "logo": "None", "latitude": 43.530693000000056, "longitude": -80.04475699999993}}