{"831051388RR0001": {"name": "Kimmunity Angels Society", "designationCode": "B", "categoryCode": "11", "address": "4017 BEST ST", "city": "TERRACE", "province": "BC", "country": "CA", "postalCode": "V8G5R8", "twitter": "None", "instagram": "None", "facebook": "None", "youtube": "None", "website": "None", "summary": "None", "logo": "None", "latitude": 54.532526856512185, "longitude": -128.6040073372667}, "890361595RR0001": {"name": "Kina Gbezhgomi Child and Family Services", "designationCode": "C", "categoryCode": "01", "address": "98 POTTAWATOMI AVENUE", "city": "WIKWEMIKONG", "province": "ON", "country": "CA", "postalCode": "P0P2J0", "twitter": "None", "instagram": "None", "facebook": "None", "youtube": "None", "website": "None", "summary": "None", "logo": "None", "latitude": 45.79522945989382, "longitude": -81.72249377601136}, "802764209RR0001": {"name": "Kinbrace Community Society", "designationCode": "C", "categoryCode": "09", "address": "PO BOX 21732 RPO LITTLE ITALY", "city": "VANCOUVER", "province": "BC", "country": "CA", "postalCode": "V5L5G3", "twitter": "None", "instagram": "None", "facebook": "None", "youtube": "None", "website": "None", "summary": "None", "logo": "None", "latitude": 49.280496000000056, "longitude": -123.06684499999994}, "891470536RR0001": {"name": "Kinbridge Community Association", "designationCode": "C", "categoryCode": "09", "address": "271 - 250 DUNDAS ST S", "city": "CAMBRIDGE", "province": "ON", "country": "CA", "postalCode": "N1R8A8", "twitter": "None", "instagram": "None", "facebook": "None", "youtube": "None", "website": "None", "summary": "None", "logo": "None", "latitude": 43.351810026673824, "longitude": -80.28271924450867}, "824902399RR0001": {"name": "Kind Canada G\u00e9n\u00e9reux", "designationCode": "C", "categoryCode": "09", "address": "12 - 38 AURIGA DR", "city": "NEPEAN", "province": "ON", "country": "CA", "postalCode": "K2E8A5", "twitter": "None", "instagram": "None", "facebook": "None", "youtube": "None", "website": "None", "summary": "None", "logo": "None", "latitude": 45.331142132956245, "longitude": -75.70494962049142}, "119093995RR0001": {"name": "Kind Space", "designationCode": "C", "categoryCode": "09", "address": "404-222 SOMERSET ST W.", "city": "OTTAWA", "province": "ON", "country": "CA", "postalCode": "K2P0J4", "twitter": "None", "instagram": "None", "facebook": "None", "youtube": "None", "website": "None", "summary": "None", "logo": "None", "latitude": 45.417272596428084, "longitude": -75.69174283706514}, "829028422RR0001": {"name": "Kindersley & District Food Bank Inc.", "designationCode": "C", "categoryCode": "09", "address": "PO BOX 1642", "city": "KINDERSLEY", "province": "SK", "country": "CA", "postalCode": "S0L1S0", "twitter": "None", "instagram": "None", "facebook": "None", "youtube": "None", "website": "None", "summary": "None", "logo": "None", "latitude": 51.46791900000005, "longitude": -109.15522999999993}, "118981406RR0001": {"name": "Kindersley Culture & Recreation Building Fund Inc.", "designationCode": "C", "categoryCode": "56", "address": "BOX 1269", "city": "KINDERSLEY", "province": "SK", "country": "CA", "postalCode": "S0L1S0", "twitter": "None", "instagram": "None", "facebook": "None", "youtube": "None", "website": "None", "summary": "None", "logo": "None", "latitude": 51.46791900000005, "longitude": -109.15522999999993}, "849609904RR0001": {"name": "Kindersley Family Resource Centre Inc.", "designationCode": "C", "categoryCode": "09", "address": "PO BOX 2223", "city": "KINDERSLEY", "province": "SK", "country": "CA", "postalCode": "S0L1S0", "twitter": "None", "instagram": "None", "facebook": "None", "youtube": "None", "website": "None", "summary": "None", "logo": "None", "latitude": 51.46791900000005, "longitude": -109.15522999999993}, "813383163RR0001": {"name": "Kindhearted Ministry", "designationCode": "C", "categoryCode": "39", "address": "308-222 ASH ST", "city": "NEW WESTMINSTER", "province": "BC", "country": "CA", "postalCode": "V3M3M4", "twitter": "None", "instagram": "None", "facebook": "None", "youtube": "None", "website": "None", "summary": "None", "logo": "None", "latitude": 49.20658456812291, "longitude": -122.91636030838458}, "819418633RR0001": {"name": "Kindness Above Everything for the Relief of Poverty", "designationCode": "A", "categoryCode": "03", "address": "519 YORK STREET", "city": "LONDON", "province": "ON", "country": "CA", "postalCode": "N6B1R4", "twitter": "None", "instagram": "None", "facebook": "None", "youtube": "None", "website": "None", "summary": "None", "logo": "None", "latitude": 42.985420042443444, "longitude": -81.23342487578633}, "839689502RR0001": {"name": "Kindred Hearts Cambodia Foundation", "designationCode": "C", "categoryCode": "11", "address": "12603 39A AVE NW", "city": "EDMONTON", "province": "AB", "country": "CA", "postalCode": "T6J0P4", "twitter": "None", "instagram": "None", "facebook": "None", "youtube": "None", "website": "None", "summary": "None", "logo": "None", "latitude": 53.474997532315896, "longitude": -113.54969280391252}, "807323092RR0001": {"name": "Kindred Spirits Orchestra", "designationCode": "C", "categoryCode": "22", "address": "4981 HIGHWAY 7, UNIT 1", "city": "MARKHAM", "province": "ON", "country": "CA", "postalCode": "L3R1N1", "twitter": "None", "instagram": "None", "facebook": "None", "youtube": "None", "website": "None", "summary": "None", "logo": "None", "latitude": 43.86524268618599, "longitude": -79.29230256406207}, "835049230RR0001": {"name": "Kinetic Knights Robotics", "designationCode": "C", "categoryCode": "21", "address": "PO BOX 54 STN MAIN", "city": "KINCARDINE", "province": "ON", "country": "CA", "postalCode": "N2Z2Y6", "twitter": "None", "instagram": "None", "facebook": "None", "youtube": "None", "website": "None", "summary": "None", "logo": "None", "latitude": 44.18160900000005, "longitude": -81.63174049999994}, "802109017RR0001": {"name": "King & Benton Community Foundation", "designationCode": "A", "categoryCode": "03", "address": "85 MORRELL ST", "city": "BRANTFORD", "province": "ON", "country": "CA", "postalCode": "N3T4J6", "twitter": "None", "instagram": "None", "facebook": "None", "youtube": "None", "website": "None", "summary": "None", "logo": "None", "latitude": 43.14451007912931, "longitude": -80.28827648151358}, "843612854RR0001": {"name": "King of Glory International Ministries Inc.", "designationCode": "C", "categoryCode": "39", "address": "49 QUEEN'S PLATE DR", "city": "TORONTO", "province": "ON", "country": "CA", "postalCode": "M9W6P1", "twitter": "None", "instagram": "None", "facebook": "None", "youtube": "None", "website": "None", "summary": "None", "logo": "None", "latitude": 43.710512143776285, "longitude": -79.59042992988654}, "848285060RR0001": {"name": "King Ministries Canada", "designationCode": "C", "categoryCode": "47", "address": "PO BOX 3401", "city": "MORINVILLE", "province": "AB", "country": "CA", "postalCode": "T8R1S3", "twitter": "None", "instagram": "None", "facebook": "None", "youtube": "None", "website": "None", "summary": "None", "logo": "None", "latitude": 53.800017000000054, "longitude": -113.64821449999994}, "889798666RR0001": {"name": "King Tak Buddhist Society", "designationCode": "C", "categoryCode": "35", "address": "44 WINTERMUTE BOULEVARD", "city": "TORONTO", "province": "ON", "country": "CA", "postalCode": "M1W3M6", "twitter": "None", "instagram": "None", "facebook": "None", "youtube": "None", "website": "None", "summary": "None", "logo": "None", "latitude": 43.8183084657222, "longitude": -79.32225056552583}, "847351608RR0001": {"name": "King Township Food Bank", "designationCode": "C", "categoryCode": "09", "address": "P.O. BOX 224", "city": "SCHOMBERG", "province": "ON", "country": "CA", "postalCode": "L0G1T0", "twitter": "None", "instagram": "None", "facebook": "None", "youtube": "None", "website": "None", "summary": "None", "logo": "None", "latitude": 44.00246003664379, "longitude": -79.68402999884614}, "846800647RR0001": {"name": "King's Chapels of Canada", "designationCode": "C", "categoryCode": "36", "address": "30 - 5858 142 ST", "city": "SURREY", "province": "BC", "country": "CA", "postalCode": "V3X0H2", "twitter": "None", "instagram": "None", "facebook": "None", "youtube": "None", "website": "None", "summary": "None", "logo": "None", "latitude": 49.10925535554512, "longitude": -122.82888831420692}, "859023293RR0001": {"name": "King's Christian Collegiate Foundation", "designationCode": "A", "categoryCode": "23", "address": "528 BURNHAMTHORPE ROAD WEST", "city": "OAKVILLE", "province": "ON", "country": "CA", "postalCode": "L6M4K6", "twitter": "None", "instagram": "None", "facebook": "None", "youtube": "None", "website": "None", "summary": "None", "logo": "None", "latitude": 43.478583339431076, "longitude": -79.7632410345376}, "107914582RR0001": {"name": "King's Corner Church of God", "designationCode": "C", "categoryCode": "39", "address": "2110 KING STREET", "city": "REGINA", "province": "SK", "country": "CA", "postalCode": "S4T4G8", "twitter": "None", "instagram": "None", "facebook": "None", "youtube": "None", "website": "None", "summary": "None", "logo": "None", "latitude": 50.44519774854291, "longitude": -104.63839314963332}, "850653213RR0001": {"name": "King's Court, The Redeemed Christian Church of God", "designationCode": "C", "categoryCode": "39", "address": "18 AUTOMATIC ROAD             UNIT 28", "city": "BRAMPTON", "province": "ON", "country": "CA", "postalCode": "L6S5N5", "twitter": "None", "instagram": "None", "facebook": "None", "youtube": "None", "website": "None", "summary": "None", "logo": "None", "latitude": 43.75799238273989, "longitude": -79.71120081894482}, "856875653RR0001": {"name": "King's Daughter Ministries, Inc.", "designationCode": "C", "categoryCode": "47", "address": "401-50 ECCLESTON DRIVE", "city": "TORONTO", "province": "ON", "country": "CA", "postalCode": "M4A1K8", "twitter": "None", "instagram": "None", "facebook": "None", "youtube": "None", "website": "None", "summary": "None", "logo": "None"}, "107770877RR0001": {"name": "King's Gate Church of Cochrane", "designationCode": "C", "categoryCode": "39", "address": "53 WEST AARSBY RD", "city": "COCHRANE", "province": "AB", "country": "CA", "postalCode": "T4C1M1", "twitter": "None", "instagram": "None", "facebook": "None", "youtube": "None", "website": "None", "summary": "None", "logo": "None", "latitude": 51.1940332359052, "longitude": -114.48959680492213}, "824334296RR0001": {"name": "King's Kitchen", "designationCode": "C", "categoryCode": "09", "address": "3320 CEDAR GROVE ROAD", "city": "JOHNSTOWN", "province": "ON", "country": "CA", "postalCode": "K0E1T1", "twitter": "None", "instagram": "None", "facebook": "None", "youtube": "None", "website": "None", "summary": "None", "logo": "None", "latitude": 44.74512220037747, "longitude": -75.50449200495335}, "825152937RR0001": {"name": "King's Mission Society", "designationCode": "C", "categoryCode": "47", "address": "20-15325                      99 AVENUE", "city": "SURREY", "province": "BC", "country": "CA", "postalCode": "V3R7T7", "twitter": "None", "instagram": "None", "facebook": "None", "youtube": "None", "website": "None", "summary": "None", "logo": "None", "latitude": 49.18263938889059, "longitude": -122.79757275}, "808203822RR0001": {"name": "King's University College at the University of Western Ontario", "designationCode": "C", "categoryCode": "20", "address": "266 EPWORTH AVENUE,", "city": "LONDON", "province": "ON", "country": "CA", "postalCode": "N6A2M3", "twitter": "None", "instagram": "None", "facebook": "None", "youtube": "None", "website": "None", "summary": "None", "logo": "None", "latitude": 43.01188493202134, "longitude": -81.25738129185173}, "808363287RR0001": {"name": "Kingdom of Heaven Boundaryless Christian Church", "designationCode": "B", "categoryCode": "39", "address": "3850 FIR STREET", "city": "BURNABY", "province": "BC", "country": "CA", "postalCode": "V5G2A7", "twitter": "None", "instagram": "None", "facebook": "None", "youtube": "None", "website": "None", "summary": "None", "logo": "None", "latitude": 49.24512250058698, "longitude": -123.01842440758791}, "801018227RR0001": {"name": "Kingdom of Heaven Embassy Ministries Inc.", "designationCode": "C", "categoryCode": "39", "address": "10 CHINZAN WAY", "city": "BRAMPTON", "province": "ON", "country": "CA", "postalCode": "L6X0X3", "twitter": "None", "instagram": "None", "facebook": "None", "youtube": "None", "website": "None", "summary": "None", "logo": "None", "latitude": 43.658442514282484, "longitude": -79.80616215540438}, "869803304RR0001": {"name": "Kingdom Culture Ministries", "designationCode": "C", "categoryCode": "47", "address": "P.O. BOX 17010                1937 PORTOBELLO BLVD.", "city": "ORLEANS", "province": "ON", "country": "CA", "postalCode": "K4A4W8", "twitter": "None", "instagram": "None", "facebook": "None", "youtube": "None", "website": "None", "summary": "None", "logo": "None", "latitude": 45.46783917236993, "longitude": -75.46656941932629}, "855246468RR0001": {"name": "Kingdom Destiny Ministries", "designationCode": "C", "categoryCode": "39", "address": "95 CHAROLAIS BOULEVARD        UNIT 110", "city": "BRAMPTON", "province": "ON", "country": "CA", "postalCode": "L6Y2R9", "twitter": "None", "instagram": "None", "facebook": "None", "youtube": "None", "website": "None", "summary": "None", "logo": "None", "latitude": 43.66542248234197, "longitude": -79.74365131190528}, "107372930RR0001": {"name": "Kingdom Dynamics International Inc.", "designationCode": "C", "categoryCode": "39", "address": "PO BOX 117 CDO PRINCE RUPERT", "city": "PRINCE RUPERT", "province": "BC", "country": "CA", "postalCode": "V8J3P4", "twitter": "None", "instagram": "None", "facebook": "None", "youtube": "None", "website": "None", "summary": "None", "logo": "None", "latitude": 54.313233000000054, "longitude": -130.32604249999994}, "843604653RR0001": {"name": "Kingdom Faith Center", "designationCode": "C", "categoryCode": "39", "address": "766 ANTLE", "city": "GREENFIELD PARK", "province": "QC", "country": "CA", "postalCode": "J4V3G7", "twitter": "None", "instagram": "None", "facebook": "None", "youtube": "None", "website": "None", "summary": "None", "logo": "None", "latitude": 45.48841200000001, "longitude": -73.44614215849145}, "839018355RR0001": {"name": "Kingdom Gateway Ministries", "designationCode": "C", "categoryCode": "39", "address": "97 SLEIGHTHOLME CRES", "city": "BRAMPTON", "province": "ON", "country": "CA", "postalCode": "L6P3E6", "twitter": "None", "instagram": "None", "facebook": "None", "youtube": "None", "website": "None", "summary": "None", "logo": "None", "latitude": 43.79339261059501, "longitude": -79.68586195224776}, "814323887RR0001": {"name": "Kingdom Glory Centre of Kingston Inc.", "designationCode": "C", "categoryCode": "39", "address": "1-632 MACDONNELL STREET", "city": "KINGSTON", "province": "ON", "country": "CA", "postalCode": "K7K4X3", "twitter": "None", "instagram": "None", "facebook": "None", "youtube": "None", "website": "None", "summary": "None", "logo": "None", "latitude": 44.24410520260835, "longitude": -76.5062890288821}, "837016922RR0001": {"name": "Kingdom House Christian Centre", "designationCode": "C", "categoryCode": "39", "address": "3A - 40 HOLTBY AVE", "city": "BRAMPTON", "province": "ON", "country": "CA", "postalCode": "L6X2M1", "twitter": "None", "instagram": "None", "facebook": "None", "youtube": "None", "website": "None", "summary": "None", "logo": "None", "latitude": 43.68207584306752, "longitude": -79.78255003449512}, "837953918RR0001": {"name": "Kingdom Impact Community Church", "designationCode": "C", "categoryCode": "47", "address": "4-3100 KINGSTON ROAD,", "city": "TORONTO", "province": "ON", "country": "CA", "postalCode": "M1M3T4", "twitter": "None", "instagram": "None", "facebook": "None", "youtube": "None", "website": "None", "summary": "None", "logo": "None", "latitude": 43.72778717516854, "longitude": -79.22956286254211}, "822898763RR0001": {"name": "Kingdom Kids", "designationCode": "C", "categoryCode": "49", "address": "412 - 2350 MCGILLIVRAY BLVD", "city": "WINNIPEG", "province": "MB", "country": "CA", "postalCode": "R3Y0T5", "twitter": "None", "instagram": "None", "facebook": "None", "youtube": "None", "website": "None", "summary": "None", "logo": "None", "latitude": 49.81768016954263, "longitude": -97.21162239200207}, "779518091RR0001": {"name": "Kingdom Life Fellowship, Guelph", "designationCode": "C", "categoryCode": "39", "address": "40 MARGARET STREET", "city": "GUELPH", "province": "ON", "country": "CA", "postalCode": "N1E5R7", "twitter": "None", "instagram": "None", "facebook": "None", "youtube": "None", "website": "None", "summary": "None", "logo": "None", "latitude": 43.5430066988861, "longitude": -80.24024257464377}, "858538093RR0001": {"name": "Kingdom Life Ministries Calgary", "designationCode": "B", "categoryCode": "39", "address": "20 SILVERADO BANK COURT SW", "city": "CALGARY", "province": "AB", "country": "CA", "postalCode": "T2X0L3", "twitter": "None", "instagram": "None", "facebook": "None", "youtube": "None", "website": "None", "summary": "None", "logo": "None", "latitude": 50.88282907660567, "longitude": -114.08424640631323}, "831907183RR0001": {"name": "Kingdom Living Word Christian Center Inc.", "designationCode": "C", "categoryCode": "39", "address": "38 EVERINGHAM CIRCLE,", "city": "BRAMPTON", "province": "ON", "country": "CA", "postalCode": "L6R0R6", "twitter": "None", "instagram": "None", "facebook": "None", "youtube": "None", "website": "None", "summary": "None", "logo": "None", "latitude": 43.76216226340233, "longitude": -79.77016775936295}, "801663725RR0001": {"name": "Kingdom On The Rock Ministries", "designationCode": "C", "categoryCode": "39", "address": "80 WOOTTEN WAY N", "city": "MARKHAM", "province": "ON", "country": "CA", "postalCode": "L3P2Y8", "twitter": "None", "instagram": "None", "facebook": "None", "youtube": "None", "website": "None", "summary": "None", "logo": "None", "latitude": 43.88694387010217, "longitude": -79.24534294090813}, "746136894RR0001": {"name": "Kingdom Revolution Breakthrough Ministries", "designationCode": "C", "categoryCode": "39", "address": "329 EDENBROOK HILL DRIVE,", "city": "BRAMPTON", "province": "ON", "country": "CA", "postalCode": "L7A2L3", "twitter": "None", "instagram": "None", "facebook": "None", "youtube": "None", "website": "None", "summary": "None", "logo": "None", "latitude": 43.706460194846734, "longitude": -79.83053552218834}, "753053321RR0001": {"name": "Kingdom Worship Centre Ministries", "designationCode": "C", "categoryCode": "39", "address": "16 CHARITY COURT", "city": "ANCASTER", "province": "ON", "country": "CA", "postalCode": "L9K0A8", "twitter": "None", "instagram": "None", "facebook": "None", "youtube": "None", "website": "None", "summary": "None", "logo": "None", "latitude": 43.213490285619315, "longitude": -79.9436752275953}, "822871182RR0001": {"name": "Kingfisher Foundation", "designationCode": "B", "categoryCode": "03", "address": "120 ADELAIDE ST. WEST         SUITE 2150", "city": "TORONTO", "province": "ON", "country": "CA", "postalCode": "M5H1T1", "twitter": "None", "instagram": "None", "facebook": "None", "youtube": "None", "website": "None", "summary": "None", "logo": "None", "latitude": 43.649477136880044, "longitude": -79.38292947726339}, "809937618RR0001": {"name": "Kingman Community Cemetery", "designationCode": "C", "categoryCode": "59", "address": "49031 RGE RD 194", "city": "CAMROSE COUNTY", "province": "AB", "country": "CA", "postalCode": "T0B2M1", "twitter": "None", "instagram": "None", "facebook": "None", "youtube": "None", "website": "None", "summary": "None", "logo": "None", "latitude": 53.197704000000016, "longitude": -112.7330956525771}, "107570855RR0001": {"name": "Kings Church", "designationCode": "C", "categoryCode": "39", "address": "332 HAMPTON RD", "city": "QUISPAMSIS", "province": "NB", "country": "CA", "postalCode": "E2E4S9", "twitter": "None", "instagram": "None", "facebook": "None", "youtube": "None", "website": "None", "summary": "None", "logo": "None", "latitude": 45.416235018581666, "longitude": -65.95460944682343}, "812358810RR0001": {"name": "Kings County Family Resource Centre", "designationCode": "C", "categoryCode": "09", "address": "503A MAIN STREET", "city": "KENTVILLE", "province": "NS", "country": "CA", "postalCode": "B4N1L4", "twitter": "None", "instagram": "None", "facebook": "None", "youtube": "None", "website": "None", "summary": "None", "logo": "None", "latitude": 45.07779864643276, "longitude": -64.50106184459247}, "848479036RR0001": {"name": "Kings Landing Foundation Inc.", "designationCode": "A", "categoryCode": "52", "address": "POST OFFICE BOX 30032         PROSPECT PLAZA", "city": "FREDERICTON", "province": "NB", "country": "CA", "postalCode": "E3B0H8", "twitter": "None", "instagram": "None", "facebook": "None", "youtube": "None", "website": "None", "summary": "None", "logo": "None", "latitude": 45.95307685844156, "longitude": -66.69332550170455}, "894822220RR0001": {"name": "Kings Point-to-Point Transit Society", "designationCode": "C", "categoryCode": "09", "address": "14 ABERDEEN ST", "city": "KENTVILLE", "province": "NS", "country": "CA", "postalCode": "B4N2N1", "twitter": "None", "instagram": "None", "facebook": "None", "youtube": "None", "website": "None", "summary": "None", "logo": "None", "latitude": 45.077584536499494, "longitude": -64.49661140218693}, "822367363RR0001": {"name": "Kings Volunteer Resource centre Association", "designationCode": "C", "categoryCode": "09", "address": "P.O. BOX 132", "city": "KENTVILLE", "province": "NS", "country": "CA", "postalCode": "B4N3V9", "twitter": "None", "instagram": "None", "facebook": "None", "youtube": "None", "website": "None", "summary": "None", "logo": "None", "latitude": 45.07663200000006, "longitude": -64.49369299999994}, "860084227RR0001": {"name": "Kings Way LifeCare Alliance Foundation Inc.", "designationCode": "B", "categoryCode": "03", "address": "8 SQUIRE DRIVE", "city": "QUISPAMSIS", "province": "NB", "country": "CA", "postalCode": "E2G2A7", "twitter": "None", "instagram": "None", "facebook": "None", "youtube": "None", "website": "None", "summary": "None", "logo": "None", "latitude": 45.43597813682273, "longitude": -65.96224645357543}, "807345376RR0001": {"name": "Kings' Christian Center, Calgary", "designationCode": "C", "categoryCode": "39", "address": "3 ASPEN VISTA WAY SW", "city": "CALGARY", "province": "AB", "country": "CA", "postalCode": "T3H0Y7", "twitter": "None", "instagram": "None", "facebook": "None", "youtube": "None", "website": "None", "summary": "None", "logo": "None", "latitude": 51.04424023175025, "longitude": -114.2038259572681}, "107406316RR0033": {"name": "Kingscourt Free Methodist Church", "designationCode": "C", "categoryCode": "39", "address": "126 GREENLEES DRIVE", "city": "KINGSTON", "province": "ON", "country": "CA", "postalCode": "K7K6R3", "twitter": "None", "instagram": "None", "facebook": "None", "youtube": "None", "website": "None", "summary": "None", "logo": "None", "latitude": 44.26511136052289, "longitude": -76.4537581140861}, "815826615RR0001": {"name": "Kingsland Charitable Trust", "designationCode": "B", "categoryCode": "45", "address": "3425 2ND AVENUE SOUTH", "city": "LETHBRIDGE", "province": "AB", "country": "CA", "postalCode": "T1J4V1", "twitter": "None", "instagram": "None", "facebook": "None", "youtube": "None", "website": "None", "summary": "None", "logo": "None", "latitude": 49.696839530439966, "longitude": -112.78914308381903}, "102842945RR0001": {"name": "Kingsley Primary School", "designationCode": "C", "categoryCode": "20", "address": "3962 BLOOR ST W", "city": "TORONTO", "province": "ON", "country": "CA", "postalCode": "M9B1M3", "twitter": "None", "instagram": "None", "facebook": "None", "youtube": "None", "website": "None", "summary": "None", "logo": "None", "latitude": 43.638857136880056, "longitude": -79.5486483891452}, "830244802RR0001": {"name": "Kingston Animal Rescue", "designationCode": "C", "categoryCode": "54", "address": "1267 ROCKWOOD DR", "city": "KINGSTON", "province": "ON", "country": "CA", "postalCode": "K7P2M6", "twitter": "None", "instagram": "None", "facebook": "None", "youtube": "None", "website": "None", "summary": "None", "logo": "None", "latitude": 44.25256966720538, "longitude": -76.60910835192455}, "803611136RR0001": {"name": "Kingston Baptist Church Inc.", "designationCode": "C", "categoryCode": "31", "address": "71 WALTONS LAKE RD", "city": "CLIFTON ROYAL", "province": "NB", "country": "CA", "postalCode": "E5S2E3", "twitter": "None", "instagram": "None", "facebook": "None", "youtube": "None", "website": "None", "summary": "None", "logo": "None", "latitude": 45.46275190950331, "longitude": -66.04734419952831}, "874064801RR0001": {"name": "Kingston Canadian Film Festival", "designationCode": "C", "categoryCode": "22", "address": "PO BOX 70  STN MAIN", "city": "KINGSTON", "province": "ON", "country": "CA", "postalCode": "K7L4V6", "twitter": "None", "instagram": "None", "facebook": "None", "youtube": "None", "website": "None", "summary": "None", "logo": "None", "latitude": 44.23153200000006, "longitude": -76.47933049999993}, "102843943RR0001": {"name": "Kingston Flying Club", "designationCode": "C", "categoryCode": "20", "address": "1040 LEN BIRCHALL WAY", "city": "KINGSTON", "province": "ON", "country": "CA", "postalCode": "K7M9A1", "twitter": "None", "instagram": "None", "facebook": "None", "youtube": "None", "website": "None", "summary": "None", "logo": "None", "latitude": 44.220108307288065, "longitude": -76.59303709247469}, "756405890RR0001": {"name": "Kingston Health Sciences Centre", "designationCode": "C", "categoryCode": "10", "address": "76 STUART ST", "city": "KINGSTON", "province": "ON", "country": "CA", "postalCode": "K7L2V7", "twitter": "None", "instagram": "None", "facebook": "None", "youtube": "None", "website": "None", "summary": "None", "logo": "None", "latitude": 44.22460467773697, "longitude": -76.49287724978365}, "816799712RR0001": {"name": "Kingston Mission Methodist Church", "designationCode": "C", "categoryCode": "39", "address": "263 VICTORIA ST", "city": "KINGSTON", "province": "ON", "country": "CA", "postalCode": "K7L3Y9", "twitter": "None", "instagram": "None", "facebook": "None", "youtube": "None", "website": "None", "summary": "None", "logo": "None", "latitude": 44.22943861809682, "longitude": -76.5026447557276}, "897423141RR0002": {"name": "Kingston Municipal Non-Profit Housing Coporation", "designationCode": "C", "categoryCode": "09", "address": "610 MONTREAL ST", "city": "KINGSTON", "province": "ON", "country": "CA", "postalCode": "K7K3J2", "twitter": "None", "instagram": "None", "facebook": "None", "youtube": "None", "website": "None", "summary": "None", "logo": "None", "latitude": 44.2481107677015, "longitude": -76.48690039803199}, "747746899RR0001": {"name": "Kingston Outreach Church Inc.", "designationCode": "C", "categoryCode": "39", "address": "1299 POST RD", "city": "SUSSEX CORNER", "province": "NB", "country": "CA", "postalCode": "E4E2X5", "twitter": "None", "instagram": "None", "facebook": "None", "youtube": "None", "website": "None", "summary": "None", "logo": "None", "latitude": 45.7149052786371, "longitude": -65.4677605610251}, "844538033RR0001": {"name": "Kingston Sikh Cultural Association", "designationCode": "C", "categoryCode": "62", "address": "50 HICKSON AVE", "city": "KINGSTON", "province": "ON", "country": "CA", "postalCode": "K7K2N6", "twitter": "None", "instagram": "None", "facebook": "None", "youtube": "None", "website": "None", "summary": "None", "logo": "None", "latitude": 44.25287657949119, "longitude": -76.48719955384041}, "801516824RR0001": {"name": "Kingston Writersfest", "designationCode": "C", "categoryCode": "22", "address": "202A-209 WELLINGTON ST", "city": "KINGSTON", "province": "ON", "country": "CA", "postalCode": "K7K2Y6", "twitter": "None", "instagram": "None", "facebook": "None", "youtube": "None", "website": "None", "summary": "None", "logo": "None", "latitude": 44.23223852983441, "longitude": -76.48220601122406}, "829424993RR0001": {"name": "Kingston 4 Paws Service Dogs", "designationCode": "C", "categoryCode": "11", "address": "202 - 829 NORWEST RD", "city": "KINGSTON", "province": "ON", "country": "CA", "postalCode": "K7P2N3", "twitter": "None", "instagram": "None", "facebook": "None", "youtube": "None", "website": "None", "summary": "None", "logo": "None", "latitude": 44.2573784878819, "longitude": -76.57505002553522}, "118982586RR0001": {"name": "Kingsway Christian Church", "designationCode": "C", "categoryCode": "39", "address": "501 PASSMORE AVE, UNIT 27", "city": "SCARBOROUGH", "province": "ON", "country": "CA", "postalCode": "M1V5J1", "twitter": "None", "instagram": "None", "facebook": "None", "youtube": "None", "website": "None", "summary": "None", "logo": "None", "latitude": 43.829779863696885, "longitude": -79.25397546834793}, "808003057RR0001": {"name": "Kingsway Christian Church of Haldimand", "designationCode": "C", "categoryCode": "39", "address": "BOX 295", "city": "JARVIS", "province": "ON", "country": "CA", "postalCode": "N0A1J0", "twitter": "None", "instagram": "None", "facebook": "None", "youtube": "None", "website": "None", "summary": "None", "logo": "None", "latitude": 42.885110000000054, "longitude": -80.11368999999996}, "899390496RR0001": {"name": "Kingsway Christian Church International", "designationCode": "C", "categoryCode": "39", "address": "1440 PRINCESS ST", "city": "KINGSTON", "province": "ON", "country": "CA", "postalCode": "K7M3E5", "twitter": "None", "instagram": "None", "facebook": "None", "youtube": "None", "website": "None", "summary": "None", "logo": "None", "latitude": 44.25023706327546, "longitude": -76.53116476112235}, "848938312RR0001": {"name": "Kingswood Turnaround Achievement Inc.", "designationCode": "C", "categoryCode": "21", "address": "271 SLOPE ROAD", "city": "MINTO", "province": "NB", "country": "CA", "postalCode": "E4B3G9", "twitter": "None", "instagram": "None", "facebook": "None", "youtube": "None", "website": "None", "summary": "None", "logo": "None", "latitude": 46.09169903815139, "longitude": -66.09621789027621}, "106787856RR0001": {"name": "Kingswood University", "designationCode": "C", "categoryCode": "20", "address": "PO BOX 5125                   26 WESTERN ST", "city": "SUSSEX", "province": "NB", "country": "CA", "postalCode": "E4E5L2", "twitter": "None", "instagram": "None", "facebook": "None", "youtube": "None", "website": "None", "summary": "None", "logo": "None", "latitude": 45.72488216158708, "longitude": -65.5236468534303}, "842359903RR0001": {"name": "Kingsword International Church", "designationCode": "C", "categoryCode": "39", "address": "60 SOUTH TOWN CENTRE BLVD     SUITE 323", "city": "MARKHAM", "province": "ON", "country": "CA", "postalCode": "L6G0C5", "twitter": "None", "instagram": "None", "facebook": "None", "youtube": "None", "website": "None", "summary": "None", "logo": "None", "latitude": 43.85301352455428, "longitude": -79.33828094312982}, "749629093RR0001": {"name": "KingsWord Ministries International", "designationCode": "C", "categoryCode": "39", "address": "121 SIERRA MORENA CLOSE SW", "city": "CALGARY", "province": "AB", "country": "CA", "postalCode": "T3H3G4", "twitter": "None", "instagram": "None", "facebook": "None", "youtube": "None", "website": "None", "summary": "None", "logo": "None", "latitude": 51.014987413266795, "longitude": -114.17897785524276}, "856109723RR0001": {"name": "Kingway Korean Church", "designationCode": "C", "categoryCode": "39", "address": "9111 CHURCH STREET            POST OFFICE BOX 1107", "city": "FORT LANGLEY", "province": "BC", "country": "CA", "postalCode": "V1M2S4", "twitter": "None", "instagram": "None", "facebook": "None", "youtube": "None", "website": "None", "summary": "None", "logo": "None", "latitude": 49.16780829115925, "longitude": -122.57898279312113}, "809898711RR0001": {"name": "Kinistino Child Care Centre Inc.", "designationCode": "C", "categoryCode": "01", "address": "POST OFFICE BOX 1034", "city": "KINISTINO", "province": "SK", "country": "CA", "postalCode": "S0J1H0", "twitter": "None", "instagram": "None", "facebook": "None", "youtube": "None", "website": "None", "summary": "None", "logo": "None", "latitude": 52.95167619052169, "longitude": -105.02926971926463}, "849325113RR0001": {"name": "Kinsmen Club of Calgary Foundation", "designationCode": "A", "categoryCode": "03", "address": "PO BOX 46066 RPO INGLEWOOD", "city": "CALGARY", "province": "AB", "country": "CA", "postalCode": "T2G5H7", "twitter": "None", "instagram": "None", "facebook": "None", "youtube": "None", "website": "None", "summary": "None", "logo": "None", "latitude": 51.04275304741815, "longitude": -114.01966341871173}, "847003803RR0001": {"name": "Kipling Food Bank Inc.", "designationCode": "C", "categoryCode": "09", "address": "PO BOX 944", "city": "KIPLING", "province": "SK", "country": "CA", "postalCode": "S0G2S0", "twitter": "None", "instagram": "None", "facebook": "None", "youtube": "None", "website": "None", "summary": "None", "logo": "None", "latitude": 50.94214200000001, "longitude": -104.50606274999998}, "107571838RR0001": {"name": "Kipling Pastoral Charge", "designationCode": "C", "categoryCode": "44", "address": "PO BOX 121", "city": "KIPLING", "province": "SK", "country": "CA", "postalCode": "S0G2S0", "twitter": "None", "instagram": "None", "facebook": "None", "youtube": "None", "website": "None", "summary": "None", "logo": "None", "latitude": 50.94214200000001, "longitude": -104.50606274999998}, "851101170RR0001": {"name": "Kira Burundi", "designationCode": "C", "categoryCode": "09", "address": "311-3450, CHEMIN ST-LOUIS", "city": "QU\u00c9BEC", "province": "QC", "country": "CA", "postalCode": "G1W1S5", "twitter": "None", "instagram": "None", "facebook": "None", "youtube": "None", "website": "None", "summary": "None", "logo": "None", "latitude": 46.7544034421489, "longitude": -71.31004213627446}, "837160472RR0001": {"name": "Kirkfield & District Historical Society", "designationCode": "C", "categoryCode": "50", "address": "992 PORTAGE ROAD", "city": "KIRKFIELD", "province": "ON", "country": "CA", "postalCode": "K0M2B0", "twitter": "None", "instagram": "None", "facebook": "None", "youtube": "None", "website": "None", "summary": "None", "logo": "None", "latitude": 44.561869082982305, "longitude": -78.98409493505109}, "118983097RR0001": {"name": "Kirkland Lake District Composite School Scholarship and Bursary Fund", "designationCode": "C", "categoryCode": "21", "address": "60 ALLEN AVENUE", "city": "KIRKLAND LAKE", "province": "ON", "country": "CA", "postalCode": "P2N3J5", "twitter": "None", "instagram": "None", "facebook": "None", "youtube": "None", "website": "None", "summary": "None", "logo": "None", "latitude": 48.14970606119556, "longitude": -80.02168847474229}, "832076228RR0001": {"name": "Kitchener Chin Baptist Church", "designationCode": "C", "categoryCode": "39", "address": "570 STIRLING AVE SOUTH", "city": "KITCHENER", "province": "ON", "country": "CA", "postalCode": "N2M3J7", "twitter": "None", "instagram": "None", "facebook": "None", "youtube": "None", "website": "None", "summary": "None", "logo": "None", "latitude": 43.43490454567477, "longitude": -80.49510173801131}, "834218976RR0001": {"name": "Kitchener Spanish Community Church", "designationCode": "C", "categoryCode": "45", "address": "316 WELLINGTON ST N", "city": "KITCHENER", "province": "ON", "country": "CA", "postalCode": "N2H5K9", "twitter": "None", "instagram": "None", "facebook": "None", "youtube": "None", "website": "None", "summary": "None", "logo": "None", "latitude": 43.459504720526176, "longitude": -80.48779246531817}, "875564114RR0001": {"name": "Kitchener Valley Recreation and Fire Protection Society", "designationCode": "C", "categoryCode": "56", "address": "6253 KITCHENER ROAD", "city": "KITCHENER", "province": "BC", "country": "CA", "postalCode": "V0B1W1", "twitter": "None", "instagram": "None", "facebook": "None", "youtube": "None", "website": "None", "summary": "None", "logo": "None", "latitude": 49.15784447735031, "longitude": -116.31625352415024}, "829806397RR0001": {"name": "Kitchener Waterloo Redeemer Church", "designationCode": "C", "categoryCode": "39", "address": "251 PERCHERON COURT,", "city": "WATERLOO", "province": "ON", "country": "CA", "postalCode": "N2K3T4", "twitter": "None", "instagram": "None", "facebook": "None", "youtube": "None", "website": "None", "summary": "None", "logo": "None", "latitude": 43.48734523284677, "longitude": -80.4895334948641}, "865021083RR0001": {"name": "Kitchener-Waterloo Children's Drama Workshop", "designationCode": "C", "categoryCode": "22", "address": "262 KING STREET N 2ND FLOOR", "city": "WATERLOO", "province": "ON", "country": "CA", "postalCode": "N2J2Y9", "twitter": "None", "instagram": "None", "facebook": "None", "youtube": "None", "website": "None", "summary": "None", "logo": "None", "latitude": 43.47739272967279, "longitude": -80.52519562528153}, "813179884RR0001": {"name": "Kite Woch Inc.", "designationCode": "C", "categoryCode": "11", "address": "186 ADELAIDE ST", "city": "SAINT JOHN", "province": "NB", "country": "CA", "postalCode": "E2K1X1", "twitter": "None", "instagram": "None", "facebook": "None", "youtube": "None", "website": "None", "summary": "None", "logo": "None", "latitude": 45.27954452622771, "longitude": -66.08045376351788}, "887204592RR0001": {"name": "Kitscoty and District Community and Seniors Association", "designationCode": "C", "categoryCode": "09", "address": "PO BOX 496", "city": "KITSCOTY", "province": "AB", "country": "CA", "postalCode": "T0B2P0", "twitter": "None", "instagram": "None", "facebook": "None", "youtube": "None", "website": "None", "summary": "None", "logo": "None", "latitude": 53.33346000000006, "longitude": -110.33489999999995}, "834412579RR0001": {"name": "Kitsilano Foundation for Wellness with Bipolar Disorder", "designationCode": "A", "categoryCode": "13", "address": "103-2119 YEW ST", "city": "VANCOUVER", "province": "BC", "country": "CA", "postalCode": "V6K3G6", "twitter": "None", "instagram": "None", "facebook": "None", "youtube": "None", "website": "None", "summary": "None", "logo": "None", "latitude": 49.26686201970685, "longitude": -123.15521204166404}, "814017158RR0001": {"name": "Kitty Cat P.A.L. Society", "designationCode": "C", "categoryCode": "54", "address": "P.O. BOX 3755", "city": "COURTENAY", "province": "BC", "country": "CA", "postalCode": "V9N7P1", "twitter": "None", "instagram": "None", "facebook": "None", "youtube": "None", "website": "None", "summary": "None", "logo": "None", "latitude": 49.68669300000006, "longitude": -124.99317349999993}, "847193315RR0001": {"name": "Kitty Kare Thunder Bay", "designationCode": "C", "categoryCode": "54", "address": "745 NORTH JAMES STREET,", "city": "THUNDER BAY", "province": "ON", "country": "CA", "postalCode": "P7C5M7", "twitter": "None", "instagram": "None", "facebook": "None", "youtube": "None", "website": "None", "summary": "None", "logo": "None", "latitude": 48.40037346047075, "longitude": -89.28069291618097}, "107573339RR0001": {"name": "Kiwanis Care Society (1979) of New Westminster", "designationCode": "C", "categoryCode": "10", "address": "35 CLUTE ST", "city": "NEW WESTMINSTER", "province": "BC", "country": "CA", "postalCode": "V3L1Z5", "twitter": "None", "instagram": "None", "facebook": "None", "youtube": "None", "website": "None", "summary": "None", "logo": "None", "latitude": 49.22306593340632, "longitude": -122.91470713713983}, "106836315RR0001": {"name": "Kiwanis Club of Lakeshore Foundation", "designationCode": "C", "categoryCode": "56", "address": "86 VILLAGE COURT", "city": "SAULT STE MARIE", "province": "ON", "country": "CA", "postalCode": "P6B6J9", "twitter": "None", "instagram": "None", "facebook": "None", "youtube": "None", "website": "None", "summary": "None", "logo": "None", "latitude": 46.52394913391211, "longitude": -84.29062031226393}, "855488854RR0001": {"name": "Kiwanis Club of Owen Sound, Trust", "designationCode": "C", "categoryCode": "03", "address": "PO BOX 192 STN MAIN", "city": "OWEN SOUND", "province": "ON", "country": "CA", "postalCode": "N4K5P3", "twitter": "None", "instagram": "None", "facebook": "None", "youtube": "None", "website": "None", "summary": "None", "logo": "None", "latitude": 44.56423500000005, "longitude": -80.94243049999993}, "844025197RR0001": {"name": "Kiwanis Club of Pembroke Inc. Charitable Trust", "designationCode": "C", "categoryCode": "65", "address": "961 PEMBROKE STREET WEST", "city": "PEMBROKE", "province": "ON", "country": "CA", "postalCode": "K8A5P5", "twitter": "None", "instagram": "None", "facebook": "None", "youtube": "None", "website": "None", "summary": "None", "logo": "None", "latitude": 45.82860304119994, "longitude": -77.1370227571377}, "118949247RR0001": {"name": "Kiwanis Music Festival of Guelph", "designationCode": "C", "categoryCode": "22", "address": "P.O. BOX 1475", "city": "GUELPH", "province": "ON", "country": "CA", "postalCode": "N1H3V4", "twitter": "None", "instagram": "None", "facebook": "None", "youtube": "None", "website": "None", "summary": "None", "logo": "None", "latitude": 43.54847700000006, "longitude": -80.25359749999993}, "867092272RR0001": {"name": "Kiwanis North Shore Housing Society", "designationCode": "C", "categoryCode": "09", "address": "100-975-21ST STREET", "city": "WEST VANCOUVER", "province": "BC", "country": "CA", "postalCode": "V7V0B5", "twitter": "None", "instagram": "None", "facebook": "None", "youtube": "None", "website": "None", "summary": "None", "logo": "None", "latitude": 49.333319294408255, "longitude": -123.1681173859966}, "823130844RR0001": {"name": "Kkottongnae Catholic Church of Canada Inc.", "designationCode": "C", "categoryCode": "39", "address": "6096 SECOND LINE              RURAL ROUTE 1", "city": "TOWN OF ERIN", "province": "ON", "country": "CA", "postalCode": "L0N1N0", "twitter": "None", "instagram": "None", "facebook": "None", "youtube": "None", "website": "None", "summary": "None", "logo": "None", "latitude": 43.762588497433455, "longitude": -80.22724775589863}}