{"842646135RR0001": {"name": "Lighthouse Christian Bible Baptist Church of Alberta", "designationCode": "C", "categoryCode": "39", "address": "520 RANCHVIEW COURT NW", "city": "CALGARY", "province": "AB", "country": "CA", "postalCode": "T3G1R6", "twitter": "None", "instagram": "None", "facebook": "None", "youtube": "None", "website": "None", "summary": "None", "logo": "None", "latitude": 51.11322442382703, "longitude": -114.18187298669845}, "845791961RR0001": {"name": "Lighthouse Christian Church", "designationCode": "C", "categoryCode": "39", "address": "17-10051 155 ST", "city": "SURREY", "province": "BC", "country": "CA", "postalCode": "V3R0S1", "twitter": "None", "instagram": "None", "facebook": "None", "youtube": "None", "website": "None", "summary": "None", "logo": "None", "latitude": 49.18496436663975, "longitude": -122.79262501944704}, "894113372RR0012": {"name": "Lighthouse Christian Fellowship Church of the Nazarene", "designationCode": "C", "categoryCode": "39", "address": "702 COLUMBIA STREET", "city": "KAMLOOPS", "province": "BC", "country": "CA", "postalCode": "V2C2V4", "twitter": "None", "instagram": "None", "facebook": "None", "youtube": "None", "website": "None", "summary": "None", "logo": "None", "latitude": 50.671410525967914, "longitude": -120.32401402553523}, "837095231RR0001": {"name": "Lighthouse Church of the Lord", "designationCode": "C", "categoryCode": "39", "address": "11076 158 STREET", "city": "SURREY", "province": "BC", "country": "CA", "postalCode": "V4N5E9", "twitter": "None", "instagram": "None", "facebook": "None", "youtube": "None", "website": "None", "summary": "None", "logo": "None", "latitude": 49.20340969331751, "longitude": -122.78429300761739}, "833158314RR0001": {"name": "Lighthouse Church of Winkler Inc.", "designationCode": "C", "categoryCode": "39", "address": "BOX 2396", "city": "WINKLER", "province": "MB", "country": "CA", "postalCode": "R6W4C1", "twitter": "None", "instagram": "None", "facebook": "None", "youtube": "None", "website": "None", "summary": "None", "logo": "None", "latitude": 49.17773400000006, "longitude": -97.93841299999994}, "802672808RR0001": {"name": "Lighthouse Church Toronto", "designationCode": "C", "categoryCode": "39", "address": "1184 CYNTHIA LANE", "city": "OAKVILLE", "province": "ON", "country": "CA", "postalCode": "L6J2W3", "twitter": "None", "instagram": "None", "facebook": "None", "youtube": "None", "website": "None", "summary": "None", "logo": "None", "latitude": 43.46945759033992, "longitude": -79.6678335905997}, "865556211RR0001": {"name": "Lighthouse Community Church", "designationCode": "C", "categoryCode": "36", "address": "800 SUNNIDALE RD", "city": "WASAGA BEACH", "province": "ON", "country": "CA", "postalCode": "L9Z1J7", "twitter": "None", "instagram": "None", "facebook": "None", "youtube": "None", "website": "None", "summary": "None", "logo": "None", "latitude": 44.45967261415938, "longitude": -80.03929899521167}, "744697699RR0001": {"name": "Lighthouse Evangelical Arabic Church", "designationCode": "C", "categoryCode": "37", "address": "602 PASADENA AVE", "city": "WINNIPEG", "province": "MB", "country": "CA", "postalCode": "R3T2S9", "twitter": "None", "instagram": "None", "facebook": "None", "youtube": "None", "website": "None", "summary": "None", "logo": "None", "latitude": 49.803115140689194, "longitude": -97.13325381207817}, "891148371RR0001": {"name": "Lighthouse Fellowship, Wetaskiwin", "designationCode": "C", "categoryCode": "36", "address": "1000 - 3725 56 ST", "city": "WETASKIWIN", "province": "AB", "country": "CA", "postalCode": "T9A2V6", "twitter": "None", "instagram": "None", "facebook": "None", "youtube": "None", "website": "None", "summary": "None", "logo": "None", "latitude": 52.9551676944489, "longitude": -113.39003415956704}, "851177337RR0001": {"name": "Lighthouse Healing & Deliverance Ministries", "designationCode": "C", "categoryCode": "39", "address": "151 GOLFWOOD DR", "city": "HAMILTON", "province": "ON", "country": "CA", "postalCode": "L9C6W2", "twitter": "None", "instagram": "None", "facebook": "None", "youtube": "None", "website": "None", "summary": "None", "logo": "None", "latitude": 43.22375370439736, "longitude": -79.92277813070588}, "805828118RR0001": {"name": "Lighthouse Initiatives Newcastle", "designationCode": "C", "categoryCode": "39", "address": "15 STILLWELL LANE", "city": "NEWCASTLE", "province": "ON", "country": "CA", "postalCode": "L1B1R4", "twitter": "None", "instagram": "None", "facebook": "None", "youtube": "None", "website": "None", "summary": "None", "logo": "None", "latitude": 43.89989571801603, "longitude": -78.58743866942707}, "842229296RR0001": {"name": "Lighthouse International Ministries", "designationCode": "C", "categoryCode": "01", "address": "3166 7TH AVE E", "city": "VANCOUVER", "province": "BC", "country": "CA", "postalCode": "V5M1V7", "twitter": "None", "instagram": "None", "facebook": "None", "youtube": "None", "website": "None", "summary": "None", "logo": "None", "latitude": 49.26382254674263, "longitude": -123.03744227699232}, "841759681RR0001": {"name": "Lighthouse Presbyterian Church", "designationCode": "C", "categoryCode": "39", "address": "2642 QUADRA STREET            POST OFFICE BOX 42026", "city": "VICTORIA", "province": "BC", "country": "CA", "postalCode": "V8T4E4", "twitter": "None", "instagram": "None", "facebook": "None", "youtube": "None", "website": "None", "summary": "None", "logo": "None", "latitude": 48.43881739826314, "longitude": -123.35902871873718}, "813118940RR0001": {"name": "Lighthouse Productions Inc.", "designationCode": "C", "categoryCode": "22", "address": "BOX 218", "city": "GRAND BANK", "province": "NL", "country": "CA", "postalCode": "A0E1W0", "twitter": "None", "instagram": "None", "facebook": "None", "youtube": "None", "website": "None", "summary": "None", "logo": "None", "latitude": 47.09441400000006, "longitude": -55.75790149999993}, "106693047RR0063": {"name": "Lighthouse Seventh-day Adventist Company", "designationCode": "C", "categoryCode": "41", "address": "5816 HIGHWAY 2A", "city": "LACOMBE", "province": "AB", "country": "CA", "postalCode": "T4L2G5", "twitter": "None", "instagram": "None", "facebook": "None", "youtube": "None", "website": "None", "summary": "None", "logo": "None", "latitude": 52.474063600197404, "longitude": -113.71692568401835}, "814883930RR0001": {"name": "Lights Out Canada Educational Program Incorporated", "designationCode": "C", "categoryCode": "59", "address": "821 GEORGIA PLACE", "city": "PARKSVILLE", "province": "BC", "country": "CA", "postalCode": "V9P1S1", "twitter": "None", "instagram": "None", "facebook": "None", "youtube": "None", "website": "None", "summary": "None", "logo": "None", "latitude": 49.32465773441346, "longitude": -124.28409224410512}, "837290899RR0001": {"name": "Lightway Church", "designationCode": "C", "categoryCode": "39", "address": "75 CENTENNIAL PKY NORTH       P.O. BOX 36566", "city": "HAMILTON", "province": "ON", "country": "CA", "postalCode": "L8E5B2", "twitter": "None", "instagram": "None", "facebook": "None", "youtube": "None", "website": "None", "summary": "None", "logo": "None", "latitude": 43.23056229115926, "longitude": -79.76327402642926}, "827337171RR0001": {"name": "LightPoints of The Christian and Missionary Alliance in Canada", "designationCode": "C", "categoryCode": "39", "address": "15 HALDIMAND ROAD 66", "city": "CALEDONIA", "province": "ON", "country": "CA", "postalCode": "N3W1N7", "twitter": "None", "instagram": "None", "facebook": "None", "youtube": "None", "website": "None", "summary": "None", "logo": "None", "latitude": 43.98177300000006, "longitude": -77.90372449999994}, "123613523RR0080": {"name": "Ligue de cadets de l'air, escadron 682 laurentides", "designationCode": "C", "categoryCode": "29", "address": "655 RUE FILLION               C.P 175", "city": "SAINT-JEROME", "province": "QC", "country": "CA", "postalCode": "J7Z5T7", "twitter": "None", "instagram": "None", "facebook": "None", "youtube": "None", "website": "None", "summary": "None", "logo": "None", "latitude": 45.78851576106505, "longitude": -73.98863212963802}, "123613523RR0069": {"name": "Ligue des cadets de l'air du Canada - Escadron 67 Sherbrooke", "designationCode": "B", "categoryCode": "29", "address": "64 RUE BELVEDERE S", "city": "SHERBROOKE", "province": "QC", "country": "CA", "postalCode": "J1H4B4", "twitter": "None", "instagram": "None", "facebook": "None", "youtube": "None", "website": "None", "summary": "None", "logo": "None", "latitude": 45.39780795089145, "longitude": -71.89609514579642}, "123613523RR0056": {"name": "Ligue des cadets de l'air du Canada - Escadron 725 Massey-Vanier", "designationCode": "C", "categoryCode": "29", "address": "225 MERCIER STREET", "city": "COWANSVILLE", "province": "QC", "country": "CA", "postalCode": "J2K5C3", "twitter": "None", "instagram": "None", "facebook": "None", "youtube": "None", "website": "None", "summary": "None", "logo": "None", "latitude": 45.207419692147106, "longitude": -72.77634291618828}, "123613523RR0079": {"name": "Ligue des cadets de l'air du Canada -Escadron 801 Montr\u00e9al-Nord", "designationCode": "C", "categoryCode": "29", "address": "C.P. 20007                    SUCCURSALE CENTRE FOREST", "city": "MONTR\u00c9AL-NORD", "province": "QC", "country": "CA", "postalCode": "H1H5W5", "twitter": "None", "instagram": "None", "facebook": "None", "youtube": "None", "website": "None", "summary": "None", "logo": "None", "latitude": 45.58916091176658, "longitude": -73.63026862700167}, "871948535RR0001": {"name": "Lii Michif Otipemisiwak Family & Community Services Society", "designationCode": "C", "categoryCode": "09", "address": "707 TRANQUILLE ROAD", "city": "KAMLOOPS", "province": "BC", "country": "CA", "postalCode": "V2B3J1", "twitter": "None", "instagram": "None", "facebook": "None", "youtube": "None", "website": "None", "summary": "None", "logo": "None", "latitude": 50.69787672641244, "longitude": -120.36214840513594}, "843003815RR0001": {"name": "Lillooet Community Christmas Hamper Society", "designationCode": "C", "categoryCode": "09", "address": "CORINNE MCDONALD              PO BOX 202 - 831 ORCHARD DRIVE", "city": "LILLOOET", "province": "BC", "country": "CA", "postalCode": "V0K1V0", "twitter": "None", "instagram": "None", "facebook": "None", "youtube": "None", "website": "None", "summary": "None", "logo": "None", "latitude": 50.68900797154141, "longitude": -121.93271608081038}, "801289216RR0001": {"name": "Lillooet Hospice Society", "designationCode": "C", "categoryCode": "01", "address": "143 16TH AVENUE               POST OFFICE BOX 2054", "city": "LILLOOET", "province": "BC", "country": "CA", "postalCode": "V0K1V0", "twitter": "None", "instagram": "None", "facebook": "None", "youtube": "None", "website": "None", "summary": "None", "logo": "None", "latitude": 50.68049739824751, "longitude": -121.93955999026937}, "888571668RR0001": {"name": "Lily of the Valley Ministries", "designationCode": "C", "categoryCode": "39", "address": "199 AUGSBURG RD               RR#5", "city": "EGANVILLE", "province": "ON", "country": "CA", "postalCode": "K0J1T0", "twitter": "None", "instagram": "None", "facebook": "None", "youtube": "None", "website": "None", "summary": "None", "logo": "None", "latitude": 45.5394367621329, "longitude": -77.11868707299898}, "802342535RR0001": {"name": "Limehouse Presbyterian Church Cemetery", "designationCode": "C", "categoryCode": "59", "address": "8 NORMAN AVE", "city": "ACTON", "province": "ON", "country": "CA", "postalCode": "L7J2R4", "twitter": "None", "instagram": "None", "facebook": "None", "youtube": "None", "website": "None", "summary": "None", "logo": "None", "latitude": 43.638730626983644, "longitude": -80.03604171790045}, "803037613RR0001": {"name": "Limestone Church of Christ", "designationCode": "C", "categoryCode": "39", "address": "P.O BOX 2107", "city": "KINGSTON", "province": "ON", "country": "CA", "postalCode": "K7L5J8", "twitter": "None", "instagram": "None", "facebook": "None", "youtube": "None", "website": "None", "summary": "None", "logo": "None", "latitude": 44.23153200000006, "longitude": -76.47933049999993}, "803468834RR0001": {"name": "LimeAid", "designationCode": "C", "categoryCode": "20", "address": "PO BOX 85022 RPO BRANT PLAZA", "city": "BURLINGTON", "province": "ON", "country": "CA", "postalCode": "L7R4K3", "twitter": "None", "instagram": "None", "facebook": "None", "youtube": "None", "website": "None", "summary": "None", "logo": "None", "latitude": 43.33391234479427, "longitude": -79.80987351719138}, "771779899RR0001": {"name": "Limmud Centre - Centre Limmud", "designationCode": "C", "categoryCode": "20", "address": "5120 AV DE COURTRAI", "city": "MONTREAL", "province": "QC", "country": "CA", "postalCode": "H3W1A7", "twitter": "None", "instagram": "None", "facebook": "None", "youtube": "None", "website": "None", "summary": "None", "logo": "None", "latitude": 45.49508332693759, "longitude": -73.64768835564679}, "834080772RR0001": {"name": "Linbrook School", "designationCode": "C", "categoryCode": "20", "address": "1079 LINBROOK ROAD", "city": "OAKVILLE", "province": "ON", "country": "CA", "postalCode": "L6J2L2", "twitter": "None", "instagram": "None", "facebook": "None", "youtube": "None", "website": "None", "summary": "None", "logo": "None", "latitude": 43.464389919239395, "longitude": -79.66781347697493}, "118801539RR0001": {"name": "Lincoln Seniors Club", "designationCode": "C", "categoryCode": "56", "address": "BOX 748", "city": "BEAMSVILLE", "province": "ON", "country": "CA", "postalCode": "L0R1B0", "twitter": "None", "instagram": "None", "facebook": "None", "youtube": "None", "website": "None", "summary": "None", "logo": "None", "latitude": 43.16732700000006, "longitude": -79.47640249999994}, "119020055RR0001": {"name": "Linden Care & Share Society", "designationCode": "C", "categoryCode": "56", "address": "BOX 184", "city": "LINDEN", "province": "AB", "country": "CA", "postalCode": "T0M1J0", "twitter": "None", "instagram": "None", "facebook": "None", "youtube": "None", "website": "None", "summary": "None", "logo": "None", "latitude": 51.59595000000007, "longitude": -113.49754999999999}, "809726482RR0001": {"name": "Lindsay Place Alumni Foundation", "designationCode": "C", "categoryCode": "21", "address": "100-H HYMUS", "city": "POINTE-CLAIRE", "province": "QC", "country": "CA", "postalCode": "H9R1E4", "twitter": "None", "instagram": "None", "facebook": "None", "youtube": "None", "website": "None", "summary": "None", "logo": "None", "latitude": 45.46961245798565, "longitude": -73.80389652527998}, "835224809RR0001": {"name": "Lindsey Villages", "designationCode": "C", "categoryCode": "01", "address": "33 CHURCH STREET N", "city": "AJAX", "province": "ON", "country": "CA", "postalCode": "L1T2W4", "twitter": "None", "instagram": "None", "facebook": "None", "youtube": "None", "website": "None", "summary": "None", "logo": "None", "latitude": 43.856058917854405, "longitude": -79.05620116732095}, "827192584RR0001": {"name": "Linked Through Love Foundation", "designationCode": "C", "categoryCode": "09", "address": "PO BOX 1187", "city": "TURNER VALLEY", "province": "AB", "country": "CA", "postalCode": "T0L2A0", "twitter": "None", "instagram": "None", "facebook": "None", "youtube": "None", "website": "None", "summary": "None", "logo": "None", "latitude": 50.663565, "longitude": -114.28559999999999}, "893308700RR0001": {"name": "Linklater Breakfast Club", "designationCode": "C", "categoryCode": "11", "address": "300 STONE STREET NORTH", "city": "GANANOQUE", "province": "ON", "country": "CA", "postalCode": "K7G1Y8", "twitter": "None", "instagram": "None", "facebook": "None", "youtube": "None", "website": "None", "summary": "None", "logo": "None", "latitude": 44.33156942214737, "longitude": -76.1651157785264}, "834973984RR0001": {"name": "Lion & Eagle Charitable Foundation", "designationCode": "C", "categoryCode": "23", "address": "4259 CLUBVIEW DRIVE", "city": "BURLINGTON", "province": "ON", "country": "CA", "postalCode": "L7M4X2", "twitter": "None", "instagram": "None", "facebook": "None", "youtube": "None", "website": "None", "summary": "None", "logo": "None", "latitude": 43.39481344353387, "longitude": -79.81102169357732}, "824359939RR0001": {"name": "Lion Air", "designationCode": "C", "categoryCode": "59", "address": "471 LOCUST STREET", "city": "BURLINGTON", "province": "ON", "country": "CA", "postalCode": "L7S1T9", "twitter": "None", "instagram": "None", "facebook": "None", "youtube": "None", "website": "None", "summary": "None", "logo": "None", "latitude": 43.32567336969815, "longitude": -79.79956551067582}, "119020923RR0001": {"name": "Lion's Head-Pike Bay Pastoral Charge", "designationCode": "C", "categoryCode": "44", "address": "54 MAIN STREET                P.O. BOX 122", "city": "LION'S HEAD", "province": "ON", "country": "CA", "postalCode": "N0H1W0", "twitter": "None", "instagram": "None", "facebook": "None", "youtube": "None", "website": "None", "summary": "None", "logo": "None", "latitude": 44.984762773847585, "longitude": -81.25326468521524}, "814717146RR0001": {"name": "Lion's Roar Foundation", "designationCode": "C", "categoryCode": "43", "address": "1660 HOLLIS STREET            SUITE 701", "city": "HALIFAX", "province": "NS", "country": "CA", "postalCode": "B3J1V7", "twitter": "None", "instagram": "None", "facebook": "None", "youtube": "None", "website": "None", "summary": "None", "logo": "None", "latitude": 44.64677391978765, "longitude": -63.572485792544214}, "810867747RR0001": {"name": "Lionel Murray Dauphinee Estate", "designationCode": "B", "categoryCode": "05", "address": "ROYAL TRUST CORPORATION #04043155 WELLINGTON ST W, 20TH FL", "city": "TORONTO", "province": "ON", "country": "CA", "postalCode": "M5V3K7", "twitter": "None", "instagram": "None", "facebook": "None", "youtube": "None", "website": "None", "summary": "None", "logo": "None", "latitude": 43.64596500000006, "longitude": -79.38562849999994}, "857321517RR0001": {"name": "Lions of Canada Fund for LCIF", "designationCode": "C", "categoryCode": "09", "address": "50 SOUTHERN COURT", "city": "SUNDERLAND", "province": "ON", "country": "CA", "postalCode": "L0C1H0", "twitter": "None", "instagram": "None", "facebook": "None", "youtube": "None", "website": "None", "summary": "None", "logo": "None", "latitude": 44.260830406082086, "longitude": -79.07081589078997}, "119020550RR0001": {"name": "Lions Children's Christmas Telethon", "designationCode": "C", "categoryCode": "09", "address": "PO BOX 884", "city": "NORTH BAY", "province": "ON", "country": "CA", "postalCode": "P1B8K1", "twitter": "None", "instagram": "None", "facebook": "None", "youtube": "None", "website": "None", "summary": "None", "logo": "None", "latitude": 46.30661700000006, "longitude": -79.45993249999994}, "890760440RR0001": {"name": "Lions Club of Toronto Central Charitable Trust", "designationCode": "A", "categoryCode": "65", "address": "157 ADELAIDE ST W             SUITE 423", "city": "TORONTO", "province": "ON", "country": "CA", "postalCode": "M5H4E7", "twitter": "None", "instagram": "None", "facebook": "None", "youtube": "None", "website": "None", "summary": "None", "logo": "None", "latitude": 43.64893585316531, "longitude": -79.38507597945643}, "107628331RR0001": {"name": "Lions Club of Winnipeg Senior Citizens Home", "designationCode": "C", "categoryCode": "01", "address": "320 SHERBROOK ST", "city": "WINNIPEG", "province": "MB", "country": "CA", "postalCode": "R3B2W6", "twitter": "None", "instagram": "None", "facebook": "None", "youtube": "None", "website": "None", "summary": "None", "logo": "None", "latitude": 49.88892790674591, "longitude": -97.15910271319724}, "833286768RR0001": {"name": "Lions Gate Baptist Church", "designationCode": "C", "categoryCode": "39", "address": "PO BOX 16068                  1199 LYNN VALLEY RD", "city": "NORTH VANCOUVER", "province": "BC", "country": "CA", "postalCode": "V7J3S9", "twitter": "None", "instagram": "None", "facebook": "None", "youtube": "None", "website": "None", "summary": "None", "logo": "None", "latitude": 49.335541659605774, "longitude": -123.04078107147872}, "897778213RR0001": {"name": "Lions Gate Sinfonia Society", "designationCode": "C", "categoryCode": "22", "address": "852-1641 LONSDALE AVE", "city": "NORTH VANCOUVER", "province": "BC", "country": "CA", "postalCode": "V7M2J5", "twitter": "None", "instagram": "None", "facebook": "None", "youtube": "None", "website": "None", "summary": "None", "logo": "None", "latitude": 49.323529833130316, "longitude": -123.07236431983682}, "808716757RR0001": {"name": "Lipa Green Centre for Jewish Community Services", "designationCode": "C", "categoryCode": "59", "address": "4600 BATHURST STREET          SUITE 500", "city": "TORONTO", "province": "ON", "country": "CA", "postalCode": "M2R3V2", "twitter": "None", "instagram": "None", "facebook": "None", "youtube": "None", "website": "None", "summary": "None", "logo": "None", "latitude": 43.764549213428396, "longitude": -79.4407190577642}, "845597202RR0001": {"name": "Lire et faire lire Acadie", "designationCode": "C", "categoryCode": "21", "address": "350 RUE LAVOIE", "city": "DIEPPE", "province": "NB", "country": "CA", "postalCode": "E1A6R8", "twitter": "None", "instagram": "None", "facebook": "None", "youtube": "None", "website": "None", "summary": "None", "logo": "None", "latitude": 46.082739351116494, "longitude": -64.72643858840667}, "872749536RR0001": {"name": "Lisaard and Innisfree Hospice", "designationCode": "C", "categoryCode": "10", "address": "990 SPEEDVILLE RD", "city": "CAMBRIDGE", "province": "ON", "country": "CA", "postalCode": "N3H4R6", "twitter": "None", "instagram": "None", "facebook": "None", "youtube": "None", "website": "None", "summary": "None", "logo": "None", "latitude": 43.443138520439526, "longitude": -80.35982046266541}, "862795051RR0001": {"name": "Listen to Learn International", "designationCode": "C", "categoryCode": "47", "address": "19 SANTAS VILLAGE RD", "city": "BRACEBRIDGE", "province": "ON", "country": "CA", "postalCode": "P1L1C7", "twitter": "None", "instagram": "None", "facebook": "None", "youtube": "None", "website": "None", "summary": "None", "logo": "None", "latitude": 45.031775048588955, "longitude": -79.31826057022903}, "829661180RR0001": {"name": "Lite the Nite Ministries", "designationCode": "C", "categoryCode": "09", "address": "164 FOREST GLEN CRESCENT,", "city": "KITCHENER", "province": "ON", "country": "CA", "postalCode": "N2N1C8", "twitter": "None", "instagram": "None", "facebook": "None", "youtube": "None", "website": "None", "summary": "None", "logo": "None", "latitude": 43.420436466818735, "longitude": -80.51854402553522}, "830999959RR0001": {"name": "Literacy & Evangelism International", "designationCode": "C", "categoryCode": "47", "address": "879 BUR OAK AVE", "city": "MARKHAM", "province": "ON", "country": "CA", "postalCode": "L6E1W8", "twitter": "None", "instagram": "None", "facebook": "None", "youtube": "None", "website": "None", "summary": "None", "logo": "None", "latitude": 43.89722498719197, "longitude": -79.28098021574576}, "810851741RR0001": {"name": "Literacy and Learning Day Society of Edmonton", "designationCode": "C", "categoryCode": "21", "address": "714 EVERGREEN COMMUNITY", "city": "EDMONTON", "province": "AB", "country": "CA", "postalCode": "T5Y4M2", "twitter": "None", "instagram": "None", "facebook": "None", "youtube": "None", "website": "None", "summary": "None", "logo": "None", "latitude": 53.63109487496818, "longitude": -113.34858721583463}, "801701699RR0001": {"name": "Literacy Alliance of the Shuswap Society", "designationCode": "C", "categoryCode": "21", "address": "POST OFFICE BOX 54", "city": "SALMON ARM", "province": "BC", "country": "CA", "postalCode": "V1E4N2", "twitter": "None", "instagram": "None", "facebook": "None", "youtube": "None", "website": "None", "summary": "None", "logo": "None", "latitude": 50.70318000000006, "longitude": -119.26884049999992}, "886062348RR0001": {"name": "Literacy Haida Gwaii Society", "designationCode": "C", "categoryCode": "21", "address": "BOX 235", "city": "QUEEN CHARLOTTE", "province": "BC", "country": "CA", "postalCode": "V0T1S0", "twitter": "None", "instagram": "None", "facebook": "None", "youtube": "None", "website": "None", "summary": "None", "logo": "None", "latitude": 53.50199672573152, "longitude": -132.2619050828624}, "858694268RR0001": {"name": "Literacy Now Cowichan Society", "designationCode": "C", "categoryCode": "21", "address": "213B 80 STATION STREET", "city": "DUNCAN", "province": "BC", "country": "CA", "postalCode": "V9L1M4", "twitter": "None", "instagram": "None", "facebook": "None", "youtube": "None", "website": "None", "summary": "None", "logo": "None", "latitude": 48.77764148845881, "longitude": -123.7080920553696}, "897397154RR0001": {"name": "Literacy Society of the North Okanagan", "designationCode": "C", "categoryCode": "09", "address": "3104 37TH AVE", "city": "VERNON", "province": "BC", "country": "CA", "postalCode": "V1T2Y2", "twitter": "None", "instagram": "None", "facebook": "None", "youtube": "None", "website": "None", "summary": "None", "logo": "None", "latitude": 50.26880453952926, "longitude": -119.27292333527612}, "830918298RR0001": {"name": "Literary Prizes Foundation", "designationCode": "B", "categoryCode": "05", "address": "130 KING ST WEST 20TH FLOOR", "city": "TORONTO", "province": "ON", "country": "CA", "postalCode": "M5X1K1", "twitter": "None", "instagram": "None", "facebook": "None", "youtube": "None", "website": "None", "summary": "None", "logo": "None", "latitude": 43.64798216515656, "longitude": -79.38336717805407}, "848431490RR0001": {"name": "Literary Review of Canada", "designationCode": "C", "categoryCode": "21", "address": "804-170 BLOOR STREET WEST", "city": "TORONTO", "province": "ON", "country": "CA", "postalCode": "M5S1T9", "twitter": "None", "instagram": "None", "facebook": "None", "youtube": "None", "website": "None", "summary": "None", "logo": "None", "latitude": 43.66870317236992, "longitude": -79.39439651041602}, "107910259RR0062": {"name": "Lithuanian Martyrs Parish", "designationCode": "C", "categoryCode": "38", "address": "494 ISABELLA AVENUE", "city": "MISSISSAUGA", "province": "ON", "country": "CA", "postalCode": "L5B2G2", "twitter": "None", "instagram": "None", "facebook": "None", "youtube": "None", "website": "None", "summary": "None", "logo": "None", "latitude": 43.5625118398351, "longitude": -79.61743061639473}, "804406015RR0001": {"name": "Little Angels Unlimited Foundation", "designationCode": "B", "categoryCode": "03", "address": "705, 10010 - 106 STREET", "city": "EDMONTON", "province": "AB", "country": "CA", "postalCode": "T5J3L8", "twitter": "None", "instagram": "None", "facebook": "None", "youtube": "None", "website": "None", "summary": "None", "logo": "None", "latitude": 53.53914536081135, "longitude": -113.50298770376219}, "819110321RR0001": {"name": "Little Blue Schoolhouse Support Services", "designationCode": "C", "categoryCode": "20", "address": "454 MAPLEVIEW DR W", "city": "BARRIE", "province": "ON", "country": "CA", "postalCode": "L4N9G4", "twitter": "None", "instagram": "None", "facebook": "None", "youtube": "None", "website": "None", "summary": "None", "logo": "None", "latitude": 44.327241197905145, "longitude": -79.72136692951118}, "103348561RR0001": {"name": "Little Bo-Peep Early Learning Center Inc.", "designationCode": "C", "categoryCode": "01", "address": "906 COTTONWOOD RD", "city": "WINNIPEG", "province": "MB", "country": "CA", "postalCode": "R2J1G2", "twitter": "None", "instagram": "None", "facebook": "None", "youtube": "None", "website": "None", "summary": "None", "logo": "None", "latitude": 49.860868614981094, "longitude": -97.07997752579503}, "831409016RR0001": {"name": "Little Britain Community Foundation Inc.", "designationCode": "C", "categoryCode": "03", "address": "44 OSTERMANN ROAD", "city": "LOCKPORT", "province": "MB", "country": "CA", "postalCode": "R1A3L7", "twitter": "None", "instagram": "None", "facebook": "None", "youtube": "None", "website": "None", "summary": "None", "logo": "None", "latitude": 50.116948254533035, "longitude": -97.0015602298498}, "107629370RR0001": {"name": "Little Britain United Church", "designationCode": "C", "categoryCode": "44", "address": "P.O. BOX 64", "city": "LITTLE BRITAIN", "province": "ON", "country": "CA", "postalCode": "K0M2C0", "twitter": "None", "instagram": "None", "facebook": "None", "youtube": "None", "website": "None", "summary": "None", "logo": "None", "latitude": 44.31084498786333, "longitude": -78.80555916917908}, "119276400RR0001": {"name": "Little Current United Church", "designationCode": "C", "categoryCode": "44", "address": "BOX 641", "city": "LITTLE CURRENT", "province": "ON", "country": "CA", "postalCode": "P0P1K0", "twitter": "None", "instagram": "None", "facebook": "None", "youtube": "None", "website": "None", "summary": "None", "logo": "None", "latitude": 45.82642761199063, "longitude": -82.15772370619678}, "828190330RR0001": {"name": "Little Explorers Daycare Inc.", "designationCode": "C", "categoryCode": "01", "address": "PO BOX 940", "city": "TISDALE", "province": "SK", "country": "CA", "postalCode": "S0E1T0", "twitter": "None", "instagram": "None", "facebook": "None", "youtube": "None", "website": "None", "summary": "None", "logo": "None", "latitude": 52.84785000000005, "longitude": -104.04749999999996}, "823219126RR0001": {"name": "Little Feet Preschool Association of Airdrie", "designationCode": "C", "categoryCode": "20", "address": "PO BOX 1002", "city": "CROSSFIELD", "province": "AB", "country": "CA", "postalCode": "T0M0S0", "twitter": "None", "instagram": "None", "facebook": "None", "youtube": "None", "website": "None", "summary": "None", "logo": "None", "latitude": 51.42954000000003, "longitude": -114.02704999999997}, "847068517RR0001": {"name": "Little Flower Academy Foundation", "designationCode": "A", "categoryCode": "23", "address": "4195 ALEXANDRA ST", "city": "VANCOUVER", "province": "BC", "country": "CA", "postalCode": "V6J4C6", "twitter": "None", "instagram": "None", "facebook": "None", "youtube": "None", "website": "None", "summary": "None", "logo": "None", "latitude": 49.24840523036527, "longitude": -123.14155348063892}, "821041712RR0001": {"name": "Little Flowers Community Inc.", "designationCode": "C", "categoryCode": "39", "address": "443 FURBY STREET", "city": "WINNIPEG", "province": "MB", "country": "CA", "postalCode": "R3B2V7", "twitter": "None", "instagram": "None", "facebook": "None", "youtube": "None", "website": "None", "summary": "None", "logo": "None", "latitude": 49.89206478934156, "longitude": -97.15735766691692}, "847922101RR0001": {"name": "Little Footprints, Big Steps International Development Organization", "designationCode": "C", "categoryCode": "09", "address": "259 CRANBROOK ST", "city": "KITCHENER", "province": "ON", "country": "CA", "postalCode": "N2P0B5", "twitter": "None", "instagram": "None", "facebook": "None", "youtube": "None", "website": "None", "summary": "None", "logo": "None", "latitude": 43.37665277655962, "longitude": -80.43726812738765}, "837902105RR0001": {"name": "Little Forest", "designationCode": "C", "categoryCode": "35", "address": "1106 - 662 SHEPPARD AVE E", "city": "NORTH YORK", "province": "ON", "country": "CA", "postalCode": "M2K3E6", "twitter": "None", "instagram": "None", "facebook": "None", "youtube": "None", "website": "None", "summary": "None", "logo": "None", "latitude": 43.76901948474339, "longitude": -79.37750481865483}, "856280110RR0001": {"name": "Little Harbour Walking and Bicycling Trails Society", "designationCode": "C", "categoryCode": "56", "address": "5733 LITTLE HARBOUR ROAD      RR 1", "city": "NEW GLASGOW", "province": "NS", "country": "CA", "postalCode": "B2H5C4", "twitter": "None", "instagram": "None", "facebook": "None", "youtube": "None", "website": "None", "summary": "None", "logo": "None", "latitude": 45.64258443883067, "longitude": -62.514024359426365}, "856514377RR0001": {"name": "Little House Alcohol and Drug Addiction Recovery Society", "designationCode": "C", "categoryCode": "09", "address": "5061 12 AVE", "city": "DELTA", "province": "BC", "country": "CA", "postalCode": "V4M2A7", "twitter": "None", "instagram": "None", "facebook": "None", "youtube": "None", "website": "None", "summary": "None", "logo": "None", "latitude": 49.024727453257384, "longitude": -123.0836307485429}, "771833522RR0001": {"name": "Little Lakers Learning Centre Society", "designationCode": "C", "categoryCode": "01", "address": "1680B SANTA ROSA RD", "city": "CHRISTINA LAKE", "province": "BC", "country": "CA", "postalCode": "V0H1E3", "twitter": "None", "instagram": "None", "facebook": "None", "youtube": "None", "website": "None", "summary": "None", "logo": "None", "latitude": 49.044001543601425, "longitude": -118.20463404853535}, "810140632RR0001": {"name": "Little Memories Child Care Co-operative", "designationCode": "C", "categoryCode": "01", "address": "3128 DEWDNEY AVE", "city": "REGINA", "province": "SK", "country": "CA", "postalCode": "S4T0Y5", "twitter": "None", "instagram": "None", "facebook": "None", "youtube": "None", "website": "None", "summary": "None", "logo": "None", "latitude": 50.455113504327834, "longitude": -104.62611052553522}, "890275241RR0001": {"name": "Little Miracles Trust Fund", "designationCode": "C", "categoryCode": "09", "address": "8 BASINVIEW DR", "city": "DARTMOUTH", "province": "NS", "country": "CA", "postalCode": "B3B1G4", "twitter": "None", "instagram": "None", "facebook": "None", "youtube": "None", "website": "None", "summary": "None", "logo": "None", "latitude": 44.70250437217965, "longitude": -63.61156584199855}, "802894105RR0001": {"name": "Little Mutts Rescue Society", "designationCode": "C", "categoryCode": "54", "address": "POST OFFICE BOX 2101          STATION MAIN", "city": "COCHRANE", "province": "AB", "country": "CA", "postalCode": "T4C1B8", "twitter": "None", "instagram": "None", "facebook": "None", "youtube": "None", "website": "None", "summary": "None", "logo": "None", "latitude": 51.19089900000006, "longitude": -114.46804249999994}, "738846328RR0001": {"name": "Little Narrows Presbyterian Cemetery Society", "designationCode": "C", "categoryCode": "59", "address": "10797 TRANS-CANADA HIGHWAY    PO BOX 352", "city": "ABERDEEN", "province": "NS", "country": "CA", "postalCode": "B0E3M0", "twitter": "None", "instagram": "None", "facebook": "None", "youtube": "None", "website": "None", "summary": "None", "logo": "None", "latitude": 46.070988043325755, "longitude": -60.91198042574326}, "877508473RR0001": {"name": "Little Pear Garden Dance Company", "designationCode": "C", "categoryCode": "22", "address": "476 PARLIAMENT ST.            2ND FLOOR", "city": "TORONTO", "province": "ON", "country": "CA", "postalCode": "M4X1P2", "twitter": "None", "instagram": "None", "facebook": "None", "youtube": "None", "website": "None", "summary": "None", "logo": "None", "latitude": 43.66447262891686, "longitude": -79.3680932184487}, "817208812RR0001": {"name": "Little RES Q", "designationCode": "C", "categoryCode": "54", "address": "31021 HIGHWAY 48", "city": "PEFFERLAW", "province": "ON", "country": "CA", "postalCode": "L0E1N0", "twitter": "None", "instagram": "None", "facebook": "None", "youtube": "None", "website": "None", "summary": "None", "logo": "None", "latitude": 44.33673341972957, "longitude": -79.19063569954928}, "822445367RR0001": {"name": "Little Treasures Dog Rescue Society", "designationCode": "B", "categoryCode": "54", "address": "10729 RIVER ROAD", "city": "DELTA", "province": "BC", "country": "CA", "postalCode": "V4C2R8", "twitter": "None", "instagram": "None", "facebook": "None", "youtube": "None", "website": "None", "summary": "None", "logo": "None", "latitude": 49.16543930004606, "longitude": -122.92582525604473}, "764439295RR0001": {"name": "Liu Fu Yu Charity Foundation", "designationCode": "B", "categoryCode": "03", "address": "PO BOX 36076                  RPO YK MILLS LESLIE", "city": "TORONTO", "province": "ON", "country": "CA", "postalCode": "M3B0A3", "twitter": "None", "instagram": "None", "facebook": "None", "youtube": "None", "website": "None", "summary": "None", "logo": "None", "latitude": 43.74913200000006, "longitude": -79.36201249999993}, "840396097RR0001": {"name": "Liuna, Local 183 Charitable Foundation", "designationCode": "A", "categoryCode": "03", "address": "1263 WILSON AVENUE            SUITE 200", "city": "TORONTO", "province": "ON", "country": "CA", "postalCode": "M3M3G3", "twitter": "None", "instagram": "None", "facebook": "None", "youtube": "None", "website": "None", "summary": "None", "logo": "None", "latitude": 43.724468976946284, "longitude": -79.49167406466044}, "804057776RR0001": {"name": "Live for the Cause/ Monton pour la cause", "designationCode": "B", "categoryCode": "03", "address": "217 MEREDITH STREET", "city": "DORVAL", "province": "QC", "country": "CA", "postalCode": "H9S2Y8", "twitter": "None", "instagram": "None", "facebook": "None", "youtube": "None", "website": "None", "summary": "None", "logo": "None", "latitude": 45.44273788201875, "longitude": -73.75788718844142}, "860386911RR0001": {"name": "Live Biennial of Performance Art Society", "designationCode": "C", "categoryCode": "22", "address": "236 PENDER ST E", "city": "VANCOUVER", "province": "BC", "country": "CA", "postalCode": "V6A1T7", "twitter": "None", "instagram": "None", "facebook": "None", "youtube": "None", "website": "None", "summary": "None", "logo": "None", "latitude": 49.280316539529245, "longitude": -123.09876386081135}, "861232890RR0001": {"name": "Live Different", "designationCode": "C", "categoryCode": "53", "address": "B3 - 15 WELLINGTON ST N", "city": "HAMILTON", "province": "ON", "country": "CA", "postalCode": "L8R1M7", "twitter": "None", "instagram": "None", "facebook": "None", "youtube": "None", "website": "None", "summary": "None", "logo": "None", "latitude": 43.25417437176756, "longitude": -79.85897736010106}, "898213376RR0001": {"name": "Livelihood Infrastructure Food Education for Health (L.I.F.E. For Health)", "designationCode": "C", "categoryCode": "59", "address": "505 - 105 MCCAUL ST", "city": "TORONTO", "province": "ON", "country": "CA", "postalCode": "M5T2X4", "twitter": "None", "instagram": "None", "facebook": "None", "youtube": "None", "website": "None", "summary": "None", "logo": "None", "latitude": 43.65400292506776, "longitude": -79.39126874060838}, "896222775RR0001": {"name": "LiveWorkPlay", "designationCode": "C", "categoryCode": "59", "address": "300 - 2197 RIVERSIDE DR", "city": "OTTAWA", "province": "ON", "country": "CA", "postalCode": "K1H7X3", "twitter": "None", "instagram": "None", "facebook": "None", "youtube": "None", "website": "None", "summary": "None", "logo": "None", "latitude": 45.38886384791383, "longitude": -75.6755593222917}, "838107621RR0001": {"name": "Living by Faith Christian Center Inc.", "designationCode": "C", "categoryCode": "39", "address": "90 HIGH RIDGE ROAD", "city": "WINNIPEG", "province": "MB", "country": "CA", "postalCode": "R3X1H5", "twitter": "None", "instagram": "None", "facebook": "None", "youtube": "None", "website": "None", "summary": "None", "logo": "None", "latitude": 49.83954848124545, "longitude": -97.07689327990651}, "826692519RR0001": {"name": "Living for Jesus Outreach Ministries", "designationCode": "C", "categoryCode": "09", "address": "4269 MCRAE PARK RD", "city": "RAMARA", "province": "ON", "country": "CA", "postalCode": "L3V0S2", "twitter": "None", "instagram": "None", "facebook": "None", "youtube": "None", "website": "None", "summary": "None", "logo": "None", "latitude": 44.573252963067816, "longitude": -79.32004494613092}, "826256539RR0001": {"name": "Living Edge Community Church", "designationCode": "C", "categoryCode": "39", "address": "P.O. BOX 46020 QUADRA", "city": "VICTORIA", "province": "BC", "country": "CA", "postalCode": "V8T5G7", "twitter": "None", "instagram": "None", "facebook": "None", "youtube": "None", "website": "None", "summary": "None", "logo": "None", "latitude": 48.438045215190826, "longitude": -123.35877681575275}, "812862977RR0001": {"name": "Living Faith Baptist Church", "designationCode": "C", "categoryCode": "39", "address": "131 ELM RIDGE DR", "city": "TORONTO", "province": "ON", "country": "CA", "postalCode": "M6B1A6", "twitter": "None", "instagram": "None", "facebook": "None", "youtube": "None", "website": "None", "summary": "None", "logo": "None", "latitude": 43.703149842056796, "longitude": -79.43675698666979}, "847603784RR0001": {"name": "Living Faith Center Inc.", "designationCode": "C", "categoryCode": "39", "address": "67B MARR RD", "city": "ROTHESAY", "province": "NB", "country": "CA", "postalCode": "E2E3J9", "twitter": "None", "instagram": "None", "facebook": "None", "youtube": "None", "website": "None", "summary": "None", "logo": "None", "latitude": 45.39203265124093, "longitude": -65.97152151404691}, "831604624RR0001": {"name": "Living Faith Church A.K.A. Winners' Chapel International", "designationCode": "C", "categoryCode": "39", "address": "321 REXDALE BLVD              UNIT 5", "city": "ETOBICOKE", "province": "ON", "country": "CA", "postalCode": "M9W1R8", "twitter": "None", "instagram": "None", "facebook": "None", "youtube": "None", "website": "None", "summary": "None", "logo": "None", "latitude": 43.71456489255034, "longitude": -79.5844086848634}, "834192932RR0001": {"name": "Living Faith Lutheran Church", "designationCode": "C", "categoryCode": "45", "address": "P.O. BOX 512", "city": "RED DEER", "province": "AB", "country": "CA", "postalCode": "T4N5G1", "twitter": "None", "instagram": "None", "facebook": "None", "youtube": "None", "website": "None", "summary": "None", "logo": "None", "latitude": 52.26852300000006, "longitude": -113.80901299999994}, "835907031RR0001": {"name": "Living Faith Worship Centre", "designationCode": "C", "categoryCode": "39", "address": "94 DONLEVY CRES,", "city": "WHITBY", "province": "ON", "country": "CA", "postalCode": "L1R0C2", "twitter": "None", "instagram": "None", "facebook": "None", "youtube": "None", "website": "None", "summary": "None", "logo": "None", "latitude": 43.921951911449106, "longitude": -78.95214600929083}, "755479094RR0001": {"name": "Living For Christ Church Livendo Para Cristo Viviendo Para Cristo", "designationCode": "B", "categoryCode": "39", "address": "111 CLAREMONT ST,", "city": "TORONTO", "province": "ON", "country": "CA", "postalCode": "M6J2M7", "twitter": "None", "instagram": "None", "facebook": "None", "youtube": "None", "website": "None", "summary": "None", "logo": "None", "latitude": 43.649423287264106, "longitude": -79.4108497488027}}