{"893191700RR0001": {"name": "PUBNICO LIGHT-MONUMENT SOCIETY", "designationCode": "C", "categoryCode": "52", "address": "RR1", "city": "LOWER EAST PUBNICO", "province": "NS", "country": "CA", "postalCode": "B0W2A0", "twitter": "None", "instagram": "None", "facebook": "None", "youtube": "None", "website": "None", "summary": "None", "logo": "None", "latitude": 43.605976516083196, "longitude": -65.77456703803126}, "848770780RR0001": {"name": "PUCKS POWERPLAY FOUNDATION", "designationCode": "C", "categoryCode": "09", "address": "9492 205B STREET", "city": "LANGLEY", "province": "BC", "country": "CA", "postalCode": "V1M1H9", "twitter": "None", "instagram": "None", "facebook": "None", "youtube": "None", "website": "None", "summary": "None", "logo": "None", "latitude": 49.174986855675456, "longitude": -122.65307243629184}, "840584544RR0001": {"name": "PUEBLO PARTISANS SOCIETY", "designationCode": "C", "categoryCode": "09", "address": "327 MACHLEARY ST", "city": "NANAIMO", "province": "BC", "country": "CA", "postalCode": "V9R2G8", "twitter": "None", "instagram": "None", "facebook": "None", "youtube": "None", "website": "None", "summary": "None", "logo": "None", "latitude": 49.162948828726606, "longitude": -123.94789565119117}, "851998773RR0001": {"name": "PUENTE THEATRE SOCIETY", "designationCode": "C", "categoryCode": "22", "address": "643 CORNWALL ST", "city": "VICTORIA", "province": "BC", "country": "CA", "postalCode": "V8V4L2", "twitter": "None", "instagram": "None", "facebook": "None", "youtube": "None", "website": "None", "summary": "None", "logo": "None", "latitude": 48.41827369747245, "longitude": -123.34895458477132}, "870371986RR0001": {"name": "PUGWASH AND AREA COMMUNITY ACCESS CENTRE", "designationCode": "C", "categoryCode": "59", "address": "P.O.BOX 347", "city": "PUGWASH", "province": "NS", "country": "CA", "postalCode": "B0K1L0", "twitter": "None", "instagram": "None", "facebook": "None", "youtube": "None", "website": "None", "summary": "None", "logo": "None", "latitude": 45.80128373751312, "longitude": -63.63643739508734}, "848996211RR0001": {"name": "PUGWASH JUNCTION GOSPEL HALL SOCIETY", "designationCode": "C", "categoryCode": "39", "address": "6120 THOMSON ROAD", "city": "PUGWASH JUNCTION", "province": "NS", "country": "CA", "postalCode": "B0K1M0", "twitter": "None", "instagram": "None", "facebook": "None", "youtube": "None", "website": "None", "summary": "None", "logo": "None"}, "132409756RR0001": {"name": "PUGWASH MEMORIAL BAPTIST CHURCH", "designationCode": "C", "categoryCode": "31", "address": "PO BOX 243", "city": "PUGWASH", "province": "NS", "country": "CA", "postalCode": "B0K1L0", "twitter": "None", "instagram": "None", "facebook": "None", "youtube": "None", "website": "None", "summary": "None", "logo": "None", "latitude": 45.80128373751312, "longitude": -63.63643739508734}, "890493349RR0001": {"name": "PUGWASH PARK COMMISSIONERS", "designationCode": "C", "categoryCode": "23", "address": "1123 WOLF BAY ROAD            RR #4", "city": "HUNTSVILLE", "province": "ON", "country": "CA", "postalCode": "P1H2J6", "twitter": "None", "instagram": "None", "facebook": "None", "youtube": "None", "website": "None", "summary": "None", "logo": "None", "latitude": 45.3295709556233, "longitude": -79.07184098583308}, "107866287RR0001": {"name": "PUGWASH PASTORAL CHARGE UNITED CHURCH OF CANADA", "designationCode": "C", "categoryCode": "44", "address": "P O BOX 83", "city": "PUGWASH", "province": "NS", "country": "CA", "postalCode": "B0K1L0", "twitter": "None", "instagram": "None", "facebook": "None", "youtube": "None", "website": "None", "summary": "None", "logo": "None", "latitude": 45.80128373751312, "longitude": -63.63643739508734}, "119106201RR0001": {"name": "PUGWASH RIVER CEMETERY INC.", "designationCode": "C", "categoryCode": "59", "address": "4 - 30 PARADISE AVE", "city": "AMHERST", "province": "NS", "country": "CA", "postalCode": "B4H4W8", "twitter": "None", "instagram": "None", "facebook": "None", "youtube": "None", "website": "None", "summary": "None", "logo": "None", "latitude": 45.83466925036057, "longitude": -64.19031339177093}, "119106243RR0001": {"name": "PUGWASH RIVER UNITED CHURCH", "designationCode": "C", "categoryCode": "44", "address": "RR 2", "city": "PUGWASH", "province": "NS", "country": "CA", "postalCode": "B0K1L0", "twitter": "None", "instagram": "None", "facebook": "None", "youtube": "None", "website": "None", "summary": "None", "logo": "None", "latitude": 45.80128373751312, "longitude": -63.63643739508734}, "107669848RR0006": {"name": "PUGWASH SEVENTH-DAY ADVENTIST CHURCH", "designationCode": "C", "categoryCode": "41", "address": "121 SALISBURY RD", "city": "MONCTON", "province": "NB", "country": "CA", "postalCode": "E1E1A6", "twitter": "None", "instagram": "None", "facebook": "None", "youtube": "None", "website": "None", "summary": "None", "logo": "None", "latitude": 46.0711640413756, "longitude": -64.82144086984238}, "857468300RR0001": {"name": "PUGWASH VOLUNTEER FIRE DEPT.", "designationCode": "C", "categoryCode": "59", "address": "PO BOX 372", "city": "PUGWASH", "province": "NS", "country": "CA", "postalCode": "B0K1L0", "twitter": "None", "instagram": "None", "facebook": "None", "youtube": "None", "website": "None", "summary": "None", "logo": "None", "latitude": 45.80128373751312, "longitude": -63.63643739508734}, "891060147RR0001": {"name": "PUISSANCE AGAPE INC.", "designationCode": "C", "categoryCode": "49", "address": "461 BEAUCHAMPS", "city": "TROIS-RIVI\u00c8RES", "province": "QC", "country": "CA", "postalCode": "G9B0P7", "twitter": "None", "instagram": "None", "facebook": "None", "youtube": "None", "website": "None", "summary": "None", "logo": "None", "latitude": 46.31387522111416, "longitude": -72.58250616053873}, "107954307RR0001": {"name": "PULAARVIK KABLU FRIENDSHIP CENTER", "designationCode": "C", "categoryCode": "09", "address": "P.O. BOX 429", "city": "RANKIN INLET", "province": "NU", "country": "CA", "postalCode": "X0C0G0", "twitter": "None", "instagram": "None", "facebook": "None", "youtube": "None", "website": "None", "summary": "None", "logo": "None", "latitude": 62.80714000000006, "longitude": -92.08334999999994}, "119106276RR0001": {"name": "PULFORD COMMUNITY LIVING SERVICES INC.", "designationCode": "C", "categoryCode": "01", "address": "5-1146 WAVERLEY ST", "city": "WINNIPEG", "province": "MB", "country": "CA", "postalCode": "R3T0P4", "twitter": "None", "instagram": "None", "facebook": "None", "youtube": "None", "website": "None", "summary": "None", "logo": "None", "latitude": 49.834816747213104, "longitude": -97.17925554643168}, "872050224RR0001": {"name": "PULMONARY HYPERTENSION ASSOCIATION OF CANADA", "designationCode": "A", "categoryCode": "11", "address": "917-750 WEST BROADWAY", "city": "VANCOUVER", "province": "BC", "country": "CA", "postalCode": "V5Z1H8", "twitter": "None", "instagram": "None", "facebook": "None", "youtube": "None", "website": "None", "summary": "None", "logo": "None", "latitude": 49.263295528420755, "longitude": -123.12102349570083}, "119106292RR0001": {"name": "PUMPHOUSE THEATRES SOCIETY", "designationCode": "C", "categoryCode": "22", "address": "2140 PUMPHOUSE AVE SW", "city": "CALGARY", "province": "AB", "country": "CA", "postalCode": "T3C3P5", "twitter": "None", "instagram": "None", "facebook": "None", "youtube": "None", "website": "None", "summary": "None", "logo": "None", "latitude": 51.04558544214889, "longitude": -114.108162803306}, "836199976RR0001": {"name": "PUNCTUATE! THEATRE SOCIETY", "designationCode": "C", "categoryCode": "22", "address": "1-10646,83 AVENUE", "city": "EDMONTON", "province": "AB", "country": "CA", "postalCode": "T6E2E2", "twitter": "None", "instagram": "None", "facebook": "None", "youtube": "None", "website": "None", "summary": "None", "logo": "None", "latitude": 53.519105522649696, "longitude": -113.50569247446477}, "119288918RR1414": {"name": "PUNJABI CONGREGATION OF JEHOVAH'S WITNESSES, ABBOTSFORD, BRITISH COLUMBIA", "designationCode": "C", "categoryCode": "61", "address": "31165 GARDNER AVE", "city": "ABBOTSFORD", "province": "BC", "country": "CA", "postalCode": "V2T5E1", "twitter": "None", "instagram": "None", "facebook": "None", "youtube": "None", "website": "None", "summary": "None", "logo": "None", "latitude": 49.053145493219326, "longitude": -122.36091258090484}, "119288918RR1416": {"name": "PUNJABI CONGREGATION OF JEHOVAH'S WITNESSES, SURREY, BRITISH COLUMBIA", "designationCode": "C", "categoryCode": "61", "address": "13690 112A AVENUE", "city": "SURREY", "province": "BC", "country": "CA", "postalCode": "V3R6N4", "twitter": "None", "instagram": "None", "facebook": "None", "youtube": "None", "website": "None", "summary": "None", "logo": "None", "latitude": 49.20688047792722, "longitude": -122.84294340409151}, "852854561RR0001": {"name": "PUNJABI HERITAGE FOUNDATION OF CANADA", "designationCode": "C", "categoryCode": "20", "address": "2954 ST. JOSEPH BOULEVARD     PO BOX 14513 RPO ST.JOSEPH", "city": "ORLEANS", "province": "ON", "country": "CA", "postalCode": "K1C0A2", "twitter": "None", "instagram": "None", "facebook": "None", "youtube": "None", "website": "None", "summary": "None", "logo": "None"}, "855793949RR0001": {"name": "PUNJABI MASIHI CHURCH SOCIETY", "designationCode": "C", "categoryCode": "36", "address": "14488-72 AVE", "city": "SURREY", "province": "BC", "country": "CA", "postalCode": "V3S2E7", "twitter": "None", "instagram": "None", "facebook": "None", "youtube": "None", "website": "None", "summary": "None", "logo": "None", "latitude": 49.133719499567306, "longitude": -122.820714}, "869914937RR0001": {"name": "PUNKY LAKE WILDERNESS CAMP SOCIETY", "designationCode": "C", "categoryCode": "09", "address": "253 4TH AVENUE NORTH", "city": "WILLIAMS LAKE", "province": "BC", "country": "CA", "postalCode": "V2G4T4", "twitter": "None", "instagram": "None", "facebook": "None", "youtube": "None", "website": "None", "summary": "None", "logo": "None", "latitude": 52.132970797939905, "longitude": -122.14203181755984}, "104347042RR0001": {"name": "PUPPETMONGERS THEATRE", "designationCode": "C", "categoryCode": "22", "address": "3 JERSEY AVENUE", "city": "TORONTO", "province": "ON", "country": "CA", "postalCode": "M6G3A2", "twitter": "None", "instagram": "None", "facebook": "None", "youtube": "None", "website": "None", "summary": "None", "logo": "None", "latitude": 43.658659813203364, "longitude": -79.41577778198398}, "847079563RR0001": {"name": "PURA VIDA FOUNDATION", "designationCode": "C", "categoryCode": "09", "address": "619 FRONT ST", "city": "NELSON", "province": "BC", "country": "CA", "postalCode": "V1L5V3", "twitter": "None", "instagram": "None", "facebook": "None", "youtube": "None", "website": "None", "summary": "None", "logo": "None", "latitude": 49.49476458356456, "longitude": -117.29424081416762}, "890817869RR0001": {"name": "PURE CLASS DANCE ARTS ASSOCIATION", "designationCode": "C", "categoryCode": "22", "address": "PO BOX 38118                  RPO CAPILANO", "city": "EDMONTON", "province": "AB", "country": "CA", "postalCode": "T6A3Y6", "twitter": "None", "instagram": "None", "facebook": "None", "youtube": "None", "website": "None", "summary": "None", "logo": "None", "latitude": 53.55443349205362, "longitude": -113.43801968520823}, "892020488RR0001": {"name": "PURE GRACE EVANGELICAL FELLOWSHIP", "designationCode": "C", "categoryCode": "39", "address": "4116 RAMSAY CRESCENT", "city": "EDMONTON", "province": "AB", "country": "CA", "postalCode": "T6H5S5", "twitter": "None", "instagram": "None", "facebook": "None", "youtube": "None", "website": "None", "summary": "None", "logo": "None", "latitude": 53.47901277987786, "longitude": -113.5823361542496}, "875280901RR0001": {"name": "PURE RIVER OF LIFE MINISTRIES", "designationCode": "C", "categoryCode": "39", "address": "2380 KEELE STREET", "city": "TORONTO", "province": "ON", "country": "CA", "postalCode": "M6M4A5", "twitter": "None", "instagram": "None", "facebook": "None", "youtube": "None", "website": "None", "summary": "None", "logo": "None", "latitude": 43.70676860560335, "longitude": -79.47764666613752}, "888590049RR0001": {"name": "PURITAN REFORMED CHURCH OF EDMONTON ALBERTA", "designationCode": "C", "categoryCode": "39", "address": "51152 RG. RD. 215", "city": "SHERWOOD PARK", "province": "AB", "country": "CA", "postalCode": "T8E1G7", "twitter": "None", "instagram": "None", "facebook": "None", "youtube": "None", "website": "None", "summary": "None", "logo": "None", "latitude": 53.39097033527614, "longitude": -113.07437907839375}, "845780618RR0001": {"name": "PURPLE HILLS ARTS AND HERITAGE SOCIETY", "designationCode": "C", "categoryCode": "22", "address": "10 CAROLINE ST E", "city": "CREEMORE", "province": "ON", "country": "CA", "postalCode": "L0M1G0", "twitter": "None", "instagram": "None", "facebook": "None", "youtube": "None", "website": "None", "summary": "None", "logo": "None", "latitude": 44.3265156855121, "longitude": -80.10450560828357}, "875220212RR0001": {"name": "PURSUIT OF EXCELLENCE TRAINING SOCIETY", "designationCode": "C", "categoryCode": "21", "address": "655 LAMBERT AVE", "city": "NANAIMO", "province": "BC", "country": "CA", "postalCode": "V9R3N9", "twitter": "None", "instagram": "None", "facebook": "None", "youtube": "None", "website": "None", "summary": "None", "logo": "None"}, "829549948RR0001": {"name": "PUSH INTERNATIONAL PERFORMING ARTS FESTIVAL SOCIETY", "designationCode": "C", "categoryCode": "22", "address": "110-750 HAMILTON ST", "city": "VANCOUVER", "province": "BC", "country": "CA", "postalCode": "V6B2R5", "twitter": "None", "instagram": "None", "facebook": "None", "youtube": "None", "website": "None", "summary": "None", "logo": "None", "latitude": 49.279332216453, "longitude": -123.11504688704757}, "877745810RR0001": {"name": "PUSHTIMARGIYA VAISHNAV SAMAJ OF CANADA", "designationCode": "C", "categoryCode": "48", "address": "58 CLARK AVE", "city": "THORNHILL", "province": "ON", "country": "CA", "postalCode": "L3T1S5", "twitter": "None", "instagram": "None", "facebook": "None", "youtube": "None", "website": "None", "summary": "None", "logo": "None", "latitude": 43.808342194586935, "longitude": -79.41691994783304}, "866559685RR0001": {"name": "PUSLINCH LAKE CONSERVATION ASSOCIATION", "designationCode": "C", "categoryCode": "59", "address": "5 EAGLE LANE", "city": "CAMBRIDGE", "province": "ON", "country": "CA", "postalCode": "N3C2V4", "twitter": "None", "instagram": "None", "facebook": "None", "youtube": "None", "website": "None", "summary": "None", "logo": "None", "latitude": 43.42543299750304, "longitude": -80.25470925445184}, "829004944RR0001": {"name": "PUTO ARANYAKA BUDDHIST MONASTERY", "designationCode": "C", "categoryCode": "35", "address": "16 ROUGECREST DRIVE", "city": "MARKHAM", "province": "ON", "country": "CA", "postalCode": "L3P3B6", "twitter": "None", "instagram": "None", "facebook": "None", "youtube": "None", "website": "None", "summary": "None", "logo": "None", "latitude": 43.87413528561933, "longitude": -79.25414778157995}, "822445334RR0001": {"name": "PVCA Animal Rescue Society", "designationCode": "C", "categoryCode": "54", "address": "15231 76 ST NW", "city": "EDMONTON", "province": "AB", "country": "CA", "postalCode": "T5C3M7", "twitter": "None", "instagram": "None", "facebook": "None", "youtube": "None", "website": "None", "summary": "None", "logo": "None", "latitude": 53.61472976019968, "longitude": -113.46028432234996}, "828176685RR0001": {"name": "PW Foundation for Music", "designationCode": "C", "categoryCode": "22", "address": "702 - 1717 BAYSHORE DRIVE", "city": "VANCOUVER", "province": "BC", "country": "CA", "postalCode": "V6G3H3", "twitter": "None", "instagram": "None", "facebook": "None", "youtube": "None", "website": "None", "summary": "None", "logo": "None", "latitude": 49.29267115739494, "longitude": -123.13244359293698}, "892736166RR0001": {"name": "PYETT FAMILY FOUNDATION", "designationCode": "B", "categoryCode": "03", "address": "GLENMORE P.O.BOX 30026", "city": "KELOWNA", "province": "BC", "country": "CA", "postalCode": "V1V2M4", "twitter": "None", "instagram": "None", "facebook": "None", "youtube": "None", "website": "None", "summary": "None", "logo": "None", "latitude": 49.90126938869537, "longitude": -119.45376115282615}, "119106623RR0001": {"name": "PYTHIAN CEREBRAL PALSY COMMITTEE", "designationCode": "C", "categoryCode": "19", "address": "530 AILSA AVENUE", "city": "PORT MOODY", "province": "BC", "country": "CA", "postalCode": "V3H1A6", "twitter": "None", "instagram": "None", "facebook": "None", "youtube": "None", "website": "None", "summary": "None", "logo": "None", "latitude": 49.27089750764605, "longitude": -122.89097342200935}, "895658888RR0001": {"name": "Q.B.M.A. RESEARCH AND EDUCATION FUND/FONDS DE RECHERCHE ET EDUCATION A.M.P.R.N.O.", "designationCode": "C", "categoryCode": "25", "address": "180 - 2021 AV ATWATER", "city": "MONTREAL", "province": "QC", "country": "CA", "postalCode": "H3H2P2", "twitter": "None", "instagram": "None", "facebook": "None", "youtube": "None", "website": "None", "summary": "None", "logo": "None"}, "805046216RR0001": {"name": "Q'Opthut Sul'hween (Gathering of Elders) Society", "designationCode": "C", "categoryCode": "56", "address": "700 CAPILANO RD", "city": "LANTZVILLE", "province": "BC", "country": "CA", "postalCode": "V0R2H0", "twitter": "None", "instagram": "None", "facebook": "None", "youtube": "None", "website": "None", "summary": "None", "logo": "None", "latitude": 49.248839494018455, "longitude": -124.12431029713352}, "899040117RR0001": {"name": "Q'WEMTSIN HEALTH SOCIETY", "designationCode": "B", "categoryCode": "19", "address": "130 CHILCOTIN ROAD", "city": "KAMLOOPS", "province": "BC", "country": "CA", "postalCode": "V2H1G3", "twitter": "None", "instagram": "None", "facebook": "None", "youtube": "None", "website": "None", "summary": "None", "logo": "None", "latitude": 50.69055474074416, "longitude": -120.33769554601831}, "821570181RR0001": {"name": "Qalipu Cultural Foundation Incorporated", "designationCode": "C", "categoryCode": "22", "address": "3 CHURCH ST", "city": "CORNER BROOK", "province": "NL", "country": "CA", "postalCode": "A2H2Z4", "twitter": "None", "instagram": "None", "facebook": "None", "youtube": "None", "website": "None", "summary": "None", "logo": "None", "latitude": 48.950238928674445, "longitude": -57.93759959864978}, "850868159RR0001": {"name": "Qasimul Uloom Centre Canada", "designationCode": "C", "categoryCode": "60", "address": "51 QUEEN ST N", "city": "MISSISSAUGA", "province": "ON", "country": "CA", "postalCode": "L5N1A1", "twitter": "None", "instagram": "None", "facebook": "None", "youtube": "None", "website": "None", "summary": "None", "logo": "None", "latitude": 43.58941218489207, "longitude": -79.72415502824786}, "810143925RR0001": {"name": "Qayuqtuvik Society", "designationCode": "C", "categoryCode": "09", "address": "PO BOX 119", "city": "IQALUIT", "province": "NU", "country": "CA", "postalCode": "X0A0H0", "twitter": "None", "instagram": "None", "facebook": "None", "youtube": "None", "website": "None", "summary": "None", "logo": "None", "latitude": 62.81090700000006, "longitude": -92.08155949999994}, "119288918RR1324": {"name": "Qu\u00e9bec Circuit 13A of Jehovah's Witnesses", "designationCode": "C", "categoryCode": "61", "address": "213 - 31 FOUR WINDS DR", "city": "NORTH YORK", "province": "ON", "country": "CA", "postalCode": "M3J1K9", "twitter": "None", "instagram": "None", "facebook": "None", "youtube": "None", "website": "None", "summary": "None", "logo": "None", "latitude": 43.764658004987524, "longitude": -79.49634205941965}, "842052532RR0001": {"name": "Qu'appelle Valley Centre for the Arts Inc.", "designationCode": "C", "categoryCode": "22", "address": "POST OFFICE BOX 597", "city": "FORT QU'APPELLE", "province": "SK", "country": "CA", "postalCode": "S0G1S0", "twitter": "None", "instagram": "None", "facebook": "None", "youtube": "None", "website": "None", "summary": "None", "logo": "None", "latitude": 50.76964000000004, "longitude": -103.79339999999996}, "832568992RR0001": {"name": "Qu'Appelle and District Volunteer Fire Department", "designationCode": "C", "categoryCode": "59", "address": "PO BOX 262", "city": "QU'APPELLE", "province": "SK", "country": "CA", "postalCode": "S0G4A0", "twitter": "None", "instagram": "None", "facebook": "None", "youtube": "None", "website": "None", "summary": "None", "logo": "None", "latitude": 50.33098795842485, "longitude": -102.28109602986969}, "810293373RR0001": {"name": "Quadra Circle Community Connections Society", "designationCode": "C", "categoryCode": "09", "address": "PO BOX 674", "city": "QUATHIASKI COVE", "province": "BC", "country": "CA", "postalCode": "V0P1N0", "twitter": "None", "instagram": "None", "facebook": "None", "youtube": "None", "website": "None", "summary": "None", "logo": "None", "latitude": 50.042146929765416, "longitude": -125.2168640925508}, "836503201RR0001": {"name": "Quadra Feral Cat Group", "designationCode": "C", "categoryCode": "54", "address": "725 CRAMER RD                 BOX 192", "city": "HERIOT BAY", "province": "BC", "country": "CA", "postalCode": "V0P1H0", "twitter": "None", "instagram": "None", "facebook": "None", "youtube": "None", "website": "None", "summary": "None", "logo": "None", "latitude": 50.100100277953125, "longitude": -125.20502305421007}, "859576878RR0001": {"name": "Qualicum Beach Family History Society", "designationCode": "C", "categoryCode": "50", "address": "1095 GANSKE RD", "city": "QUALICUM BEACH", "province": "BC", "country": "CA", "postalCode": "V9K2G5", "twitter": "None", "instagram": "None", "facebook": "None", "youtube": "None", "website": "None", "summary": "None", "logo": "None", "latitude": 49.35948998187399, "longitude": -124.49258741968949}, "821655875RR0001": {"name": "Quality Deer Management Association - Canada", "designationCode": "C", "categoryCode": "52", "address": "12120 BOUL SAINTE-COLETTE", "city": "MONTREAL-NORD", "province": "QC", "country": "CA", "postalCode": "H1G4V6", "twitter": "None", "instagram": "None", "facebook": "None", "youtube": "None", "website": "None", "summary": "None", "logo": "None", "latitude": 45.61174112958071, "longitude": -73.63162934973151}, "777087321RR0001": {"name": "Quantum Valley Ideas Laboratories", "designationCode": "C", "categoryCode": "21", "address": "560 WESTMOUNT ROAD NORTH", "city": "WATERLOO", "province": "ON", "country": "CA", "postalCode": "N2L0A9", "twitter": "None", "instagram": "None", "facebook": "None", "youtube": "None", "website": "None", "summary": "None", "logo": "None", "latitude": 43.485506013618654, "longitude": -80.56692555643747}, "822486254RR0001": {"name": "Quanz Dance Company", "designationCode": "C", "categoryCode": "22", "address": "380 GRAHAM AVE", "city": "WINNIPEG", "province": "MB", "country": "CA", "postalCode": "R3C4K2", "twitter": "None", "instagram": "None", "facebook": "None", "youtube": "None", "website": "None", "summary": "None", "logo": "None", "latitude": 49.89130286311997, "longitude": -97.14621350871391}, "894747484RR0001": {"name": "Quaqtag Christian Fellowship", "designationCode": "C", "categoryCode": "49", "address": "747 MASIK STREET", "city": "QUAQTAQ", "province": "QC", "country": "CA", "postalCode": "J0M1J0", "twitter": "None", "instagram": "None", "facebook": "None", "youtube": "None", "website": "None", "summary": "None", "logo": "None", "latitude": 61.04306143295479, "longitude": -69.62185090886548}, "810126169RR0001": {"name": "Quarrywood Foundation", "designationCode": "B", "categoryCode": "03", "address": "195 INGLEWOOD DRIVE", "city": "TORONTO", "province": "ON", "country": "CA", "postalCode": "M4T1H8", "twitter": "None", "instagram": "None", "facebook": "None", "youtube": "None", "website": "None", "summary": "None", "logo": "None", "latitude": 43.68887215072985, "longitude": -79.38100625465974}, "778176891RR0001": {"name": "Quartz Ridge Sanctuary", "designationCode": "C", "categoryCode": "11", "address": "39 NOLAND ROAD,", "city": "HAGAR", "province": "ON", "country": "CA", "postalCode": "P0M1X0", "twitter": "None", "instagram": "None", "facebook": "None", "youtube": "None", "website": "None", "summary": "None", "logo": "None", "latitude": 46.46388266546746, "longitude": -80.42255655545758}, "118849470RR0089": {"name": "Quasi-Parish of Saint Agnes Kim", "designationCode": "C", "categoryCode": "38", "address": "140 MOODY ST", "city": "PORT MOODY", "province": "BC", "country": "CA", "postalCode": "V3H2P9", "twitter": "None", "instagram": "None", "facebook": "None", "youtube": "None", "website": "None", "summary": "None", "logo": "None", "latitude": 49.275029923394335, "longitude": -122.85015891116063}, "887354934RR0001": {"name": "Quatuor Claudel inc.", "designationCode": "C", "categoryCode": "22", "address": "270, BOULEVARD DE             L'ANGE-GARDIEN", "city": "L'ASSOMPTION", "province": "QC", "country": "CA", "postalCode": "J5W1R7", "twitter": "None", "instagram": "None", "facebook": "None", "youtube": "None", "website": "None", "summary": "None", "logo": "None", "latitude": 45.829080916702104, "longitude": -73.42142456060286}, "813791167RR0001": {"name": "Qube Charitable Foundation", "designationCode": "A", "categoryCode": "05", "address": "300-9414-91 STREET", "city": "EDMONTON", "province": "AB", "country": "CA", "postalCode": "T6C3P4", "twitter": "None", "instagram": "None", "facebook": "None", "youtube": "None", "website": "None", "summary": "None", "logo": "None", "latitude": 53.53132458090485, "longitude": -113.46695921097555}, "887239192RR0001": {"name": "Quebec Community Health and Social Services Foundation / Fondation communautaire de la sant\u00e9 et des services sociaux du Qu\u00e9bec", "designationCode": "A", "categoryCode": "03", "address": "1270, CHEMIN SAINTE-FOY       BUREAU 2106", "city": "QU\u00c9BEC", "province": "QC", "country": "CA", "postalCode": "G1S2M4", "twitter": "None", "instagram": "None", "facebook": "None", "youtube": "None", "website": "None", "summary": "None", "logo": "None", "latitude": 46.795915761948145, "longitude": -71.251954217053}, "895309748RR0001": {"name": "Quebec Institute for International Research and Education / Institut qu\u00e9b\u00e9cois pour la recherche et l'\u00e9ducation internationales", "designationCode": "B", "categoryCode": "21", "address": "4687 EARNSCLIFFE AVE", "city": "MONTREAL", "province": "QC", "country": "CA", "postalCode": "H3X2P1", "twitter": "None", "instagram": "None", "facebook": "None", "youtube": "None", "website": "None", "summary": "None", "logo": "None", "latitude": 45.48066219207677, "longitude": -73.62748849887483}, "811956283RR0001": {"name": "Queen of the Holy Rosary Shrine", "designationCode": "C", "categoryCode": "39", "address": "50 CLUETT DRIVE,", "city": "AJAX", "province": "ON", "country": "CA", "postalCode": "L1S7C3", "twitter": "None", "instagram": "None", "facebook": "None", "youtube": "None", "website": "None", "summary": "None", "logo": "None", "latitude": 43.835830794621685, "longitude": -78.99798930763477}, "872655816RR0001": {"name": "Queen City Brass Band Inc.", "designationCode": "C", "categoryCode": "22", "address": "4642 PASQUA ST", "city": "REGINA", "province": "SK", "country": "CA", "postalCode": "S4S6J1", "twitter": "None", "instagram": "None", "facebook": "None", "youtube": "None", "website": "None", "summary": "None", "logo": "None", "latitude": 50.406417000000005, "longitude": -104.64095657302764}, "843277211RR0001": {"name": "Queen Esther Education Foundation", "designationCode": "B", "categoryCode": "21", "address": "672 LEE RIDGE ROAD", "city": "EDMONTON", "province": "AB", "country": "CA", "postalCode": "T6K0P2", "twitter": "None", "instagram": "None", "facebook": "None", "youtube": "None", "website": "None", "summary": "None", "logo": "None", "latitude": 53.4688493366611, "longitude": -113.44047747706185}, "818499022RR0001": {"name": "Queen West Art Crawl", "designationCode": "C", "categoryCode": "22", "address": "1488 QUEEN STREET WEST        PO BOX 90063", "city": "TORONTO", "province": "ON", "country": "CA", "postalCode": "M6K3K3", "twitter": "None", "instagram": "None", "facebook": "None", "youtube": "None", "website": "None", "summary": "None", "logo": "None", "latitude": 43.64043618347842, "longitude": -79.4375877618731}, "115961229RR0001": {"name": "Queen's Legal Aid", "designationCode": "C", "categoryCode": "59", "address": "STE 500, LASALLE MEWS BUILDING303 BAGOT STREET", "city": "KINGSTON", "province": "ON", "country": "CA", "postalCode": "K7K5W7", "twitter": "None", "instagram": "None", "facebook": "None", "youtube": "None", "website": "None", "summary": "None", "logo": "None", "latitude": 44.23828252433448, "longitude": -76.4844085066632}, "119107456RR0001": {"name": "Queen's Park Healthcare Foundation", "designationCode": "A", "categoryCode": "13", "address": "315 MCBRIDE BLVD", "city": "NEW WESTMINISTER", "province": "BC", "country": "CA", "postalCode": "V3L5E8", "twitter": "None", "instagram": "None", "facebook": "None", "youtube": "None", "website": "None", "summary": "None", "logo": "None", "latitude": 49.21640645563474, "longitude": -122.9024481073898}, "119288918RR1707": {"name": "Queen's Plate Twi Congregation of Jehovah's Witnesses, Etobicoke, Ontario", "designationCode": "C", "categoryCode": "61", "address": "25 QUEEN'S PLATE DR", "city": "ETOBICOKE", "province": "ON", "country": "CA", "postalCode": "M9W7C8", "twitter": "None", "instagram": "None", "facebook": "None", "youtube": "None", "website": "None", "summary": "None", "logo": "None", "latitude": 43.70895319484672, "longitude": -79.58974841877804}, "831891221RR0001": {"name": "Queens County Children's Society", "designationCode": "C", "categoryCode": "21", "address": "90 MCGOWAN LAKE ROAD", "city": "WEST FIELD", "province": "NS", "country": "CA", "postalCode": "B0T1B0", "twitter": "None", "instagram": "None", "facebook": "None", "youtube": "None", "website": "None", "summary": "None", "logo": "None", "latitude": 44.41630478963003, "longitude": -65.05469001177232}, "107868317RR0001": {"name": "Queens County Heritage Incorporated", "designationCode": "C", "categoryCode": "50", "address": "69 FRONT STREET", "city": "GAGETOWN", "province": "NB", "country": "CA", "postalCode": "E5M1A4", "twitter": "None", "instagram": "None", "facebook": "None", "youtube": "None", "website": "None", "summary": "None", "logo": "None", "latitude": 45.78458483873858, "longitude": -66.14412958889667}, "852023381RR0001": {"name": "Queenship of Mary Community", "designationCode": "C", "categoryCode": "46", "address": "PO BOX 23080", "city": "OTTAWA", "province": "ON", "country": "CA", "postalCode": "K2A4E2", "twitter": "None", "instagram": "None", "facebook": "None", "youtube": "None", "website": "None", "summary": "None", "logo": "None", "latitude": 45.42177300000006, "longitude": -75.69115999999994}, "802180711RR0001": {"name": "Queenswood Holistic Healing and Spirituality Society", "designationCode": "C", "categoryCode": "20", "address": "1550 BEGBIE ST", "city": "VICTORIA", "province": "BC", "country": "CA", "postalCode": "V8R1K8", "twitter": "None", "instagram": "None", "facebook": "None", "youtube": "None", "website": "None", "summary": "None", "logo": "None", "latitude": 48.428868760488115, "longitude": -123.33754077505907}, "843530577RR0001": {"name": "Quesnel Foundation", "designationCode": "B", "categoryCode": "05", "address": "3914 QUESNEL DR", "city": "VANCOUVER", "province": "BC", "country": "CA", "postalCode": "V6L2X2", "twitter": "None", "instagram": "None", "facebook": "None", "youtube": "None", "website": "None", "summary": "None", "logo": "None", "latitude": 49.25171198003336, "longitude": -123.17380093822509}, "845987817RR0001": {"name": "Quesnel Shelter & Support Society", "designationCode": "C", "categoryCode": "01", "address": "146 CARSON AVENUE", "city": "QUESNEL", "province": "BC", "country": "CA", "postalCode": "V2J2A8", "twitter": "None", "instagram": "None", "facebook": "None", "youtube": "None", "website": "None", "summary": "None", "logo": "None", "latitude": 52.975682528997666, "longitude": -122.49706038481736}, "864006119RR0001": {"name": "Quest Art School + Gallery", "designationCode": "C", "categoryCode": "22", "address": "333 KING STREET", "city": "MIDLAND", "province": "ON", "country": "CA", "postalCode": "L4R3M7", "twitter": "None", "instagram": "None", "facebook": "None", "youtube": "None", "website": "None", "summary": "None", "logo": "None", "latitude": 44.74841430281236, "longitude": -79.88406282389639}, "845347830RR0001": {"name": "Quest Collegiate and Recovery Centres", "designationCode": "C", "categoryCode": "20", "address": "2893 OLD ORCHARD RD", "city": "UTOPIA", "province": "ON", "country": "CA", "postalCode": "L0M1T2", "twitter": "None", "instagram": "None", "facebook": "None", "youtube": "None", "website": "None", "summary": "None", "logo": "None", "latitude": 44.34970200000005, "longitude": -79.83194749999993}, "817001209RR0001": {"name": "Quest Learning Centre for Religious Literacy", "designationCode": "C", "categoryCode": "44", "address": "99 NORTH OVAL", "city": "HAMILTON", "province": "ON", "country": "CA", "postalCode": "L8S3Z2", "twitter": "None", "instagram": "None", "facebook": "None", "youtube": "None", "website": "None", "summary": "None", "logo": "None", "latitude": 43.262216424635085, "longitude": -79.90710452065913}, "819051376RR0001": {"name": "Quest University Canada Foundation", "designationCode": "A", "categoryCode": "03", "address": "3200 UNIVERSITY BOULEVARD", "city": "VANCOUVER", "province": "BC", "country": "CA", "postalCode": "V8B0N8", "twitter": "None", "instagram": "None", "facebook": "None", "youtube": "None", "website": "None", "summary": "None", "logo": "None", "latitude": 49.263861165161615, "longitude": -123.21550018322218}, "723600698RR0001": {"name": "Quiet Cove Foundation", "designationCode": "A", "categoryCode": "03", "address": "800-885 WEST GEORGIA STREET", "city": "VANCOUVER", "province": "BC", "country": "CA", "postalCode": "V6C3H1", "twitter": "None", "instagram": "None", "facebook": "None", "youtube": "None", "website": "None", "summary": "None", "logo": "None", "latitude": 49.28358111685609, "longitude": -123.1197964114491}, "843605445RR0001": {"name": "Quikcard Charitable Foundation", "designationCode": "A", "categoryCode": "03", "address": "200 QUIKCARD CENTRE           17010 103 AVENUE", "city": "EDMONTON", "province": "AB", "country": "CA", "postalCode": "T5S1K7", "twitter": "None", "instagram": "None", "facebook": "None", "youtube": "None", "website": "None", "summary": "None", "logo": "None", "latitude": 53.54531352264969, "longitude": -113.61694427699231}, "769836891RR0001": {"name": "Quill Plains Health Care Foundation Inc.", "designationCode": "A", "categoryCode": "13", "address": "300 MAIN STREET               SUITE C, PO BOX 277", "city": "WATSON", "province": "SK", "country": "CA", "postalCode": "S0K4V0", "twitter": "None", "instagram": "None", "facebook": "None", "youtube": "None", "website": "None", "summary": "None", "logo": "None", "latitude": 52.12930408236363, "longitude": -104.52357572875174}, "839340932RR0001": {"name": "Quilts for Cancer Peterborough County", "designationCode": "C", "categoryCode": "09", "address": "POST OFFICE BOX 30062         RPO CHEMONG", "city": "PETERBOROUGH", "province": "ON", "country": "CA", "postalCode": "K9H7R4", "twitter": "None", "instagram": "None", "facebook": "None", "youtube": "None", "website": "None", "summary": "None", "logo": "None", "latitude": 44.33516572780204, "longitude": -78.34742375682973}, "830834487RR0001": {"name": "Quinte Baptist Church (QBC)", "designationCode": "C", "categoryCode": "31", "address": "14 HAIG STREET                POST OFFICE BOX 1004", "city": "BATAWA", "province": "ON", "country": "CA", "postalCode": "K0K1E0", "twitter": "None", "instagram": "None", "facebook": "None", "youtube": "None", "website": "None", "summary": "None", "logo": "None", "latitude": 44.16918857369148, "longitude": -77.59489991176623}, "802552067RR0001": {"name": "Quinte Christian Music Camp", "designationCode": "C", "categoryCode": "49", "address": "57 - 110 DIDSBURY RD", "city": "KANATA", "province": "ON", "country": "CA", "postalCode": "K2T0C2", "twitter": "None", "instagram": "None", "facebook": "None", "youtube": "None", "website": "None", "summary": "None", "logo": "None", "latitude": 45.30698768552725, "longitude": -75.91558132921661}, "827152414RR0001": {"name": "Quinte Deaf Fellowship", "designationCode": "C", "categoryCode": "39", "address": "PO BOX 23071 RPO QUINTE MALL", "city": "BELLEVILLE", "province": "ON", "country": "CA", "postalCode": "K8P5J3", "twitter": "None", "instagram": "None", "facebook": "None", "youtube": "None", "website": "None", "summary": "None", "logo": "None", "latitude": 44.187490000000025, "longitude": -77.40174999999994}, "807626726RR0001": {"name": "Quinte Lutheran Church", "designationCode": "C", "categoryCode": "32", "address": "20 NORTHVIEW LANE", "city": "TRENTON", "province": "ON", "country": "CA", "postalCode": "K8V6X5", "twitter": "None", "instagram": "None", "facebook": "None", "youtube": "None", "website": "None", "summary": "None", "logo": "None", "latitude": 44.0985170024815, "longitude": -77.60088303912524}, "762390490RR0001": {"name": "Quinte Regional Science and Technology Fair", "designationCode": "C", "categoryCode": "21", "address": "9 CARMEN AVENUE,", "city": "BELLEVILLE", "province": "ON", "country": "CA", "postalCode": "K8P3A4", "twitter": "None", "instagram": "None", "facebook": "None", "youtube": "None", "website": "None", "summary": "None", "logo": "None", "latitude": 44.17796839246341, "longitude": -77.3899622561603}, "887900827RR0001": {"name": "Quintessential Vocal Ensemble Corporation", "designationCode": "C", "categoryCode": "22", "address": "P.O. BOX 21005", "city": "ST.JOHN'S", "province": "NL", "country": "CA", "postalCode": "A1A5B2", "twitter": "None", "instagram": "None", "facebook": "None", "youtube": "None", "website": "None", "summary": "None", "logo": "None", "latitude": 47.600088000000056, "longitude": -52.692861499999935}, "847069671RR0001": {"name": "QAUJISAQTIIT SOCIETY", "designationCode": "C", "categoryCode": "21", "address": "P.O. BOX 638", "city": "IQALUIT", "province": "NU", "country": "CA", "postalCode": "X0A0H0", "twitter": "None", "instagram": "None", "facebook": "None", "youtube": "None", "website": "None", "summary": "None", "logo": "None", "latitude": 62.81090700000006, "longitude": -92.08155949999994}, "892397563RR0001": {"name": "QAY'LLNAGAAY HERITAGE CENTRE SOCIETY", "designationCode": "C", "categoryCode": "50", "address": "2 SECOND BEACH ROAD           POST OFFICE BOX 1523", "city": "SKIDEGATE", "province": "BC", "country": "CA", "postalCode": "V0T1S1", "twitter": "None", "instagram": "None", "facebook": "None", "youtube": "None", "website": "None", "summary": "None", "logo": "None", "latitude": 53.24893018527594, "longitude": -131.99725756008513}, "140970534RR0001": {"name": "QECE RESOURCE CENTRE", "designationCode": "A", "categoryCode": "21", "address": "1055 COUNTY ROAD 19", "city": "CONSECON", "province": "ON", "country": "CA", "postalCode": "K0K1T0", "twitter": "None", "instagram": "None", "facebook": "None", "youtube": "None", "website": "None", "summary": "None", "logo": "None", "latitude": 44.334823954991734, "longitude": -77.63059714273435}, "119106649RR0001": {"name": "QEHELATA (RASSEMBLEMENT)", "designationCode": "C", "categoryCode": "47", "address": "734, RUE NOTRE DAME OUEST", "city": "VICTORIAVILLE", "province": "QC", "country": "CA", "postalCode": "G6P1T8", "twitter": "None", "instagram": "None", "facebook": "None", "youtube": "None", "website": "None", "summary": "None", "logo": "None", "latitude": 46.05512027840597, "longitude": -71.9814851394771}, "886463496RR0001": {"name": "QEII HEALTH SCIENCES CENTRE FOUNDATION", "designationCode": "A", "categoryCode": "13", "address": "3005-5657 SPRING GARDEN ROAD  PARK LANE MALL BOX 231", "city": "HALIFAX", "province": "NS", "country": "CA", "postalCode": "B3J3R4", "twitter": "None", "instagram": "None", "facebook": "None", "youtube": "None", "website": "None", "summary": "None", "logo": "None", "latitude": 44.642640022793984, "longitude": -63.57846005886069}, "126396613RR0001": {"name": "QE11 HEALTH SCIENCES CENTRE AUXILIARY", "designationCode": "C", "categoryCode": "19", "address": "1276 SOUTH PARK STREET", "city": "HALIFAX", "province": "NS", "country": "CA", "postalCode": "B3H2Y9", "twitter": "None", "instagram": "None", "facebook": "None", "youtube": "None", "website": "None", "summary": "None", "logo": "None", "latitude": 44.63947567992344, "longitude": -63.57842294489661}, "119249522RR0001": {"name": "QMUNITY BC'S QUEER RESOURCE CENTRE SOCIETY", "designationCode": "C", "categoryCode": "29", "address": "1170 BUTE ST", "city": "VANCOUVER", "province": "BC", "country": "CA", "postalCode": "V6E1Z6", "twitter": "None", "instagram": "None", "facebook": "None", "youtube": "None", "website": "None", "summary": "None", "logo": "None", "latitude": 49.28194679146052, "longitude": -123.13303142971827}, "865164438RR0001": {"name": "QQS (EYES) PROJECTS SOCIETY", "designationCode": "C", "categoryCode": "09", "address": "POST OFFICE BOX 786           333 CLATSJA STREET", "city": "BELLA BELLA", "province": "BC", "country": "CA", "postalCode": "V0T1Z0", "twitter": "None", "instagram": "None", "facebook": "None", "youtube": "None", "website": "None", "summary": "None", "logo": "None", "latitude": 52.16847636428094, "longitude": -128.14647032480096}, "119288918RR1287": {"name": "QU\u00c9BEC CIRCUIT 13B OF JEHOVAH'S WITNESSES", "designationCode": "C", "categoryCode": "61", "address": "5401 RUE DE CHARLEROI", "city": "MONTREAL-NORD", "province": "QC", "country": "CA", "postalCode": "H1G3A6", "twitter": "None", "instagram": "None", "facebook": "None", "youtube": "None", "website": "None", "summary": "None", "logo": "None", "latitude": 45.602311871227364, "longitude": -73.62068627283737}, "119106821RR0001": {"name": "QU'APPELLE HISTORICAL SOCIETY", "designationCode": "C", "categoryCode": "50", "address": "BOX 186", "city": "QU'APPELLE", "province": "SK", "country": "CA", "postalCode": "S0G4A0", "twitter": "None", "instagram": "None", "facebook": "None", "youtube": "None", "website": "None", "summary": "None", "logo": "None", "latitude": 50.33098795842485, "longitude": -102.28109602986969}}