{"862734019RR0001": {"name": "FATHER CHRISTOPHER VERMEULEN EDUCATION FOUNDATION", "designationCode": "B", "categoryCode": "23", "address": "11458 239A ST", "city": "MAPLE RIDGE", "province": "BC", "country": "CA", "postalCode": "V2W1X2", "twitter": "None", "instagram": "None", "facebook": "None", "youtube": "None", "website": "None", "summary": "None", "logo": "None", "latitude": 49.21057308604074, "longitude": -122.55787044252425}, "865047815RR0001": {"name": "FATHER CUMMINGS COUNCIL NO. 2042 CHARITABLE TRUST", "designationCode": "A", "categoryCode": "65", "address": "PO BOX 2042", "city": "WALKERTON", "province": "ON", "country": "CA", "postalCode": "N0G2V0", "twitter": "None", "instagram": "None", "facebook": "None", "youtube": "None", "website": "None", "summary": "None", "logo": "None", "latitude": 44.12817000000007, "longitude": -81.15211999999997}, "130189509RR0001": {"name": "FATHER DOWD FOUNDATION-LA FONDATION FATHER DOWD", "designationCode": "A", "categoryCode": "09", "address": "6710 RUE SAINT-JACQUES        BUREAU 108", "city": "MONTREAL", "province": "QC", "country": "CA", "postalCode": "H4B1V8", "twitter": "None", "instagram": "None", "facebook": "None", "youtube": "None", "website": "None", "summary": "None", "logo": "None", "latitude": 45.45889478931291, "longitude": -73.62713799076742}, "889511994RR0001": {"name": "FATHER EDWARD LEAHEY & FATHER CARL HICKEY MEMORIAL SCHOLARSHIP FUND", "designationCode": "C", "categoryCode": "21", "address": "387 DOUGLAS AVE", "city": "SAINT JOHN", "province": "NB", "country": "CA", "postalCode": "E2K1E9", "twitter": "None", "instagram": "None", "facebook": "None", "youtube": "None", "website": "None", "summary": "None", "logo": "None", "latitude": 45.26224958534825, "longitude": -66.08462693770547}, "832678254RR0001": {"name": "FATHER HEART MINISTRY", "designationCode": "C", "categoryCode": "39", "address": "95 GENERATION BLVD            SUITE 105-UNIT 26", "city": "SCARBOROUGH", "province": "ON", "country": "CA", "postalCode": "M1B2K7", "twitter": "None", "instagram": "None", "facebook": "None", "youtube": "None", "website": "None", "summary": "None", "logo": "None", "latitude": 43.80445259674521, "longitude": -79.16425017721646}, "892917162RR0001": {"name": "FATHER J FERGUS DUFFY COUNCIL NO 1454 CHARITABLE TRUST", "designationCode": "A", "categoryCode": "65", "address": "222 QUEENSTON ROAD", "city": "HAMILTON", "province": "ON", "country": "CA", "postalCode": "L8K1G6", "twitter": "None", "instagram": "None", "facebook": "None", "youtube": "None", "website": "None", "summary": "None", "logo": "None", "latitude": 43.23477889586856, "longitude": -79.79426025425572}, "885673632RR0001": {"name": "FATHER KILLORAN EDUCATIONAL FUND FOR SEMINARIANS", "designationCode": "B", "categoryCode": "23", "address": "STE 1500, ONE BRUNSWICK SQUAREPO BOX 1324", "city": "SAINT JOHN", "province": "NB", "country": "CA", "postalCode": "E2L4H8", "twitter": "None", "instagram": "None", "facebook": "None", "youtube": "None", "website": "None", "summary": "None", "logo": "None", "latitude": 45.28015277223757, "longitude": -66.05321408822462}, "826512147RR0001": {"name": "FATHER LES COSTELLO FOUNDATION", "designationCode": "A", "categoryCode": "03", "address": "P.O. BOX 1077", "city": "SCHUMACHER", "province": "ON", "country": "CA", "postalCode": "P0N1G0", "twitter": "None", "instagram": "None", "facebook": "None", "youtube": "None", "website": "None", "summary": "None", "logo": "None", "latitude": 48.477042665132416, "longitude": -81.29837988953307}, "860970409RR0001": {"name": "FATHER MURRAY FOUNDATION INC.", "designationCode": "A", "categoryCode": "23", "address": "PO BOX 100", "city": "WILCOX", "province": "SK", "country": "CA", "postalCode": "S0G5E0", "twitter": "None", "instagram": "None", "facebook": "None", "youtube": "None", "website": "None", "summary": "None", "logo": "None", "latitude": 49.73183550000002, "longitude": -104.01373799999999}, "891429243RR0001": {"name": "FATHER RHEAL TURGEON COUNCIL 10280 CHARITABLE TRUST", "designationCode": "A", "categoryCode": "65", "address": "2490 COUNTY ROAD 64           RR2", "city": "CARRYING PLACE", "province": "ON", "country": "CA", "postalCode": "K0K1L0", "twitter": "None", "instagram": "None", "facebook": "None", "youtube": "None", "website": "None", "summary": "None", "logo": "None", "latitude": 44.04508060505359, "longitude": -77.58487930506864}, "865874580RR0001": {"name": "FATHER RICHARD O'FARRELL COUNCIL NO 11655 CHARITABLE WELFARETRUST", "designationCode": "A", "categoryCode": "03", "address": "17 NELLES AVE", "city": "TRENTON", "province": "ON", "country": "CA", "postalCode": "K8V3A6", "twitter": "None", "instagram": "None", "facebook": "None", "youtube": "None", "website": "None", "summary": "None", "logo": "None", "latitude": 44.11387523342371, "longitude": -77.56636164429588}, "133374033RR0001": {"name": "FATHER TOM HISCOCK MEMORIAL FUND", "designationCode": "B", "categoryCode": "45", "address": "(THE CANADA TRUST CO.)        PO BOX 10085", "city": "VANCOUVER", "province": "BC", "country": "CA", "postalCode": "V7Y1B6", "twitter": "None", "instagram": "None", "facebook": "None", "youtube": "None", "website": "None", "summary": "None", "logo": "None", "latitude": 49.28294993392596, "longitude": -123.11892994113924}, "890682594RR0001": {"name": "FATHER WALSH KNIGHTS OF COLUMBUS COUNCIL 8911 CHARITABLE TRUST", "designationCode": "A", "categoryCode": "05", "address": "1449 PIGEON LAKE RD.", "city": "KAWARTHA LAKES", "province": "ON", "country": "CA", "postalCode": "K9V4R5", "twitter": "None", "instagram": "None", "facebook": "None", "youtube": "None", "website": "None", "summary": "None", "logo": "None", "latitude": 44.39652511971202, "longitude": -78.54782045521928}, "118831585RR0001": {"name": "FATIMA FOUNDATION CANADA", "designationCode": "A", "categoryCode": "23", "address": "10520 YONGE ST                UNIT 35B, SUITE 155", "city": "RICHMOND HILL", "province": "ON", "country": "CA", "postalCode": "L4C3C7", "twitter": "None", "instagram": "None", "facebook": "None", "youtube": "None", "website": "None", "summary": "None", "logo": "None", "latitude": 43.884329428241756, "longitude": -79.44029823102817}, "889771572RR0001": {"name": "FATIMA HOUSE TRUST FUND", "designationCode": "C", "categoryCode": "01", "address": "3345 SILVERADO DR #62", "city": "MISSISSAUGA", "province": "ON", "country": "CA", "postalCode": "L5A3Y8", "twitter": "None", "instagram": "None", "facebook": "None", "youtube": "None", "website": "None", "summary": "None", "logo": "None", "latitude": 43.600431502048814, "longitude": -79.61040571380376}, "895899862RR0001": {"name": "FAUST CHARITY ASSOCIATION", "designationCode": "C", "categoryCode": "56", "address": "BOX 68", "city": "FAUST", "province": "AB", "country": "CA", "postalCode": "T0G0X0", "twitter": "None", "instagram": "None", "facebook": "None", "youtube": "None", "website": "None", "summary": "None", "logo": "None", "latitude": 55.31970000000007, "longitude": -115.65382999999997}, "732001490RR0001": {"name": "FAV Foundation Inc.", "designationCode": "A", "categoryCode": "13", "address": "3045 SASKATCHEWAN DR", "city": "REGINA", "province": "SK", "country": "CA", "postalCode": "S4T1H5", "twitter": "None", "instagram": "None", "facebook": "None", "youtube": "None", "website": "None", "summary": "None", "logo": "None", "latitude": 50.44978765609687, "longitude": -104.62516738605812}, "710899527RR0001": {"name": "FAVDTR Foundation", "designationCode": "B", "categoryCode": "03", "address": "11 PRENNAN AVE.", "city": "ETOBICOKE", "province": "ON", "country": "CA", "postalCode": "M9B4B5", "twitter": "None", "instagram": "None", "facebook": "None", "youtube": "None", "website": "None", "summary": "None", "logo": "None", "latitude": 43.6426712020601, "longitude": -79.53724741545982}, "107377392RR0001": {"name": "FAWCETT CHRISTIAN COMMUNITY CHURCH", "designationCode": "C", "categoryCode": "32", "address": "BOX 128", "city": "FAWCETT", "province": "AB", "country": "CA", "postalCode": "T0G0Y0", "twitter": "None", "instagram": "None", "facebook": "None", "youtube": "None", "website": "None", "summary": "None", "logo": "None", "latitude": 54.54124000000007, "longitude": -114.09564999999998}, "130350168RR0001": {"name": "FAWCETT SENIOR CITIZENS' CLUB", "designationCode": "C", "categoryCode": "56", "address": "BOX 24", "city": "FAWCETT", "province": "AB", "country": "CA", "postalCode": "T0G0Y0", "twitter": "None", "instagram": "None", "facebook": "None", "youtube": "None", "website": "None", "summary": "None", "logo": "None", "latitude": 54.54124000000007, "longitude": -114.09564999999998}, "107377491RR0001": {"name": "FAYWOOD BOULEVARD CHILD CARE PROGRAM", "designationCode": "C", "categoryCode": "01", "address": "95 FAYWOOD BLVD", "city": "NORTH YORK", "province": "ON", "country": "CA", "postalCode": "M3H2X5", "twitter": "None", "instagram": "None", "facebook": "None", "youtube": "None", "website": "None", "summary": "None", "logo": "None", "latitude": 43.73974443686876, "longitude": -79.44759682783256}, "885108845RR0001": {"name": "FAYWOOD HOME AND SCHOOL ASSOCIATION", "designationCode": "C", "categoryCode": "21", "address": "95 FAYWOOD BLVD", "city": "TORONTO", "province": "ON", "country": "CA", "postalCode": "M3H2X5", "twitter": "None", "instagram": "None", "facebook": "None", "youtube": "None", "website": "None", "summary": "None", "logo": "None", "latitude": 43.73974443686876, "longitude": -79.44759682783256}, "119210128RR0001": {"name": "FCA LEADERSHIP TRAINING SCHOLARSHIP FUND", "designationCode": "C", "categoryCode": "20", "address": "RR 3", "city": "TOFIELD", "province": "AB", "country": "CA", "postalCode": "T0B4J0", "twitter": "None", "instagram": "None", "facebook": "None", "youtube": "None", "website": "None", "summary": "None", "logo": "None", "latitude": 53.36988000000008, "longitude": -112.66557999999998}, "838176212RR0001": {"name": "FCE Canada", "designationCode": "C", "categoryCode": "45", "address": "PO BOX 269", "city": "PIERSON", "province": "MB", "country": "CA", "postalCode": "R0M1S0", "twitter": "None", "instagram": "None", "facebook": "None", "youtube": "None", "website": "None", "summary": "None", "logo": "None", "latitude": 49.17938000000004, "longitude": -101.25667999999996}, "118913565RR0001": {"name": "FCEF FRIENDS OF THE CENTRAL EXPERIMENTAL FARM", "designationCode": "C", "categoryCode": "56", "address": "BUILDING 72                   EXPERIMENTAL FARM", "city": "OTTAWA", "province": "ON", "country": "CA", "postalCode": "K1A0C6", "twitter": "None", "instagram": "None", "facebook": "None", "youtube": "None", "website": "None", "summary": "None", "logo": "None", "latitude": 45.39469200000005, "longitude": -75.71388049999993}, "118913581RR0001": {"name": "FCJ CHRISTIAN LIFE (CALGARY) CENTRE", "designationCode": "C", "categoryCode": "49", "address": "219-19 AVENUE SW", "city": "CALGARY", "province": "AB", "country": "CA", "postalCode": "T2S0C8", "twitter": "None", "instagram": "None", "facebook": "None", "youtube": "None", "website": "None", "summary": "None", "logo": "None", "latitude": 51.03603220778264, "longitude": -114.06655243967046}, "869781062RR0001": {"name": "FCJ REFUGEE CENTRE", "designationCode": "C", "categoryCode": "09", "address": "208 OAKWOOD AVENUE", "city": "TORONTO", "province": "ON", "country": "CA", "postalCode": "M6E2V4", "twitter": "None", "instagram": "None", "facebook": "None", "youtube": "None", "website": "None", "summary": "None", "logo": "None", "latitude": 43.68197682209016, "longitude": -79.43667533501632}, "804353456RR0001": {"name": "FCT Charitable Foundation/Fondation de bienfaisance FCT", "designationCode": "B", "categoryCode": "03", "address": "2235 SHERIDAN GARDEN DRIVE", "city": "OAKVILLE", "province": "ON", "country": "CA", "postalCode": "L6J7Y5", "twitter": "None", "instagram": "None", "facebook": "None", "youtube": "None", "website": "None", "summary": "None", "logo": "None", "latitude": 43.49033390010947, "longitude": -79.65706268168941}, "890555279RR0001": {"name": "FDC Foundation", "designationCode": "B", "categoryCode": "03", "address": "ORLANDO CORPORATION,          500-6205 AIRPORT ROAD", "city": "MISSISSAUGA", "province": "ON", "country": "CA", "postalCode": "L4V1E3", "twitter": "None", "instagram": "None", "facebook": "None", "youtube": "None", "website": "None", "summary": "None", "logo": "None", "latitude": 43.68906589321321, "longitude": -79.62050577736768}, "888989795RR0001": {"name": "FDLC FONDS D'AIDE DAMES LIBANO-CANADIENNES INC", "designationCode": "C", "categoryCode": "09", "address": "1608 CHEMIN MARKHAM", "city": "VILLE MONT ROYAL", "province": "QC", "country": "CA", "postalCode": "H3P3B2", "twitter": "None", "instagram": "None", "facebook": "None", "youtube": "None", "website": "None", "summary": "None", "logo": "None", "latitude": 45.526853589214724, "longitude": -73.64063196976159}, "879393924RR0001": {"name": "FEAR GOD MINISTRIES INC", "designationCode": "C", "categoryCode": "46", "address": "SUITE 801-1 RIVERSIDE DRIVE W", "city": "WINDSOR", "province": "ON", "country": "CA", "postalCode": "N9A5K3", "twitter": "None", "instagram": "None", "facebook": "None", "youtube": "None", "website": "None", "summary": "None", "logo": "None", "latitude": 42.31943563387987, "longitude": -83.04099005661037}, "815759071RR0001": {"name": "FEATHERSON CHARITABLE FOUNDATION", "designationCode": "B", "categoryCode": "03", "address": "588062 NINTH SIDEROAD         RR1", "city": "RAVENNA", "province": "ON", "country": "CA", "postalCode": "N0H2E0", "twitter": "None", "instagram": "None", "facebook": "None", "youtube": "None", "website": "None", "summary": "None", "logo": "None", "latitude": 44.430376877578986, "longitude": -80.4368061030958}, "868787888RR0001": {"name": "FEBC Lakeland Extension Committee Inc.", "designationCode": "A", "categoryCode": "49", "address": "PO BOX 1513", "city": "STEINBACH", "province": "MB", "country": "CA", "postalCode": "R5G1N2", "twitter": "None", "instagram": "None", "facebook": "None", "youtube": "None", "website": "None", "summary": "None", "logo": "None", "latitude": 49.52572800000006, "longitude": -96.68393449999994}, "887370278RR0001": {"name": "FEBC PRAIRIE WEST EXTENSION COMMITTEE INC.", "designationCode": "A", "categoryCode": "43", "address": "BOX 303", "city": "WALDHEIM", "province": "SK", "country": "CA", "postalCode": "S0K4R0", "twitter": "None", "instagram": "None", "facebook": "None", "youtube": "None", "website": "None", "summary": "None", "logo": "None", "latitude": 52.620700000000056, "longitude": -106.65605}, "829806223RR0001": {"name": "FEBToronto", "designationCode": "C", "categoryCode": "31", "address": "3401 DUFFERIN ST.YORKDALE MALLP.O. BOX 27507", "city": "TORONTO", "province": "ON", "country": "CA", "postalCode": "M6M1A3", "twitter": "None", "instagram": "None", "facebook": "None", "youtube": "None", "website": "None", "summary": "None", "logo": "None", "latitude": 43.72470571501909, "longitude": -79.4570178706577}, "118913649RR0001": {"name": "FEDERATED CO-OPERATIVES LIMITED, STAFF CHARITY FUND", "designationCode": "B", "categoryCode": "75", "address": "PO BOX 1050", "city": "SASKATOON", "province": "SK", "country": "CA", "postalCode": "S7K3M9", "twitter": "None", "instagram": "None", "facebook": "None", "youtube": "None", "website": "None", "summary": "None", "logo": "None", "latitude": 52.13049000000005, "longitude": -106.65926449999994}, "854135480RR0001": {"name": "FEDERATED HEALTH CHARITIES CORPORATION", "designationCode": "A", "categoryCode": "15", "address": "RM M2-04 900 BAY STREET", "city": "TORONTO", "province": "ON", "country": "CA", "postalCode": "M7A1N3", "twitter": "None", "instagram": "None", "facebook": "None", "youtube": "None", "website": "None", "summary": "None", "logo": "None", "latitude": 43.66406400000005, "longitude": -79.38821149999994}, "129999116RR0001": {"name": "FEDERATED WOMEN'S INSTITUTES OF CANADA", "designationCode": "C", "categoryCode": "59", "address": "P.O. BOX 209                  359 BLUE LAKE RD", "city": "ST GEORGE", "province": "ON", "country": "CA", "postalCode": "N0E1N0", "twitter": "None", "instagram": "None", "facebook": "None", "youtube": "None", "website": "None", "summary": "None", "logo": "None", "latitude": 43.28627829490151, "longitude": -80.26933388605639}, "118913656RR0001": {"name": "FEDERATED WOMENS INSTITUTES OF ONTARIO", "designationCode": "C", "categoryCode": "59", "address": "552 RIDGE RD", "city": "STONEY CREEK", "province": "ON", "country": "CA", "postalCode": "L8J2Y6", "twitter": "None", "instagram": "None", "facebook": "None", "youtube": "None", "website": "None", "summary": "None", "logo": "None", "latitude": 43.2072222677884, "longitude": -79.722072192221}, "106702251RR0001": {"name": "FEDERATION CJA", "designationCode": "A", "categoryCode": "03", "address": "1 CARRE CUMMINGS SQUARE", "city": "MONTREAL", "province": "QC", "country": "CA", "postalCode": "H3W1M6", "twitter": "None", "instagram": "None", "facebook": "None", "youtube": "None", "website": "None", "summary": "None", "logo": "None", "latitude": 45.48925656614425, "longitude": -73.63588473115946}, "887341394RR0001": {"name": "FEDERATION D'ART DRAMATIQUE DU QUEBEC/QUEBEC DRAMA FEDERATION", "designationCode": "C", "categoryCode": "22", "address": "303-6545 AV DUROCHER", "city": "MONTREAL", "province": "QC", "country": "CA", "postalCode": "H2V3Z4", "twitter": "None", "instagram": "None", "facebook": "None", "youtube": "None", "website": "None", "summary": "None", "logo": "None", "latitude": 45.52595629032252, "longitude": -73.61494034525944}, "118913664RR0001": {"name": "FEDERATION DE L'AGE D'OR DU QUEBEC", "designationCode": "C", "categoryCode": "09", "address": "4545 PIERRE-DE-COUBERTIN", "city": "MONTR\u00c9AL", "province": "QC", "country": "CA", "postalCode": "H1V0B2", "twitter": "None", "instagram": "None", "facebook": "None", "youtube": "None", "website": "None", "summary": "None", "logo": "None", "latitude": 45.555920590080106, "longitude": -73.55036240097485}, "118793173RR0001": {"name": "FEDERATION DES ETABLISSEMENTS D'ENSEIGNEMENT PRIVES (FEEP)", "designationCode": "C", "categoryCode": "21", "address": "1940 BOUL HENRI-BOURASSA EST", "city": "MONTREAL", "province": "QC", "country": "CA", "postalCode": "H2B1S2", "twitter": "None", "instagram": "None", "facebook": "None", "youtube": "None", "website": "None", "summary": "None", "logo": "None", "latitude": 45.570970676928894, "longitude": -73.65793940296633}, "118913755RR0001": {"name": "FEDERATION DES GUIDES CATHOLIQUES DU DIOCESE DES TROIS-RIVIERES", "designationCode": "C", "categoryCode": "29", "address": "4950 BOUL GENE-H.-KRUGER", "city": "TROIS-RIVIERES", "province": "QC", "country": "CA", "postalCode": "G9A4N6", "twitter": "None", "instagram": "None", "facebook": "None", "youtube": "None", "website": "None", "summary": "None", "logo": "None", "latitude": 46.32155860644008, "longitude": -72.56695844116793}, "872583562RR0001": {"name": "FEDERATION DES GUIDES CATHOLIQUES DU TROISIEME DISTRICT DU DIOCESE DES TROIS-RIVIERES", "designationCode": "C", "categoryCode": "29", "address": "1470 13E AV", "city": "SHAWINIGAN", "province": "QC", "country": "CA", "postalCode": "G9T1L9", "twitter": "None", "instagram": "None", "facebook": "None", "youtube": "None", "website": "None", "summary": "None", "logo": "None", "latitude": 46.61113399307509, "longitude": -72.70822070609945}, "118913813RR0001": {"name": "FEDERATION DES OEUVRES DE CHARITE DANVILLE-SHIPTON INC.", "designationCode": "C", "categoryCode": "09", "address": "145, CLAREMONT EST", "city": "DANVILLE", "province": "QC", "country": "CA", "postalCode": "J0A1A0", "twitter": "None", "instagram": "None", "facebook": "None", "youtube": "None", "website": "None", "summary": "None", "logo": "None", "latitude": 45.788274401292895, "longitude": -72.06283764746988}, "120501051RR0001": {"name": "FEDERATION DES PUERI CANTORES DU QUEBEC INC", "designationCode": "C", "categoryCode": "59", "address": "7272 RUE SHERBROOKE O", "city": "MONTREAL", "province": "QC", "country": "CA", "postalCode": "H4B1R2", "twitter": "None", "instagram": "None", "facebook": "None", "youtube": "None", "website": "None", "summary": "None", "logo": "None", "latitude": 45.45707463165818, "longitude": -73.63966989321416}, "861996999RR0001": {"name": "FEDERATION DES SCOUTS CATHOLIQUES DE LA PROVINCE DE QUEBEC DISTRICT DU BOIS", "designationCode": "C", "categoryCode": "29", "address": "C.P. 153                      125, 9EME AVE EST", "city": "LA SARRE", "province": "QC", "country": "CA", "postalCode": "J9Z2X5", "twitter": "None", "instagram": "None", "facebook": "None", "youtube": "None", "website": "None", "summary": "None", "logo": "None", "latitude": 48.79983195025722, "longitude": -79.19764955987034}, "107378804RR0001": {"name": "FEDERATION DU QUEBEC POUR LE PLANNING DES NAISSANCES", "designationCode": "C", "categoryCode": "09", "address": "469, RUE JEAN-TALON O         PORTE 335", "city": "MONTREAL", "province": "QC", "country": "CA", "postalCode": "H3N1R4", "twitter": "None", "instagram": "None", "facebook": "None", "youtube": "None", "website": "None", "summary": "None", "logo": "None", "latitude": 45.528920968088144, "longitude": -73.6231543826243}, "118913896RR0001": {"name": "FEDERATION OF ALBERTA NATURALISTS", "designationCode": "C", "categoryCode": "52", "address": "11759 GROAT ROAD", "city": "EDMONTON", "province": "AB", "country": "CA", "postalCode": "T5M3K6", "twitter": "None", "instagram": "None", "facebook": "None", "youtube": "None", "website": "None", "summary": "None", "logo": "None", "latitude": 53.56974075240938, "longitude": -113.54923837596016}, "118913912RR0001": {"name": "FEDERATION OF BRITISH COLUMBIA NATURALISTS", "designationCode": "C", "categoryCode": "52", "address": "1620 MT SEYMOUR RD", "city": "NORTH VANCOUVER", "province": "BC", "country": "CA", "postalCode": "V7G2R9", "twitter": "None", "instagram": "None", "facebook": "None", "youtube": "None", "website": "None", "summary": "None", "logo": "None", "latitude": 49.321756384787285, "longitude": -122.96915443562372}, "127661718RR0001": {"name": "FEDERATION OF BRITISH COLUMBIA WRITERS", "designationCode": "C", "categoryCode": "22", "address": "3383 ROCKHAMPTON RD", "city": "NANOOSE BAY", "province": "BC", "country": "CA", "postalCode": "V9P9H4", "twitter": "None", "instagram": "None", "facebook": "None", "youtube": "None", "website": "None", "summary": "None", "logo": "None", "latitude": 49.28500626776883, "longitude": -124.14202560968127}, "118913920RR0001": {"name": "FEDERATION OF CANADIAN ARTISTS", "designationCode": "C", "categoryCode": "23", "address": "1241 CARTWRIGHT ST", "city": "VANCOUVER", "province": "BC", "country": "CA", "postalCode": "V6H4B7", "twitter": "None", "instagram": "None", "facebook": "None", "youtube": "None", "website": "None", "summary": "None", "logo": "None", "latitude": 49.26965135832985, "longitude": -123.13282746266378}, "118913946RR0001": {"name": "FEDERATION OF CANADIAN MUSIC FESTIVALS", "designationCode": "C", "categoryCode": "22", "address": "239 ST. JAMES ST W", "city": "SAINT JOHN", "province": "NB", "country": "CA", "postalCode": "E2M2E7", "twitter": "None", "instagram": "None", "facebook": "None", "youtube": "None", "website": "None", "summary": "None", "logo": "None", "latitude": 45.254914176038326, "longitude": -66.06865652204463}, "129745030RR0001": {"name": "FEDERATION OF FOSTER FAMILIES OF NOVA SCOTIA", "designationCode": "C", "categoryCode": "09", "address": "SUITE 350 99 WYSE RD.", "city": "DARTMOUTH", "province": "NS", "country": "CA", "postalCode": "B3A4S5", "twitter": "None", "instagram": "None", "facebook": "None", "youtube": "None", "website": "None", "summary": "None", "logo": "None", "latitude": 44.669249572826104, "longitude": -63.57621785154917}, "118913979RR0001": {"name": "FEDERATION OF MOUNTAIN CLUBS OF BRITISH COLUMBIA (1986)", "designationCode": "C", "categoryCode": "56", "address": "PO BOX 19673                  RPO CENTRE POINT MALL", "city": "VANCOUVER", "province": "BC", "country": "CA", "postalCode": "V5T4E7", "twitter": "None", "instagram": "None", "facebook": "None", "youtube": "None", "website": "None", "summary": "None", "logo": "None", "latitude": 49.26037200000006, "longitude": -123.11336149999994}, "891266744RR0001": {"name": "FEDERATION OF NOVA SCOTIA NATURALISTS", "designationCode": "C", "categoryCode": "52", "address": "2 ORCHARD ROAD", "city": "KENTVILLE", "province": "NS", "country": "CA", "postalCode": "B4N1R8", "twitter": "None", "instagram": "None", "facebook": "None", "youtube": "None", "website": "None", "summary": "None", "logo": "None", "latitude": 45.07611234779828, "longitude": -64.49907738897231}, "107378952RR0001": {"name": "FEDERATION OF ONTARIO NATURALISTS", "designationCode": "C", "categoryCode": "52", "address": "612-214 KING ST W", "city": "TORONTO", "province": "ON", "country": "CA", "postalCode": "M5H3S6", "twitter": "None", "instagram": "None", "facebook": "None", "youtube": "None", "website": "None", "summary": "None", "logo": "None", "latitude": 43.64727713630312, "longitude": -79.38670597336825}, "862826179RR0001": {"name": "FEDERATION QUEBECOISE DE LA FIBROMYALGIE (FQF)", "designationCode": "C", "categoryCode": "11", "address": "2465 RUE HONORE-MERCIER       BUREAU 225", "city": "STE-ROSE LAVAL", "province": "QC", "country": "CA", "postalCode": "H7L2S9", "twitter": "None", "instagram": "None", "facebook": "None", "youtube": "None", "website": "None", "summary": "None", "logo": "None", "latitude": 45.60411285815697, "longitude": -73.78189520347372}, "118914027RR0001": {"name": "FEDERATION QUEBECOISE DE LA MARCHE", "designationCode": "C", "categoryCode": "56", "address": "4545, PIERRE-DE-COUBERTIN", "city": "MONTREAL", "province": "QC", "country": "CA", "postalCode": "H1V3R2", "twitter": "None", "instagram": "None", "facebook": "None", "youtube": "None", "website": "None", "summary": "None", "logo": "None", "latitude": 45.555920590080106, "longitude": -73.55036240097485}, "886746791RR0001": {"name": "FEDERATION QUEBECOISE DE LA MONTAGNE ET DE L'ESCALADE", "designationCode": "C", "categoryCode": "56", "address": "4545 AV PIERRE-DE COUBERTIN", "city": "MONTREAL", "province": "QC", "country": "CA", "postalCode": "H1V0B2", "twitter": "None", "instagram": "None", "facebook": "None", "youtube": "None", "website": "None", "summary": "None", "logo": "None", "latitude": 45.555920590080106, "longitude": -73.55036240097485}, "118914035RR0001": {"name": "FEDERATION QUEBECOISE DES CENTRES COMMUNAUTAIRES DE LOISIRS", "designationCode": "C", "categoryCode": "56", "address": "2301 1ERE AVENUE", "city": "QU\u00c9BEC", "province": "QC", "country": "CA", "postalCode": "G1L3M9", "twitter": "None", "instagram": "None", "facebook": "None", "youtube": "None", "website": "None", "summary": "None", "logo": "None", "latitude": 46.83305526187793, "longitude": -71.24104108555136}, "130623184RR0001": {"name": "FEDERATION QUEBECOISE DES LARYNGECTOMISES", "designationCode": "C", "categoryCode": "01", "address": "5565 EST SHERBROOKE", "city": "MONTREAL", "province": "QC", "country": "CA", "postalCode": "H1N1A2", "twitter": "None", "instagram": "None", "facebook": "None", "youtube": "None", "website": "None", "summary": "None", "logo": "None", "latitude": 45.57127880609907, "longitude": -73.55061032157265}, "892678863RR0001": {"name": "FEDERATION QUEBECOISE DES SOCIETES ALZHEIMER", "designationCode": "C", "categoryCode": "13", "address": "200 - 5165 RUE SHERBROOKE O", "city": "MONTREAL", "province": "QC", "country": "CA", "postalCode": "H4A1T6", "twitter": "None", "instagram": "None", "facebook": "None", "youtube": "None", "website": "None", "summary": "None", "logo": "None", "latitude": 45.47163213429537, "longitude": -73.61372184752473}, "118914068RR0001": {"name": "FEDERATION QUEBECOISE DU LOISIR EN INSTITUTION", "designationCode": "C", "categoryCode": "11", "address": "14 RUE ST-AMAND", "city": "LORETTEVILLE", "province": "QC", "country": "CA", "postalCode": "G2A2K9", "twitter": "None", "instagram": "None", "facebook": "None", "youtube": "None", "website": "None", "summary": "None", "logo": "None", "latitude": 46.85452957397995, "longitude": -71.35925387619037}, "101756351RR0001": {"name": "FEDERATION QUEBECOISE DU LOISIR LITTERAIRE", "designationCode": "C", "categoryCode": "21", "address": "4545 AV PIERRE-DE COUBERTIN", "city": "MONTREAL", "province": "QC", "country": "CA", "postalCode": "H1V0B2", "twitter": "None", "instagram": "None", "facebook": "None", "youtube": "None", "website": "None", "summary": "None", "logo": "None", "latitude": 45.555920590080106, "longitude": -73.55036240097485}, "874701303RR0001": {"name": "FEE ASSISTANCE FOR REFUGEE ESTABLISHMENT INC.", "designationCode": "C", "categoryCode": "09", "address": "2507-120 HOMEWOOD AVENUE", "city": "TORONTO", "province": "ON", "country": "CA", "postalCode": "M4Y2J3", "twitter": "None", "instagram": "None", "facebook": "None", "youtube": "None", "website": "None", "summary": "None", "logo": "None", "latitude": 43.66717054371287, "longitude": -79.37616691064105}, "870077757RR0001": {"name": "FEEDING OTHERS OF DARTMOUTH SOCIETY", "designationCode": "C", "categoryCode": "09", "address": "17 PRINCE STREET              P O BOX 664", "city": "DARTMOUTH", "province": "NS", "country": "CA", "postalCode": "B2Y3Y9", "twitter": "None", "instagram": "None", "facebook": "None", "youtube": "None", "website": "None", "summary": "None", "logo": "None", "latitude": 44.66464068218035, "longitude": -63.567065186825296}, "862319092RR0001": {"name": "FEEDING THE HUNGRY - GLOBAL MINISTRIES", "designationCode": "C", "categoryCode": "39", "address": "26-32959 GEORGE FERGUSON WAY", "city": "ABBOTSFORD", "province": "BC", "country": "CA", "postalCode": "V2S7W9", "twitter": "None", "instagram": "None", "facebook": "None", "youtube": "None", "website": "None", "summary": "None", "logo": "None", "latitude": 49.05457944938426, "longitude": -122.3110040234175}, "864323597RR0001": {"name": "FEI AND MILTON WONG FAMILY FOUNDATION", "designationCode": "B", "categoryCode": "03", "address": "357-3381 CAMBIE STREET", "city": "VANCOUVER", "province": "BC", "country": "CA", "postalCode": "V5Z4R3", "twitter": "None", "instagram": "None", "facebook": "None", "youtube": "None", "website": "None", "summary": "None", "logo": "None", "latitude": 49.25517378573488, "longitude": -123.1151819905936}, "889180840RR0001": {"name": "FELICIA AND ARNOLD AARON FOUNDATION", "designationCode": "B", "categoryCode": "03", "address": "200-606 CATHCART ST", "city": "MONTREAL", "province": "QC", "country": "CA", "postalCode": "H3B1K9", "twitter": "None", "instagram": "None", "facebook": "None", "youtube": "None", "website": "None", "summary": "None", "logo": "None", "latitude": 45.5023607376737, "longitude": -73.56936355645132}, "101758282RR0001": {"name": "FELICIAN SISTERS OF ST. FRANCIS OF CANADA", "designationCode": "C", "categoryCode": "46", "address": "2165 MISSISSAUGA RD N", "city": "MISSISSAUGA", "province": "ON", "country": "CA", "postalCode": "L5H2K8", "twitter": "None", "instagram": "None", "facebook": "None", "youtube": "None", "website": "None", "summary": "None", "logo": "None", "latitude": 43.542264456027354, "longitude": -79.63598546852081}, "119288918RR1074": {"name": "FELICIDADE CONGREGATION OF JEHOVAH'S WITNESSES", "designationCode": "C", "categoryCode": "61", "address": "11 SUNNYBROOK CRES.", "city": "BRAMPTON", "province": "ON", "country": "CA", "postalCode": "L7A1Y2", "twitter": "None", "instagram": "None", "facebook": "None", "youtube": "None", "website": "None", "summary": "None", "logo": "None", "latitude": 43.69816148320734, "longitude": -79.80406710104437}, "118914092RR0001": {"name": "FELINE PROTECTION AND ADOPTION ASSOCIATION", "designationCode": "C", "categoryCode": "54", "address": "431 DE LA MORENIE ST", "city": "WINNIPEG", "province": "MB", "country": "CA", "postalCode": "R2H2Z2", "twitter": "None", "instagram": "None", "facebook": "None", "youtube": "None", "website": "None", "summary": "None", "logo": "None", "latitude": 49.886159500692486, "longitude": -97.11288327188508}, "885503128RR0001": {"name": "FELINE RESCUE FOUNDATION OF ALBERTA", "designationCode": "C", "categoryCode": "54", "address": "PO BOX 65122 RPO NORTH HILL", "city": "CALGARY", "province": "AB", "country": "CA", "postalCode": "T2N4T6", "twitter": "None", "instagram": "None", "facebook": "None", "youtube": "None", "website": "None", "summary": "None", "logo": "None", "latitude": 51.065150000000074, "longitude": -114.10340999999994}, "829431121RR0001": {"name": "FELIS (FOCUS ON EASIER LIVES FOR STRAYS)", "designationCode": "C", "categoryCode": "54", "address": "339 - 2325 HURONTARIO ST", "city": "MISSISSAUGA", "province": "ON", "country": "CA", "postalCode": "L5A4K4", "twitter": "None", "instagram": "None", "facebook": "None", "youtube": "None", "website": "None", "summary": "None", "logo": "None", "latitude": 43.574736735558496, "longitude": -79.60855599645157}, "118914118RR0001": {"name": "FELL HOMES", "designationCode": "C", "categoryCode": "09", "address": "BOX 664", "city": "BURKS FALLS", "province": "ON", "country": "CA", "postalCode": "P0A1C0", "twitter": "None", "instagram": "None", "facebook": "None", "youtube": "None", "website": "None", "summary": "None", "logo": "None", "latitude": 45.61863000000005, "longitude": -79.40468999999996}, "118914100RR0001": {"name": "FELLBURN FELLOWSHIP SOCIETY", "designationCode": "C", "categoryCode": "19", "address": "6050 E HASTINGS ST", "city": "BURNABY", "province": "BC", "country": "CA", "postalCode": "V5B1R6", "twitter": "None", "instagram": "None", "facebook": "None", "youtube": "None", "website": "None", "summary": "None", "logo": "None", "latitude": 49.280276438410034, "longitude": -122.97594840942388}, "871592911RR0001": {"name": "FELLOWSHIP (ANCASTER) CHRISTIAN REFORMED CHURCH", "designationCode": "C", "categoryCode": "39", "address": "211 STONEHENGE DRIVE", "city": "ANCASTER", "province": "ON", "country": "CA", "postalCode": "L9K1R4", "twitter": "None", "instagram": "None", "facebook": "None", "youtube": "None", "website": "None", "summary": "None", "logo": "None", "latitude": 43.2165888997637, "longitude": -79.95100520578234}, "107379638RR0001": {"name": "FELLOWSHIP BAPTIST CHURCH", "designationCode": "C", "categoryCode": "31", "address": "2 HELEN RD", "city": "CORNWALL", "province": "ON", "country": "CA", "postalCode": "K6K0A9", "twitter": "None", "instagram": "None", "facebook": "None", "youtube": "None", "website": "None", "summary": "None", "logo": "None", "latitude": 45.06491400000006, "longitude": -74.76768349999993}, "107379729RR0001": {"name": "FELLOWSHIP BAPTIST CHURCH", "designationCode": "C", "categoryCode": "31", "address": "395 MARSDEN ST", "city": "KIMBERLEY", "province": "BC", "country": "CA", "postalCode": "V1A1H3", "twitter": "None", "instagram": "None", "facebook": "None", "youtube": "None", "website": "None", "summary": "None", "logo": "None", "latitude": 49.66915838193184, "longitude": -115.97329401612882}, "107379794RR0001": {"name": "FELLOWSHIP BAPTIST CHURCH", "designationCode": "C", "categoryCode": "31", "address": "3790 C.R. MATTHEWS ROAD", "city": "HOUSTON", "province": "BC", "country": "CA", "postalCode": "V0J1Z2", "twitter": "None", "instagram": "None", "facebook": "None", "youtube": "None", "website": "None", "summary": "None", "logo": "None", "latitude": 54.39126300000005, "longitude": -126.63886399999993}, "118914142RR0001": {"name": "FELLOWSHIP BAPTIST CHURCH", "designationCode": "C", "categoryCode": "31", "address": "PO BOX 92", "city": "HAVELOCK", "province": "ON", "country": "CA", "postalCode": "K0L1Z0", "twitter": "None", "instagram": "None", "facebook": "None", "youtube": "None", "website": "None", "summary": "None", "logo": "None", "latitude": 44.321131016013254, "longitude": -77.79993987356778}, "118914209RR0001": {"name": "FELLOWSHIP BAPTIST CHURCH", "designationCode": "C", "categoryCode": "31", "address": "4436 COUNTY ROAD 124", "city": "COLLINGWOOD", "province": "ON", "country": "CA", "postalCode": "L9Y3Z1", "twitter": "None", "instagram": "None", "facebook": "None", "youtube": "None", "website": "None", "summary": "None", "logo": "None", "latitude": 44.4709309405337, "longitude": -80.2108603826779}, "118914266RR0001": {"name": "FELLOWSHIP BAPTIST CHURCH", "designationCode": "C", "categoryCode": "31", "address": "14323 107A AVE NW", "city": "EDMONTON", "province": "AB", "country": "CA", "postalCode": "T5N1G2", "twitter": "None", "instagram": "None", "facebook": "None", "youtube": "None", "website": "None", "summary": "None", "logo": "None", "latitude": 53.55170451067581, "longitude": -113.56880976221983}, "119024677RR0001": {"name": "FELLOWSHIP BAPTIST CHURCH", "designationCode": "C", "categoryCode": "31", "address": "905 TAYLOR STREET EAST", "city": "SASKATOON", "province": "SK", "country": "CA", "postalCode": "S7H1W3", "twitter": "None", "instagram": "None", "facebook": "None", "youtube": "None", "website": "None", "summary": "None", "logo": "None", "latitude": 52.10735247879261, "longitude": -106.647813}, "132059460RR0001": {"name": "FELLOWSHIP BAPTIST CHURCH", "designationCode": "C", "categoryCode": "31", "address": "138 WILLIAM STREET", "city": "PARRY SOUND", "province": "ON", "country": "CA", "postalCode": "P2A1W2", "twitter": "None", "instagram": "None", "facebook": "None", "youtube": "None", "website": "None", "summary": "None", "logo": "None", "latitude": 45.36005110303391, "longitude": -80.0193278422057}, "888737749RR0001": {"name": "FELLOWSHIP BAPTIST CHURCH", "designationCode": "C", "categoryCode": "31", "address": "174 BRIDGE ST", "city": "MELVERN SQUARE", "province": "NS", "country": "CA", "postalCode": "B0P1R0", "twitter": "None", "instagram": "None", "facebook": "None", "youtube": "None", "website": "None", "summary": "None", "logo": "None", "latitude": 44.98663117733292, "longitude": -64.98632245377698}, "118914126RR0001": {"name": "FELLOWSHIP BAPTIST CHURCH (COBOURG)", "designationCode": "C", "categoryCode": "31", "address": "469 ELGIN ST W", "city": "COBOURG", "province": "ON", "country": "CA", "postalCode": "K9A4X5", "twitter": "None", "instagram": "None", "facebook": "None", "youtube": "None", "website": "None", "summary": "None", "logo": "None", "latitude": 43.97313690640012, "longitude": -78.19134712528152}, "127968451RR0001": {"name": "FELLOWSHIP BAPTIST CHURCH (DRUMHELLER)", "designationCode": "C", "categoryCode": "31", "address": "BOX 337", "city": "DRUMHELLER", "province": "AB", "country": "CA", "postalCode": "T0J0Y0", "twitter": "None", "instagram": "None", "facebook": "None", "youtube": "None", "website": "None", "summary": "None", "logo": "None", "latitude": 51.46154700000005, "longitude": -112.70878099999993}, "107791634RR0001": {"name": "FELLOWSHIP BAPTIST CHURCH - O'CONNOR-CONMEE", "designationCode": "C", "categoryCode": "31", "address": "R.R.#1", "city": "KAKABEKA FALLS", "province": "ON", "country": "CA", "postalCode": "P0T1W0", "twitter": "None", "instagram": "None", "facebook": "None", "youtube": "None", "website": "None", "summary": "None", "logo": "None", "latitude": 48.40181000000007, "longitude": -89.61533999999995}, "131175242RR0001": {"name": "FELLOWSHIP BAPTIST CHURCH MARKHAM", "designationCode": "C", "categoryCode": "31", "address": "7478 KENNEDY ROAD", "city": "MARKHAM", "province": "ON", "country": "CA", "postalCode": "L3R9S5", "twitter": "None", "instagram": "None", "facebook": "None", "youtube": "None", "website": "None", "summary": "None", "logo": "None", "latitude": 43.836191401898475, "longitude": -79.30357454668436}, "118914316RR0001": {"name": "FELLOWSHIP BAPTIST CHURCH WHITE ROCK", "designationCode": "C", "categoryCode": "31", "address": "15138 PROSPECT AVE", "city": "WHITE ROCK", "province": "BC", "country": "CA", "postalCode": "V4B2B9", "twitter": "None", "instagram": "None", "facebook": "None", "youtube": "None", "website": "None", "summary": "None", "logo": "None", "latitude": 49.02474548845882, "longitude": -122.80280310935426}, "129486049RR0001": {"name": "FELLOWSHIP BAPTIST CHURCH,", "designationCode": "C", "categoryCode": "31", "address": "67 KING ST E                  PO BOX 283", "city": "BURFORD", "province": "ON", "country": "CA", "postalCode": "N0E1A0", "twitter": "None", "instagram": "None", "facebook": "None", "youtube": "None", "website": "None", "summary": "None", "logo": "None", "latitude": 43.10456075982525, "longitude": -80.42075680166215}, "894008457RR0001": {"name": "FELLOWSHIP BAPTIST STEWARDSHIP SERVICES SOCIETY", "designationCode": "C", "categoryCode": "31", "address": "PO BOX 1107                   9111 CHURCH ST", "city": "FORT LANGLEY", "province": "BC", "country": "CA", "postalCode": "V1M2S4", "twitter": "None", "instagram": "None", "facebook": "None", "youtube": "None", "website": "None", "summary": "None", "logo": "None", "latitude": 49.16780829115925, "longitude": -122.57898279312113}, "118914324RR0001": {"name": "FELLOWSHIP BIBLE CHAPEL", "designationCode": "C", "categoryCode": "39", "address": "220 KING'S ROAD", "city": "LONDESBOROUGH", "province": "ON", "country": "CA", "postalCode": "N0M2H0", "twitter": "None", "instagram": "None", "facebook": "None", "youtube": "None", "website": "None", "summary": "None", "logo": "None", "latitude": 43.69722115743997, "longitude": -81.47642288815133}, "132019993RR0001": {"name": "FELLOWSHIP BIBLE CHURCH", "designationCode": "C", "categoryCode": "31", "address": "150 HAMILTON ROAD", "city": "NEW HAMBURG", "province": "ON", "country": "CA", "postalCode": "N3A2K1", "twitter": "None", "instagram": "None", "facebook": "None", "youtube": "None", "website": "None", "summary": "None", "logo": "None", "latitude": 43.382846526170994, "longitude": -80.70072637795063}, "118914340RR0002": {"name": "FELLOWSHIP CHAPEL", "designationCode": "C", "categoryCode": "39", "address": "PO BOX 173", "city": "TWO HILLS", "province": "AB", "country": "CA", "postalCode": "T0B4K0", "twitter": "None", "instagram": "None", "facebook": "None", "youtube": "None", "website": "None", "summary": "None", "logo": "None", "latitude": 53.42860638169389, "longitude": -110.1791835}, "107379844RR0001": {"name": "FELLOWSHIP CHRISTIAN REFORMED CHURCH OF BRIGHTON", "designationCode": "C", "categoryCode": "39", "address": "PO BOX 699", "city": "BRIGHTON", "province": "ON", "country": "CA", "postalCode": "K0K1H0", "twitter": "None", "instagram": "None", "facebook": "None", "youtube": "None", "website": "None", "summary": "None", "logo": "None", "latitude": 44.04197993003085, "longitude": -77.73788995224774}, "132730961RR0001": {"name": "FELLOWSHIP CHRISTIAN REFORMED CHURCH OF EDMONTON", "designationCode": "C", "categoryCode": "39", "address": "9125 50 ST NW", "city": "EDMONTON", "province": "AB", "country": "CA", "postalCode": "T6B2H3", "twitter": "None", "instagram": "None", "facebook": "None", "youtube": "None", "website": "None", "summary": "None", "logo": "None", "latitude": 53.52518032885313, "longitude": -113.41847513511998}}