{"883794844RR0001": {"name": "K-ROCK CHILDREN'S TRUST FUND INC.", "designationCode": "C", "categoryCode": "11", "address": "P.O.BOX 8590 STN A", "city": "ST JOHN'S", "province": "NL", "country": "CA", "postalCode": "A1B3P5", "twitter": "None", "instagram": "None", "facebook": "None", "youtube": "None", "website": "None", "summary": "None", "logo": "None", "latitude": 47.56938900000006, "longitude": -52.78609699999993}, "126774579RR0001": {"name": "K-W ACCESS-ABILITY", "designationCode": "C", "categoryCode": "01", "address": "250-659 KING ST E", "city": "KITCHENER", "province": "ON", "country": "CA", "postalCode": "N2G2M4", "twitter": "None", "instagram": "None", "facebook": "None", "youtube": "None", "website": "None", "summary": "None", "logo": "None", "latitude": 43.44484406991192, "longitude": -80.47827614282399}, "118987544RR0001": {"name": "K-W CHINESE ALLIANCE CHURCH", "designationCode": "C", "categoryCode": "39", "address": "612 ERB STREET WEST           P.O. BOX 22009", "city": "WATERLOO", "province": "ON", "country": "CA", "postalCode": "N2J3Z4", "twitter": "None", "instagram": "None", "facebook": "None", "youtube": "None", "website": "None", "summary": "None", "logo": "None", "latitude": 43.44808268388247, "longitude": -80.56609334055625}, "118987551RR0001": {"name": "K-W FELLOWSHIP CHRISTIAN SCHOOL", "designationCode": "C", "categoryCode": "20", "address": "1780 GLASGOW STREET", "city": "KITCHENER", "province": "ON", "country": "CA", "postalCode": "N2N0A7", "twitter": "None", "instagram": "None", "facebook": "None", "youtube": "None", "website": "None", "summary": "None", "logo": "None", "latitude": 43.424697983322915, "longitude": -80.56097089748374}, "107579815RR0001": {"name": "K-W HABILITATION SERVICES", "designationCode": "C", "categoryCode": "11", "address": "99 OTTAWA ST. S", "city": "KITCHENER", "province": "ON", "country": "CA", "postalCode": "N2G3S8", "twitter": "None", "instagram": "None", "facebook": "None", "youtube": "None", "website": "None", "summary": "None", "logo": "None", "latitude": 43.43953592365414, "longitude": -80.47398286493762}, "118987569RR0001": {"name": "K-W KINSMEN CHARITABLE FOUNDATION", "designationCode": "A", "categoryCode": "03", "address": "99 OTTAWA STREET SOUTH", "city": "KITCHENER", "province": "ON", "country": "CA", "postalCode": "N2G3S8", "twitter": "None", "instagram": "None", "facebook": "None", "youtube": "None", "website": "None", "summary": "None", "logo": "None", "latitude": 43.43953592365414, "longitude": -80.47398286493762}, "118987577RR0001": {"name": "K-W MUSICAL PRODUCTIONS", "designationCode": "C", "categoryCode": "22", "address": "15 CROYDEN PLACE", "city": "WATERLOO", "province": "ON", "country": "CA", "postalCode": "N2K1V1", "twitter": "None", "instagram": "None", "facebook": "None", "youtube": "None", "website": "None", "summary": "None", "logo": "None", "latitude": 43.48863952510255, "longitude": -80.49703045946113}, "108051988RR0001": {"name": "K-W SENIORS DAY PROGRAM INC.", "designationCode": "C", "categoryCode": "56", "address": "247 FRANKLIN ST NORTH", "city": "KITCHENER", "province": "ON", "country": "CA", "postalCode": "N2A1Y5", "twitter": "None", "instagram": "None", "facebook": "None", "youtube": "None", "website": "None", "summary": "None", "logo": "None", "latitude": 43.440549053320815, "longitude": -80.44664997807239}, "118987619RR0001": {"name": "K-W SERTOMA CLUB CHARITABLE TRUST", "designationCode": "C", "categoryCode": "09", "address": "238 CLAREMONT AVE", "city": "KITCHENER", "province": "ON", "country": "CA", "postalCode": "N2M2R1", "twitter": "None", "instagram": "None", "facebook": "None", "youtube": "None", "website": "None", "summary": "None", "logo": "None", "latitude": 43.45068405969746, "longitude": -80.5257908370938}, "889173944RR0001": {"name": "K-W SINGERS", "designationCode": "C", "categoryCode": "22", "address": "8-190 ALPINE ROAD", "city": "KITCHENER", "province": "ON", "country": "CA", "postalCode": "N2E2N8", "twitter": "None", "instagram": "None", "facebook": "None", "youtube": "None", "website": "None", "summary": "None", "logo": "None", "latitude": 43.422520013041755, "longitude": -80.4779472081196}, "889368197RR0001": {"name": "K-W SYMPHONY FOUNDATION INC", "designationCode": "A", "categoryCode": "23", "address": "36 KING ST W", "city": "KITCHENER", "province": "ON", "country": "CA", "postalCode": "N2G1A3", "twitter": "None", "instagram": "None", "facebook": "None", "youtube": "None", "website": "None", "summary": "None", "logo": "None", "latitude": 43.450106352501464, "longitude": -80.48979167234127}, "130929607RR0001": {"name": "K-W WORKING CENTRE FOR THE UNEMPLOYED", "designationCode": "C", "categoryCode": "01", "address": "58 QUEEN ST S", "city": "KITCHENER", "province": "ON", "country": "CA", "postalCode": "N2G1V6", "twitter": "None", "instagram": "None", "facebook": "None", "youtube": "None", "website": "None", "summary": "None", "logo": "None", "latitude": 43.44912837108313, "longitude": -80.48987097835992}, "888040060RR0001": {"name": "K-W YMCA ENDOWMENT FOUNDATION", "designationCode": "A", "categoryCode": "03", "address": "460 FREDERICK STREET          SUITE 203", "city": "KITCHENER", "province": "ON", "country": "CA", "postalCode": "N2H2P5", "twitter": "None", "instagram": "None", "facebook": "None", "youtube": "None", "website": "None", "summary": "None", "logo": "None", "latitude": 43.45862972831645, "longitude": -80.47212132711047}, "118987643RR0001": {"name": "K-W YOUNG WOMEN'S CHRISTIAN ASSOCIATION", "designationCode": "C", "categoryCode": "49", "address": "153 FREDERICK ST", "city": "KITCHENER", "province": "ON", "country": "CA", "postalCode": "N2H2M2", "twitter": "None", "instagram": "None", "facebook": "None", "youtube": "None", "website": "None", "summary": "None", "logo": "None", "latitude": 43.452378420191685, "longitude": -80.48419868039134}, "118980432RR0001": {"name": "K'HAL TORAS CHESED", "designationCode": "C", "categoryCode": "42", "address": "212 KING STREET WEST          SUITE 400", "city": "TORONTO", "province": "ON", "country": "CA", "postalCode": "M5H1K5", "twitter": "None", "instagram": "None", "facebook": "None", "youtube": "None", "website": "None", "summary": "None", "logo": "None", "latitude": 43.647364212908776, "longitude": -79.38630963809213}, "825253719RR0001": {"name": "Kabir Association of Toronto Inc.", "designationCode": "C", "categoryCode": "39", "address": "3646 LAWRENCE AVENUE EAST,", "city": "SCARBOROUGH", "province": "ON", "country": "CA", "postalCode": "M1G1P6", "twitter": "None", "instagram": "None", "facebook": "None", "youtube": "None", "website": "None", "summary": "None", "logo": "None", "latitude": 43.760649161838344, "longitude": -79.22148733126542}, "842808719RR0001": {"name": "Kacharie Foundation", "designationCode": "B", "categoryCode": "03", "address": "1046 YONGE ST", "city": "TORONTO", "province": "ON", "country": "CA", "postalCode": "M4W2L1", "twitter": "None", "instagram": "None", "facebook": "None", "youtube": "None", "website": "None", "summary": "None", "logo": "None", "latitude": 43.67709904218365, "longitude": -79.38961629935355}, "861356970RR0001": {"name": "Kadampa Meditation Centre Canada", "designationCode": "C", "categoryCode": "35", "address": "631 CRAWFORD ST", "city": "TORONTO", "province": "ON", "country": "CA", "postalCode": "M6G3K1", "twitter": "None", "instagram": "None", "facebook": "None", "youtube": "None", "website": "None", "summary": "None", "logo": "None", "latitude": 43.6605909775232, "longitude": -79.42114649345046}, "802509349RR0001": {"name": "Kadampa Meditation Centre Fraser Valley", "designationCode": "C", "categoryCode": "35", "address": "UNIT 106                      31581 SOUTH FRASER WAY", "city": "ABBOTSFORD", "province": "BC", "country": "CA", "postalCode": "V2T1T8", "twitter": "None", "instagram": "None", "facebook": "None", "youtube": "None", "website": "None", "summary": "None", "logo": "None", "latitude": 49.04601046104768, "longitude": -122.34888313486083}, "873409338RR0001": {"name": "Kadampa Meditation Centre Vancouver Society", "designationCode": "C", "categoryCode": "35", "address": "1829 VICTORIA DIVERSION", "city": "VANCOUVER", "province": "BC", "country": "CA", "postalCode": "V5N2K2", "twitter": "None", "instagram": "None", "facebook": "None", "youtube": "None", "website": "None", "summary": "None", "logo": "None", "latitude": 49.253990708869416, "longitude": -123.06758190212962}, "838134666RR0001": {"name": "Kaeden Brown Foundation", "designationCode": "A", "categoryCode": "21", "address": "6225 WARWICK VILLAGE ROAD     RR#8", "city": "WATFORD", "province": "ON", "country": "CA", "postalCode": "N0M2S0", "twitter": "None", "instagram": "None", "facebook": "None", "youtube": "None", "website": "None", "summary": "None", "logo": "None", "latitude": 43.004506878938194, "longitude": -81.94761610177238}, "883660508RR0001": {"name": "Kaien Anti-Poverty Society", "designationCode": "C", "categoryCode": "01", "address": "P.O BOX 241", "city": "PRINCE RUPERT", "province": "BC", "country": "CA", "postalCode": "V8J3P6", "twitter": "None", "instagram": "None", "facebook": "None", "youtube": "None", "website": "None", "summary": "None", "logo": "None", "latitude": 54.313233000000054, "longitude": -130.32604249999994}, "898686571RR0001": {"name": "Kainai Food Bank Society", "designationCode": "C", "categoryCode": "09", "address": "PO BOX 118", "city": "STANDOFF", "province": "AB", "country": "CA", "postalCode": "T0L1Y0", "twitter": "None", "instagram": "None", "facebook": "None", "youtube": "None", "website": "None", "summary": "None", "logo": "None", "latitude": 49.46847000000005, "longitude": -113.30507149999994}, "862098415RR0001": {"name": "Kairos Evangelistic Ministries", "designationCode": "C", "categoryCode": "39", "address": "4210-403 MACKENZIE WAY SW", "city": "AIRDRIE", "province": "AB", "country": "CA", "postalCode": "T4B3V7", "twitter": "None", "instagram": "None", "facebook": "None", "youtube": "None", "website": "None", "summary": "None", "logo": "None", "latitude": 51.2885123055638, "longitude": -114.02226219895162}, "843381898RR0001": {"name": "Kairos Group Ministries", "designationCode": "C", "categoryCode": "47", "address": "106 MISSISSAGA STREET EAST", "city": "ORILLIA", "province": "ON", "country": "CA", "postalCode": "L3V1V7", "twitter": "None", "instagram": "None", "facebook": "None", "youtube": "None", "website": "None", "summary": "None", "logo": "None", "latitude": 44.6094363545046, "longitude": -79.41708498580489}, "805046695RR0001": {"name": "Kaival Gyan Society of Toronto", "designationCode": "C", "categoryCode": "48", "address": "227 IVERGORDON AVENUE", "city": "TORONTO", "province": "ON", "country": "CA", "postalCode": "M1S3Z1", "twitter": "None", "instagram": "None", "facebook": "None", "youtube": "None", "website": "None", "summary": "None", "logo": "None", "latitude": 43.78907582763009, "longitude": -79.2428851470945}, "133218727RR0001": {"name": "Kala Nidhi Fine Arts of Canada", "designationCode": "C", "categoryCode": "22", "address": "11 GLEN CAMERON RD            UNIT # 1", "city": "THORNHILL", "province": "ON", "country": "CA", "postalCode": "L3T4N3", "twitter": "None", "instagram": "None", "facebook": "None", "youtube": "None", "website": "None", "summary": "None", "logo": "None", "latitude": 43.80589083758475, "longitude": -79.4193874644528}, "707270724RR0001": {"name": "Kalapaca Family Foundation", "designationCode": "B", "categoryCode": "05", "address": "P.O. BOX 133", "city": "CAMPBELLVILLE", "province": "ON", "country": "CA", "postalCode": "L0P1B0", "twitter": "None", "instagram": "None", "facebook": "None", "youtube": "None", "website": "None", "summary": "None", "logo": "None", "latitude": 43.530693000000056, "longitude": -80.04475699999993}, "844305292RR0001": {"name": "Kaleden Community Association", "designationCode": "C", "categoryCode": "50", "address": "PO BOX 136                    320 LAKEHILL ROAD", "city": "KALEDEN", "province": "BC", "country": "CA", "postalCode": "V0H1K0", "twitter": "None", "instagram": "None", "facebook": "None", "youtube": "None", "website": "None", "summary": "None", "logo": "None", "latitude": 49.390160596428096, "longitude": -119.59512515142232}, "108029604RR0001": {"name": "Kalyna Kids Society", "designationCode": "C", "categoryCode": "20", "address": "11310-51AVE  RM#4             ST MARTIN SCHOOL", "city": "EDMONTON", "province": "AB", "country": "CA", "postalCode": "T6H0L7", "twitter": "None", "instagram": "None", "facebook": "None", "youtube": "None", "website": "None", "summary": "None", "logo": "None", "latitude": 53.48834000000005, "longitude": -113.52336999999994}, "875460610RR0001": {"name": "Kamloopa Pow Wow Society", "designationCode": "C", "categoryCode": "22", "address": "330 CHIEF ALEX THOMAS WAY     APT 200", "city": "KAMLOOPS", "province": "BC", "country": "CA", "postalCode": "V2H1H1", "twitter": "None", "instagram": "None", "facebook": "None", "youtube": "None", "website": "None", "summary": "None", "logo": "None", "latitude": 50.67913200000005, "longitude": -120.29876899999994}, "118977040RR0001": {"name": "Kamloops & District Crime Stoppers Society", "designationCode": "C", "categoryCode": "59", "address": "PO BOX 3122", "city": "KAMLOOPS", "province": "BC", "country": "CA", "postalCode": "V2C6B7", "twitter": "None", "instagram": "None", "facebook": "None", "youtube": "None", "website": "None", "summary": "None", "logo": "None", "latitude": 50.675883000000056, "longitude": -120.33898099999993}, "129955126RR0001": {"name": "Kamloops Aboriginal Friendship Society", "designationCode": "C", "categoryCode": "59", "address": "125 PALM STREET", "city": "KAMLOOPS", "province": "BC", "country": "CA", "postalCode": "V2B8J7", "twitter": "None", "instagram": "None", "facebook": "None", "youtube": "None", "website": "None", "summary": "None", "logo": "None", "latitude": 50.685504275607336, "longitude": -120.35622097489745}, "810140343RR0001": {"name": "Kamloops Adult Learner's Society", "designationCode": "C", "categoryCode": "21", "address": "262 LORNE ST", "city": "KAMLOOPS", "province": "BC", "country": "CA", "postalCode": "V2C1W1", "twitter": "None", "instagram": "None", "facebook": "None", "youtube": "None", "website": "None", "summary": "None", "logo": "None", "latitude": 50.67809534722136, "longitude": -120.33501479211152}, "847800489RR0001": {"name": "Kamloops Firefighters Charitable Society", "designationCode": "A", "categoryCode": "03", "address": "2627 NECHAKO DR               PO BOX 218 STATION MAIN", "city": "KAMLOOPS", "province": "BC", "country": "CA", "postalCode": "V2C5K6", "twitter": "None", "instagram": "None", "facebook": "None", "youtube": "None", "website": "None", "summary": "None", "logo": "None", "latitude": 50.66032985178031, "longitude": -120.24087745158393}, "867490567RR0001": {"name": "Kamloops Food Policy Council", "designationCode": "C", "categoryCode": "09", "address": "140 LABURNUM ST", "city": "KAMLOOPS", "province": "BC", "country": "CA", "postalCode": "V2B1G4", "twitter": "None", "instagram": "None", "facebook": "None", "youtube": "None", "website": "None", "summary": "None", "logo": "None", "latitude": 50.688807161521225, "longitude": -120.35564501413826}, "118977255RR0001": {"name": "Kamloops Senior Citizens (\"Happy Choristers\") Choir Society", "designationCode": "C", "categoryCode": "22", "address": "1730 FLEETWOOD AVE", "city": "KAMLOOPS", "province": "BC", "country": "CA", "postalCode": "V2B4R3", "twitter": "None", "instagram": "None", "facebook": "None", "youtube": "None", "website": "None", "summary": "None", "logo": "None", "latitude": 50.70772008855089, "longitude": -120.38954834722134}, "879962603RR0001": {"name": "Kamsack Pentecostal Chapel Corp.", "designationCode": "C", "categoryCode": "39", "address": "BOX 2289", "city": "KAMSACK", "province": "SK", "country": "CA", "postalCode": "S0A1S0", "twitter": "None", "instagram": "None", "facebook": "None", "youtube": "None", "website": "None", "summary": "None", "logo": "None", "latitude": 51.63817289172365, "longitude": -101.65758543154911}, "871619805RR0002": {"name": "Kanata Baptist Church Inc.", "designationCode": "C", "categoryCode": "31", "address": "465 HAZELDEAN ROAD", "city": "KANATA", "province": "ON", "country": "CA", "postalCode": "K2L1V1", "twitter": "None", "instagram": "None", "facebook": "None", "youtube": "None", "website": "None", "summary": "None", "logo": "None", "latitude": 45.29845091372812, "longitude": -75.88794963064763}, "708458724RR0001": {"name": "Kanata Chinese Grace Church", "designationCode": "C", "categoryCode": "39", "address": "1151 NORTH RIVER RD", "city": "OTTAWA", "province": "ON", "country": "CA", "postalCode": "K1K3W5", "twitter": "None", "instagram": "None", "facebook": "None", "youtube": "None", "website": "None", "summary": "None", "logo": "None", "latitude": 45.42101777687677, "longitude": -75.66423796381855}, "736310095RR0001": {"name": "Kanata Food Cupboard", "designationCode": "C", "categoryCode": "09", "address": "44 ROSEGARDEN CRES", "city": "OTTAWA", "province": "ON", "country": "CA", "postalCode": "K1T3A9", "twitter": "None", "instagram": "None", "facebook": "None", "youtube": "None", "website": "None", "summary": "None", "logo": "None", "latitude": 45.35945723561672, "longitude": -75.63976470953324}, "119288918RR0710": {"name": "Kanata South Congregation of Jehovah's Witnesses, Ottawa, Ontario", "designationCode": "C", "categoryCode": "61", "address": "276 SANDHILL ROAD", "city": "KANATA", "province": "ON", "country": "CA", "postalCode": "K2K2V1", "twitter": "None", "instagram": "None", "facebook": "None", "youtube": "None", "website": "None", "summary": "None", "logo": "None"}, "119288918RR1536": {"name": "Kanata West Congregation of Jehovah's Witnesses, Ottawa, Ontario", "designationCode": "C", "categoryCode": "61", "address": "56 JARLAN TERR", "city": "KANATA", "province": "ON", "country": "CA", "postalCode": "K2L3L3", "twitter": "None", "instagram": "None", "facebook": "None", "youtube": "None", "website": "None", "summary": "None", "logo": "None", "latitude": 45.30098494725612, "longitude": -75.90518152749712}, "119065928RR0001": {"name": "Kanehsatake Pentecostal Church", "designationCode": "C", "categoryCode": "36", "address": "815 STE PHILOMENE", "city": "KANESATAKE", "province": "QC", "country": "CA", "postalCode": "J0N1E0", "twitter": "None", "instagram": "None", "facebook": "None", "youtube": "None", "website": "None", "summary": "None", "logo": "None", "latitude": 45.48901650575908, "longitude": -74.13135368672393}, "846256378RR0001": {"name": "Kanhai (Ken) Singh and Jessie Singh Family Foundation", "designationCode": "B", "categoryCode": "03", "address": "3 FITZPATRICK DRIVE,", "city": "BRAMPTON", "province": "ON", "country": "CA", "postalCode": "L6P0P3", "twitter": "None", "instagram": "None", "facebook": "None", "youtube": "None", "website": "None", "summary": "None", "logo": "None", "latitude": 43.78577208407883, "longitude": -79.6895189713777}, "857487193RR0001": {"name": "Kanyawegi Support for Orphans and Widows-Canada", "designationCode": "C", "categoryCode": "09", "address": "8867 159A STREET", "city": "SURREY", "province": "BC", "country": "CA", "postalCode": "V4N2X9", "twitter": "None", "instagram": "None", "facebook": "None", "youtube": "None", "website": "None", "summary": "None", "logo": "None", "latitude": 49.16392149708582, "longitude": -122.78035503387378}, "840542286RR0001": {"name": "Kapasi International Relief and Education Assistance. (K.I.R.E.A.)", "designationCode": "B", "categoryCode": "09", "address": "5 CLADDAMOUR PL", "city": "WOODBRIDGE", "province": "ON", "country": "CA", "postalCode": "L4L0E3", "twitter": "None", "instagram": "None", "facebook": "None", "youtube": "None", "website": "None", "summary": "None", "logo": "None", "latitude": 43.79227672892529, "longitude": -79.594762498018}, "888387404RR0001": {"name": "Kapisanan Philippine Centre", "designationCode": "C", "categoryCode": "22", "address": "201 - 180 SHAW ST", "city": "TORONTO", "province": "ON", "country": "CA", "postalCode": "M6J2W5", "twitter": "None", "instagram": "None", "facebook": "None", "youtube": "None", "website": "None", "summary": "None", "logo": "None", "latitude": 43.64695199694158, "longitude": -79.41723599933617}, "108023201RR0001": {"name": "Kapuskasing Community Church", "designationCode": "C", "categoryCode": "37", "address": "17A ASH STREET", "city": "KAPUSKASING", "province": "ON", "country": "CA", "postalCode": "P5N3H1", "twitter": "None", "instagram": "None", "facebook": "None", "youtube": "None", "website": "None", "summary": "None", "logo": "None", "latitude": 49.42765521027065, "longitude": -82.41722934097807}, "824896799RR0001": {"name": "Kare Victim Services Society", "designationCode": "C", "categoryCode": "59", "address": "11140 109 ST NW", "city": "EDMONTON", "province": "AB", "country": "CA", "postalCode": "T5G2T4", "twitter": "None", "instagram": "None", "facebook": "None", "youtube": "None", "website": "None", "summary": "None", "logo": "None", "latitude": 53.559718768271345, "longitude": -113.50860336412102}, "739038297RR0001": {"name": "Karen & David Maidment Family Foundation", "designationCode": "B", "categoryCode": "03", "address": "92 SALISBURY AVE", "city": "CAMBRIDGE", "province": "ON", "country": "CA", "postalCode": "N1S1J5", "twitter": "None", "instagram": "None", "facebook": "None", "youtube": "None", "website": "None", "summary": "None", "logo": "None", "latitude": 43.35816049711447, "longitude": -80.32377052553522}, "849654975RR0001": {"name": "Karen Baptist Church of Calgary Alberta, Canada", "designationCode": "C", "categoryCode": "39", "address": "196 TARINGTON CLOSE NE", "city": "CALGARY", "province": "AB", "country": "CA", "postalCode": "T3J3V7", "twitter": "None", "instagram": "None", "facebook": "None", "youtube": "None", "website": "None", "summary": "None", "logo": "None", "latitude": 51.111423, "longitude": -113.93287629017829}, "800308751RR0001": {"name": "Karis Support Society", "designationCode": "B", "categoryCode": "57", "address": "550 ROWCLIFFE AVE", "city": "KELOWNA", "province": "BC", "country": "CA", "postalCode": "V1Y5Y9", "twitter": "None", "instagram": "None", "facebook": "None", "youtube": "None", "website": "None", "summary": "None", "logo": "None", "latitude": 49.88101364286426, "longitude": -119.49164556122754}, "832344907RR0001": {"name": "Karma Kagyu Association of Canada", "designationCode": "C", "categoryCode": "35", "address": "7 LAXTON AVENUE", "city": "TORONTO", "province": "ON", "country": "CA", "postalCode": "M6K1K8", "twitter": "None", "instagram": "None", "facebook": "None", "youtube": "None", "website": "None", "summary": "None", "logo": "None", "latitude": 43.63934477655963, "longitude": -79.43798790146579}, "834458978RR0001": {"name": "KarmaQuest International", "designationCode": "C", "categoryCode": "21", "address": "5640 ROSALINE RD", "city": "BURLINGTON", "province": "ON", "country": "CA", "postalCode": "L7L6T4", "twitter": "None", "instagram": "None", "facebook": "None", "youtube": "None", "website": "None", "summary": "None", "logo": "None", "latitude": 43.40557561197999, "longitude": -79.78113502510254}, "829227644RR0001": {"name": "Karmic Applications Charity", "designationCode": "A", "categoryCode": "03", "address": "2943 GUIRE COMMON", "city": "BURLINGTON", "province": "ON", "country": "CA", "postalCode": "L7M0G4", "twitter": "None", "instagram": "None", "facebook": "None", "youtube": "None", "website": "None", "summary": "None", "logo": "None", "latitude": 43.39506891312256, "longitude": -79.81994035830118}, "804645646RR0001": {"name": "Karpov Ballet Theatre", "designationCode": "C", "categoryCode": "22", "address": "58 AV JOHN LINK", "city": "SUTTON WEST", "province": "ON", "country": "CA", "postalCode": "L0E1R0", "twitter": "None", "instagram": "None", "facebook": "None", "youtube": "None", "website": "None", "summary": "None", "logo": "None", "latitude": 44.303171660703114, "longitude": -79.37676820001714}, "813986361RR0001": {"name": "Kaslo and Area Medical Care Society", "designationCode": "C", "categoryCode": "11", "address": "PO BOX 1215", "city": "KASLO", "province": "BC", "country": "CA", "postalCode": "V0G1M0", "twitter": "None", "instagram": "None", "facebook": "None", "youtube": "None", "website": "None", "summary": "None", "logo": "None", "latitude": 49.91053000000005, "longitude": -116.90458999999998}, "872473913RR0001": {"name": "Kaslo Jazz Etc. Society", "designationCode": "C", "categoryCode": "22", "address": "2-404 FRONT STREET            PO BOX 1293", "city": "KASLO", "province": "BC", "country": "CA", "postalCode": "V0G1M0", "twitter": "None", "instagram": "None", "facebook": "None", "youtube": "None", "website": "None", "summary": "None", "logo": "None", "latitude": 49.91193910235135, "longitude": -116.90386453621538}, "863051181RR0001": {"name": "Kaslo Outdoor Recreation and Trails Society", "designationCode": "C", "categoryCode": "56", "address": "PO BOX 1258", "city": "KASLO", "province": "BC", "country": "CA", "postalCode": "V0G1M0", "twitter": "None", "instagram": "None", "facebook": "None", "youtube": "None", "website": "None", "summary": "None", "logo": "None", "latitude": 49.91053000000005, "longitude": -116.90458999999998}, "827649609RR0001": {"name": "Kate's Kause", "designationCode": "C", "categoryCode": "11", "address": "43 SNOW GOOSE CRESCENT", "city": "ELMIRA", "province": "ON", "country": "CA", "postalCode": "N3B3M4", "twitter": "None", "instagram": "None", "facebook": "None", "youtube": "None", "website": "None", "summary": "None", "logo": "None", "latitude": 43.58780247163711, "longitude": -80.58132523513467}, "851640607RR0001": {"name": "Kateslem Youth Society", "designationCode": "C", "categoryCode": "09", "address": "33138 MYRTLE AVE", "city": "MISSION", "province": "BC", "country": "CA", "postalCode": "V2V5W1", "twitter": "None", "instagram": "None", "facebook": "None", "youtube": "None", "website": "None", "summary": "None", "logo": "None", "latitude": 49.150010668203976, "longitude": -122.30626190668188}, "766017693RR0001": {"name": "Katherine Lemke Heinrichs Scholarship Trust", "designationCode": "C", "categoryCode": "21", "address": "3210 - 347 LEON AVE", "city": "KELOWNA", "province": "BC", "country": "CA", "postalCode": "V1Y8C7", "twitter": "None", "instagram": "None", "facebook": "None", "youtube": "None", "website": "None", "summary": "None", "logo": "None", "latitude": 49.88451047013695, "longitude": -119.49592113918865}, "826963191RR0001": {"name": "Katie Cares Inc.", "designationCode": "C", "categoryCode": "01", "address": "255 13TH ST", "city": "WINKLER", "province": "MB", "country": "CA", "postalCode": "R6W1S5", "twitter": "None", "instagram": "None", "facebook": "None", "youtube": "None", "website": "None", "summary": "None", "logo": "None", "latitude": 49.180634999999995, "longitude": -97.95231097665781}, "833196934RR0001": {"name": "Katpaka Vinayagar Hindu Temple, Bramton", "designationCode": "C", "categoryCode": "48", "address": "200 ADVANCE BOULEVARD         UNIT 7 #1", "city": "BRAMPTON", "province": "ON", "country": "CA", "postalCode": "L6T4V4", "twitter": "None", "instagram": "None", "facebook": "None", "youtube": "None", "website": "None", "summary": "None", "logo": "None", "latitude": 43.69144266114587, "longitude": -79.6950616231458}, "823597950RR0001": {"name": "Kaushal Family Charitable Foundation", "designationCode": "B", "categoryCode": "05", "address": "34-7695 ST. ALBANS ROAD", "city": "RICHMOND", "province": "BC", "country": "CA", "postalCode": "V6Y3W8", "twitter": "None", "instagram": "None", "facebook": "None", "youtube": "None", "website": "None", "summary": "None", "logo": "None", "latitude": 49.15693998770809, "longitude": -123.13095081264181}, "807241534RR0001": {"name": "Kawartha Antique Power", "designationCode": "C", "categoryCode": "50", "address": "47 KILLARNEY BAY ROAD         R R #2", "city": "CAMERON", "province": "ON", "country": "CA", "postalCode": "K0M1G0", "twitter": "None", "instagram": "None", "facebook": "None", "youtube": "None", "website": "None", "summary": "None", "logo": "None", "latitude": 44.40710910934297, "longitude": -78.7961694648355}, "884417627RR0001": {"name": "Kawartha Blazers Sledge Hockey Association", "designationCode": "C", "categoryCode": "56", "address": "626 RIVER RD S", "city": "PETERBOROUGH", "province": "ON", "country": "CA", "postalCode": "K9J1E7", "twitter": "None", "instagram": "None", "facebook": "None", "youtube": "None", "website": "None", "summary": "None", "logo": "None", "latitude": 44.28418293698434, "longitude": -78.30879136395669}, "894696988RR0001": {"name": "Kawartha Conservation Foundation", "designationCode": "A", "categoryCode": "53", "address": "277 KENREI ROAD", "city": "LINDSAY", "province": "ON", "country": "CA", "postalCode": "K9V4R1", "twitter": "None", "instagram": "None", "facebook": "None", "youtube": "None", "website": "None", "summary": "None", "logo": "None", "latitude": 44.400360588278986, "longitude": -78.7592605524731}, "844928853RR0001": {"name": "Kawartha Heritage", "designationCode": "C", "categoryCode": "52", "address": "POSTAL BOX 179", "city": "FENELON FALLS", "province": "ON", "country": "CA", "postalCode": "K0M1N0", "twitter": "None", "instagram": "None", "facebook": "None", "youtube": "None", "website": "None", "summary": "None", "logo": "None", "latitude": 44.537930000000074, "longitude": -78.73794999999996}, "804316735RR0001": {"name": "Kawartha Lakes Autism Support", "designationCode": "C", "categoryCode": "11", "address": "572 LORNEVILLE RD", "city": "WOODVILLE", "province": "ON", "country": "CA", "postalCode": "K0M2T0", "twitter": "None", "instagram": "None", "facebook": "None", "youtube": "None", "website": "None", "summary": "None", "logo": "None", "latitude": 44.431582955739835, "longitude": -78.96987634381715}, "815204383RR0001": {"name": "Kawartha Lakes Centre of Hope", "designationCode": "C", "categoryCode": "09", "address": "19 CAMBRIDGE ST S,", "city": "LINDSAY", "province": "ON", "country": "CA", "postalCode": "K9V3B7", "twitter": "None", "instagram": "None", "facebook": "None", "youtube": "None", "website": "None", "summary": "None", "logo": "None", "latitude": 44.35373003639323, "longitude": -78.73906929511858}, "884881160RR0001": {"name": "Kawartha Lakes Haliburton 4-H Association", "designationCode": "C", "categoryCode": "29", "address": "P.O. BOX 20021                189 KENT STREET W", "city": "LINDSAY", "province": "ON", "country": "CA", "postalCode": "K9V5G6", "twitter": "None", "instagram": "None", "facebook": "None", "youtube": "None", "website": "None", "summary": "None", "logo": "None", "latitude": 44.35404342828492, "longitude": -78.74071694498882}, "879086718RR0001": {"name": "Kawartha Land Trust", "designationCode": "C", "categoryCode": "52", "address": "P.O. BOX 2338", "city": "PETERBOROUGH", "province": "ON", "country": "CA", "postalCode": "K9J7Y8", "twitter": "None", "instagram": "None", "facebook": "None", "youtube": "None", "website": "None", "summary": "None", "logo": "None", "latitude": 44.30591700000005, "longitude": -78.31950199999993}, "838905164RR0001": {"name": "Kawartha North Family Health Team", "designationCode": "C", "categoryCode": "11", "address": "50 COLBORNE ST                PO BOX 129", "city": "FENELON FALLS", "province": "ON", "country": "CA", "postalCode": "K0M1N0", "twitter": "None", "instagram": "None", "facebook": "None", "youtube": "None", "website": "None", "summary": "None", "logo": "None", "latitude": 44.53739436412957, "longitude": -78.7359534802645}, "834258212RR0001": {"name": "Kawartha Trans Canada Trail Association", "designationCode": "C", "categoryCode": "56", "address": "PO BOX 8000", "city": "LINDSAY", "province": "ON", "country": "CA", "postalCode": "K9V5E6", "twitter": "None", "instagram": "None", "facebook": "None", "youtube": "None", "website": "None", "summary": "None", "logo": "None", "latitude": 44.35437300000005, "longitude": -78.73967149999993}, "703755694RR0001": {"name": "Kawartha Wildlife Centre", "designationCode": "C", "categoryCode": "54", "address": "1408 YANKEE LINE", "city": "ENNISMORE", "province": "ON", "country": "CA", "postalCode": "K0L1T0", "twitter": "None", "instagram": "None", "facebook": "None", "youtube": "None", "website": "None", "summary": "None", "logo": "None", "latitude": 44.383829074115475, "longitude": -78.41538796468035}, "107559734RR0001": {"name": "Kawartha Youth For Christ", "designationCode": "C", "categoryCode": "49", "address": "256 BROCK STREET", "city": "PETERBOROUGH", "province": "ON", "country": "CA", "postalCode": "K9H2P7", "twitter": "None", "instagram": "None", "facebook": "None", "youtube": "None", "website": "None", "summary": "None", "logo": "None", "latitude": 44.30701147936952, "longitude": -78.3242026917883}, "801880113RR0001": {"name": "Kawartha Youth Help Services Inc.", "designationCode": "C", "categoryCode": "09", "address": "2383 KENTUCKY DERBY WAY", "city": "OSHAWA", "province": "ON", "country": "CA", "postalCode": "L1L0H3", "twitter": "None", "instagram": "None", "facebook": "None", "youtube": "None", "website": "None", "summary": "None", "logo": "None", "latitude": 43.958309509385785, "longitude": -78.90758259734078}, "891299760RR0001": {"name": "Kawartha-Haliburton Crime Stoppers Incorporated", "designationCode": "C", "categoryCode": "59", "address": "P.O. BOX 155", "city": "LINDSAY", "province": "ON", "country": "CA", "postalCode": "K9V4S1", "twitter": "None", "instagram": "None", "facebook": "None", "youtube": "None", "website": "None", "summary": "None", "logo": "None", "latitude": 44.35437300000005, "longitude": -78.73967149999993}, "811904572RR0001": {"name": "Kawasaki Disease Canada", "designationCode": "C", "categoryCode": "11", "address": "25 DRUMOAK PLACE", "city": "KITCHENER", "province": "ON", "country": "CA", "postalCode": "N2A3X5", "twitter": "None", "instagram": "None", "facebook": "None", "youtube": "None", "website": "None", "summary": "None", "logo": "None", "latitude": 43.44986778573491, "longitude": -80.43025583011158}, "837526177RR0001": {"name": "Kaws Animal Rescue Inc.", "designationCode": "C", "categoryCode": "54", "address": "POST OFFICE BOX 1505", "city": "KINDERSLEY", "province": "SK", "country": "CA", "postalCode": "S0L1S0", "twitter": "None", "instagram": "None", "facebook": "None", "youtube": "None", "website": "None", "summary": "None", "logo": "None", "latitude": 51.46791900000005, "longitude": -109.15522999999993}, "848648085RR0001": {"name": "Kaze Family Foundation Inc.", "designationCode": "B", "categoryCode": "03", "address": "619-10TH STREET EAST", "city": "SASKATOON", "province": "SK", "country": "CA", "postalCode": "S7H0G8", "twitter": "None", "instagram": "None", "facebook": "None", "youtube": "None", "website": "None", "summary": "None", "logo": "None", "latitude": 52.11780050432784, "longitude": -106.65531063918864}, "811254119RR0001": {"name": "Kedesh Maternity Home", "designationCode": "C", "categoryCode": "09", "address": "PO BOX 20042                  354 MILL ST", "city": "WOODSTOCK", "province": "ON", "country": "CA", "postalCode": "N4S8X8", "twitter": "None", "instagram": "None", "facebook": "None", "youtube": "None", "website": "None", "summary": "None", "logo": "None", "latitude": 43.116018905072465, "longitude": -80.7616969903338}, "815434295RR0001": {"name": "Keep a Breast Canada", "designationCode": "C", "categoryCode": "11", "address": "2400 CANOE AVENUE", "city": "COQUITLAM", "province": "BC", "country": "CA", "postalCode": "V3K6C2", "twitter": "None", "instagram": "None", "facebook": "None", "youtube": "None", "website": "None", "summary": "None", "logo": "None", "latitude": 49.22961169480601, "longitude": -122.82257739702048}, "813337987RR0001": {"name": "Keep Kids in School", "designationCode": "B", "categoryCode": "21", "address": "8233 - 50 STREET NW", "city": "EDMONTON", "province": "AB", "country": "CA", "postalCode": "T6B1E7", "twitter": "None", "instagram": "None", "facebook": "None", "youtube": "None", "website": "None", "summary": "None", "logo": "None", "latitude": 53.51922861226845, "longitude": -113.41838783230462}, "842119885RR0001": {"name": "Keep Moving Foundation Fondation Continuons d'avancer", "designationCode": "B", "categoryCode": "21", "address": "403 - 4 RUE NOTRE-DAME E", "city": "MONTREAL", "province": "QC", "country": "CA", "postalCode": "H2Y1B8", "twitter": "None", "instagram": "None", "facebook": "None", "youtube": "None", "website": "None", "summary": "None", "logo": "None", "latitude": 45.510574860332454, "longitude": -73.55226121124734}, "836674358RR0001": {"name": "Keepers of the Letterkenny Evangelical United Brethren Church & Cemetery", "designationCode": "C", "categoryCode": "59", "address": "1832 LETTERKENNY RD,          R R #1", "city": "PALMER RAPIDS", "province": "ON", "country": "CA", "postalCode": "K0J2E0", "twitter": "None", "instagram": "None", "facebook": "None", "youtube": "None", "website": "None", "summary": "None", "logo": "None", "latitude": 45.38283882405206, "longitude": -77.431691059323}, "817434723RR0001": {"name": "Keeping Cats Homed Inc.", "designationCode": "C", "categoryCode": "54", "address": "234 COLIN AVE", "city": "SUMMERSIDE", "province": "PE", "country": "CA", "postalCode": "C1N5W5", "twitter": "None", "instagram": "None", "facebook": "None", "youtube": "None", "website": "None", "summary": "None", "logo": "None", "latitude": 46.41191901526344, "longitude": -63.76877818624839}, "821878717RR0001": {"name": "Keeshond Rescue Ontario", "designationCode": "C", "categoryCode": "54", "address": "3078 NEW BRAILEY LINE", "city": "SEVERN", "province": "ON", "country": "CA", "postalCode": "L3V5Z4", "twitter": "None", "instagram": "None", "facebook": "None", "youtube": "None", "website": "None", "summary": "None", "logo": "None", "latitude": 44.715040734780956, "longitude": -79.40565601050011}, "846003614RR0001": {"name": "Keewaytinook Okimakanak Community Initiatives", "designationCode": "C", "categoryCode": "09", "address": "PO BOX 340", "city": "BALMERTOWN", "province": "ON", "country": "CA", "postalCode": "P0V1C0", "twitter": "None", "instagram": "None", "facebook": "None", "youtube": "None", "website": "None", "summary": "None", "logo": "None", "latitude": 51.05986000000007, "longitude": -93.74009999999998}, "812971729RR0001": {"name": "Kehila Foundation", "designationCode": "B", "categoryCode": "03", "address": "PO BOX 27058                  RPO DUNDAS MCLAREN", "city": "CAMBRIDGE", "province": "ON", "country": "CA", "postalCode": "N1R8H1", "twitter": "None", "instagram": "None", "facebook": "None", "youtube": "None", "website": "None", "summary": "None", "logo": "None", "latitude": 43.36032747117104, "longitude": -80.29288131122428}, "801960303RR0001": {"name": "Kehilas Belz / Regroupement Communautaire Belz", "designationCode": "C", "categoryCode": "49", "address": "5834 RUE JEANNE-MANCE", "city": "MONTREAL", "province": "QC", "country": "CA", "postalCode": "H2V4K8", "twitter": "None", "instagram": "None", "facebook": "None", "youtube": "None", "website": "None", "summary": "None", "logo": "None", "latitude": 45.5246318151366, "longitude": -73.60554338455756}, "833174238RR0001": {"name": "Kehilas Tosh", "designationCode": "C", "categoryCode": "09", "address": "9 BETH HALEVY", "city": "BOISBRIAND", "province": "QC", "country": "CA", "postalCode": "J7E4H4", "twitter": "None", "instagram": "None", "facebook": "None", "youtube": "None", "website": "None", "summary": "None", "logo": "None", "latitude": 45.614087653903844, "longitude": -73.8713955328928}, "824724439RR0001": {"name": "Kehilat Shalom Society of Calgary", "designationCode": "C", "categoryCode": "42", "address": "11 SINCLAIR CRESCENT SOUTHWEST", "city": "CALGARY", "province": "AB", "country": "CA", "postalCode": "T2W0L8", "twitter": "None", "instagram": "None", "facebook": "None", "youtube": "None", "website": "None", "summary": "None", "logo": "None", "latitude": 50.964162820705184, "longitude": -114.08947398433253}, "131168874RR0001": {"name": "Kehillat Beth Israel Congregation", "designationCode": "C", "categoryCode": "42", "address": "1400 COLDREY AVENUE", "city": "OTTAWA", "province": "ON", "country": "CA", "postalCode": "K1Z7P9", "twitter": "None", "instagram": "None", "facebook": "None", "youtube": "None", "website": "None", "summary": "None", "logo": "None", "latitude": 45.38125917949732, "longitude": -75.73954371518873}, "734868490RR0001": {"name": "Kehillat Chaverim", "designationCode": "C", "categoryCode": "42", "address": "7825 BAYVIEW AVENUE           SUITE 623", "city": "THORNHILL", "province": "ON", "country": "CA", "postalCode": "L3T7N2", "twitter": "None", "instagram": "None", "facebook": "None", "youtube": "None", "website": "None", "summary": "None", "logo": "None", "latitude": 43.82311707002721, "longitude": -79.40157093328996}, "840680227RR0001": {"name": "Keil Family Trust", "designationCode": "B", "categoryCode": "05", "address": "5220 LAPWING CRESCENT", "city": "RICHMOND", "province": "BC", "country": "CA", "postalCode": "V7E4E6", "twitter": "None", "instagram": "None", "facebook": "None", "youtube": "None", "website": "None", "summary": "None", "logo": "None", "latitude": 49.128215481245455, "longitude": -123.16798349999999}, "118980622RR0001": {"name": "Keirstead Mountain Baptist Church", "designationCode": "C", "categoryCode": "31", "address": "12467 ROUTE 10", "city": "KIERSTEAD", "province": "NB", "country": "CA", "postalCode": "E5P1T7", "twitter": "None", "instagram": "None", "facebook": "None", "youtube": "None", "website": "None", "summary": "None", "logo": "None", "latitude": 45.83500192586079, "longitude": -65.70782143867365}, "846320497RR0001": {"name": "Keiskamma Canada Foundation - Fostering Hope In The Face of HIV/AIDS", "designationCode": "C", "categoryCode": "01", "address": "PO BOX 34199                  126 KINGSWAY MALL", "city": "EDMONTON", "province": "AB", "country": "CA", "postalCode": "T5G3G4", "twitter": "None", "instagram": "None", "facebook": "None", "youtube": "None", "website": "None", "summary": "None", "logo": "None", "latitude": 53.56275000000005, "longitude": -113.50697999999994}}