{"809114242RR0001": {"name": "\u00c9glise baptiste de J\u00e9sus \u00e0 Montr\u00e9al / Jesus Baptist Church of Montreal", "designationCode": "C", "categoryCode": "31", "address": "1006 - 1225 RUE SAINT-MARC", "city": "MONTREAL", "province": "QC", "country": "CA", "postalCode": "H3H2E7", "twitter": "None", "instagram": "None", "facebook": "None", "youtube": "None", "website": "None", "summary": "None", "logo": "None", "latitude": 45.49205780573021, "longitude": -73.57899932249418}, "831177423RR0001": {"name": "\u00c9glise baptiste des Basses-Laurentides", "designationCode": "C", "categoryCode": "31", "address": "1019, RUE DU PALAIS", "city": "PREVOST", "province": "QC", "country": "CA", "postalCode": "J0R1T0", "twitter": "None", "instagram": "None", "facebook": "None", "youtube": "None", "website": "None", "summary": "None", "logo": "None", "latitude": 45.852344991373, "longitude": -74.0622859114491}, "823641584RR0001": {"name": "\u00c9glise baptiste du Plateau-Mont-Royal", "designationCode": "C", "categoryCode": "31", "address": "5187 RUE SAINT-DENIS", "city": "MONTREAL", "province": "QC", "country": "CA", "postalCode": "H2J2M1", "twitter": "None", "instagram": "None", "facebook": "None", "youtube": "None", "website": "None", "summary": "None", "logo": "None", "latitude": 45.52755121761199, "longitude": -73.59068855715863}, "842437469RR0001": {"name": "\u00c9glise baptiste hispanique gethsemane de Ch\u00e2teauguay/Iglesia Bautista Hispana Getsemani de Ch\u00e2teauguay", "designationCode": "C", "categoryCode": "39", "address": "4431, 18E AVENUE, BUR. 4", "city": "MONTR\u00c9AL", "province": "QC", "country": "CA", "postalCode": "H1X3J5", "twitter": "None", "instagram": "None", "facebook": "None", "youtube": "None", "website": "None", "summary": "None", "logo": "None", "latitude": 45.55229291897959, "longitude": -73.55976871215897}, "888698701RR0001": {"name": "\u00c9glise baptiste Grace Divine / Divine Grace Baptist Church", "designationCode": "C", "categoryCode": "39", "address": "6615 COTE DES NEIGES          SUITE 278", "city": "MONTREAL", "province": "QC", "country": "CA", "postalCode": "H3S2B3", "twitter": "None", "instagram": "None", "facebook": "None", "youtube": "None", "website": "None", "summary": "None", "logo": "None", "latitude": 45.5026761704367, "longitude": -73.63613204605012}, "803350818RR0001": {"name": "\u00c9glise baptiste Haitienne Salem", "designationCode": "C", "categoryCode": "31", "address": "5 MERCHISON AVE", "city": "HAMILTON", "province": "ON", "country": "CA", "postalCode": "L8H3C8", "twitter": "None", "instagram": "None", "facebook": "None", "youtube": "None", "website": "None", "summary": "None", "logo": "None", "latitude": 43.25104211855819, "longitude": -79.8046637129957}, "853531655RR0001": {"name": "\u00c9glise biblique renaissance / Renaissance Bible Church", "designationCode": "C", "categoryCode": "31", "address": "PO BOX 4632", "city": "RAWDON", "province": "QC", "country": "CA", "postalCode": "J0K1S0", "twitter": "None", "instagram": "None", "facebook": "None", "youtube": "None", "website": "None", "summary": "None", "logo": "None", "latitude": 46.107721669877364, "longitude": -73.681951026039}, "888404464RR0001": {"name": "\u00c9glise bouddhiste de Montr\u00e9al / Montr\u00e9al Buddhist Church", "designationCode": "C", "categoryCode": "35", "address": "5250 ST. URBAIN STREET", "city": "MONTREAL", "province": "QC", "country": "CA", "postalCode": "H2T2W9", "twitter": "None", "instagram": "None", "facebook": "None", "youtube": "None", "website": "None", "summary": "None", "logo": "None", "latitude": 45.52307578960138, "longitude": -73.59656474245472}, "803802966RR0001": {"name": "\u00c9glise chr\u00e9tienne \u00e9vang\u00e9lique du Qu\u00e9bec \"La parole de Dieu\"", "designationCode": "C", "categoryCode": "39", "address": "875 RUE DENISON E", "city": "GRANBY", "province": "QC", "country": "CA", "postalCode": "J2H0N5", "twitter": "None", "instagram": "None", "facebook": "None", "youtube": "None", "website": "None", "summary": "None", "logo": "None", "latitude": 45.391453887615995, "longitude": -72.67221387382443}, "107606394RR0001": {"name": "\u00c9glise chr\u00e9tienne de Rosem\u00e8re", "designationCode": "C", "categoryCode": "36", "address": "34 BOUL BOUTHILLIER", "city": "ROSEMERE", "province": "QC", "country": "CA", "postalCode": "J7A4B4", "twitter": "None", "instagram": "None", "facebook": "None", "youtube": "None", "website": "None", "summary": "None", "logo": "None", "latitude": 45.6283090874308, "longitude": -73.82157613387396}, "795507714RR0001": {"name": "\u00c9glise chr\u00e9tienne des rachet\u00e9s de Dieu - Chapelle de la restauration - Outaouais / Redeemed Christian Church of God - Chapel of Restoration - Outaouais", "designationCode": "C", "categoryCode": "39", "address": "21 RUE ALEXANDRE-DUMAS", "city": "GATINEAU", "province": "QC", "country": "CA", "postalCode": "J9J2X5", "twitter": "None", "instagram": "None", "facebook": "None", "youtube": "None", "website": "None", "summary": "None", "logo": "None", "latitude": 45.41203852510254, "longitude": -75.79706941173755}, "816328538RR0001": {"name": "\u00c9glise chr\u00e9tienne Bethel / Iglesia Cristiana Bethel", "designationCode": "C", "categoryCode": "39", "address": "425 RUE R\u00c9AUMUR", "city": "LAVAL", "province": "QC", "country": "CA", "postalCode": "H7H2R3", "twitter": "None", "instagram": "None", "facebook": "None", "youtube": "None", "website": "None", "summary": "None", "logo": "None", "latitude": 45.64176336554322, "longitude": -73.75322556425641}, "789065729RR0001": {"name": "\u00c9glise chr\u00e9tienne Casa de Oracion", "designationCode": "C", "categoryCode": "39", "address": "130 RUE SAINT-MAURICE", "city": "TROIS-RIVIERES", "province": "QC", "country": "CA", "postalCode": "G8T8T2", "twitter": "None", "instagram": "None", "facebook": "None", "youtube": "None", "website": "None", "summary": "None", "logo": "None", "latitude": 46.37316281432855, "longitude": -72.50339371106246}, "766128920RR0001": {"name": "\u00c9glise chr\u00e9tienne Masion de Pri\u00e8re de Montr\u00e9al / Iglesia Cristiana Casa de Oracion Montr\u00e9al", "designationCode": "B", "categoryCode": "39", "address": "1 - 8559 AV LOUIS-LUMIERE", "city": "MONTREAL", "province": "QC", "country": "CA", "postalCode": "H1E4Y9", "twitter": "None", "instagram": "None", "facebook": "None", "youtube": "None", "website": "None", "summary": "None", "logo": "None", "latitude": 45.64266088233588, "longitude": -73.58679314184303}, "807944285RR0001": {"name": "\u00c9glise cit\u00e9 de la Gr\u00e2ce Inc.", "designationCode": "C", "categoryCode": "39", "address": "35 RUE DANNY", "city": "DIEPPE", "province": "NB", "country": "CA", "postalCode": "E1A0H6", "twitter": "None", "instagram": "None", "facebook": "None", "youtube": "None", "website": "None", "summary": "None", "logo": "None", "latitude": 46.09689523065373, "longitude": -64.72627873633789}, "852266196RR0001": {"name": "\u00c9glise communautaire de la foi biblique / Faith Community Bible Church", "designationCode": "C", "categoryCode": "39", "address": "263 VISTA AVENUE", "city": "POINTE-CLAIRE", "province": "QC", "country": "CA", "postalCode": "H9R5R7", "twitter": "None", "instagram": "None", "facebook": "None", "youtube": "None", "website": "None", "summary": "None", "logo": "None", "latitude": 45.44296044671579, "longitude": -73.82529216602858}, "830701603RR0001": {"name": "\u00c9glise copte orthodoxe Saint Pierre & Saint Paul/Saint Peter& Saint Paul Coptic Orthodox Church", "designationCode": "C", "categoryCode": "39", "address": "1, AV. DE L'EGLISE", "city": "POINTE-CLAIRE", "province": "QC", "country": "CA", "postalCode": "H9S5J1", "twitter": "None", "instagram": "None", "facebook": "None", "youtube": "None", "website": "None", "summary": "None", "logo": "None", "latitude": 45.446809305585965, "longitude": -73.78053774961076}, "893070474RR0001": {"name": "\u00c9glise copte orthodoxe, dioc\u00e8se de l'Am\u00e9rique du Nord, paroisse de Montr\u00e9al Coptic Orthodox Church, Diocese of North America, Parish of Montreal", "designationCode": "C", "categoryCode": "39", "address": "7395 RUE GARNIER", "city": "MONTR\u00c9AL", "province": "QC", "country": "CA", "postalCode": "H2E2A1", "twitter": "None", "instagram": "None", "facebook": "None", "youtube": "None", "website": "None", "summary": "None", "logo": "None", "latitude": 45.5476041704367, "longitude": -73.61182207158535}, "851567503RR0001": {"name": "\u00c9glise d'identification Chr\u00e9tienne de Gatineau / Christian Identification Church of Gatineau", "designationCode": "C", "categoryCode": "39", "address": "714 BOUL SAINT-JOSEPH", "city": "GATINEAU", "province": "QC", "country": "CA", "postalCode": "J8Y4A8", "twitter": "None", "instagram": "None", "facebook": "None", "youtube": "None", "website": "None", "summary": "None", "logo": "None", "latitude": 45.45601844269714, "longitude": -75.74175473310657}, "817398357RR0001": {"name": "\u00c9glise de dieu de la proph\u00e9tie de Terrebonne", "designationCode": "C", "categoryCode": "39", "address": "1951 D'ARAGON", "city": "TERREBONNE", "province": "QC", "country": "CA", "postalCode": "J6X3M4", "twitter": "None", "instagram": "None", "facebook": "None", "youtube": "None", "website": "None", "summary": "None", "logo": "None", "latitude": 45.72238441326678, "longitude": -73.67763215165347}, "805125697RR0001": {"name": "\u00c9glise de dieu des \u00eatres-paroles", "designationCode": "C", "categoryCode": "39", "address": "6470 RUE SAINDON", "city": "LAVAL", "province": "QC", "country": "CA", "postalCode": "H7H1H1", "twitter": "None", "instagram": "None", "facebook": "None", "youtube": "None", "website": "None", "summary": "None", "logo": "None", "latitude": 45.63923681793521, "longitude": -73.75658021622701}, "843635863RR0001": {"name": "\u00c9glise de l'\u00e9vangile des \u00e9lus", "designationCode": "C", "categoryCode": "39", "address": "38 RUE ONESIME", "city": "GATINEAU", "province": "QC", "country": "CA", "postalCode": "J8T2H6", "twitter": "None", "instagram": "None", "facebook": "None", "youtube": "None", "website": "None", "summary": "None", "logo": "None", "latitude": 45.46566044936224, "longitude": -75.69509406272721}, "118782630RR0014": {"name": "\u00c9glise de l'Alliance chr\u00e9tienne et missionnaire de Dollard", "designationCode": "C", "categoryCode": "39", "address": "68 RUE WILSON", "city": "RIMOUSKI", "province": "QC", "country": "CA", "postalCode": "G5L6J6", "twitter": "None", "instagram": "None", "facebook": "None", "youtube": "None", "website": "None", "summary": "None", "logo": "None", "latitude": 48.44261753263303, "longitude": -68.5464880728261}, "118782630RR0008": {"name": "\u00c9glise de l'Alliance chr\u00e9tienne et missionnaire de Farnham", "designationCode": "C", "categoryCode": "39", "address": "511, RUE SAINT-JOSEPH", "city": "FARNHAM", "province": "QC", "country": "CA", "postalCode": "J2N1P6", "twitter": "None", "instagram": "None", "facebook": "None", "youtube": "None", "website": "None", "summary": "None", "logo": "None", "latitude": 45.281565387183306, "longitude": -72.97414437829649}, "118782630RR0005": {"name": "\u00c9glise de l'Alliance chr\u00e9tienne et missionnaire de Matane", "designationCode": "C", "categoryCode": "39", "address": "416, AV. ST-J\u00c9R\u00d4ME", "city": "MATANE", "province": "QC", "country": "CA", "postalCode": "G4W3B5", "twitter": "None", "instagram": "None", "facebook": "None", "youtube": "None", "website": "None", "summary": "None", "logo": "None", "latitude": 48.846979435195315, "longitude": -67.52953174877405}, "118782630RR0001": {"name": "\u00c9glise de l'Alliance chr\u00e9tienne et missionnaire de Ste-Agathe-des-Monts", "designationCode": "C", "categoryCode": "39", "address": "21, RUE ST-HENRI EST", "city": "SAINTE-AGATHE-DES-MONTS", "province": "QC", "country": "CA", "postalCode": "J8C1T1", "twitter": "None", "instagram": "None", "facebook": "None", "youtube": "None", "website": "None", "summary": "None", "logo": "None", "latitude": 46.05068250678067, "longitude": -74.28533241771018}, "814159174RR0001": {"name": "\u00c9glise de l'Amour du Seigneur", "designationCode": "C", "categoryCode": "39", "address": "4911 RUE ATHENA", "city": "PIERREFONDS", "province": "QC", "country": "CA", "postalCode": "H8Z2K9", "twitter": "None", "instagram": "None", "facebook": "None", "youtube": "None", "website": "None", "summary": "None", "logo": "None", "latitude": 45.50568230780767, "longitude": -73.82362205825514}, "813244084RR0001": {"name": "\u00c9glise de la bonne nouvelle inc.", "designationCode": "C", "categoryCode": "39", "address": "838 RUSSELLVILLE RD", "city": "RUSSELLVILLE", "province": "NB", "country": "CA", "postalCode": "E1V7G8", "twitter": "None", "instagram": "None", "facebook": "None", "youtube": "None", "website": "None", "summary": "None", "logo": "None", "latitude": 47.10944525123679, "longitude": -65.38743034591671}, "801214016RR0001": {"name": "\u00c9glise de la famille Imani et du full gospel / Imani Family and Full Gospel Church", "designationCode": "C", "categoryCode": "39", "address": "2741 RUE NOTRE-DAME O", "city": "MONTR\u00c9AL", "province": "QC", "country": "CA", "postalCode": "H3J1N9", "twitter": "None", "instagram": "None", "facebook": "None", "youtube": "None", "website": "None", "summary": "None", "logo": "None", "latitude": 45.48171727728078, "longitude": -73.57724754705973}, "832875702RR0001": {"name": "\u00c9glise de la transformation / Transformation Church", "designationCode": "C", "categoryCode": "39", "address": "1312 RUE STE-HELENE", "city": "LONGUEUIL", "province": "QC", "country": "CA", "postalCode": "J4K3S6", "twitter": "None", "instagram": "None", "facebook": "None", "youtube": "None", "website": "None", "summary": "None", "logo": "None", "latitude": 45.517732188441414, "longitude": -73.4984618304287}, "837788975RR0001": {"name": "\u00c9glise de la D\u00e9liverance de Dieu du 7i\u00e8me jour / Deliverance Church of God 7th Day", "designationCode": "C", "categoryCode": "39", "address": "203-6350 RUE DE TERREBONNE", "city": "MONTREAL", "province": "QC", "country": "CA", "postalCode": "H4B2Z4", "twitter": "None", "instagram": "None", "facebook": "None", "youtube": "None", "website": "None", "summary": "None", "logo": "None", "latitude": 45.46849796612623, "longitude": -73.6335204751286}, "846749877RR0001": {"name": "\u00c9glise de pentec\u00f4te nouveau d\u00e9part / New beginning pentecostchurch", "designationCode": "C", "categoryCode": "39", "address": "5450 QUEEN-MARY ROAD          SUITE 208", "city": "MONTREAL", "province": "QC", "country": "CA", "postalCode": "H3X3V3", "twitter": "None", "instagram": "None", "facebook": "None", "youtube": "None", "website": "None", "summary": "None", "logo": "None", "latitude": 45.4817843963299, "longitude": -73.63066624297431}, "839476645RR0001": {"name": "\u00c9glise de Dieu de la derni\u00e8re heure", "designationCode": "C", "categoryCode": "39", "address": "1-8790 14E AVENUE", "city": "MONTREAL", "province": "QC", "country": "CA", "postalCode": "H1Z3M6", "twitter": "None", "instagram": "None", "facebook": "None", "youtube": "None", "website": "None", "summary": "None", "logo": "None", "latitude": 45.57104550000001, "longitude": -73.62137924999999}, "840864821RR0001": {"name": "\u00c9glise de Dieu de la Fraternit\u00e9 de Montr\u00e9al", "designationCode": "C", "categoryCode": "39", "address": "8130, RUE CHAMP D'EAU", "city": "SAINT-LEONARD", "province": "QC", "country": "CA", "postalCode": "H1P1Y3", "twitter": "None", "instagram": "None", "facebook": "None", "youtube": "None", "website": "None", "summary": "None", "logo": "None", "latitude": 45.60012074574428, "longitude": -73.57937156760329}, "819658196RR0001": {"name": "\u00c9glise de Dieu de la Proph\u00e9tie d'en Haut", "designationCode": "C", "categoryCode": "39", "address": "1975 BOUL HENRI-BOURASSA E    BUREAU 404", "city": "MONTREAL", "province": "QC", "country": "CA", "postalCode": "H2B1S4", "twitter": "None", "instagram": "None", "facebook": "None", "youtube": "None", "website": "None", "summary": "None", "logo": "None", "latitude": 45.571725523457744, "longitude": -73.65791139275187}, "816637011RR0001": {"name": "\u00c9glise de Dieu de la Proph\u00e9tie Ahuntsic", "designationCode": "C", "categoryCode": "39", "address": "9463, AVENUE DES LORIMIER", "city": "MONTREAL", "province": "QC", "country": "CA", "postalCode": "H1Z2M7", "twitter": "None", "instagram": "None", "facebook": "None", "youtube": "None", "website": "None", "summary": "None", "logo": "None", "latitude": 45.567273425211994, "longitude": -73.64177213237932}, "877771311RR0001": {"name": "\u00c9glise de Dieu de St-Fran\u00e7ois", "designationCode": "C", "categoryCode": "39", "address": "8500, RUE ISEUT", "city": "LAVAL", "province": "QC", "country": "CA", "postalCode": "H7A1E2", "twitter": "None", "instagram": "None", "facebook": "None", "youtube": "None", "website": "None", "summary": "None", "logo": "None", "latitude": 45.67227466720537, "longitude": -73.58040632347513}, "828229047RR0001": {"name": "\u00c9glise de Dieu du bon berger", "designationCode": "C", "categoryCode": "39", "address": "11595 LOUIS JOBIN", "city": "MONTREAL", "province": "QC", "country": "CA", "postalCode": "H1E2T9", "twitter": "None", "instagram": "None", "facebook": "None", "youtube": "None", "website": "None", "summary": "None", "logo": "None", "latitude": 45.639288376363254, "longitude": -73.57002709850555}, "837199512RR0001": {"name": "\u00c9glise de Dieu missionnaire de l'\u00e9vangile miraculeux / Miracle Gospel Missionary Church of God", "designationCode": "C", "categoryCode": "39", "address": "67 RUE TOURANGEAU E", "city": "LAVAL", "province": "QC", "country": "CA", "postalCode": "H7G1K7", "twitter": "None", "instagram": "None", "facebook": "None", "youtube": "None", "website": "None", "summary": "None", "logo": "None", "latitude": 45.5667183291593, "longitude": -73.6837972868314}, "833499668RR0001": {"name": "\u00c9glise de Dieu rocher de la d\u00e9livrance", "designationCode": "B", "categoryCode": "39", "address": "33 TOURANGEAU E.", "city": "LAVAL", "province": "QC", "country": "CA", "postalCode": "H7G1K4", "twitter": "None", "instagram": "None", "facebook": "None", "youtube": "None", "website": "None", "summary": "None", "logo": "None", "latitude": 45.566094489583996, "longitude": -73.68491630945245}, "768367492RR0001": {"name": "\u00c9glise de Dieu Minist\u00e8res de Restauration de Shiloh / Shiloh Restoration Ministries Church of God", "designationCode": "C", "categoryCode": "39", "address": "6615 CH DE LA COTE-DES-NEIGES BUREAU 214", "city": "MONTREAL", "province": "QC", "country": "CA", "postalCode": "H3S2B3", "twitter": "None", "instagram": "None", "facebook": "None", "youtube": "None", "website": "None", "summary": "None", "logo": "None", "latitude": 45.5026761704367, "longitude": -73.63613204605012}, "743152928RR0001": {"name": "\u00c9glise de Dieu Parc-Extension", "designationCode": "C", "categoryCode": "39", "address": "8505 RUE DE TECK", "city": "MONTREAL", "province": "QC", "country": "CA", "postalCode": "H1L1J1", "twitter": "None", "instagram": "None", "facebook": "None", "youtube": "None", "website": "None", "summary": "None", "logo": "None", "latitude": 45.60149797391652, "longitude": -73.52956071637124}, "798996492RR0001": {"name": "\u00c9glise de Dieu Pentec\u00f4tiste Mouvement International D'Expression Francaise", "designationCode": "C", "categoryCode": "36", "address": "658 3E AV", "city": "LACHINE", "province": "QC", "country": "CA", "postalCode": "H8S2T8", "twitter": "None", "instagram": "None", "facebook": "None", "youtube": "None", "website": "None", "summary": "None", "logo": "None", "latitude": 45.441193348673025, "longitude": -73.66661667610865}, "834017386RR0001": {"name": "\u00c9glise de Dieu Sainte-Cit\u00e9 Nouvelle J\u00e9rusalem", "designationCode": "C", "categoryCode": "39", "address": "9083 BOUL PIE-IX", "city": "MONTREAL", "province": "QC", "country": "CA", "postalCode": "H1Z3V7", "twitter": "None", "instagram": "None", "facebook": "None", "youtube": "None", "website": "None", "summary": "None", "logo": "None", "latitude": 45.57947014158324, "longitude": -73.62042804215498}, "804756237RR0001": {"name": "\u00c9glise de Dieu Triomphant de J\u00e9sus-Christ", "designationCode": "C", "categoryCode": "39", "address": "5788 RUE P\u00c9RUSSE", "city": "LAVAL", "province": "QC", "country": "CA", "postalCode": "H7H3C1", "twitter": "None", "instagram": "None", "facebook": "None", "youtube": "None", "website": "None", "summary": "None", "logo": "None", "latitude": 45.63460596834793, "longitude": -73.74574023729016}, "833155732RR0001": {"name": "\u00c9glise de J\u00e9sus Christ Mont Sion / Iglesia de Jesucristo Monte Sion", "designationCode": "C", "categoryCode": "39", "address": "4710, RUE MIQUELAN", "city": "MONTREAL", "province": "QC", "country": "CA", "postalCode": "H1R1S4", "twitter": "None", "instagram": "None", "facebook": "None", "youtube": "None", "website": "None", "summary": "None", "logo": "None", "latitude": 45.580889588118204, "longitude": -73.60463562917667}, "838729853RR0001": {"name": "\u00c9glise de J\u00e9sus-Christ de la Porte Ouverte / Open Door Church of Jesus-Christ", "designationCode": "C", "categoryCode": "39", "address": "6532, PLACE SIGOUIN", "city": "LAVAL", "province": "QC", "country": "CA", "postalCode": "H7L4V4", "twitter": "None", "instagram": "None", "facebook": "None", "youtube": "None", "website": "None", "summary": "None", "logo": "None", "latitude": 45.59287661365344, "longitude": -73.7902351219633}, "837855501RR0001": {"name": "\u00c9glise de J\u00e9sus-Christ: \u00abLe bon berger\u00bb", "designationCode": "C", "categoryCode": "39", "address": "937 RUE ROUVILLE", "city": "REPENTIGNY", "province": "QC", "country": "CA", "postalCode": "J5Y1X9", "twitter": "None", "instagram": "None", "facebook": "None", "youtube": "None", "website": "None", "summary": "None", "logo": "None", "latitude": 45.77054540328346, "longitude": -73.4192276944427}, "886474477RR0001": {"name": "\u00c9glise du mouvement missionnaire mondial inc. / World-Wide Missionary Movement Church Inc.", "designationCode": "C", "categoryCode": "39", "address": "138 RUE ANTONIO-MERCIER", "city": "CHARLEMAGNE", "province": "QC", "country": "CA", "postalCode": "J5Z1C4", "twitter": "None", "instagram": "None", "facebook": "None", "youtube": "None", "website": "None", "summary": "None", "logo": "None", "latitude": 45.722000974753236, "longitude": -73.48949838525004}, "887957991RR0001": {"name": "\u00c9glise du nom de J\u00e9sus", "designationCode": "C", "categoryCode": "39", "address": "118 RUE SAINT-DENIS", "city": "CHATEAUGUAY", "province": "QC", "country": "CA", "postalCode": "J6K2C5", "twitter": "None", "instagram": "None", "facebook": "None", "youtube": "None", "website": "None", "summary": "None", "logo": "None", "latitude": 45.354249449362236, "longitude": -73.76512370053086}, "839082633RR0001": {"name": "\u00c9glise du r\u00e9veil vin nouveau / New Wine Revival Church / Iglesia de Avivamiento Vino Nuevo", "designationCode": "C", "categoryCode": "39", "address": "1472, RUE DE DORVAL", "city": "SHERBROOKE", "province": "QC", "country": "CA", "postalCode": "J1H4L1", "twitter": "None", "instagram": "None", "facebook": "None", "youtube": "None", "website": "None", "summary": "None", "logo": "None", "latitude": 45.38393052844941, "longitude": -71.89190488868384}, "816009765RR0001": {"name": "\u00c9glise du village / Village Church", "designationCode": "C", "categoryCode": "39", "address": "605 CH HALLE E", "city": "BRIGHAM", "province": "QC", "country": "CA", "postalCode": "J2K4G9", "twitter": "None", "instagram": "None", "facebook": "None", "youtube": "None", "website": "None", "summary": "None", "logo": "None", "latitude": 45.24111531638283, "longitude": -72.758227145771}, "119012805RR0001": {"name": "\u00c9glise du Christ \u00e0 Ville-\u00c9mard (Montr\u00e9al)/Ville-\u00c9mard Churchof Christ (Montr\u00e9al)", "designationCode": "C", "categoryCode": "39", "address": "6259 MONK BLVD", "city": "MONTREAL", "province": "QC", "country": "CA", "postalCode": "H4E3H8", "twitter": "None", "instagram": "None", "facebook": "None", "youtube": "None", "website": "None", "summary": "None", "logo": "None", "latitude": 45.45598655092622, "longitude": -73.59512543868642}, "819105198RR0001": {"name": "\u00c9glise du Corps de J\u00e9sus-Christ de Montr\u00e9al", "designationCode": "C", "categoryCode": "39", "address": "1491 RUE DE SORRENTE", "city": "LAVAL", "province": "QC", "country": "CA", "postalCode": "H7M6E3", "twitter": "None", "instagram": "None", "facebook": "None", "youtube": "None", "website": "None", "summary": "None", "logo": "None", "latitude": 45.59756691202603, "longitude": -73.71205125754527}, "890544844RR0001": {"name": "\u00c9glise du Mont-Bellevue / Mont-Bellevue Church", "designationCode": "C", "categoryCode": "39", "address": "1925 RUE BELVEDERE S", "city": "SHERBROOKE", "province": "QC", "country": "CA", "postalCode": "J1H5S1", "twitter": "None", "instagram": "None", "facebook": "None", "youtube": "None", "website": "None", "summary": "None", "logo": "None", "latitude": 45.37621861809683, "longitude": -71.89391155360927}, "787308493RR0001": {"name": "\u00c9glise du Nazar\u00e9en D'Ahuntsic", "designationCode": "C", "categoryCode": "39", "address": "1077 BOUL JOLICOEUR", "city": "LAVAL", "province": "QC", "country": "CA", "postalCode": "H7E1A9", "twitter": "None", "instagram": "None", "facebook": "None", "youtube": "None", "website": "None", "summary": "None", "logo": "None", "latitude": 45.60471599388316, "longitude": -73.67281923007681}, "808114409RR0001": {"name": "\u00c9glise du Samaritain", "designationCode": "C", "categoryCode": "31", "address": "3-109 LOUIS-JOSEPH-PAPINEAU", "city": "COWANSVILLE", "province": "QC", "country": "CA", "postalCode": "J2K0E2", "twitter": "None", "instagram": "None", "facebook": "None", "youtube": "None", "website": "None", "summary": "None", "logo": "None", "latitude": 45.19098148600597, "longitude": -72.75059122009348}, "838971786RR0001": {"name": "\u00c9glise esprit et vie du Royaume", "designationCode": "C", "categoryCode": "39", "address": "3162 RANG SAINTE-FAMILLE", "city": "CHICOUTIMI", "province": "QC", "country": "CA", "postalCode": "G7H7W6", "twitter": "None", "instagram": "None", "facebook": "None", "youtube": "None", "website": "None", "summary": "None", "logo": "None", "latitude": 48.37239138601441, "longitude": -71.03619188210835}, "807076096RR0001": {"name": "\u00c9glise fontaine de vie / Fountain of Life Church", "designationCode": "C", "categoryCode": "39", "address": "4190, RUE ORANGE", "city": "BROSSARD", "province": "QC", "country": "CA", "postalCode": "J4Y3H4", "twitter": "None", "instagram": "None", "facebook": "None", "youtube": "None", "website": "None", "summary": "None", "logo": "None", "latitude": 45.432140344970996, "longitude": -73.46341162865707}, "857006605RR0001": {"name": "\u00c9glise gr\u00e2ce Potters minist\u00e8res international / Church Grace Potters Ministries International", "designationCode": "C", "categoryCode": "39", "address": "845 RUE JEAN-TALON O", "city": "MONTREAL", "province": "QC", "country": "CA", "postalCode": "H3N1S5", "twitter": "None", "instagram": "None", "facebook": "None", "youtube": "None", "website": "None", "summary": "None", "logo": "None", "latitude": 45.525860747994656, "longitude": -73.62496343507975}, "807075494RR0001": {"name": "\u00c9glise h\u00e9ritage de Hull", "designationCode": "C", "categoryCode": "39", "address": "107 RUE AUGUSTE-RENOIR", "city": "GATINEAU", "province": "QC", "country": "CA", "postalCode": "J8P8C4", "twitter": "None", "instagram": "None", "facebook": "None", "youtube": "None", "website": "None", "summary": "None", "logo": "None", "latitude": 45.50459548600597, "longitude": -75.6093544730798}, "840240907RR0001": {"name": "\u00c9glise internationale de la Rive-Sud / International Church of the South Shore", "designationCode": "C", "categoryCode": "39", "address": "544 MAURICIEN", "city": "TROIS-RIVI\u00c8RES", "province": "QC", "country": "CA", "postalCode": "G9B1S1", "twitter": "None", "instagram": "None", "facebook": "None", "youtube": "None", "website": "None", "summary": "None", "logo": "None", "latitude": 46.311084051358904, "longitude": -72.5916656802471}, "837056449RR0001": {"name": "\u00c9glise la Chapelle / The Chapel Church / Iglesia La Capilla", "designationCode": "C", "categoryCode": "39", "address": "160, RUE SAINT-VIATEUR E      PORTE 507", "city": "MONTREAL", "province": "QC", "country": "CA", "postalCode": "H2T1A8", "twitter": "None", "instagram": "None", "facebook": "None", "youtube": "None", "website": "None", "summary": "None", "logo": "None", "latitude": 45.527347060476856, "longitude": -73.5976302591614}, "801784737RR0001": {"name": "\u00c9glise le chemin, la v\u00e9rit\u00e9 et la vie", "designationCode": "C", "categoryCode": "39", "address": "27 RUE DE L'AIGLE", "city": "GATINEAU", "province": "QC", "country": "CA", "postalCode": "J9J0P9", "twitter": "None", "instagram": "None", "facebook": "None", "youtube": "None", "website": "None", "summary": "None", "logo": "None", "latitude": 45.40271547792724, "longitude": -75.81428130391252}, "837907351RR0001": {"name": "\u00c9glise le contact / Contact Church", "designationCode": "C", "categoryCode": "39", "address": "380, RUE LAROCHELLE           SUITE #108", "city": "REPENTIGNY", "province": "QC", "country": "CA", "postalCode": "J6A5W2", "twitter": "None", "instagram": "None", "facebook": "None", "youtube": "None", "website": "None", "summary": "None", "logo": "None", "latitude": 48.84350036809013, "longitude": -67.52248853443133}, "845672088RR0001": {"name": "\u00c9glise le rocher des vainqueurs", "designationCode": "C", "categoryCode": "36", "address": "200-8585 BOUL PIE IX", "city": "MONTREAL", "province": "QC", "country": "CA", "postalCode": "H1Z3T9", "twitter": "None", "instagram": "None", "facebook": "None", "youtube": "None", "website": "None", "summary": "None", "logo": "None", "latitude": 45.57581222482537, "longitude": -73.61212830140235}, "823160239RR0001": {"name": "\u00c9glise le Refuge", "designationCode": "C", "categoryCode": "39", "address": "210 RUE DU BOSQUET", "city": "PINCOURT", "province": "QC", "country": "CA", "postalCode": "J7W9Y4", "twitter": "None", "instagram": "None", "facebook": "None", "youtube": "None", "website": "None", "summary": "None", "logo": "None", "latitude": 45.36955312657959, "longitude": -73.9837846870851}, "836090399RR0001": {"name": "\u00c9glise le Refuge des \u00c2mes / Church of the Refuge of Souls", "designationCode": "C", "categoryCode": "39", "address": "4063 RUE DE CALVI", "city": "LAVAL", "province": "QC", "country": "CA", "postalCode": "H7P5T7", "twitter": "None", "instagram": "None", "facebook": "None", "youtube": "None", "website": "None", "summary": "None", "logo": "None", "latitude": 45.59018629447746, "longitude": -73.81456252749713}, "723277521RR0001": {"name": "\u00c9glise le Roc", "designationCode": "C", "categoryCode": "39", "address": "224 RUE FRANCOISE,", "city": "ROCKLAND", "province": "ON", "country": "CA", "postalCode": "K4K1G5", "twitter": "None", "instagram": "None", "facebook": "None", "youtube": "None", "website": "None", "summary": "None", "logo": "None", "latitude": 45.55075202305373, "longitude": -75.27623907022902}, "792724916RR0001": {"name": "\u00c9glise libre pentec\u00f4tiste Bethel de Trois-Rivi\u00e8res / Bethel Pentecostal Free Church of Trois-Rivi\u00e8res", "designationCode": "C", "categoryCode": "39", "address": "1221 RUE DES CYPRES", "city": "TROIS-RIVIERES", "province": "QC", "country": "CA", "postalCode": "G8Y2R5", "twitter": "None", "instagram": "None", "facebook": "None", "youtube": "None", "website": "None", "summary": "None", "logo": "None", "latitude": 46.35749183458364, "longitude": -72.57919175728547}, "814603627RR0001": {"name": "\u00c9glise mission renaissance internationale / Mission Revival Church International", "designationCode": "C", "categoryCode": "39", "address": "4924 RUE DOLLARD", "city": "PIERREFONDS", "province": "QC", "country": "CA", "postalCode": "H8Y2E9", "twitter": "None", "instagram": "None", "facebook": "None", "youtube": "None", "website": "None", "summary": "None", "logo": "None", "latitude": 45.50729591866248, "longitude": -73.79380857022902}, "809939887RR0001": {"name": "\u00c9glise missionnaire chr\u00e9tienne d'Ottawa (EMCO) / Missionary Christian Church of Ottawa (MCCO)", "designationCode": "C", "categoryCode": "39", "address": "967 ST. LAURENT BLVD", "city": "OTTAWA", "province": "ON", "country": "CA", "postalCode": "K1K3B1", "twitter": "None", "instagram": "None", "facebook": "None", "youtube": "None", "website": "None", "summary": "None", "logo": "None", "latitude": 45.42969549653755, "longitude": -75.64028372964411}, "849943287RR0001": {"name": "\u00c9glise missionnaire peuple acquis au Qu\u00e9bec", "designationCode": "C", "categoryCode": "39", "address": "145 RUE DESROCHERS", "city": "LAVAL", "province": "QC", "country": "CA", "postalCode": "H7V1Z7", "twitter": "None", "instagram": "None", "facebook": "None", "youtube": "None", "website": "None", "summary": "None", "logo": "None", "latitude": 45.545657248687135, "longitude": -73.71909743476262}, "848882668RR0001": {"name": "\u00c9glise missionnaire Baptiste Ind\u00e9pendante Arc-en-Ciel", "designationCode": "C", "categoryCode": "31", "address": "687, RUE PRINCIPALE", "city": "ST-JOACHIM-DE-SHEFFORD", "province": "QC", "country": "CA", "postalCode": "J0E2G0", "twitter": "None", "instagram": "None", "facebook": "None", "youtube": "None", "website": "None", "summary": "None", "logo": "None", "latitude": 45.454050314732555, "longitude": -72.52588930371003}, "837749506RR0001": {"name": "\u00c9glise montagne de Sion", "designationCode": "C", "categoryCode": "39", "address": "5 - 2890 AV SAINTE-CATHERINE", "city": "SAINT-HYACINTHE", "province": "QC", "country": "CA", "postalCode": "J2S7X6", "twitter": "None", "instagram": "None", "facebook": "None", "youtube": "None", "website": "None", "summary": "None", "logo": "None", "latitude": 45.63116417320664, "longitude": -72.96656382941909}, "844049577RR0001": {"name": "\u00c9glise nouveau d\u00e9but de la c\u00f4te Nord", "designationCode": "C", "categoryCode": "39", "address": "64 RUE DES PLAQUEBIERES", "city": "SEPT-ILES", "province": "QC", "country": "CA", "postalCode": "G4S1H7", "twitter": "None", "instagram": "None", "facebook": "None", "youtube": "None", "website": "None", "summary": "None", "logo": "None", "latitude": 50.26815635832985, "longitude": -66.41058683360268}, "805631686RR0001": {"name": "\u00c9glise nouvelle destin\u00e9e - New Destiny Church", "designationCode": "C", "categoryCode": "39", "address": "4938 RUE BEAUSOLEIL", "city": "LAVAL", "province": "QC", "country": "CA", "postalCode": "H7C1K5", "twitter": "None", "instagram": "None", "facebook": "None", "youtube": "None", "website": "None", "summary": "None", "logo": "None", "latitude": 45.61062632194594, "longitude": -73.6466098889723}, "859545626RR0001": {"name": "\u00c9glise orthodoxe roumaine Sainte Marie / Biserica Ortodoxa Romana Sfinta Maria", "designationCode": "C", "categoryCode": "39", "address": "71 CH DE LA PAIX", "city": "CHELSEA", "province": "QC", "country": "CA", "postalCode": "J9B1A7", "twitter": "None", "instagram": "None", "facebook": "None", "youtube": "None", "website": "None", "summary": "None", "logo": "None", "latitude": 45.48320491087219, "longitude": -75.88664994295694}, "830703807RR0001": {"name": "\u00c9glise paroles de vie internationale / Word of Life International Church", "designationCode": "C", "categoryCode": "39", "address": "18-900 DE L'ANCIENNE-CARRI\u00c8RE", "city": "SHERBROOKE", "province": "QC", "country": "CA", "postalCode": "J1H0G1", "twitter": "None", "instagram": "None", "facebook": "None", "youtube": "None", "website": "None", "summary": "None", "logo": "None", "latitude": 45.38640749956731, "longitude": -71.89991249826923}, "849547203RR0001": {"name": "\u00c9glise pentec\u00f4te la nouvelle J\u00e9rusalem / Iglesia Pentecostal La Nueva Jerusalen", "designationCode": "C", "categoryCode": "39", "address": "7 - 9071 BOUL PIE-IX", "city": "MONTREAL", "province": "QC", "country": "CA", "postalCode": "H1Z3V7", "twitter": "None", "instagram": "None", "facebook": "None", "youtube": "None", "website": "None", "summary": "None", "logo": "None", "latitude": 45.57947014158324, "longitude": -73.62042804215498}, "838447019RR0001": {"name": "\u00c9glise pentec\u00f4te missionnaire victorieuse / Iglesia Pentecostal Misionera victoriosa", "designationCode": "C", "categoryCode": "39", "address": "8510 13TH AVENUE", "city": "MONTREAL", "province": "QC", "country": "CA", "postalCode": "H1Z3K4", "twitter": "None", "instagram": "None", "facebook": "None", "youtube": "None", "website": "None", "summary": "None", "logo": "None", "latitude": 45.56823266582041, "longitude": -73.61645469568344}, "831126552RR0001": {"name": "\u00c9glise pentec\u00f4te Amigos / Iglesia Pentecostal Amigos", "designationCode": "B", "categoryCode": "36", "address": "5244 RUE DE SEVILLE", "city": "MONTREAL-NORD", "province": "QC", "country": "CA", "postalCode": "H1G1H9", "twitter": "None", "instagram": "None", "facebook": "None", "youtube": "None", "website": "None", "summary": "None", "logo": "None", "latitude": 45.610101252553626, "longitude": -73.63418829695897}, "855668703RR0001": {"name": "\u00c9glise pentec\u00f4tiste unie canadienne au Qu\u00e9bec / Canadian United Pentecostal church in Qu\u00e9bec.", "designationCode": "C", "categoryCode": "47", "address": "4865 BOUL.DAVIS", "city": "ST-HUBERT", "province": "QC", "country": "CA", "postalCode": "J3Y8K1", "twitter": "None", "instagram": "None", "facebook": "None", "youtube": "None", "website": "None", "summary": "None", "logo": "None", "latitude": 45.49881842157667, "longitude": -73.43855158050081}, "842464067RR0001": {"name": "\u00c9glise pour la diffusion de l'\u00c9vangile de Kangirsuk", "designationCode": "C", "categoryCode": "47", "address": "CP 129", "city": "KANGIRSUK", "province": "QC", "country": "CA", "postalCode": "J0M1A0", "twitter": "None", "instagram": "None", "facebook": "None", "youtube": "None", "website": "None", "summary": "None", "logo": "None", "latitude": 60.019570000000044, "longitude": -70.01545999999996}, "843117433RR0001": {"name": "\u00c9glise renaissance Trois-Rivi\u00e8res", "designationCode": "C", "categoryCode": "39", "address": "243, LUPIEN", "city": "TROIS-RIVI\u00c8RES", "province": "QC", "country": "CA", "postalCode": "G8T6W5", "twitter": "None", "instagram": "None", "facebook": "None", "youtube": "None", "website": "None", "summary": "None", "logo": "None", "latitude": 46.36799752816096, "longitude": -72.52576911270113}, "817628548RR0001": {"name": "\u00c9glise souffle de vie", "designationCode": "C", "categoryCode": "39", "address": "320 EIGHTH ST", "city": "NEW WESTMINSTER", "province": "BC", "country": "CA", "postalCode": "V3M3R4", "twitter": "None", "instagram": "None", "facebook": "None", "youtube": "None", "website": "None", "summary": "None", "logo": "None", "latitude": 49.20742500097807, "longitude": -122.91938199184942}, "811359835RR0001": {"name": "\u00c9glise source d'eau vive / Church Spring of Living Water", "designationCode": "C", "categoryCode": "39", "address": "204 - 1775 RUE EMILE-YELLE", "city": "MONTREAL", "province": "QC", "country": "CA", "postalCode": "H2M1L1", "twitter": "None", "instagram": "None", "facebook": "None", "youtube": "None", "website": "None", "summary": "None", "logo": "None", "latitude": 45.55852200000001, "longitude": -73.63285072456556}, "815444369RR0001": {"name": "\u00c9glise unie Bethlehem de J\u00e9sus-Christ (Apostolique) (Qu\u00e9bec) Inc. / Bethlehem United Church of Jesus Christ (Apostolic) (Qu\u00e9bec) Inc.", "designationCode": "C", "categoryCode": "44", "address": "2255 AV WEST HILL", "city": "MONTREAL", "province": "QC", "country": "CA", "postalCode": "H4B2S3", "twitter": "None", "instagram": "None", "facebook": "None", "youtube": "None", "website": "None", "summary": "None", "logo": "None", "latitude": 45.46396203693219, "longitude": -73.62271538784712}, "844719732RR0001": {"name": "\u00c9glise urbaine AXE21 / Focus21 Urban Church", "designationCode": "C", "categoryCode": "39", "address": "300 - 108 RUE WELLINGTON N", "city": "SHERBROOKE", "province": "QC", "country": "CA", "postalCode": "J1H5B8", "twitter": "None", "instagram": "None", "facebook": "None", "youtube": "None", "website": "None", "summary": "None", "logo": "None", "latitude": 45.40298224435397, "longitude": -71.89129498883517}, "813065976RR0001": {"name": "\u00c9glise urbaine 180\u00b0/180\u00b0 Urban Church", "designationCode": "C", "categoryCode": "39", "address": "96 RUE BERTRAND", "city": "QU\u00c9BEC", "province": "QC", "country": "CA", "postalCode": "G1C3L5", "twitter": "None", "instagram": "None", "facebook": "None", "youtube": "None", "website": "None", "summary": "None", "logo": "None", "latitude": 46.898643551762945, "longitude": -71.18935036744779}, "848398533RR0001": {"name": "\u00c9glise vie aujourd'hui", "designationCode": "C", "categoryCode": "39", "address": "780, RUE VOYER", "city": "MAGOG", "province": "QC", "country": "CA", "postalCode": "J1X2X9", "twitter": "None", "instagram": "None", "facebook": "None", "youtube": "None", "website": "None", "summary": "None", "logo": "None", "latitude": 45.26941350207748, "longitude": -72.13710974213761}, "831088869RR0001": {"name": "\u00c9glise vie de victoire", "designationCode": "C", "categoryCode": "39", "address": "125 RANG DU HAUT-DE-LA-RIVIERENORD", "city": "SAINT-CESAIRE", "province": "QC", "country": "CA", "postalCode": "J0L1T0", "twitter": "None", "instagram": "None", "facebook": "None", "youtube": "None", "website": "None", "summary": "None", "logo": "None", "latitude": 45.401615235356935, "longitude": -73.00475219784782}, "118782630RR0028": {"name": "\u00c9glise vietnamienne de l'Alliance Nouvelle vie / New Life Vietnamese Alliance Church", "designationCode": "C", "categoryCode": "39", "address": "7550 PLACE MERCURE", "city": "BROSSARD", "province": "QC", "country": "CA", "postalCode": "J4Y1A8", "twitter": "None", "instagram": "None", "facebook": "None", "youtube": "None", "website": "None", "summary": "None", "logo": "None", "latitude": 45.457094914767346, "longitude": -73.46290202689154}, "810945139RR0001": {"name": "\u00c9glise Action Apostolique de Montr\u00e9al", "designationCode": "C", "categoryCode": "39", "address": "10763 RUE BERRI", "city": "MONTREAL", "province": "QC", "country": "CA", "postalCode": "H3L2H3", "twitter": "None", "instagram": "None", "facebook": "None", "youtube": "None", "website": "None", "summary": "None", "logo": "None", "latitude": 45.55493596476991, "longitude": -73.67005323368349}, "118793074RR0054": {"name": "\u00c9glise Adventiste du Septi\u00e8me Jour - B\u00e9thanie", "designationCode": "C", "categoryCode": "41", "address": "10710 AV HAMELIN", "city": "MONTREAL", "province": "QC", "country": "CA", "postalCode": "H2B2G1", "twitter": "None", "instagram": "None", "facebook": "None", "youtube": "None", "website": "None", "summary": "None", "logo": "None", "latitude": 45.572249735212715, "longitude": -73.65812204538629}, "118793074RR0057": {"name": "\u00c9glise Adventiste du Septi\u00e8me Jour - La Fontaine", "designationCode": "C", "categoryCode": "41", "address": "940 CH DE CHAMBLY", "city": "LONGUEUIL", "province": "QC", "country": "CA", "postalCode": "J4H3M3", "twitter": "None", "instagram": "None", "facebook": "None", "youtube": "None", "website": "None", "summary": "None", "logo": "None", "latitude": 45.53508763639002, "longitude": -73.49540467404336}, "118793074RR0034": {"name": "\u00c9glise Adventiste du Septi\u00e8me Jour du Centre de Mauricie", "designationCode": "C", "categoryCode": "41", "address": "940 CHEMIN DE CHAMBLY", "city": "LONGUEUIL", "province": "QC", "country": "CA", "postalCode": "J4H3M3", "twitter": "None", "instagram": "None", "facebook": "None", "youtube": "None", "website": "None", "summary": "None", "logo": "None", "latitude": 45.53508763639002, "longitude": -73.49540467404336}, "118793074RR0056": {"name": "\u00c9glise Adventiste du Septi\u00e8me Jour- Centre Eau Vive Laval", "designationCode": "C", "categoryCode": "41", "address": "940 CH DE CHAMBLY", "city": "LONGUEUIL", "province": "QC", "country": "CA", "postalCode": "J4H3M3", "twitter": "None", "instagram": "None", "facebook": "None", "youtube": "None", "website": "None", "summary": "None", "logo": "None", "latitude": 45.53508763639002, "longitude": -73.49540467404336}, "118793074RR0055": {"name": "\u00c9glise Adventiste du Septi\u00e8me Jour-Luso-Brazilian de Montr\u00e9al", "designationCode": "C", "categoryCode": "41", "address": "940 CH DE CHAMBLY", "city": "LONGUEUIL", "province": "QC", "country": "CA", "postalCode": "J4H3M3", "twitter": "None", "instagram": "None", "facebook": "None", "youtube": "None", "website": "None", "summary": "None", "logo": "None", "latitude": 45.53508763639002, "longitude": -73.49540467404336}, "721283521RR0001": {"name": "\u00c9glise Agap\u00e9 Church", "designationCode": "C", "categoryCode": "39", "address": "80 RUE DES PERCHERONS", "city": "GATINEAU", "province": "QC", "country": "CA", "postalCode": "J8R4A9", "twitter": "None", "instagram": "None", "facebook": "None", "youtube": "None", "website": "None", "summary": "None", "logo": "None", "latitude": 45.510583431040374, "longitude": -75.58219398182237}}