{"118877869RR0001": {"name": "COURTENAY RECREATIONAL ASSOCIATION", "designationCode": "C", "categoryCode": "56", "address": "830 CLIFFE AVE", "city": "COURTENAY", "province": "BC", "country": "CA", "postalCode": "V9N2J7", "twitter": "None", "instagram": "None", "facebook": "None", "youtube": "None", "website": "None", "summary": "None", "logo": "None", "latitude": 49.68930886984239, "longitude": -124.99587790905451}, "806188355RR0001": {"name": "COURTHILL FOUNDATION", "designationCode": "B", "categoryCode": "03", "address": "1500 WEST GEORGIA STREET      SUITE 1250,.BOX 62", "city": "VANCOUVER", "province": "BC", "country": "CA", "postalCode": "V6G2Z6", "twitter": "None", "instagram": "None", "facebook": "None", "youtube": "None", "website": "None", "summary": "None", "logo": "None", "latitude": 49.2900638104334, "longitude": -123.12989899362336}, "135773216RR0001": {"name": "COURTLAND BIBLE FELLOWSHIP", "designationCode": "C", "categoryCode": "31", "address": "276 CONCESSION 2 STR          RR2", "city": "COURTLAND", "province": "ON", "country": "CA", "postalCode": "N0J1E0", "twitter": "None", "instagram": "None", "facebook": "None", "youtube": "None", "website": "None", "summary": "None", "logo": "None", "latitude": 42.78889395614293, "longitude": -80.62334838744309}, "888601994RR0001": {"name": "COURTLAND UNITED CHURCH,", "designationCode": "C", "categoryCode": "44", "address": "1227 HWY 3", "city": "DELHI", "province": "ON", "country": "CA", "postalCode": "N4B2W6", "twitter": "None", "instagram": "None", "facebook": "None", "youtube": "None", "website": "None", "summary": "None", "logo": "None", "latitude": 42.84704386749119, "longitude": -80.59381949183593}, "131833139RR0001": {"name": "COURTRIGHT PASTORAL CHARGE", "designationCode": "C", "categoryCode": "44", "address": "812 OIL SPRINGS LINE", "city": "COURTRIGHT", "province": "ON", "country": "CA", "postalCode": "N0N1H0", "twitter": "None", "instagram": "None", "facebook": "None", "youtube": "None", "website": "None", "summary": "None", "logo": "None", "latitude": 42.789606575617775, "longitude": -82.4023763335047}, "107396905RR0030": {"name": "COURTS OF PRAISE FOURSQUARE GOSPEL CHURCH", "designationCode": "C", "categoryCode": "39", "address": "2333 HERMAN AVENUE", "city": "SASKATOON", "province": "SK", "country": "CA", "postalCode": "S7M0N5", "twitter": "None", "instagram": "None", "facebook": "None", "youtube": "None", "website": "None", "summary": "None", "logo": "None", "latitude": 52.1007297485429, "longitude": -106.67722675780507}, "132098609RR0001": {"name": "COURTYARD HOMES INC.", "designationCode": "C", "categoryCode": "01", "address": "35 ATLANTIC BAPTIST AVE", "city": "MONCTON", "province": "NB", "country": "CA", "postalCode": "E1E4N3", "twitter": "None", "instagram": "None", "facebook": "None", "youtube": "None", "website": "None", "summary": "None", "logo": "None", "latitude": 46.05999327145241, "longitude": -64.85879860263182}, "122296049RR0001": {"name": "COUTTS UNITED CHURCH,", "designationCode": "C", "categoryCode": "44", "address": "PO BOX 128", "city": "COUTTS", "province": "AB", "country": "CA", "postalCode": "T0K0N0", "twitter": "None", "instagram": "None", "facebook": "None", "youtube": "None", "website": "None", "summary": "None", "logo": "None", "latitude": 49.57196577304218, "longitude": -114.07837511338025}, "897749040RR0001": {"name": "COUVENT DES CARMES DE TROIS-RIVI\u00c8RES", "designationCode": "C", "categoryCode": "49", "address": "600 RUE NOTRE-DAME", "city": "TROIS-RIVIERES", "province": "QC", "country": "CA", "postalCode": "G8T4G8", "twitter": "None", "instagram": "None", "facebook": "None", "youtube": "None", "website": "None", "summary": "None", "logo": "None", "latitude": 46.36692988037397, "longitude": -72.50076838190317}, "861046613RR0002": {"name": "COVE CLIFF PARENT ADVISORY COUNCIL", "designationCode": "C", "categoryCode": "21", "address": "1818 BANBURY ROAD", "city": "NORTH VANCOUVER", "province": "BC", "country": "CA", "postalCode": "V7G1S4", "twitter": "None", "instagram": "None", "facebook": "None", "youtube": "None", "website": "None", "summary": "None", "logo": "None", "latitude": 49.32283505245542, "longitude": -122.94929889442625}, "883272122RR0001": {"name": "COVENANT ASSOCIATES LTD.", "designationCode": "B", "categoryCode": "03", "address": "56 CRABBE ROAD", "city": "NORTHAMPTON", "province": "NB", "country": "CA", "postalCode": "E7N1R6", "twitter": "None", "instagram": "None", "facebook": "None", "youtube": "None", "website": "None", "summary": "None", "logo": "None", "latitude": 46.05617612424484, "longitude": -67.5452501928428}, "893270579RR0001": {"name": "COVENANT BAPTIST CHURCH", "designationCode": "C", "categoryCode": "31", "address": "205 ANDY CRESCENT", "city": "WOODBRIDGE", "province": "ON", "country": "CA", "postalCode": "L4H1C6", "twitter": "None", "instagram": "None", "facebook": "None", "youtube": "None", "website": "None", "summary": "None", "logo": "None", "latitude": 43.801899978071454, "longitude": -79.62788041719057}, "890316243RR0001": {"name": "COVENANT BAY BIBLE CAMP SOCIETY", "designationCode": "C", "categoryCode": "47", "address": "BOX 13, SITE 4                RR#1", "city": "WESTEROSE", "province": "AB", "country": "CA", "postalCode": "T0C2V0", "twitter": "None", "instagram": "None", "facebook": "None", "youtube": "None", "website": "None", "summary": "None", "logo": "None", "latitude": 52.96148700000006, "longitude": -114.02746099999993}, "133593954RR0001": {"name": "COVENANT BRETHREN IN CHRIST CHURCH", "designationCode": "C", "categoryCode": "39", "address": "95 ROBERT ST E", "city": "PENETANGUISHENE", "province": "ON", "country": "CA", "postalCode": "L9M1H1", "twitter": "None", "instagram": "None", "facebook": "None", "youtube": "None", "website": "None", "summary": "None", "logo": "None", "latitude": 44.774180640022216, "longitude": -79.92200516547094}, "879915312RR0001": {"name": "COVENANT CANADIAN REFORMED CHURCH", "designationCode": "C", "categoryCode": "39", "address": "33 BAYVIEW DRIVE", "city": "GRIMSBY", "province": "ON", "country": "CA", "postalCode": "L3M4Z5", "twitter": "None", "instagram": "None", "facebook": "None", "youtube": "None", "website": "None", "summary": "None", "logo": "None", "latitude": 43.19426784901036, "longitude": -79.53281118523877}, "827900127RR0001": {"name": "COVENANT CHRISTIAN CHURCH MISSION OUTREACH (HOPE CENTRE)", "designationCode": "C", "categoryCode": "39", "address": "5783 CAMLACHIE ROAD           P.O. BOX 774", "city": "WYOMING", "province": "ON", "country": "CA", "postalCode": "N0N1T0", "twitter": "None", "instagram": "None", "facebook": "None", "youtube": "None", "website": "None", "summary": "None", "logo": "None", "latitude": 42.97966180099834, "longitude": -82.16382646840619}, "134344787RR0001": {"name": "COVENANT CHRISTIAN CHURCH OF WYOMING", "designationCode": "C", "categoryCode": "39", "address": "5783 CAMLACHIE RD             PO BOX 774", "city": "WYOMING", "province": "ON", "country": "CA", "postalCode": "N0N1T0", "twitter": "None", "instagram": "None", "facebook": "None", "youtube": "None", "website": "None", "summary": "None", "logo": "None", "latitude": 42.97966180099834, "longitude": -82.16382646840619}, "137539037RR0001": {"name": "COVENANT CHRISTIAN REFORMED CHURCH", "designationCode": "C", "categoryCode": "39", "address": "653 KNOWLES AVE", "city": "WINNIPEG", "province": "MB", "country": "CA", "postalCode": "R2G2K3", "twitter": "None", "instagram": "None", "facebook": "None", "youtube": "None", "website": "None", "summary": "None", "logo": "None", "latitude": 49.948719429684054, "longitude": -97.04356874585986}, "106990112RR0001": {"name": "COVENANT CHRISTIAN REFORMED CHURCH OF BARRIE", "designationCode": "C", "categoryCode": "39", "address": "101 ARDAGH RD", "city": "BARRIE", "province": "ON", "country": "CA", "postalCode": "L4N4B7", "twitter": "None", "instagram": "None", "facebook": "None", "youtube": "None", "website": "None", "summary": "None", "logo": "None", "latitude": 44.357208936984335, "longitude": -79.70474647654224}, "136413960RR0001": {"name": "COVENANT CHRISTIAN REFORMED CHURCH OF CALGARY", "designationCode": "C", "categoryCode": "39", "address": "50 MILLRISE BLVD SW", "city": "CALGARY", "province": "AB", "country": "CA", "postalCode": "T2Y2E7", "twitter": "None", "instagram": "None", "facebook": "None", "youtube": "None", "website": "None", "summary": "None", "logo": "None", "latitude": 50.91919200000001, "longitude": -114.0749089279533}, "106990138RR0001": {"name": "COVENANT CHRISTIAN REFORMED CHURCH OF EDMONTON", "designationCode": "C", "categoryCode": "39", "address": "19010-87 AVE", "city": "EDMONTON", "province": "AB", "country": "CA", "postalCode": "T5T6P2", "twitter": "None", "instagram": "None", "facebook": "None", "youtube": "None", "website": "None", "summary": "None", "logo": "None", "latitude": 53.521381523803534, "longitude": -113.65163248306311}, "872340815RR0001": {"name": "COVENANT CHRISTIAN REFORMED CHURCH OF ROCKY MOUNTAIN HOUSE", "designationCode": "C", "categoryCode": "39", "address": "BOX 397", "city": "ROCKY MOUNTAIN HOUSE", "province": "AB", "country": "CA", "postalCode": "T4T1A3", "twitter": "None", "instagram": "None", "facebook": "None", "youtube": "None", "website": "None", "summary": "None", "logo": "None", "latitude": 52.37758500000005, "longitude": -114.93030049999993}, "852305523RR0001": {"name": "COVENANT CHRISTIAN REFORMED CHURCH OF ST. CATHARINES", "designationCode": "C", "categoryCode": "39", "address": "278 PARNELL ROAD", "city": "ST. CATHARINES", "province": "ON", "country": "CA", "postalCode": "L2M6P8", "twitter": "None", "instagram": "None", "facebook": "None", "youtube": "None", "website": "None", "summary": "None", "logo": "None", "latitude": 43.21334125278475, "longitude": -79.21421182552395}, "132206848RR0001": {"name": "COVENANT CHRISTIAN REFORMED CHURCH OF WOODSTOCK", "designationCode": "C", "categoryCode": "39", "address": "410 LANSDOWNE AVE", "city": "WOODSTOCK", "province": "ON", "country": "CA", "postalCode": "N4T1J2", "twitter": "None", "instagram": "None", "facebook": "None", "youtube": "None", "website": "None", "summary": "None", "logo": "None", "latitude": 43.147846403831714, "longitude": -80.72722712072256}, "139764476RR0001": {"name": "COVENANT HEALTH", "designationCode": "C", "categoryCode": "03", "address": "500 - 10045 111 ST NW", "city": "EDMONTON", "province": "AB", "country": "CA", "postalCode": "T5K2M5", "twitter": "None", "instagram": "None", "facebook": "None", "youtube": "None", "website": "None", "summary": "None", "logo": "None", "latitude": 53.540064, "longitude": -113.51206428902445}, "106990195RR0001": {"name": "COVENANT HOUSE TORONTO", "designationCode": "C", "categoryCode": "01", "address": "20 GERRARD ST. E.", "city": "TORONTO", "province": "ON", "country": "CA", "postalCode": "M5B2P3", "twitter": "None", "instagram": "None", "facebook": "None", "youtube": "None", "website": "None", "summary": "None", "logo": "None", "latitude": 43.65928218347842, "longitude": -79.38128622912451}, "897675625RR0001": {"name": "COVENANT HOUSE VANCOUVER", "designationCode": "C", "categoryCode": "01", "address": "575 DRAKE ST", "city": "VANCOUVER", "province": "BC", "country": "CA", "postalCode": "V6B4K8", "twitter": "None", "instagram": "None", "facebook": "None", "youtube": "None", "website": "None", "summary": "None", "logo": "None", "latitude": 49.27538051522374, "longitude": -123.1265474723799}, "816045272RR0001": {"name": "COVENANT IMPACT CHRISTIAN CENTER", "designationCode": "C", "categoryCode": "39", "address": "139 BOULEVARD DEGUIRE", "city": "CHATEAUGUAY", "province": "QC", "country": "CA", "postalCode": "J6J5C8", "twitter": "None", "instagram": "None", "facebook": "None", "youtube": "None", "website": "None", "summary": "None", "logo": "None", "latitude": 45.363979854838746, "longitude": -73.75893737748844}, "879167203RR0001": {"name": "COVENANT INTERNATIONAL MINISTRY IN CALGARY, ALBERTA, CANADA", "designationCode": "C", "categoryCode": "47", "address": "PO BOX 744                    STN MAIN", "city": "CALGARY", "province": "AB", "country": "CA", "postalCode": "T2P2J3", "twitter": "None", "instagram": "None", "facebook": "None", "youtube": "None", "website": "None", "summary": "None", "logo": "None", "latitude": 51.04531500000006, "longitude": -114.06301099999993}, "865974067RR0001": {"name": "COVENANT KEEPERS CANADA", "designationCode": "C", "categoryCode": "49", "address": "#95-9025-216 STREET", "city": "LANGLEY", "province": "BC", "country": "CA", "postalCode": "V1M2X6", "twitter": "None", "instagram": "None", "facebook": "None", "youtube": "None", "website": "None", "summary": "None", "logo": "None", "latitude": 49.16593705689882, "longitude": -122.62409352175473}, "866777055RR0001": {"name": "COVENANT MENNONITE CHURCH OF WINKLER INC.", "designationCode": "C", "categoryCode": "34", "address": "BOX 29", "city": "WINKLER", "province": "MB", "country": "CA", "postalCode": "R6W4A4", "twitter": "None", "instagram": "None", "facebook": "None", "youtube": "None", "website": "None", "summary": "None", "logo": "None", "latitude": 49.17773400000006, "longitude": -97.93841299999994}, "874258007RR0001": {"name": "COVENANT OF LIFE MINISTRIES", "designationCode": "C", "categoryCode": "47", "address": "10-20280 97 AVENUE", "city": "LANGLEY", "province": "BC", "country": "CA", "postalCode": "V1M4B9", "twitter": "None", "instagram": "None", "facebook": "None", "youtube": "None", "website": "None", "summary": "None", "logo": "None", "latitude": 49.17917961689322, "longitude": -122.66062067708737}, "830355095RR0001": {"name": "COVENANT OF PROMISE MINISTRIES INC.", "designationCode": "C", "categoryCode": "39", "address": "30 PENN DRIVE", "city": "NORTH YORK", "province": "ON", "country": "CA", "postalCode": "M9L2A9", "twitter": "None", "instagram": "None", "facebook": "None", "youtube": "None", "website": "None", "summary": "None", "logo": "None", "latitude": 43.75130810493953, "longitude": -79.55530799497967}, "852652031RR0001": {"name": "COVENANT ON THE ROCK MINISTRIES CANADA", "designationCode": "C", "categoryCode": "39", "address": "4085 KELLY FARM DRIVE", "city": "GLOUCESTER", "province": "ON", "country": "CA", "postalCode": "K1T4J3", "twitter": "None", "instagram": "None", "facebook": "None", "youtube": "None", "website": "None", "summary": "None", "logo": "None", "latitude": 45.31803344936224, "longitude": -75.60661344907378}, "872116496RR0001": {"name": "COVENANT ORTHODOX PRESBYTERIAN CHURCH", "designationCode": "C", "categoryCode": "39", "address": "421 METCALFE ST W", "city": "STRATHROY", "province": "ON", "country": "CA", "postalCode": "N7G1N6", "twitter": "None", "instagram": "None", "facebook": "None", "youtube": "None", "website": "None", "summary": "None", "logo": "None", "latitude": 42.94796725702567, "longitude": -81.63319972303634}, "759192495RR0001": {"name": "COVENANT PLACE SUPPORT & RENEWAL ORGANIZATION", "designationCode": "C", "categoryCode": "01", "address": "7044 HIGHWAY 207              RR 2", "city": "HEAD OF CHEZZETCOOK", "province": "NS", "country": "CA", "postalCode": "B0J1N0", "twitter": "None", "instagram": "None", "facebook": "None", "youtube": "None", "website": "None", "summary": "None", "logo": "None", "latitude": 44.71173173910784, "longitude": -63.260061697443795}, "118878115RR0001": {"name": "COVENANT PRODUCTIONS (CANADA) INC.", "designationCode": "C", "categoryCode": "22", "address": "150 BIGGINGS AVENUE", "city": "SAULT STE MARIE", "province": "ON", "country": "CA", "postalCode": "P6A3T9", "twitter": "None", "instagram": "None", "facebook": "None", "youtube": "None", "website": "None", "summary": "None", "logo": "None", "latitude": 46.507476929222726, "longitude": -84.31850228613892}, "884722950RR0001": {"name": "COVENANT REFORMED BAPTIST CHURCH OF ORILLIA", "designationCode": "C", "categoryCode": "45", "address": "15 HEYDEN AVE", "city": "ORILLIA", "province": "ON", "country": "CA", "postalCode": "L3V0G5", "twitter": "None", "instagram": "None", "facebook": "None", "youtube": "None", "website": "None", "summary": "None", "logo": "None", "latitude": 44.58897730088276, "longitude": -79.38892916045336}, "870210093RR0001": {"name": "COVENANT REFORMED CHURCH", "designationCode": "C", "categoryCode": "39", "address": "10803-94 ST", "city": "GRANDE PRAIRIE", "province": "AB", "country": "CA", "postalCode": "T8V1Y8", "twitter": "None", "instagram": "None", "facebook": "None", "youtube": "None", "website": "None", "summary": "None", "logo": "None", "latitude": 55.17819, "longitude": -118.77811590114867}, "119144038RR0001": {"name": "COVENANT REFORMED CHURCH OF TORONTO", "designationCode": "C", "categoryCode": "39", "address": "265 ALBION RD", "city": "REXDALE", "province": "ON", "country": "CA", "postalCode": "M9W3P1", "twitter": "None", "instagram": "None", "facebook": "None", "youtube": "None", "website": "None", "summary": "None", "logo": "None", "latitude": 43.72144126891358, "longitude": -79.54599803514317}, "106990229RR0001": {"name": "COVENANT REFORMED PRESBYTERIAN CHURCH OF NEWCASTLE INC.", "designationCode": "C", "categoryCode": "37", "address": "91 BIG FERRY ROAD", "city": "MIRAMICHI", "province": "NB", "country": "CA", "postalCode": "E1V6Y2", "twitter": "None", "instagram": "None", "facebook": "None", "youtube": "None", "website": "None", "summary": "None", "logo": "None", "latitude": 47.03537993366612, "longitude": -65.4779872628827}, "871744496RR0001": {"name": "COVENANT REFORMED PRESBYTERIAN CHURCH, ASSOCIATE REFORMED SYNOD", "designationCode": "C", "categoryCode": "39", "address": "71 FRASER RD", "city": "TIMBERLEA", "province": "NS", "country": "CA", "postalCode": "B3T1J4", "twitter": "None", "instagram": "None", "facebook": "None", "youtube": "None", "website": "None", "summary": "None", "logo": "None", "latitude": 44.66393702305372, "longitude": -63.750256539125225}, "107852220RR0001": {"name": "COVENANT UNITED CHURCH TIMMINS ONTARIO", "designationCode": "C", "categoryCode": "44", "address": "230 EIGHTH AVENUE", "city": "TIMMINS", "province": "ON", "country": "CA", "postalCode": "P4N5S1", "twitter": "None", "instagram": "None", "facebook": "None", "youtube": "None", "website": "None", "summary": "None", "logo": "None", "latitude": 48.48129517760343, "longitude": -81.3287002576931}, "107794984RR0001": {"name": "COVENANT WORD OF LIFE MINISTRIES SOCIETY", "designationCode": "C", "categoryCode": "39", "address": "425 MOUNTAINVIEW COURT", "city": "OLIVER", "province": "BC", "country": "CA", "postalCode": "V0H1T4", "twitter": "None", "instagram": "None", "facebook": "None", "youtube": "None", "website": "None", "summary": "None", "logo": "None", "latitude": 49.19231360709486, "longitude": -119.54472155603646}, "862183449RR0001": {"name": "COVENANTERS ASSOCIATE REFORMED PRESBYTERIAN CHURCH OF KENTVILLE", "designationCode": "C", "categoryCode": "37", "address": "6185 HWY 1", "city": "CAMBRIDGE", "province": "NS", "country": "CA", "postalCode": "B0P1G0", "twitter": "None", "instagram": "None", "facebook": "None", "youtube": "None", "website": "None", "summary": "None", "logo": "None", "latitude": 45.0580871426631, "longitude": -64.62767755225788}, "856406376RR0001": {"name": "COVERDALE CENTRE FOR WOMEN INC.", "designationCode": "C", "categoryCode": "59", "address": "148 WATERLOO STREET", "city": "SAINT JOHN", "province": "NB", "country": "CA", "postalCode": "E2L3R1", "twitter": "None", "instagram": "None", "facebook": "None", "youtube": "None", "website": "None", "summary": "None", "logo": "None", "latitude": 45.27880216763808, "longitude": -66.05538346641468}, "888404449RR0001": {"name": "COVERDALE COURTWORK SOCIETY", "designationCode": "C", "categoryCode": "53", "address": "203 - 6169 QUINPOOL RD", "city": "HALIFAX", "province": "NS", "country": "CA", "postalCode": "B3L4P8", "twitter": "None", "instagram": "None", "facebook": "None", "youtube": "None", "website": "None", "summary": "None", "logo": "None", "latitude": 44.646009997518505, "longitude": -63.59526082168612}, "106990252RR0001": {"name": "COVERDALE UNITED CHURCH", "designationCode": "C", "categoryCode": "44", "address": "142 FLORENCE RD", "city": "RIVERVIEW", "province": "NB", "country": "CA", "postalCode": "E1B1P8", "twitter": "None", "instagram": "None", "facebook": "None", "youtube": "None", "website": "None", "summary": "None", "logo": "None", "latitude": 46.07209860892156, "longitude": -64.77878690590917}, "893560334RR0001": {"name": "COW HEAD CONSERVATION AND HERITAGE INC.", "designationCode": "C", "categoryCode": "50", "address": "P.O. BOX 238, 143 MAIN ST", "city": "COW HEAD", "province": "NL", "country": "CA", "postalCode": "A0K2A0", "twitter": "None", "instagram": "None", "facebook": "None", "youtube": "None", "website": "None", "summary": "None", "logo": "None", "latitude": 49.47096233163127, "longitude": -58.12682329708719}, "892719865RR0001": {"name": "COWAN HEIGHTS UNITED CHURCH PASTORAL CHARGE", "designationCode": "C", "categoryCode": "44", "address": "141 FRECKER DRIVE", "city": "ST. JOHNS", "province": "NL", "country": "CA", "postalCode": "A1E4W1", "twitter": "None", "instagram": "None", "facebook": "None", "youtube": "None", "website": "None", "summary": "None", "logo": "None", "latitude": 47.53210549373894, "longitude": -52.76628087448827}, "888443991RR0001": {"name": "COWANSVILLE AREA PASTORAL CHARGE", "designationCode": "C", "categoryCode": "44", "address": "203 RUE PRINCIPALE", "city": "COWANSVILLE", "province": "QC", "country": "CA", "postalCode": "J2K1J3", "twitter": "None", "instagram": "None", "facebook": "None", "youtube": "None", "website": "None", "summary": "None", "logo": "None", "latitude": 45.20827231057762, "longitude": -72.74335821648681}, "867069957RR0001": {"name": "COWICHAN CAT RESCUE", "designationCode": "C", "categoryCode": "54", "address": "P.O. BOX 677", "city": "DUNCAN", "province": "BC", "country": "CA", "postalCode": "V9L3Y1", "twitter": "None", "instagram": "None", "facebook": "None", "youtube": "None", "website": "None", "summary": "None", "logo": "None", "latitude": 48.77908800000006, "longitude": -123.70739299999994}, "895964856RR0001": {"name": "COWICHAN COMMUNITY LAND TRUST SOCIETY", "designationCode": "C", "categoryCode": "52", "address": "6-55 STATION STREET", "city": "DUNCAN", "province": "BC", "country": "CA", "postalCode": "V9L1M2", "twitter": "None", "instagram": "None", "facebook": "None", "youtube": "None", "website": "None", "summary": "None", "logo": "None", "latitude": 48.77770352207276, "longitude": -123.70773183527612}, "888849197RR0001": {"name": "COWICHAN CREAMERY AGRICULTURAL SCHOLARSHIP TRUST SOCIETY", "designationCode": "C", "categoryCode": "21", "address": "3210 MT. SICKER RD", "city": "CHEMAINUS", "province": "BC", "country": "CA", "postalCode": "V0R1K4", "twitter": "None", "instagram": "None", "facebook": "None", "youtube": "None", "website": "None", "summary": "None", "logo": "None", "latitude": 48.885016811571404, "longitude": -123.73301386706503}, "888991197RR0001": {"name": "COWICHAN DISTRICT HOSPITAL FOUNDATION", "designationCode": "A", "categoryCode": "13", "address": "101 - 5822 GARDEN ST", "city": "DUNCAN", "province": "BC", "country": "CA", "postalCode": "V9L3V9", "twitter": "None", "instagram": "None", "facebook": "None", "youtube": "None", "website": "None", "summary": "None", "logo": "None", "latitude": 48.78189041909516, "longitude": -123.70560566974419}, "867610446RR0001": {"name": "COWICHAN FAMILY CAREGIVERS SUPPORT SOCIETY", "designationCode": "C", "categoryCode": "11", "address": "1 KENNETH PL", "city": "DUNCAN", "province": "BC", "country": "CA", "postalCode": "V9L5G3", "twitter": "None", "instagram": "None", "facebook": "None", "youtube": "None", "website": "None", "summary": "None", "logo": "None", "latitude": 48.77857468531044, "longitude": -123.70726918531044}, "106990484RR0001": {"name": "COWICHAN FAMILY LIFE ASSOCIATION", "designationCode": "C", "categoryCode": "09", "address": "28-127 INGRAM ST", "city": "DUNCAN", "province": "BC", "country": "CA", "postalCode": "V9L1N8", "twitter": "None", "instagram": "None", "facebook": "None", "youtube": "None", "website": "None", "summary": "None", "logo": "None", "latitude": 48.779297453257385, "longitude": -123.70879358381903}, "118878289RR0001": {"name": "COWICHAN HISTORICAL SOCIETY", "designationCode": "C", "categoryCode": "50", "address": "PO BOX 1014", "city": "DUNCAN", "province": "BC", "country": "CA", "postalCode": "V9L3Y2", "twitter": "None", "instagram": "None", "facebook": "None", "youtube": "None", "website": "None", "summary": "None", "logo": "None", "latitude": 48.77908800000006, "longitude": -123.70739299999994}, "106781065RR0001": {"name": "COWICHAN LAKE BAPTIST CHURCH", "designationCode": "C", "categoryCode": "31", "address": "BOX 1155", "city": "LAKE COWICHAN", "province": "BC", "country": "CA", "postalCode": "V0R2G0", "twitter": "None", "instagram": "None", "facebook": "None", "youtube": "None", "website": "None", "summary": "None", "logo": "None", "latitude": 48.810804726537235, "longitude": -123.97042104319344}, "106990526RR0001": {"name": "COWICHAN LAKE COMMUNITY SERVICES SOCIETY", "designationCode": "C", "categoryCode": "09", "address": "BOX 670", "city": "LAKE COWICHAN", "province": "BC", "country": "CA", "postalCode": "V0R2G0", "twitter": "None", "instagram": "None", "facebook": "None", "youtube": "None", "website": "None", "summary": "None", "logo": "None", "latitude": 48.810804726537235, "longitude": -123.97042104319344}, "139636666RR0001": {"name": "COWICHAN LAKE DISTRICT SENIORS ASSOCIATION", "designationCode": "C", "categoryCode": "56", "address": "BOX 1291", "city": "LAKE COWICHAN", "province": "BC", "country": "CA", "postalCode": "V0R2G0", "twitter": "None", "instagram": "None", "facebook": "None", "youtube": "None", "website": "None", "summary": "None", "logo": "None", "latitude": 48.810804726537235, "longitude": -123.97042104319344}, "889995486RR0001": {"name": "COWICHAN LAKE SALMONID ENHANCEMENT SOCIETY", "designationCode": "C", "categoryCode": "54", "address": "131 OAK LANE                  BOX 1616", "city": "LAKE COWICHAN", "province": "BC", "country": "CA", "postalCode": "V0R2G0", "twitter": "None", "instagram": "None", "facebook": "None", "youtube": "None", "website": "None", "summary": "None", "logo": "None", "latitude": 48.83089115835621, "longitude": -124.04753847616621}, "871240891RR0001": {"name": "COWICHAN NEIGHBOURHOOD HOUSE ASSOCIATION", "designationCode": "C", "categoryCode": "59", "address": "1-9806 WILLOW ST, PO BOX 457", "city": "CHEMAINUS", "province": "BC", "country": "CA", "postalCode": "V0R1K0", "twitter": "None", "instagram": "None", "facebook": "None", "youtube": "None", "website": "None", "summary": "None", "logo": "None", "latitude": 48.92357484234525, "longitude": -123.7184282965836}, "866862477RR0001": {"name": "COWICHAN PIPERS AND DRUMMERS SOCIETY", "designationCode": "C", "categoryCode": "22", "address": "28-1400 COWICHAN BAY ROAD", "city": "COBBLE HILL", "province": "BC", "country": "CA", "postalCode": "V0R1L3", "twitter": "None", "instagram": "None", "facebook": "None", "youtube": "None", "website": "None", "summary": "None", "logo": "None", "latitude": 48.71044860165452, "longitude": -123.60711377567453}, "130576036RR0001": {"name": "COWICHAN PRE-SCHOOL ASSOCIATION", "designationCode": "C", "categoryCode": "20", "address": "PO BOX 633                    STN MAIN", "city": "DUNCAN", "province": "BC", "country": "CA", "postalCode": "V9L3X9", "twitter": "None", "instagram": "None", "facebook": "None", "youtube": "None", "website": "None", "summary": "None", "logo": "None", "latitude": 48.77908800000006, "longitude": -123.70739299999994}, "866528623RR0001": {"name": "COWICHAN REGION COMMUNITY POLICING ADVISORY COMMITTEE SOCIETY", "designationCode": "C", "categoryCode": "59", "address": "6060 CANADA AVENUE", "city": "DUNCAN", "province": "BC", "country": "CA", "postalCode": "V9L1V3", "twitter": "None", "instagram": "None", "facebook": "None", "youtube": "None", "website": "None", "summary": "None", "logo": "None", "latitude": 48.790344183742405, "longitude": -123.71222265969375}, "881399109RR0001": {"name": "COWICHAN RIVER BIBLE CAMP", "designationCode": "C", "categoryCode": "56", "address": "5070 RIVERBOTTOM RD WEST", "city": "DUNCAN", "province": "BC", "country": "CA", "postalCode": "V9L6J6", "twitter": "None", "instagram": "None", "facebook": "None", "youtube": "None", "website": "None", "summary": "None", "logo": "None", "latitude": 48.7626992495897, "longitude": -123.8531714385964}, "865958953RR0001": {"name": "COWICHAN SEARCH AND RESCUE SOCIETY", "designationCode": "C", "categoryCode": "59", "address": "P O BOX 1034", "city": "DUNCAN", "province": "BC", "country": "CA", "postalCode": "V9L3Y2", "twitter": "None", "instagram": "None", "facebook": "None", "youtube": "None", "website": "None", "summary": "None", "logo": "None", "latitude": 48.77908800000006, "longitude": -123.70739299999994}, "861757581RR0001": {"name": "COWICHAN SOCIAL PLANNING SOCIETY", "designationCode": "C", "categoryCode": "09", "address": "5878 YORK RD", "city": "DUNCAN", "province": "BC", "country": "CA", "postalCode": "V9L3S4", "twitter": "None", "instagram": "None", "facebook": "None", "youtube": "None", "website": "None", "summary": "None", "logo": "None", "latitude": 48.78397716180967, "longitude": -123.69886315531748}, "891723843RR0001": {"name": "COWICHAN THERAPEUTIC RIDING ASSOCIATION", "designationCode": "C", "categoryCode": "56", "address": "1843 TZOUHALEM ROAD", "city": "DUNCAN", "province": "BC", "country": "CA", "postalCode": "V9L5L6", "twitter": "None", "instagram": "None", "facebook": "None", "youtube": "None", "website": "None", "summary": "None", "logo": "None", "latitude": 48.78075067119103, "longitude": -123.65963742140241}, "118878354RR0001": {"name": "COWICHAN UNITED WAY", "designationCode": "C", "categoryCode": "03", "address": "9 - 327 PRIDEAUX ST", "city": "NANAIMO", "province": "BC", "country": "CA", "postalCode": "V9R2N4", "twitter": "None", "instagram": "None", "facebook": "None", "youtube": "None", "website": "None", "summary": "None", "logo": "None", "latitude": 49.16347709461041, "longitude": -123.94292722017947}, "892118449RR0001": {"name": "COWICHAN VALLEY AMATEUR RADIO SOCIETY", "designationCode": "C", "categoryCode": "59", "address": "4224 TRANS CANADA HWY", "city": "COBBLE HILL", "province": "BC", "country": "CA", "postalCode": "V0R1L5", "twitter": "None", "instagram": "None", "facebook": "None", "youtube": "None", "website": "None", "summary": "None", "logo": "None", "latitude": 48.718424375990665, "longitude": -123.61851163673047}, "867654022RR0001": {"name": "COWICHAN VALLEY ARTS COUNCIL", "designationCode": "C", "categoryCode": "23", "address": "2687 JAMES STREET", "city": "DUNCAN", "province": "BC", "country": "CA", "postalCode": "V9L2X5", "twitter": "None", "instagram": "None", "facebook": "None", "youtube": "None", "website": "None", "summary": "None", "logo": "None", "latitude": 48.782126476628235, "longitude": -123.70319036081135}, "834113144RR0001": {"name": "COWICHAN VALLEY BASKET SOCIETY", "designationCode": "C", "categoryCode": "01", "address": "5810 GARDEN ST", "city": "DUNCAN", "province": "BC", "country": "CA", "postalCode": "V9L3V9", "twitter": "None", "instagram": "None", "facebook": "None", "youtube": "None", "website": "None", "summary": "None", "logo": "None", "latitude": 48.78155741909515, "longitude": -123.70561518806606}, "894113372RR0008": {"name": "COWICHAN VALLEY CHURCH OF THE NAZARENE", "designationCode": "C", "categoryCode": "39", "address": "3036 SHERMAN RD", "city": "DUNCAN", "province": "BC", "country": "CA", "postalCode": "V9L2B8", "twitter": "None", "instagram": "None", "facebook": "None", "youtube": "None", "website": "None", "summary": "None", "logo": "None", "latitude": 48.79210150562683, "longitude": -123.72282048052429}, "118878370RR0001": {"name": "COWICHAN VALLEY CRIME STOPPERS SOCIETY", "designationCode": "C", "categoryCode": "59", "address": "823 CANADA AVE", "city": "DUNCAN", "province": "BC", "country": "CA", "postalCode": "V9L1V2", "twitter": "None", "instagram": "None", "facebook": "None", "youtube": "None", "website": "None", "summary": "None", "logo": "None", "latitude": 48.783619896474136, "longitude": -123.70872333723803}, "118878388RR0001": {"name": "COWICHAN VALLEY HOSPICE SOCIETY", "designationCode": "C", "categoryCode": "59", "address": "3122 GIBBINS ROAD", "city": "DUNCAN", "province": "BC", "country": "CA", "postalCode": "V9L1G2", "twitter": "None", "instagram": "None", "facebook": "None", "youtube": "None", "website": "None", "summary": "None", "logo": "None", "latitude": 48.783608110450785, "longitude": -123.72741943614761}, "890470982RR0001": {"name": "COWICHAN VALLEY INDEPENDENT LIVING RESOURCE CENTRE SOCIETY", "designationCode": "C", "categoryCode": "09", "address": "#103 - 121 FIRST STREET", "city": "DUNCAN", "province": "BC", "country": "CA", "postalCode": "V9L1R1", "twitter": "None", "instagram": "None", "facebook": "None", "youtube": "None", "website": "None", "summary": "None", "logo": "None"}, "118878396RR0001": {"name": "COWICHAN VALLEY INTERCULTURAL AND IMMIGRANT AID SOCIETY", "designationCode": "C", "categoryCode": "09", "address": "205-394 DUNCAN ST", "city": "DUNCAN", "province": "BC", "country": "CA", "postalCode": "V9L3W4", "twitter": "None", "instagram": "None", "facebook": "None", "youtube": "None", "website": "None", "summary": "None", "logo": "None", "latitude": 48.77866960283338, "longitude": -123.70651462057833}, "888526407RR0001": {"name": "COWICHAN VALLEY NATURALISTS' SOCIETY", "designationCode": "C", "categoryCode": "52", "address": "6-55 STATION STREET", "city": "DUNCAN", "province": "BC", "country": "CA", "postalCode": "V9L1M2", "twitter": "None", "instagram": "None", "facebook": "None", "youtube": "None", "website": "None", "summary": "None", "logo": "None", "latitude": 48.77770352207276, "longitude": -123.70773183527612}, "118878339RR0001": {"name": "COWICHAN WOMEN AGAINST VIOLENCE SOCIETY", "designationCode": "C", "categoryCode": "09", "address": "246 EVANS ST", "city": "DUNCAN", "province": "BC", "country": "CA", "postalCode": "V9L1P8", "twitter": "None", "instagram": "None", "facebook": "None", "youtube": "None", "website": "None", "summary": "None", "logo": "None", "latitude": 48.77981952899766, "longitude": -123.71118291618097}, "128596830RR0001": {"name": "COWICHAN WOODEN BOAT SOCIETY", "designationCode": "C", "categoryCode": "50", "address": "BOX 22                        1761 COWICHAN BAY ROAD", "city": "COWICHAN BAY", "province": "BC", "country": "CA", "postalCode": "V0R1N0", "twitter": "None", "instagram": "None", "facebook": "None", "youtube": "None", "website": "None", "summary": "None", "logo": "None", "latitude": 48.740539572213926, "longitude": -123.62161361600933}, "857065676RR0001": {"name": "COXHEATH HILLS WILDERNESS RECREATION ASSOCIATION", "designationCode": "C", "categoryCode": "56", "address": "1330 COXHEATH RD", "city": "SYDNEY", "province": "NS", "country": "CA", "postalCode": "B1L1B3", "twitter": "None", "instagram": "None", "facebook": "None", "youtube": "None", "website": "None", "summary": "None", "logo": "None", "latitude": 46.079751084149905, "longitude": -60.28255676454092}, "128329331RR0001": {"name": "COXHEATH VOLUNTEER FIRE DEPARTMENT", "designationCode": "C", "categoryCode": "59", "address": "P.O. BOX 1014 STATION A       83 COXHEATH ROAD", "city": "SYDNEY", "province": "NS", "country": "CA", "postalCode": "B1P6J4", "twitter": "None", "instagram": "None", "facebook": "None", "youtube": "None", "website": "None", "summary": "None", "logo": "None", "latitude": 46.1150696277917, "longitude": -60.235444583934594}, "119218808RR0001": {"name": "CPA CANADA EDUCATION FUND", "designationCode": "A", "categoryCode": "21", "address": "277 WELLINGTON ST W", "city": "TORONTO", "province": "ON", "country": "CA", "postalCode": "M5V3H2", "twitter": "None", "instagram": "None", "facebook": "None", "youtube": "None", "website": "None", "summary": "None", "logo": "None", "latitude": 43.64474981652159, "longitude": -79.39144648666979}, "119211134RR0001": {"name": "CPA EDUCATION FOUNDATION", "designationCode": "A", "categoryCode": "23", "address": "1900 - 10088 102 AVE NW", "city": "EDMONTON", "province": "AB", "country": "CA", "postalCode": "T5J2Z1", "twitter": "None", "instagram": "None", "facebook": "None", "youtube": "None", "website": "None", "summary": "None", "logo": "None", "latitude": 53.54326249437317, "longitude": -113.4925225237462}, "892447764RR0001": {"name": "CPA Saskatchewan Scholarship Fund Inc.", "designationCode": "C", "categoryCode": "21", "address": "PO BOX 3030 STN MAIN", "city": "REGINA", "province": "SK", "country": "CA", "postalCode": "S4P3G8", "twitter": "None", "instagram": "None", "facebook": "None", "youtube": "None", "website": "None", "summary": "None", "logo": "None", "latitude": 50.448246000000054, "longitude": -104.59517299999993}, "864890520RR0001": {"name": "CPA Western School of Business", "designationCode": "C", "categoryCode": "20", "address": "301-1253 91ST SW", "city": "EDMONTON", "province": "AB", "country": "CA", "postalCode": "T6X1E9", "twitter": "None", "instagram": "None", "facebook": "None", "youtube": "None", "website": "None", "summary": "None", "logo": "None", "latitude": 53.421871675515256, "longitude": -113.47538616074274}, "847023397RR0001": {"name": "CPA-Robert Warner Memorial Fund", "designationCode": "B", "categoryCode": "53", "address": "100-141 CATHERINE STREET", "city": "OTTAWA", "province": "ON", "country": "CA", "postalCode": "K2P1C3", "twitter": "None", "instagram": "None", "facebook": "None", "youtube": "None", "website": "None", "summary": "None", "logo": "None", "latitude": 45.410169403571906, "longitude": -75.69055498087006}, "118935352RR0001": {"name": "CPE (CENTRE DE LA PETITE ENFANCE) CANNELLE ET PRUNEAU INC.", "designationCode": "C", "categoryCode": "20", "address": "1411 CH. KIPAWA", "city": "TEMISCAMING", "province": "QC", "country": "CA", "postalCode": "J0Z3R0", "twitter": "None", "instagram": "None", "facebook": "None", "youtube": "None", "website": "None", "summary": "None", "logo": "None", "latitude": 46.73407752703577, "longitude": -79.07456296805948}, "107588741RR0001": {"name": "CPE AUX MILLE-PATTES STE-FOY", "designationCode": "C", "categoryCode": "20", "address": "100-1000 RTE DE L'EGLISE", "city": "QUEBEC", "province": "QC", "country": "CA", "postalCode": "G1V3V9", "twitter": "None", "instagram": "None", "facebook": "None", "youtube": "None", "website": "None", "summary": "None", "logo": "None", "latitude": 46.771967235588086, "longitude": -71.29578752380353}, "107589202RR0001": {"name": "CPE ID\u00c9E FIXE INC.", "designationCode": "C", "categoryCode": "01", "address": "1825, RUE DE CHAMPLAIN", "city": "MONTR\u00c9AL", "province": "QC", "country": "CA", "postalCode": "H2L2S9", "twitter": "None", "instagram": "None", "facebook": "None", "youtube": "None", "website": "None", "summary": "None", "logo": "None", "latitude": 45.524185155433045, "longitude": -73.55802180959667}, "107416364RR0001": {"name": "CPE L'AVENTURLURE DE LASALLE", "designationCode": "C", "categoryCode": "20", "address": "7644 EDOUARD", "city": "LASALLE", "province": "QC", "country": "CA", "postalCode": "H8P1T3", "twitter": "None", "instagram": "None", "facebook": "None", "youtube": "None", "website": "None", "summary": "None", "logo": "None", "latitude": 45.430718731606035, "longitude": -73.59450572254633}, "107416398RR0001": {"name": "CPE Le Chatelet", "designationCode": "C", "categoryCode": "01", "address": "8 BOUL DE LUCERNE", "city": "GATINEAU", "province": "QC", "country": "CA", "postalCode": "J9H3S2", "twitter": "None", "instagram": "None", "facebook": "None", "youtube": "None", "website": "None", "summary": "None", "logo": "None", "latitude": 45.38649122012215, "longitude": -75.83130811045078}, "107617441RR0001": {"name": "CPE Les gardelunes", "designationCode": "C", "categoryCode": "01", "address": "6789 RUE SAINT-ANDRE", "city": "MONTREAL", "province": "QC", "country": "CA", "postalCode": "H2S2L1", "twitter": "None", "instagram": "None", "facebook": "None", "youtube": "None", "website": "None", "summary": "None", "logo": "None", "latitude": 45.538636232038705, "longitude": -73.60734965208617}, "874014418RR0001": {"name": "CPE LE JARDIN DES FRIMOUSSES", "designationCode": "C", "categoryCode": "20", "address": "777,RUE ESTHER-BLONDIN", "city": "LACHINE", "province": "QC", "country": "CA", "postalCode": "H8S3R6", "twitter": "None", "instagram": "None", "facebook": "None", "youtube": "None", "website": "None", "summary": "None", "logo": "None", "latitude": 45.44533791618096, "longitude": -73.68029314464165}, "894656586RR0001": {"name": "CPE Marie-Soleil", "designationCode": "C", "categoryCode": "01", "address": "185, RUE P. LABINE", "city": "GATINEAU", "province": "QC", "country": "CA", "postalCode": "J8R1S5", "twitter": "None", "instagram": "None", "facebook": "None", "youtube": "None", "website": "None", "summary": "None", "logo": "None", "latitude": 45.50316044214888, "longitude": -75.65110494907377}, "140590340RR0001": {"name": "CPE PETITE ACAD\u00c9MIE LANAUDI\u00c8RE", "designationCode": "C", "categoryCode": "01", "address": "934 BOUL L'ASSOMPTION", "city": "REPENTIGNY", "province": "QC", "country": "CA", "postalCode": "J6A5H5", "twitter": "None", "instagram": "None", "facebook": "None", "youtube": "None", "website": "None", "summary": "None", "logo": "None", "latitude": 45.76872878485397, "longitude": -73.44903129115701}, "801431586RR0001": {"name": "CPL. Shari Irving Memorial Foundation Inc.", "designationCode": "C", "categoryCode": "11", "address": "21 RUSHTON ST", "city": "ST STEPHEN", "province": "NB", "country": "CA", "postalCode": "E3L1Y4", "twitter": "None", "instagram": "None", "facebook": "None", "youtube": "None", "website": "None", "summary": "None", "logo": "None", "latitude": 45.19409332944775, "longitude": -67.28514199471988}, "856137500RR0001": {"name": "CPSA FOUNDATION", "designationCode": "C", "categoryCode": "21", "address": "1920 - 2 BLOOR ST E", "city": "TORONTO", "province": "ON", "country": "CA", "postalCode": "M4W1A8", "twitter": "None", "instagram": "None", "facebook": "None", "youtube": "None", "website": "None", "summary": "None", "logo": "None", "latitude": 43.670545165156554, "longitude": -79.38540856440065}}