{"892991654RR0001": {"name": "THE ALDERBROOKE MARSH LAND TRUST, INC /LA FIDUCIE FONCIERE DU MARAIS ALDERBROOKE, INC", "designationCode": "C", "categoryCode": "52", "address": "CP 2142", "city": "SUTTON", "province": "QC", "country": "CA", "postalCode": "J0E2K0", "twitter": "None", "instagram": "None", "facebook": "None", "youtube": "None", "website": "None", "summary": "None", "logo": "None", "latitude": 45.10737600000006, "longitude": -72.60849799999993}, "890016132RR0001": {"name": "THE ALDERBUDS CHILD CARE CENTRE OF ETOBICOKE", "designationCode": "C", "categoryCode": "01", "address": "399 THE WEST MALL", "city": "ETOBICOKE", "province": "ON", "country": "CA", "postalCode": "M9C2Y2", "twitter": "None", "instagram": "None", "facebook": "None", "youtube": "None", "website": "None", "summary": "None", "logo": "None", "latitude": 43.643477040827335, "longitude": -79.56671114920155}, "119211829RR0001": {"name": "THE ALERT BAY REVIVAL CENTRE CHURCH SOCIETY", "designationCode": "C", "categoryCode": "39", "address": "P.O. BOX 474", "city": "ALERT BAY", "province": "BC", "country": "CA", "postalCode": "V0N1A0", "twitter": "None", "instagram": "None", "facebook": "None", "youtube": "None", "website": "None", "summary": "None", "logo": "None", "latitude": 50.6420595, "longitude": -127.02791249999999}, "861222990RR0001": {"name": "THE ALEX AND NELLY SINGER FAMILY FOUNDATION", "designationCode": "B", "categoryCode": "03", "address": "1120 FINCH AVE WEST, SUITE 100", "city": "TORONTO", "province": "ON", "country": "CA", "postalCode": "M3J3H7", "twitter": "None", "instagram": "None", "facebook": "None", "youtube": "None", "website": "None", "summary": "None", "logo": "None", "latitude": 43.76703416515657, "longitude": -79.47522690397595}, "860273606RR0001": {"name": "THE ALEXANDER CHARLES FOUNDATION", "designationCode": "B", "categoryCode": "03", "address": "501-1072 HAMILTON ST.", "city": "VANCOUVER", "province": "BC", "country": "CA", "postalCode": "V6B2R9", "twitter": "None", "instagram": "None", "facebook": "None", "youtube": "None", "website": "None", "summary": "None", "logo": "None", "latitude": 49.27615689831282, "longitude": -123.12064373994319}, "889649976RR0001": {"name": "THE ALEXANDER SINGERS", "designationCode": "C", "categoryCode": "22", "address": "506-18 PARKVIEW AVE", "city": "NORTH YORK", "province": "ON", "country": "CA", "postalCode": "M2N7H7", "twitter": "None", "instagram": "None", "facebook": "None", "youtube": "None", "website": "None", "summary": "None", "logo": "None", "latitude": 43.771061103554544, "longitude": -79.41300648664114}, "128907904RR0001": {"name": "THE ALEXANDER STREET THEATRE PROJECT OF TORONTO", "designationCode": "C", "categoryCode": "22", "address": "12 ALEXANDER STREET", "city": "TORONTO", "province": "ON", "country": "CA", "postalCode": "M4Y1B4", "twitter": "None", "instagram": "None", "facebook": "None", "youtube": "None", "website": "None", "summary": "None", "logo": "None", "latitude": 43.663069150729854, "longitude": -79.3829101737549}, "119211852RR0001": {"name": "THE ALEXANDRA WRITERS' CENTRE SOCIETY", "designationCode": "C", "categoryCode": "22", "address": "460 - 1721 29 AVE SW", "city": "CALGARY", "province": "AB", "country": "CA", "postalCode": "T2T6T7", "twitter": "None", "instagram": "None", "facebook": "None", "youtube": "None", "website": "None", "summary": "None", "logo": "None", "latitude": 51.02757615663481, "longitude": -114.10008167885952}, "888151883RR0001": {"name": "THE ALFREDO DA CUNHA MEMORIAL FOUNDATION", "designationCode": "C", "categoryCode": "21", "address": "162 RANDI ROAD", "city": "MISSISSAUGA", "province": "ON", "country": "CA", "postalCode": "L5A1V5", "twitter": "None", "instagram": "None", "facebook": "None", "youtube": "None", "website": "None", "summary": "None", "logo": "None", "latitude": 43.58311045017032, "longitude": -79.61161087855629}, "119211878RR0001": {"name": "THE ALGARVA CHARITY COUNCIL", "designationCode": "C", "categoryCode": "09", "address": "8778 TOWNSEND LINE", "city": "ARKONA", "province": "ON", "country": "CA", "postalCode": "N0M1B0", "twitter": "None", "instagram": "None", "facebook": "None", "youtube": "None", "website": "None", "summary": "None", "logo": "None", "latitude": 43.06958231288531, "longitude": -81.81151602037068}, "892737339RR0001": {"name": "THE ALGER FOUNDATION", "designationCode": "B", "categoryCode": "23", "address": "503-12319 JASPER AVE", "city": "EDMONTON", "province": "AB", "country": "CA", "postalCode": "T5N4A7", "twitter": "None", "instagram": "None", "facebook": "None", "youtube": "None", "website": "None", "summary": "None", "logo": "None", "latitude": 53.54139152842076, "longitude": -113.5352205}, "119211886RR0001": {"name": "THE ALGOMA ASSOCIATION OF THE FELLOWSHIP OF EVANGELICAL BAPTIST CHURCHES IN CANADA", "designationCode": "C", "categoryCode": "47", "address": "42 BIRCH STREET", "city": "SAULT STE MARIE", "province": "ON", "country": "CA", "postalCode": "P6B2J4", "twitter": "None", "instagram": "None", "facebook": "None", "youtube": "None", "website": "None", "summary": "None", "logo": "None", "latitude": 46.52037995337295, "longitude": -84.33254113431255}, "888260643RR0001": {"name": "THE ALGONQUIN COLLEGE FOUNDATION", "designationCode": "A", "categoryCode": "23", "address": "1385 WOODROFFE AVE.", "city": "OTTAWA", "province": "ON", "country": "CA", "postalCode": "K2G1V8", "twitter": "None", "instagram": "None", "facebook": "None", "youtube": "None", "website": "None", "summary": "None", "logo": "None", "latitude": 45.34880844680964, "longitude": -75.76066580358072}, "872093091RR0001": {"name": "THE ALICE AND EUPHEMIA STEWART FAMILY FOUNDATION/LA FONDATION FAMILLE ALICE ET EUPHEMIA STEWART", "designationCode": "B", "categoryCode": "03", "address": "1002 SHERBROOKE ST.WEST       5TH FLOOR", "city": "MONTREAL", "province": "QC", "country": "CA", "postalCode": "H3A3L6", "twitter": "None", "instagram": "None", "facebook": "None", "youtube": "None", "website": "None", "summary": "None", "logo": "None", "latitude": 45.502789852876845, "longitude": -73.57558716772498}, "119211902RR0001": {"name": "THE ALIX AGRICULTURAL SOCIETY", "designationCode": "C", "categoryCode": "56", "address": "BOX 746", "city": "ALIX", "province": "AB", "country": "CA", "postalCode": "T0C0B0", "twitter": "None", "instagram": "None", "facebook": "None", "youtube": "None", "website": "None", "summary": "None", "logo": "None", "latitude": 52.40040000000005, "longitude": -113.18861999999996}, "862085230RR0001": {"name": "THE ALL CREATURES TRUST", "designationCode": "C", "categoryCode": "54", "address": "BOX 251", "city": "CAMPBELLFORD", "province": "ON", "country": "CA", "postalCode": "K0L1L0", "twitter": "None", "instagram": "None", "facebook": "None", "youtube": "None", "website": "None", "summary": "None", "logo": "None", "latitude": 44.287060000000054, "longitude": -77.80936999999994}, "119211928RR0001": {"name": "THE ALLAN AND SUSAN SEIDENFELD CHARITABLE FOUNDATION", "designationCode": "B", "categoryCode": "03", "address": "5400 YONGE ST SUITE 301", "city": "TORONTO", "province": "ON", "country": "CA", "postalCode": "M2N5R5", "twitter": "None", "instagram": "None", "facebook": "None", "youtube": "None", "website": "None", "summary": "None", "logo": "None"}, "888497443RR0001": {"name": "THE ALLEGRA FOUNDATION-FONDATION ALLEGRA", "designationCode": "C", "categoryCode": "22", "address": "417 MOUNT PLEASANT AVENUE", "city": "WESTMOUNT", "province": "QC", "country": "CA", "postalCode": "H3Y3G9", "twitter": "None", "instagram": "None", "facebook": "None", "youtube": "None", "website": "None", "summary": "None", "logo": "None", "latitude": 45.48821522482535, "longitude": -73.59246232693758}, "868928870RR0001": {"name": "THE ALLEGRA SINGERS SOCIETY", "designationCode": "C", "categoryCode": "22", "address": "3511 BLANSHARD STREET         PO BOX 48082", "city": "VICTORIA", "province": "BC", "country": "CA", "postalCode": "V8Z0B9", "twitter": "None", "instagram": "None", "facebook": "None", "youtube": "None", "website": "None", "summary": "None", "logo": "None", "latitude": 48.45571710676021, "longitude": -123.37312112425853}, "122899503RR0001": {"name": "THE ALLEN DETWEILER NURSERY SCHOOL", "designationCode": "C", "categoryCode": "20", "address": "175 RIDEAU ST", "city": "KINGSTON", "province": "ON", "country": "CA", "postalCode": "K7K3H6", "twitter": "None", "instagram": "None", "facebook": "None", "youtube": "None", "website": "None", "summary": "None", "logo": "None", "latitude": 44.2382414454671, "longitude": -76.48289555629324}, "886695899RR0001": {"name": "THE ALLERGY WELLNESS AWARENESS RESEARCH AND EDUCATION FOUNDATION", "designationCode": "C", "categoryCode": "19", "address": "430 SHEPHERD BAY", "city": "SASKATOON", "province": "SK", "country": "CA", "postalCode": "S7W0B3", "twitter": "None", "instagram": "None", "facebook": "None", "youtube": "None", "website": "None", "summary": "None", "logo": "None", "latitude": 52.15162754593456, "longitude": -106.55547712582978}, "888306198RR0001": {"name": "THE ALLIANCE BIBLE SEMINARY CENTRE OF CANADA", "designationCode": "C", "categoryCode": "49", "address": "80 ACADIA AVE                 UNIT 208", "city": "MARKHAM", "province": "ON", "country": "CA", "postalCode": "L3R9V1", "twitter": "None", "instagram": "None", "facebook": "None", "youtube": "None", "website": "None", "summary": "None", "logo": "None", "latitude": 43.82102031173147, "longitude": -79.32759820595523}, "119212017RR0001": {"name": "THE ALLIANCE CHURCH", "designationCode": "C", "categoryCode": "39", "address": "15502-102 STREET", "city": "GRANDE PRAIRIE", "province": "AB", "country": "CA", "postalCode": "T8X0J6", "twitter": "None", "instagram": "None", "facebook": "None", "youtube": "None", "website": "None", "summary": "None", "logo": "None", "latitude": 55.17264415336032, "longitude": -118.76307367573231}, "119211969RR0001": {"name": "THE ALLIANCE CHURCH MOOSE JAW", "designationCode": "C", "categoryCode": "39", "address": "14 NESLIA PL", "city": "MOOSE JAW", "province": "SK", "country": "CA", "postalCode": "S6J1M9", "twitter": "None", "instagram": "None", "facebook": "None", "youtube": "None", "website": "None", "summary": "None", "logo": "None", "latitude": 50.41155591451428, "longitude": -105.55319716255767}, "132537911RR0001": {"name": "THE ALLIANCE CHURCH OF THE CHRISTIAN AND MISSIONARY ALLIANCE OF LUSELAND", "designationCode": "C", "categoryCode": "39", "address": "BOX 355", "city": "LUSELAND", "province": "SK", "country": "CA", "postalCode": "S0L2A0", "twitter": "None", "instagram": "None", "facebook": "None", "youtube": "None", "website": "None", "summary": "None", "logo": "None", "latitude": 52.08343000000008, "longitude": -109.40149999999994}, "131621732RR0001": {"name": "THE ALLIANCE CHURCH SHAWNIGAN LAKE B C", "designationCode": "C", "categoryCode": "39", "address": "PO 313", "city": "SHAWNIGAN LAKE", "province": "BC", "country": "CA", "postalCode": "V0R2W0", "twitter": "None", "instagram": "None", "facebook": "None", "youtube": "None", "website": "None", "summary": "None", "logo": "None", "latitude": 48.614505759762736, "longitude": -123.62673621698342}, "119211951RR0001": {"name": "THE ALLIANCE CHURCH-MIDLAND", "designationCode": "C", "categoryCode": "39", "address": "829 YONGE ST", "city": "MIDLAND", "province": "ON", "country": "CA", "postalCode": "L4R2E8", "twitter": "None", "instagram": "None", "facebook": "None", "youtube": "None", "website": "None", "summary": "None", "logo": "None", "latitude": 44.740956641129124, "longitude": -79.89664049998218}, "106702053RR0001": {"name": "THE ALLIANCE FRANCAISE OF CALGARY", "designationCode": "C", "categoryCode": "29", "address": "108-240 4 AVE SW", "city": "CALGARY", "province": "AB", "country": "CA", "postalCode": "T2P4H4", "twitter": "None", "instagram": "None", "facebook": "None", "youtube": "None", "website": "None", "summary": "None", "logo": "None", "latitude": 51.04947750764605, "longitude": -114.06717030391252}, "892553769RR0001": {"name": "THE ALLIANCE OF JAMAICAN ALUMNI ASSOCIATIONS (TORONTO)", "designationCode": "C", "categoryCode": "21", "address": "291 BRAYMORE BLVD", "city": "TORONTO", "province": "ON", "country": "CA", "postalCode": "M1B2H3", "twitter": "None", "instagram": "None", "facebook": "None", "youtube": "None", "website": "None", "summary": "None", "logo": "None", "latitude": 43.80527646517395, "longitude": -79.17056452902634}, "892173568RR0001": {"name": "THE ALLISTON CHRISTIAN FELLOWSHIP", "designationCode": "C", "categoryCode": "47", "address": "41 PARIS STREET", "city": "ALLISTON", "province": "ON", "country": "CA", "postalCode": "L9R1J3", "twitter": "None", "instagram": "None", "facebook": "None", "youtube": "None", "website": "None", "summary": "None", "logo": "None", "latitude": 44.1523969324282, "longitude": -79.87179919214498}, "119212033RR0001": {"name": "THE ALLSTATE FOUNDATION OF CANADA-LA FONDATION ALLSTATE DU CANADA", "designationCode": "B", "categoryCode": "59", "address": "27 ALLSTATE PARKWAY           SUITE 100", "city": "MARKHAM", "province": "ON", "country": "CA", "postalCode": "L3R5P8", "twitter": "None", "instagram": "None", "facebook": "None", "youtube": "None", "website": "None", "summary": "None", "logo": "None", "latitude": 43.85090579188038, "longitude": -79.36613824822578}, "837478759RR0001": {"name": "THE ALMOND TREE FOUNDATION", "designationCode": "A", "categoryCode": "03", "address": "8 ELDERBERRY COURT", "city": "TORONTO", "province": "ON", "country": "CA", "postalCode": "M3H5X4", "twitter": "None", "instagram": "None", "facebook": "None", "youtube": "None", "website": "None", "summary": "None", "logo": "None", "latitude": 43.746611656414004, "longitude": -79.43027383071714}, "106703879RR0001": {"name": "THE ALONSA CONSERVATION DISTRICT NO. 3", "designationCode": "C", "categoryCode": "52", "address": "BOX 33", "city": "ALONSA", "province": "MB", "country": "CA", "postalCode": "R0H0A0", "twitter": "None", "instagram": "None", "facebook": "None", "youtube": "None", "website": "None", "summary": "None", "logo": "None", "latitude": 50.87914000000006, "longitude": -99.08464999999995}, "896275914RR0001": {"name": "THE ALPHONSE GERWING CHARITABLE FOUNDATION INC.", "designationCode": "B", "categoryCode": "03", "address": "390 WATERLOO CR.", "city": "SASKATOON", "province": "SK", "country": "CA", "postalCode": "S7H4H6", "twitter": "None", "instagram": "None", "facebook": "None", "youtube": "None", "website": "None", "summary": "None", "logo": "None", "latitude": 52.121518597813065, "longitude": -106.58029857046016}, "892803560RR0001": {"name": "THE ALTAMIRA FOUNDATION", "designationCode": "B", "categoryCode": "03", "address": "600 RUE DE LA GAUCHETIERE O", "city": "MONTREAL", "province": "QC", "country": "CA", "postalCode": "H3B4L2", "twitter": "None", "instagram": "None", "facebook": "None", "youtube": "None", "website": "None", "summary": "None", "logo": "None", "latitude": 45.50188920231989, "longitude": -73.56436485827253}, "890327976RR0001": {"name": "THE ALUMNI ASSOCIATION OF QUEEN'S COLLEGE INC", "designationCode": "C", "categoryCode": "21", "address": "151 MAIN STREET               POST OFFICE BOX 96", "city": "TWILLINGATE", "province": "NL", "country": "CA", "postalCode": "A0G4M0", "twitter": "None", "instagram": "None", "facebook": "None", "youtube": "None", "website": "None", "summary": "None", "logo": "None", "latitude": 49.64627962974498, "longitude": -54.767206934988856}, "888396660RR0001": {"name": "THE ALUMNI ASSOCIATION OF THE NIAGARA PARKS COMMISSION SCHOOL OF HORTICULTURE FOUNDATION", "designationCode": "A", "categoryCode": "21", "address": "PO BOX 263, NIAGARA FALLS", "city": "NIAGARA FALLS", "province": "ON", "country": "CA", "postalCode": "L2E6T3", "twitter": "None", "instagram": "None", "facebook": "None", "youtube": "None", "website": "None", "summary": "None", "logo": "None", "latitude": 43.10663100000005, "longitude": -79.06433299999993}, "890915978RR0001": {"name": "THE ALVA FOUNDATION", "designationCode": "B", "categoryCode": "23", "address": "199 ALBERTUS AVE.", "city": "TORONTO", "province": "ON", "country": "CA", "postalCode": "M4R1J6", "twitter": "None", "instagram": "None", "facebook": "None", "youtube": "None", "website": "None", "summary": "None", "logo": "None", "latitude": 43.71328682763008, "longitude": -79.40575823091353}, "130009467RR0001": {"name": "THE ALVIN AND MONA LIBIN FOUNDATION", "designationCode": "B", "categoryCode": "03", "address": "3200 255-5TH AVENUE S.W.", "city": "CALGARY", "province": "AB", "country": "CA", "postalCode": "T2P3G6", "twitter": "None", "instagram": "None", "facebook": "None", "youtube": "None", "website": "None", "summary": "None", "logo": "None", "latitude": 51.049102357620384, "longitude": -114.08736691042554}, "132657396RR0001": {"name": "THE ALZHEIMER SOCIETY OF PEEL", "designationCode": "C", "categoryCode": "13", "address": "60 BRIARWOOD AVE", "city": "MISSISSAUGA", "province": "ON", "country": "CA", "postalCode": "L5G3N6", "twitter": "None", "instagram": "None", "facebook": "None", "youtube": "None", "website": "None", "summary": "None", "logo": "None", "latitude": 43.561030547867794, "longitude": -79.58076785527143}, "106705403RR0001": {"name": "THE ALZHEIMER SOCIETY OF SAULT STE. MARIE & ALGOMA DISTRICT", "designationCode": "C", "categoryCode": "11", "address": "341 TRUNK ROAD", "city": "SAULT STE MARIE", "province": "ON", "country": "CA", "postalCode": "P6A3S9", "twitter": "None", "instagram": "None", "facebook": "None", "youtube": "None", "website": "None", "summary": "None", "logo": "None", "latitude": 46.51614982956332, "longitude": -84.2867102690578}, "119212165RR0001": {"name": "THE AMADEUS CHOIR OF GREATER TORONTO", "designationCode": "C", "categoryCode": "22", "address": "4386 SHEPPARD AVE.E. UNIT N", "city": "TORONTO", "province": "ON", "country": "CA", "postalCode": "M1S1T8", "twitter": "None", "instagram": "None", "facebook": "None", "youtube": "None", "website": "None", "summary": "None", "logo": "None", "latitude": 43.787163161838336, "longitude": -79.27045968916256}, "896769726RR0001": {"name": "THE AMAYN CHARITABLE FOUNDATION", "designationCode": "B", "categoryCode": "03", "address": "602-1 YORKDALE RD", "city": "TORONTO", "province": "ON", "country": "CA", "postalCode": "M6A3A1", "twitter": "None", "instagram": "None", "facebook": "None", "youtube": "None", "website": "None", "summary": "None", "logo": "None", "latitude": 43.72823883758475, "longitude": -79.45371698998802}, "866040637RR0001": {"name": "THE AMBASSADORS", "designationCode": "C", "categoryCode": "39", "address": "1850, 6E RUE APT. 17", "city": "TROIS-RIVIERES", "province": "QC", "country": "CA", "postalCode": "G8Y3Y9", "twitter": "None", "instagram": "None", "facebook": "None", "youtube": "None", "website": "None", "summary": "None", "logo": "None", "latitude": 46.35708995643138, "longitude": -72.59480926048812}, "119288918RR1430": {"name": "THE AMHARIC CONGREGATION OF JEHOVAH'S WITNESSES, TORONTO, ONTARIO", "designationCode": "C", "categoryCode": "61", "address": "2393 DUNDAS ST W", "city": "TORONTO", "province": "ON", "country": "CA", "postalCode": "M6P1X2", "twitter": "None", "instagram": "None", "facebook": "None", "youtube": "None", "website": "None", "summary": "None", "logo": "None", "latitude": 43.65779767776562, "longitude": -79.45286627687675}, "130166523RR0001": {"name": "THE AMHERST CEMETERY COMPANY", "designationCode": "C", "categoryCode": "59", "address": "34 CHAMBERLAIN ST", "city": "AMHERST", "province": "NS", "country": "CA", "postalCode": "B4H1J8", "twitter": "None", "instagram": "None", "facebook": "None", "youtube": "None", "website": "None", "summary": "None", "logo": "None", "latitude": 45.818156819031735, "longitude": -64.20872950998331}, "870216157RR0001": {"name": "THE AMHERSTBURG FOOD AND FELLOWSHIP MISSION", "designationCode": "C", "categoryCode": "09", "address": "298 VICTORIA ST", "city": "AMHERSTBURG", "province": "ON", "country": "CA", "postalCode": "N9V2K5", "twitter": "None", "instagram": "None", "facebook": "None", "youtube": "None", "website": "None", "summary": "None", "logo": "None", "latitude": 42.10082346211553, "longitude": -83.10107026770149}, "890325079RR0001": {"name": "THE AMITABHA BUDDHIST SOCIETY OF TORONTO", "designationCode": "B", "categoryCode": "35", "address": "#608-255 DUNCAN MILL ROAD", "city": "TORONTO", "province": "ON", "country": "CA", "postalCode": "M3B3H9", "twitter": "None", "instagram": "None", "facebook": "None", "youtube": "None", "website": "None", "summary": "None", "logo": "None", "latitude": 43.761636736020755, "longitude": -79.35163791355524}, "863127528RR0001": {"name": "THE AMY FERGUSON INSTITUTE", "designationCode": "C", "categoryCode": "22", "address": "1531 NASOOKIN RD.", "city": "NELSON", "province": "BC", "country": "CA", "postalCode": "V1L6J6", "twitter": "None", "instagram": "None", "facebook": "None", "youtube": "None", "website": "None", "summary": "None", "logo": "None", "latitude": 49.54093014051518, "longitude": -117.26221808017003}, "870805637RR0001": {"name": "THE ANABAPTIST FOUNDATION", "designationCode": "C", "categoryCode": "21", "address": "4090 31ST AVE W", "city": "VANCOUVER", "province": "BC", "country": "CA", "postalCode": "V6S1Y6", "twitter": "None", "instagram": "None", "facebook": "None", "youtube": "None", "website": "None", "summary": "None", "logo": "None", "latitude": 49.2442845212074, "longitude": -123.19641352553523}, "119212256RR0001": {"name": "THE ANAWIM COMPANIONS SOCIETY", "designationCode": "C", "categoryCode": "01", "address": "973 CALEDONIA ST", "city": "VICTORIA", "province": "BC", "country": "CA", "postalCode": "V8T1E7", "twitter": "None", "instagram": "None", "facebook": "None", "youtube": "None", "website": "None", "summary": "None", "logo": "None", "latitude": 48.43054456506447, "longitude": -123.35547441771018}, "893419960RR0001": {"name": "THE ANCIENT CHURCH OF THE EAST", "designationCode": "C", "categoryCode": "39", "address": "16 - 81 ZENWAY BLVD", "city": "WOODBRIDGE", "province": "ON", "country": "CA", "postalCode": "L4H0S5", "twitter": "None", "instagram": "None", "facebook": "None", "youtube": "None", "website": "None", "summary": "None", "logo": "None", "latitude": 43.776870582809416, "longitude": -79.62626761350919}, "119212280RR0001": {"name": "THE ANDREW MAHON FOUNDATION", "designationCode": "B", "categoryCode": "13", "address": "2200 - 1055 DUNSMUIR ST       PO BOX 49214 FOUR BENTALL CTR", "city": "VANCOUVER", "province": "BC", "country": "CA", "postalCode": "V7X1K8", "twitter": "None", "instagram": "None", "facebook": "None", "youtube": "None", "website": "None", "summary": "None", "logo": "None", "latitude": 49.28608440276387, "longitude": -123.12107840339904}, "889145249RR0001": {"name": "THE ANDREWS HOME", "designationCode": "C", "categoryCode": "01", "address": "1444 UNION AVE", "city": "MONTREAL", "province": "QC", "country": "CA", "postalCode": "H3A2B8", "twitter": "None", "instagram": "None", "facebook": "None", "youtube": "None", "website": "None", "summary": "None", "logo": "None", "latitude": 45.50443994281272, "longitude": -73.57068662060699}, "825727878RR0001": {"name": "THE ANDY AND BETH BURGESS FAMILY FOUNDATION", "designationCode": "B", "categoryCode": "03", "address": "69 DAWLISH AVENUE", "city": "TORONTO", "province": "ON", "country": "CA", "postalCode": "M4N1H2", "twitter": "None", "instagram": "None", "facebook": "None", "youtube": "None", "website": "None", "summary": "None", "logo": "None", "latitude": 43.720950616134914, "longitude": -79.39693904801203}, "108075946RR0002": {"name": "THE ANGEL FOUNDATION FOR LEARNING", "designationCode": "A", "categoryCode": "23", "address": "80 SHEPPARD AVENUE EAST", "city": "TORONTO", "province": "ON", "country": "CA", "postalCode": "M2N6E8", "twitter": "None", "instagram": "None", "facebook": "None", "youtube": "None", "website": "None", "summary": "None", "logo": "None", "latitude": 43.76228021348571, "longitude": -79.40773851099293}, "841113350RR0001": {"name": "THE ANGEL GABRIEL FOUNDATION", "designationCode": "B", "categoryCode": "03", "address": "R.R.#2, L11 PT2 CON. 1", "city": "CAMBRIDGE", "province": "ON", "country": "CA", "postalCode": "N3C2V4", "twitter": "None", "instagram": "None", "facebook": "None", "youtube": "None", "website": "None", "summary": "None", "logo": "None", "latitude": 43.42165800000005, "longitude": -80.25911449999994}, "858632045RR0001": {"name": "THE ANGELS ANONYMOUS CONNECTION", "designationCode": "C", "categoryCode": "01", "address": "UNIT 74, 3311-58 STREET", "city": "EDMONTON", "province": "AB", "country": "CA", "postalCode": "T6L6X3", "twitter": "None", "instagram": "None", "facebook": "None", "youtube": "None", "website": "None", "summary": "None", "logo": "None", "latitude": 53.46495581487679, "longitude": -113.42769567926617}, "890252794RR0001": {"name": "THE ANGLICAN CATHOLIC CHURCH OF THE RESURRECTION", "designationCode": "C", "categoryCode": "39", "address": "917 MONMOUTH ROAD", "city": "WINDSOR", "province": "ON", "country": "CA", "postalCode": "N8Y3L6", "twitter": "None", "instagram": "None", "facebook": "None", "youtube": "None", "website": "None", "summary": "None", "logo": "None", "latitude": 42.32007908436729, "longitude": -83.00743220762867}, "119212355RR0001": {"name": "THE ANGLICAN CHARITABLE FOUNDATION FOR CHILDREN", "designationCode": "C", "categoryCode": "09", "address": "P.O. BOX 8411, STN A", "city": "ST. JOHN'S", "province": "NL", "country": "CA", "postalCode": "A1B3W7", "twitter": "None", "instagram": "None", "facebook": "None", "youtube": "None", "website": "None", "summary": "None", "logo": "None", "latitude": 47.55718500000006, "longitude": -52.747599499999936}, "888311594RR0002": {"name": "THE ANGLICAN CHURCH OF CANADA PARISH OF ST. JOHN", "designationCode": "C", "categoryCode": "30", "address": "PO BOX 274", "city": "PILOT MOUND", "province": "MB", "country": "CA", "postalCode": "R0G1P0", "twitter": "None", "instagram": "None", "facebook": "None", "youtube": "None", "website": "None", "summary": "None", "logo": "None", "latitude": 49.20280000000008, "longitude": -98.89433999999994}, "118783786RR0001": {"name": "THE ANGLICAN CHURCH OF CANADA, PARISH OF ALL SAINTS", "designationCode": "C", "categoryCode": "30", "address": "PO BOX 1043", "city": "COCHRANE", "province": "AB", "country": "CA", "postalCode": "T4C1B1", "twitter": "None", "instagram": "None", "facebook": "None", "youtube": "None", "website": "None", "summary": "None", "logo": "None", "latitude": 51.19089900000006, "longitude": -114.46804249999994}, "784493124RR0001": {"name": "THE ANGLICAN CHURCH OF CANADA, PARISH OF CHURCH OF ST. JOHN THE BAPTIST CHURCH, FORT FRANCIS, ON WITHIN THE DIOCESE OF RUPERT'S LAND", "designationCode": "C", "categoryCode": "30", "address": "360 CHURCH ST.", "city": "FORT FRANCES", "province": "ON", "country": "CA", "postalCode": "P9A1E1", "twitter": "None", "instagram": "None", "facebook": "None", "youtube": "None", "website": "None", "summary": "None", "logo": "None", "latitude": 48.609028846256706, "longitude": -93.39378097857852}, "784495129RR0001": {"name": "THE ANGLICAN CHURCH OF CANADA, PARISH OF CHURCH OF THE GOOD SHEPHERD, ATIKOKAN, ON, WITHIN THE DIOCESE OF RUPERT'S LAND", "designationCode": "C", "categoryCode": "30", "address": "MARK STREET BOX 554", "city": "ATIKOKAN", "province": "ON", "country": "CA", "postalCode": "P0T1C0", "twitter": "None", "instagram": "None", "facebook": "None", "youtube": "None", "website": "None", "summary": "None", "logo": "None", "latitude": 48.78243202695454, "longitude": -91.62784818644623}, "784492522RR0001": {"name": "THE ANGLICAN CHURCH OF CANADA, PARISH OF CLEOPAS, RED LAKE, ON, WITHIN THE DIOCESE OF RUPERT'S LAND", "designationCode": "C", "categoryCode": "30", "address": "P.O. BOX 241", "city": "RED LAKE", "province": "ON", "country": "CA", "postalCode": "P0V2M0", "twitter": "None", "instagram": "None", "facebook": "None", "youtube": "None", "website": "None", "summary": "None", "logo": "None", "latitude": 51.017789973887886, "longitude": -93.82652994835257}, "784490922RR0001": {"name": "THE ANGLICAN CHURCH OF CANADA, PARISH OF EMMANUEL CHURCH, IGNAC, ON, WITHIN THE DIOCESE OF RUPERT'S LAND", "designationCode": "C", "categoryCode": "30", "address": "P.O. BOX 48", "city": "IGNACE", "province": "ON", "country": "CA", "postalCode": "P0T1T0", "twitter": "None", "instagram": "None", "facebook": "None", "youtube": "None", "website": "None", "summary": "None", "logo": "None", "latitude": 49.41689000000008, "longitude": -91.66378999999995}, "784492324RR0001": {"name": "THE ANGLICAN CHURCH OF CANADA, PARISH OF ST. ALBAN'S CATHEDRAL, KENORA, ON, WITHIN THE DIOCESE OF RUPERT'S LAND", "designationCode": "C", "categoryCode": "30", "address": "312 MAIN STREET SOUTH", "city": "KENORA", "province": "ON", "country": "CA", "postalCode": "P9N1T2", "twitter": "None", "instagram": "None", "facebook": "None", "youtube": "None", "website": "None", "summary": "None", "logo": "None", "latitude": 49.765289741329546, "longitude": -94.49169007037325}, "889929048RR0001": {"name": "THE ANGLICAN CHURCH OF CANADA, PARISH OF ST. JAMES, WITHIN THE DIOCESE OF BRANDON", "designationCode": "C", "categoryCode": "30", "address": "P.O. BOX 6", "city": "GRAND RAPIDS", "province": "MB", "country": "CA", "postalCode": "R0C1E0", "twitter": "None", "instagram": "None", "facebook": "None", "youtube": "None", "website": "None", "summary": "None", "logo": "None", "latitude": 53.18507000000005, "longitude": -99.28751999999997}, "784505893RR0001": {"name": "THE ANGLICAN CHURCH OF CANADA, PARISH OF ST. JOHN'S CHURCH, WABIGOON, ON, WITHIN THE DIOCESE OF RUPERT'S LAND", "designationCode": "C", "categoryCode": "30", "address": "BOX 34", "city": "WABIGOON", "province": "ON", "country": "CA", "postalCode": "P0V2W0", "twitter": "None", "instagram": "None", "facebook": "None", "youtube": "None", "website": "None", "summary": "None", "logo": "None", "latitude": 50.19031269710155, "longitude": -93.60199089611389}, "119185841RR0002": {"name": "THE ANGLICAN CHURCH OF CANADA, PARISH OF ST. LUKE", "designationCode": "C", "categoryCode": "30", "address": "130 NASSAU STREET NORTH", "city": "WINNIPEG", "province": "MB", "country": "CA", "postalCode": "R3L2H1", "twitter": "None", "instagram": "None", "facebook": "None", "youtube": "None", "website": "None", "summary": "None", "logo": "None", "latitude": 49.87683561477859, "longitude": -97.14857762859974}, "784503898RR0001": {"name": "THE ANGLICAN CHURCH OF CANADA, PARISH OF ST. LUKE'S CHURCH, DRYDEN, ON, WITHIN THE DIOCESE OF RUPERT'S LAND", "designationCode": "C", "categoryCode": "30", "address": "50 VAN HORNE AVE", "city": "DRYDEN", "province": "ON", "country": "CA", "postalCode": "P8N2A9", "twitter": "None", "instagram": "None", "facebook": "None", "youtube": "None", "website": "None", "summary": "None", "logo": "None", "latitude": 49.782856499999994, "longitude": -92.83640728035142}, "119212371RR0001": {"name": "THE ANGLICAN CHURCH OF ST MICHAEL", "designationCode": "C", "categoryCode": "30", "address": "1188 FENNELL AVE E", "city": "HAMILTON", "province": "ON", "country": "CA", "postalCode": "L8T1S6", "twitter": "None", "instagram": "None", "facebook": "None", "youtube": "None", "website": "None", "summary": "None", "logo": "None", "latitude": 43.22471191808555, "longitude": -79.8258482431472}, "129480760RR0001": {"name": "THE ANGLICAN CHURCH OF ST. STEPHEN THE MARTYR", "designationCode": "C", "categoryCode": "30", "address": "11725-93 STREET N.W.", "city": "EDMONTON", "province": "AB", "country": "CA", "postalCode": "T5G1E2", "twitter": "None", "instagram": "None", "facebook": "None", "youtube": "None", "website": "None", "summary": "None", "logo": "None", "latitude": 53.569782586733226, "longitude": -113.48416625959409}, "119212389RR0001": {"name": "THE ANGLICAN CONGREGATIONS OF GRENFELL", "designationCode": "C", "categoryCode": "30", "address": "BOX 117", "city": "GRENFELL", "province": "SK", "country": "CA", "postalCode": "S0G2B0", "twitter": "None", "instagram": "None", "facebook": "None", "youtube": "None", "website": "None", "summary": "None", "logo": "None", "latitude": 50.411193000000054, "longitude": -102.92259049999993}, "892047242RR0001": {"name": "THE ANGLICAN EPISCOPAL FOUNDATION OF EDMONTON", "designationCode": "C", "categoryCode": "49", "address": "10035 - 103 STREET", "city": "EDMONTON", "province": "AB", "country": "CA", "postalCode": "T5J0X5", "twitter": "None", "instagram": "None", "facebook": "None", "youtube": "None", "website": "None", "summary": "None", "logo": "None", "latitude": 53.540019, "longitude": -113.49735679623781}, "119212405RR0001": {"name": "THE ANGLICAN FOUNDATION OF CANADA", "designationCode": "A", "categoryCode": "49", "address": "80 HAYDEN STREET", "city": "TORONTO", "province": "ON", "country": "CA", "postalCode": "M4Y3G2", "twitter": "None", "instagram": "None", "facebook": "None", "youtube": "None", "website": "None", "summary": "None", "logo": "None", "latitude": 43.67041924897559, "longitude": -79.38167951041602}, "119229920RR0008": {"name": "THE ANGLICAN PARISH OF ALL SAINTS", "designationCode": "C", "categoryCode": "30", "address": "44 CLARENCE ST", "city": "CORNER BROOK", "province": "NL", "country": "CA", "postalCode": "A2H1K9", "twitter": "None", "instagram": "None", "facebook": "None", "youtube": "None", "website": "None", "summary": "None", "logo": "None", "latitude": 48.96165167716005, "longitude": -57.92942547749453}, "119212439RR0001": {"name": "THE ANGLICAN PARISH OF AUGUSTA", "designationCode": "C", "categoryCode": "30", "address": "PO BOX 323", "city": "MAITLAND", "province": "ON", "country": "CA", "postalCode": "K0E1P0", "twitter": "None", "instagram": "None", "facebook": "None", "youtube": "None", "website": "None", "summary": "None", "logo": "None", "latitude": 44.639343438512455, "longitude": -75.61185487672552}, "119212447RR0001": {"name": "THE ANGLICAN PARISH OF BATH", "designationCode": "C", "categoryCode": "30", "address": "212 CHURCH ST                 PO BOX 283", "city": "BATH", "province": "ON", "country": "CA", "postalCode": "K0H1G0", "twitter": "None", "instagram": "None", "facebook": "None", "youtube": "None", "website": "None", "summary": "None", "logo": "None", "latitude": 44.18950229669917, "longitude": -76.78053614556528}, "107020232RR0013": {"name": "THE ANGLICAN PARISH OF BAY D'ESPOIR", "designationCode": "C", "categoryCode": "30", "address": "P.O. BOX 9", "city": "MILLTOWN", "province": "NL", "country": "CA", "postalCode": "A0H1W0", "twitter": "None", "instagram": "None", "facebook": "None", "youtube": "None", "website": "None", "summary": "None", "logo": "None", "latitude": 47.91601000000003, "longitude": -55.74690999999996}, "107020232RR0032": {"name": "THE ANGLICAN PARISH OF BAY L'ARGENT", "designationCode": "C", "categoryCode": "30", "address": "PO BOX 100", "city": "BAY L'ARGENT", "province": "NL", "country": "CA", "postalCode": "A0E1B0", "twitter": "None", "instagram": "None", "facebook": "None", "youtube": "None", "website": "None", "summary": "None", "logo": "None", "latitude": 47.54992000000004, "longitude": -54.89824999999996}, "107020232RR0002": {"name": "THE ANGLICAN PARISH OF BUCHANS", "designationCode": "C", "categoryCode": "30", "address": "P.O. BOX 28", "city": "BUCHANS", "province": "NL", "country": "CA", "postalCode": "A0H1G0", "twitter": "None", "instagram": "None", "facebook": "None", "youtube": "None", "website": "None", "summary": "None", "logo": "None", "latitude": 48.85679101387903, "longitude": -56.2484015768264}, "107020232RR0010": {"name": "THE ANGLICAN PARISH OF BURIN", "designationCode": "C", "categoryCode": "30", "address": "SITE 19 BOX 153", "city": "BURIN", "province": "NL", "country": "CA", "postalCode": "A0E1E0", "twitter": "None", "instagram": "None", "facebook": "None", "youtube": "None", "website": "None", "summary": "None", "logo": "None", "latitude": 47.05043100000006, "longitude": -55.16310049999993}, "889446779RR0002": {"name": "THE ANGLICAN PARISH OF CHRIST CHURCH", "designationCode": "C", "categoryCode": "30", "address": "12116-102 AVE", "city": "EDMONTON", "province": "AB", "country": "CA", "postalCode": "T5N0L6", "twitter": "None", "instagram": "None", "facebook": "None", "youtube": "None", "website": "None", "summary": "None", "logo": "None", "latitude": 53.543046497114474, "longitude": -113.5317735}, "132489477RR0001": {"name": "THE ANGLICAN PARISH OF CHRIST CHURCH, ELBOW PARK", "designationCode": "C", "categoryCode": "30", "address": "3602 8 ST SW", "city": "CALGARY", "province": "AB", "country": "CA", "postalCode": "T2T3A7", "twitter": "None", "instagram": "None", "facebook": "None", "youtube": "None", "website": "None", "summary": "None", "logo": "None", "latitude": 51.02267282653355, "longitude": -114.0835983224942}, "119229920RR0020": {"name": "THE ANGLICAN PARISH OF COW HEAD", "designationCode": "C", "categoryCode": "30", "address": "P.O. BOX 99", "city": "COW HEAD", "province": "NL", "country": "CA", "postalCode": "A0K2A0", "twitter": "None", "instagram": "None", "facebook": "None", "youtube": "None", "website": "None", "summary": "None", "logo": "None", "latitude": 49.93455000000006, "longitude": -57.74527999999998}, "119229920RR0009": {"name": "THE ANGLICAN PARISH OF DEER LAKE", "designationCode": "C", "categoryCode": "30", "address": "21 FARM RD", "city": "DEER LAKE", "province": "NL", "country": "CA", "postalCode": "A8A1J2", "twitter": "None", "instagram": "None", "facebook": "None", "youtube": "None", "website": "None", "summary": "None", "logo": "None", "latitude": 49.17323586271846, "longitude": -57.42343151433905}, "860607456RR0001": {"name": "THE ANGLICAN PARISH OF DIGBY WEYMOUTH", "designationCode": "C", "categoryCode": "30", "address": "BOX 1433", "city": "DIGBY", "province": "NS", "country": "CA", "postalCode": "B0V1A0", "twitter": "None", "instagram": "None", "facebook": "None", "youtube": "None", "website": "None", "summary": "None", "logo": "None", "latitude": 44.39616000000005, "longitude": -66.20374249999993}, "888722949RR0001": {"name": "THE ANGLICAN PARISH OF ELIZABETHTOWN", "designationCode": "C", "categoryCode": "30", "address": "P.O. BOX 119", "city": "LYN", "province": "ON", "country": "CA", "postalCode": "K0E1M0", "twitter": "None", "instagram": "None", "facebook": "None", "youtube": "None", "website": "None", "summary": "None", "logo": "None", "latitude": 44.42297100000006, "longitude": -75.88780099999994}, "119229920RR0010": {"name": "THE ANGLICAN PARISH OF FLOWER'S COVE", "designationCode": "C", "categoryCode": "30", "address": "P.O. BOX 39", "city": "FLOWER'S COVE", "province": "NL", "country": "CA", "postalCode": "A0K2N0", "twitter": "None", "instagram": "None", "facebook": "None", "youtube": "None", "website": "None", "summary": "None", "logo": "None", "latitude": 51.29754900000006, "longitude": -56.729802499999934}, "107020232RR0030": {"name": "THE ANGLICAN PARISH OF FOGO ISLAND EAST", "designationCode": "C", "categoryCode": "30", "address": "BOX 100", "city": "SELDOM COME BY", "province": "NL", "country": "CA", "postalCode": "A0G3Z0", "twitter": "None", "instagram": "None", "facebook": "None", "youtube": "None", "website": "None", "summary": "None", "logo": "None", "latitude": 49.18741800000005, "longitude": -54.38943799999993}, "107020232RR0006": {"name": "THE ANGLICAN PARISH OF GAMBO", "designationCode": "C", "categoryCode": "30", "address": "P O BOX 239", "city": "GAMBO", "province": "NL", "country": "CA", "postalCode": "A0G1T0", "twitter": "None", "instagram": "None", "facebook": "None", "youtube": "None", "website": "None", "summary": "None", "logo": "None", "latitude": 48.78680000000003, "longitude": -54.21128999999996}, "107020232RR0019": {"name": "THE ANGLICAN PARISH OF HARBOUR BRETON", "designationCode": "C", "categoryCode": "30", "address": "P.O. BOX 100", "city": "HARBOUR BRETON", "province": "NL", "country": "CA", "postalCode": "A0H1P0", "twitter": "None", "instagram": "None", "facebook": "None", "youtube": "None", "website": "None", "summary": "None", "logo": "None", "latitude": 47.483250000000055, "longitude": -55.798329999999964}, "891416182RR0001": {"name": "THE ANGLICAN PARISH OF KITLEY", "designationCode": "C", "categoryCode": "30", "address": "626 KITLEY LINE #4", "city": "TOLEDO", "province": "ON", "country": "CA", "postalCode": "K0E1Y0", "twitter": "None", "instagram": "None", "facebook": "None", "youtube": "None", "website": "None", "summary": "None", "logo": "None", "latitude": 44.755179000000055, "longitude": -75.97146049999994}, "119212538RR0001": {"name": "THE ANGLICAN PARISH OF LANSDOWNE FRONT", "designationCode": "C", "categoryCode": "30", "address": "2 FRONT ST                    RR 1", "city": "ROCKPORT", "province": "ON", "country": "CA", "postalCode": "K0E1V0", "twitter": "None", "instagram": "None", "facebook": "None", "youtube": "None", "website": "None", "summary": "None", "logo": "None", "latitude": 44.37954959700502, "longitude": -75.93575118206478}, "119212546RR0001": {"name": "THE ANGLICAN PARISH OF LANSDOWNE REAR", "designationCode": "C", "categoryCode": "30", "address": "907 ANGEL POINT LN", "city": "ATHENS", "province": "ON", "country": "CA", "postalCode": "K0E1B0", "twitter": "None", "instagram": "None", "facebook": "None", "youtube": "None", "website": "None", "summary": "None", "logo": "None", "latitude": 44.5727187865716, "longitude": -76.02134016377158}, "106713423RR0001": {"name": "THE ANGLICAN PARISH OF LEEDS REAR", "designationCode": "C", "categoryCode": "30", "address": "P.O. BOX 29", "city": "LYNDHURST", "province": "ON", "country": "CA", "postalCode": "K0E1N0", "twitter": "None", "instagram": "None", "facebook": "None", "youtube": "None", "website": "None", "summary": "None", "logo": "None", "latitude": 44.54443941544678, "longitude": -76.13160483533565}, "119212587RR0001": {"name": "THE ANGLICAN PARISH OF MALBAY-IN THE DIOCESE OF QUEBEC", "designationCode": "C", "categoryCode": "30", "address": "1787 DOUGLAS BLVD.", "city": "DOUGLASTOWN", "province": "QC", "country": "CA", "postalCode": "G4X2W9", "twitter": "None", "instagram": "None", "facebook": "None", "youtube": "None", "website": "None", "summary": "None", "logo": "None", "latitude": 48.71903044823708, "longitude": -64.29185463558197}, "107814006RR0001": {"name": "THE ANGLICAN PARISH OF MARYSBURG", "designationCode": "C", "categoryCode": "30", "address": "1468 COUNTY RD 17 RR # 2", "city": "MILFORD", "province": "ON", "country": "CA", "postalCode": "K0K2P0", "twitter": "None", "instagram": "None", "facebook": "None", "youtube": "None", "website": "None", "summary": "None", "logo": "None", "latitude": 43.95676821063048, "longitude": -77.05685656608027}, "119212611RR0001": {"name": "THE ANGLICAN PARISH OF MERRICKVILLE", "designationCode": "C", "categoryCode": "30", "address": "PO BOX 104", "city": "MERRICKVILLE", "province": "ON", "country": "CA", "postalCode": "K0G1N0", "twitter": "None", "instagram": "None", "facebook": "None", "youtube": "None", "website": "None", "summary": "None", "logo": "None", "latitude": 44.91574000000003, "longitude": -75.83684999999997}}