{"107498008RR0001": {"name": "HUNGARIAN REFORMED EVANGELICAL CHRISTIAN CHURCH", "designationCode": "C", "categoryCode": "39", "address": "8 ROBERT STREET", "city": "TORONTO", "province": "ON", "country": "CA", "postalCode": "M5S2K3", "twitter": "None", "instagram": "None", "facebook": "None", "youtube": "None", "website": "None", "summary": "None", "logo": "None", "latitude": 43.657986059668794, "longitude": -79.40201686929412}, "118965334RR0001": {"name": "HUNGARIAN REFORMED EVANGELICAL CHURCH (OSHAWA)", "designationCode": "A", "categoryCode": "39", "address": "147 SIMCOE STREET N.", "city": "OSHAWA", "province": "ON", "country": "CA", "postalCode": "L1G4S6", "twitter": "None", "instagram": "None", "facebook": "None", "youtube": "None", "website": "None", "summary": "None", "logo": "None", "latitude": 43.9014821693115, "longitude": -78.8653372766752}, "118965342RR0001": {"name": "HUNGARIAN RESEARCH INSTITUTE OF CANADA", "designationCode": "C", "categoryCode": "20", "address": "200 COLLEGE ST.", "city": "TORONTO", "province": "ON", "country": "CA", "postalCode": "M5S3E5", "twitter": "None", "instagram": "None", "facebook": "None", "youtube": "None", "website": "None", "summary": "None", "logo": "None", "latitude": 43.65881020180029, "longitude": -79.3955173610998}, "118965359RR0001": {"name": "HUNGARIAN UNITED CHURCH", "designationCode": "C", "categoryCode": "44", "address": "50 GRAHAM BOULEVARD", "city": "TOWN OF MOUNT ROYAL", "province": "QC", "country": "CA", "postalCode": "H3P2C1", "twitter": "None", "instagram": "None", "facebook": "None", "youtube": "None", "website": "None", "summary": "None", "logo": "None", "latitude": 45.52385659893825, "longitude": -73.62606102091893}, "118965367RR0001": {"name": "HUNGARIAN UNITED CHURCH", "designationCode": "C", "categoryCode": "44", "address": "3068 BAYVIEW AVE", "city": "NORTH YORK", "province": "ON", "country": "CA", "postalCode": "M2N5L3", "twitter": "None", "instagram": "None", "facebook": "None", "youtube": "None", "website": "None", "summary": "None", "logo": "None", "latitude": 43.77832685123207, "longitude": -79.39069687471847}, "118965375RR0001": {"name": "HUNGARIAN UNITED CHURCH", "designationCode": "C", "categoryCode": "44", "address": "255 OAK ST", "city": "WINNIPEG", "province": "MB", "country": "CA", "postalCode": "R3M3P7", "twitter": "None", "instagram": "None", "facebook": "None", "youtube": "None", "website": "None", "summary": "None", "logo": "None", "latitude": 49.87072057146977, "longitude": -97.18124279701628}, "118965201RR0001": {"name": "HUNGARIAN-CANADIAN CULTURAL ASSOCIATION OF CALGARY", "designationCode": "C", "categoryCode": "56", "address": "231 FORGE RD SE", "city": "CALGARY", "province": "AB", "country": "CA", "postalCode": "T2H0S9", "twitter": "None", "instagram": "None", "facebook": "None", "youtube": "None", "website": "None", "summary": "None", "logo": "None", "latitude": 50.99317141326679, "longitude": -114.06069881859904}, "141135210RR0001": {"name": "HUNGER IN MOOSE JAW INC", "designationCode": "C", "categoryCode": "09", "address": "269 STADACONA ST W", "city": "MOOSE JAW", "province": "SK", "country": "CA", "postalCode": "S6H1Z4", "twitter": "None", "instagram": "None", "facebook": "None", "youtube": "None", "website": "None", "summary": "None", "logo": "None", "latitude": 50.39431240328319, "longitude": -105.54219040328319}, "862048758RR0001": {"name": "HUNGRY FOR LIFE INTERNATIONAL", "designationCode": "C", "categoryCode": "99", "address": "45950 ALEXANDER AVENUE", "city": "CHILLIWACK", "province": "BC", "country": "CA", "postalCode": "V2P1L5", "twitter": "None", "instagram": "None", "facebook": "None", "youtube": "None", "website": "None", "summary": "None", "logo": "None", "latitude": 49.1645475905997, "longitude": -121.95412932930351}, "119288918RR0707": {"name": "HUNT CLUB CONGREGATION OF JEHOVAH'S WITNESSES", "designationCode": "C", "categoryCode": "61", "address": "154 ALLENFORD AVE", "city": "OTTAWA", "province": "ON", "country": "CA", "postalCode": "K1T3Y4", "twitter": "None", "instagram": "None", "facebook": "None", "youtube": "None", "website": "None", "summary": "None", "logo": "None", "latitude": 45.36842657949121, "longitude": -75.62614549154588}, "118965383RR0001": {"name": "HUNTA MENNONITE CHURCH", "designationCode": "C", "categoryCode": "34", "address": "SITE 33 COMP 4                RR 4", "city": "COCHRANE", "province": "ON", "country": "CA", "postalCode": "P0L1C0", "twitter": "None", "instagram": "None", "facebook": "None", "youtube": "None", "website": "None", "summary": "None", "logo": "None", "latitude": 49.07076000000005, "longitude": -81.00274849999994}, "118965409RR0001": {"name": "HUNTER FAMILY FOUNDATION", "designationCode": "B", "categoryCode": "03", "address": "1700 - 521 3 AVE SW", "city": "CALGARY", "province": "AB", "country": "CA", "postalCode": "T2P3T3", "twitter": "None", "instagram": "None", "facebook": "None", "youtube": "None", "website": "None", "summary": "None", "logo": "None", "latitude": 51.050585259196545, "longitude": -114.07240492388776}, "892436833RR0001": {"name": "HUNTER RIVER EARLY LEARNING CENTRE INC.", "designationCode": "C", "categoryCode": "20", "address": "POST OFFICE BOX 178", "city": "HUNTER RIVER", "province": "PE", "country": "CA", "postalCode": "C0A1N0", "twitter": "None", "instagram": "None", "facebook": "None", "youtube": "None", "website": "None", "summary": "None", "logo": "None", "latitude": 46.492926000000054, "longitude": -63.36548449999994}, "118965441RR0001": {"name": "HUNTINGDON COUNTY HOSPITAL FOUNDATION", "designationCode": "A", "categoryCode": "13", "address": "198 RUE CHATEAUGUAY", "city": "HUNTINGDON", "province": "QC", "country": "CA", "postalCode": "J0S1H0", "twitter": "None", "instagram": "None", "facebook": "None", "youtube": "None", "website": "None", "summary": "None", "logo": "None", "latitude": 45.0823772714524, "longitude": -74.17733024759062}, "108137662RR0001": {"name": "HUNTINGDON PASTORAL CHARGE", "designationCode": "C", "categoryCode": "44", "address": "182A CHATEAUGUAY STREET", "city": "HUNTINGDON", "province": "QC", "country": "CA", "postalCode": "J0S1H0", "twitter": "None", "instagram": "None", "facebook": "None", "youtube": "None", "website": "None", "summary": "None", "logo": "None", "latitude": 45.08359899721196, "longitude": -74.17559018021946}, "118965466RR0001": {"name": "HUNTINGDON PROTESTANT CEMETERY COMPANY", "designationCode": "C", "categoryCode": "59", "address": "14 HENDERSON", "city": "HUNTINGDON", "province": "QC", "country": "CA", "postalCode": "J0S1H0", "twitter": "None", "instagram": "None", "facebook": "None", "youtube": "None", "website": "None", "summary": "None", "logo": "None", "latitude": 45.08652900556858, "longitude": -74.17074205242676}, "107498248RR0001": {"name": "HUNTINGTON HILLS COMMUNITY ASSOCIATION", "designationCode": "C", "categoryCode": "56", "address": "520 78 AVE NW", "city": "CALGARY", "province": "AB", "country": "CA", "postalCode": "T2K0S2", "twitter": "None", "instagram": "None", "facebook": "None", "youtube": "None", "website": "None", "summary": "None", "logo": "None", "latitude": 51.12261652596793, "longitude": -114.07362414210283}, "118965516RR0001": {"name": "HUNTINGTON SOCIETY OF CANADA", "designationCode": "C", "categoryCode": "11", "address": "151 FREDERICK STREET          SUITE 400", "city": "KITCHENER", "province": "ON", "country": "CA", "postalCode": "N2H2M2", "twitter": "None", "instagram": "None", "facebook": "None", "youtube": "None", "website": "None", "summary": "None", "logo": "None", "latitude": 43.45236639133825, "longitude": -80.48421912600269}, "118965532RR0001": {"name": "HUNTINGTON UNIVERSITY", "designationCode": "C", "categoryCode": "20", "address": "935 RAMSEY LAKE ROAD", "city": "SUDBURY", "province": "ON", "country": "CA", "postalCode": "P3E2C6", "twitter": "None", "instagram": "None", "facebook": "None", "youtube": "None", "website": "None", "summary": "None", "logo": "None", "latitude": 46.47081945295088, "longitude": -80.97225123728919}, "132551904RR0001": {"name": "HUNTLEY TOWNSHIP HISTORICAL SOCIETY", "designationCode": "C", "categoryCode": "50", "address": "P.O. BOX 313", "city": "CARP", "province": "ON", "country": "CA", "postalCode": "K0A1L0", "twitter": "None", "instagram": "None", "facebook": "None", "youtube": "None", "website": "None", "summary": "None", "logo": "None", "latitude": 45.443587712606245, "longitude": -76.1842754094586}, "883009482RR0001": {"name": "HUNTLEY UNITED CEMETERY", "designationCode": "C", "categoryCode": "59", "address": "55 AMBERLAKE DRIVE", "city": "STITTSVILLE", "province": "ON", "country": "CA", "postalCode": "K2S2A2", "twitter": "None", "instagram": "None", "facebook": "None", "youtube": "None", "website": "None", "summary": "None", "logo": "None", "latitude": 45.270280373564646, "longitude": -75.92565046061496}, "118965599RR0001": {"name": "HUNTSVILLE & DISTRICT AGRICULTURAL SOCIETY", "designationCode": "C", "categoryCode": "56", "address": "BOX 5064", "city": "HUNTSVILLE", "province": "ON", "country": "CA", "postalCode": "P1H2K5", "twitter": "None", "instagram": "None", "facebook": "None", "youtube": "None", "website": "None", "summary": "None", "logo": "None", "latitude": 45.326544000000055, "longitude": -79.21800349999994}, "108084542RR0001": {"name": "HUNTSVILLE AND DISTRICT CO-OPERATIVE NURSERY SCHOOL INC.", "designationCode": "C", "categoryCode": "20", "address": "BOX 5392", "city": "HUNTSVILLE", "province": "ON", "country": "CA", "postalCode": "P1H2K7", "twitter": "None", "instagram": "None", "facebook": "None", "youtube": "None", "website": "None", "summary": "None", "logo": "None", "latitude": 45.326544000000055, "longitude": -79.21800349999994}, "118965573RR0001": {"name": "HUNTSVILLE AND LAKE OF BAYS RAILWAY SOCIETY", "designationCode": "C", "categoryCode": "50", "address": "88 BRUNEL RD", "city": "HUNTSVILLE", "province": "ON", "country": "CA", "postalCode": "P1H1R1", "twitter": "None", "instagram": "None", "facebook": "None", "youtube": "None", "website": "None", "summary": "None", "logo": "None", "latitude": 45.32032084709736, "longitude": -79.21278280784783}, "870878014RR0001": {"name": "HUNTSVILLE CHURCH OF CHRIST", "designationCode": "C", "categoryCode": "39", "address": "491 FOWLERS RD RR # 5", "city": "HUNTSVILLE", "province": "ON", "country": "CA", "postalCode": "P1H2N5", "twitter": "None", "instagram": "None", "facebook": "None", "youtube": "None", "website": "None", "summary": "None", "logo": "None", "latitude": 45.37013896641469, "longitude": -79.25277663405275}, "871619409RR0001": {"name": "HUNTSVILLE COMMUNITY CHOIR", "designationCode": "C", "categoryCode": "22", "address": "195 BEAVER MEADOW RD RR 2", "city": "PORT SYDNEY", "province": "ON", "country": "CA", "postalCode": "P0B1L0", "twitter": "None", "instagram": "None", "facebook": "None", "youtube": "None", "website": "None", "summary": "None", "logo": "None", "latitude": 45.21809524623429, "longitude": -79.24822707242207}, "119288918RR0189": {"name": "HUNTSVILLE CONGREGATION OF JEHOVAH'S WITNESSES, ONTARIO", "designationCode": "C", "categoryCode": "61", "address": "144 SEELY RD.", "city": "HUNTSVILLE", "province": "ON", "country": "CA", "postalCode": "P1H2J3", "twitter": "None", "instagram": "None", "facebook": "None", "youtube": "None", "website": "None", "summary": "None", "logo": "None", "latitude": 45.31938900000006, "longitude": -79.17043399999993}, "890203847RR0001": {"name": "HUNTSVILLE DISTRICT MEMORIAL HOSPITAL AUXILIARY", "designationCode": "A", "categoryCode": "19", "address": "100 FRANK MILLER DRIVE", "city": "HUMTSVILLE", "province": "ON", "country": "CA", "postalCode": "P1H1H7", "twitter": "None", "instagram": "None", "facebook": "None", "youtube": "None", "website": "None", "summary": "None", "logo": "None", "latitude": 45.338983203886734, "longitude": -79.20400243614445}, "893715292RR0001": {"name": "HUNTSVILLE DISTRICT MEMORIAL HOSPITAL FOUNDATION", "designationCode": "A", "categoryCode": "13", "address": "4-100 FRANK MILLER DRIVE", "city": "HUNTSVILLE", "province": "ON", "country": "CA", "postalCode": "P1H1H7", "twitter": "None", "instagram": "None", "facebook": "None", "youtube": "None", "website": "None", "summary": "None", "logo": "None", "latitude": 45.338983203886734, "longitude": -79.20400243614445}, "118965607RR0001": {"name": "HUNTSVILLE DISTRICT NURSING HOME INC.", "designationCode": "C", "categoryCode": "10", "address": "14 MILL STREET", "city": "HUNTSVILLE", "province": "ON", "country": "CA", "postalCode": "P1H2A4", "twitter": "None", "instagram": "None", "facebook": "None", "youtube": "None", "website": "None", "summary": "None", "logo": "None", "latitude": 45.327016941947335, "longitude": -79.21213973374081}, "892668765RR0001": {"name": "HUNTSVILLE FESTIVAL OF THE ARTS", "designationCode": "C", "categoryCode": "22", "address": "BOX 5465", "city": "HUNTSVILLE", "province": "ON", "country": "CA", "postalCode": "P1H2K8", "twitter": "None", "instagram": "None", "facebook": "None", "youtube": "None", "website": "None", "summary": "None", "logo": "None", "latitude": 45.326544000000055, "longitude": -79.21800349999994}, "866487531RR0001": {"name": "HUNTSVILLE GOSPEL HALL", "designationCode": "C", "categoryCode": "39", "address": "10A WEST ROAD", "city": "HUNTSVILLE", "province": "ON", "country": "CA", "postalCode": "P1H1K9", "twitter": "None", "instagram": "None", "facebook": "None", "youtube": "None", "website": "None", "summary": "None", "logo": "None", "latitude": 45.331289029442324, "longitude": -79.21558624032035}, "891544843RR0001": {"name": "HUNTSVILLE MEALS-ON-WHEELS INC", "designationCode": "C", "categoryCode": "09", "address": "HUNTSVILLE DIST MEMORIAL HOSP", "city": "HUNTSVILLE", "province": "ON", "country": "CA", "postalCode": "P1H1H7", "twitter": "None", "instagram": "None", "facebook": "None", "youtube": "None", "website": "None", "summary": "None", "logo": "None", "latitude": 45.338955000000055, "longitude": -79.20404449999994}, "856713649RR0001": {"name": "HUNTSVILLE SUZUKI SCHOOL OF MUSIC", "designationCode": "C", "categoryCode": "22", "address": "2-26 STATION RD", "city": "HUNTSVILLE", "province": "ON", "country": "CA", "postalCode": "P1H1X1", "twitter": "None", "instagram": "None", "facebook": "None", "youtube": "None", "website": "None", "summary": "None", "logo": "None", "latitude": 45.3236419067459, "longitude": -79.22608163336027}, "865275424RR0001": {"name": "HUNTSVILLE TRAIN STATION SOCIETY", "designationCode": "C", "categoryCode": "50", "address": "1-26 STATION ROAD", "city": "HUNTSVILLE", "province": "ON", "country": "CA", "postalCode": "P1H1X1", "twitter": "None", "instagram": "None", "facebook": "None", "youtube": "None", "website": "None", "summary": "None", "logo": "None", "latitude": 45.3236419067459, "longitude": -79.22608163336027}, "118965649RR0001": {"name": "HUNTSVILLE UNITED PENTECOSTAL CHURCH", "designationCode": "C", "categoryCode": "39", "address": "28 STEPHENSON RD. 1, WEST", "city": "PORT SYDNEY", "province": "ON", "country": "CA", "postalCode": "P0B1L0", "twitter": "None", "instagram": "None", "facebook": "None", "youtube": "None", "website": "None", "summary": "None", "logo": "None", "latitude": 45.24259416287176, "longitude": -79.28928761865124}, "874816077RR0001": {"name": "HUONG DAM VIETNAMESE BUDDHIST ASSOCIATION OF HAMILTON", "designationCode": "C", "categoryCode": "35", "address": "208 BRUCEDALE AVENUE EAST", "city": "HAMILTON", "province": "ON", "country": "CA", "postalCode": "L9A1N9", "twitter": "None", "instagram": "None", "facebook": "None", "youtube": "None", "website": "None", "summary": "None", "logo": "None", "latitude": 43.23744191866247, "longitude": -79.86884970941767}, "118965680RR0001": {"name": "HURON CHAPEL EVANGELICAL MISSIONARY CHURCH", "designationCode": "C", "categoryCode": "39", "address": "BOX 100 119 JOHN'S AVENUE", "city": "AUBURN", "province": "ON", "country": "CA", "postalCode": "N0M1E0", "twitter": "None", "instagram": "None", "facebook": "None", "youtube": "None", "website": "None", "summary": "None", "logo": "None", "latitude": 43.77152567519813, "longitude": -81.53596180327735}, "892500968RR0001": {"name": "HURON CHARITABLE TRUST", "designationCode": "B", "categoryCode": "39", "address": "50-1ST AVE NE", "city": "SWIFT CURRENT", "province": "SK", "country": "CA", "postalCode": "S9H4W4", "twitter": "None", "instagram": "None", "facebook": "None", "youtube": "None", "website": "None", "summary": "None", "logo": "None", "latitude": 50.282664378132, "longitude": -107.79863205289816}, "887582419RR0001": {"name": "HURON CHILD CARE INC.", "designationCode": "C", "categoryCode": "01", "address": "1120 MCPHILLIPS STREET", "city": "WINNIPEG", "province": "MB", "country": "CA", "postalCode": "R2X2L3", "twitter": "None", "instagram": "None", "facebook": "None", "youtube": "None", "website": "None", "summary": "None", "logo": "None", "latitude": 49.93594712158793, "longitude": -97.1630974632407}, "129898367RR0001": {"name": "HURON CHRISTIAN SCHOOL", "designationCode": "C", "categoryCode": "20", "address": "BOX 658", "city": "CLINTON", "province": "ON", "country": "CA", "postalCode": "N0M1L0", "twitter": "None", "instagram": "None", "facebook": "None", "youtube": "None", "website": "None", "summary": "None", "logo": "None", "latitude": 43.617650000000026, "longitude": -81.53971999999999}, "135048544RR0001": {"name": "HURON COUNTRY PLAYHOUSE GUILD", "designationCode": "A", "categoryCode": "23", "address": "PO BOX 967", "city": "GRAND BEND", "province": "ON", "country": "CA", "postalCode": "N0M1T0", "twitter": "None", "instagram": "None", "facebook": "None", "youtube": "None", "website": "None", "summary": "None", "logo": "None", "latitude": 43.235389489558244, "longitude": -81.68905893037018}, "139029904RR0001": {"name": "HURON COUNTY HIV/AIDS NETWORK", "designationCode": "C", "categoryCode": "59", "address": "BOX 1620", "city": "CLINTON", "province": "ON", "country": "CA", "postalCode": "N0M1L0", "twitter": "None", "instagram": "None", "facebook": "None", "youtube": "None", "website": "None", "summary": "None", "logo": "None", "latitude": 43.617650000000026, "longitude": -81.53971999999999}, "878511567RR0001": {"name": "HURON COUNTY 4-H LEADERS' ASSOCIATION", "designationCode": "C", "categoryCode": "29", "address": "37526 GLENS HILL RD           R.R.#2", "city": "AUBURN", "province": "ON", "country": "CA", "postalCode": "N0M1E0", "twitter": "None", "instagram": "None", "facebook": "None", "youtube": "None", "website": "None", "summary": "None", "logo": "None", "latitude": 43.86198117202042, "longitude": -81.54868128322752}, "118965755RR0001": {"name": "HURON FEATHERS", "designationCode": "C", "categoryCode": "37", "address": "PO BOX 844", "city": "OWEN SOUND", "province": "ON", "country": "CA", "postalCode": "N4K5W9", "twitter": "None", "instagram": "None", "facebook": "None", "youtube": "None", "website": "None", "summary": "None", "logo": "None", "latitude": 44.56423500000005, "longitude": -80.94243049999993}, "853220168RR0001": {"name": "HURON FRIENDS OF THE COMMUNITY FOODBANK CENTER", "designationCode": "C", "categoryCode": "09", "address": "P.O. BOX 1565", "city": "CLINTON", "province": "ON", "country": "CA", "postalCode": "N0M1L0", "twitter": "None", "instagram": "None", "facebook": "None", "youtube": "None", "website": "None", "summary": "None", "logo": "None", "latitude": 43.617650000000026, "longitude": -81.53971999999999}, "890040173RR0001": {"name": "HURON HOSPICE VOLUNTEER SERVICE", "designationCode": "C", "categoryCode": "11", "address": "P.O. BOX 99", "city": "SEAFORTH", "province": "ON", "country": "CA", "postalCode": "N0K1W0", "twitter": "None", "instagram": "None", "facebook": "None", "youtube": "None", "website": "None", "summary": "None", "logo": "None", "latitude": 43.55304000000007, "longitude": -81.39369999999997}, "107498628RR0001": {"name": "HURON HOUSE BOYS' HOME FOUNDATION INC.", "designationCode": "A", "categoryCode": "03", "address": "2473 LAKESHORE ROAD", "city": "BRIGHT'S GROVE", "province": "ON", "country": "CA", "postalCode": "N0N1C0", "twitter": "None", "instagram": "None", "facebook": "None", "youtube": "None", "website": "None", "summary": "None", "logo": "None", "latitude": 43.02629451867551, "longitude": -82.26758878134241}, "896760576RR0001": {"name": "HURON LODGE COMMUNITY SERVICE BOARD INC.", "designationCode": "C", "categoryCode": "01", "address": "100 MANITOBA RD", "city": "ELLIOT LAKE", "province": "ON", "country": "CA", "postalCode": "P5A3T1", "twitter": "None", "instagram": "None", "facebook": "None", "youtube": "None", "website": "None", "summary": "None", "logo": "None", "latitude": 46.38484064227573, "longitude": -82.64716560970096}, "118965821RR0001": {"name": "HURON PARK BAPTIST CHURCH INC.", "designationCode": "C", "categoryCode": "31", "address": "199 BERWICK ST", "city": "WOODSTOCK", "province": "ON", "country": "CA", "postalCode": "N4S7L6", "twitter": "None", "instagram": "None", "facebook": "None", "youtube": "None", "website": "None", "summary": "None", "logo": "None", "latitude": 43.14004264393511, "longitude": -80.74010561209008}, "102430378RR0001": {"name": "HURON SAFE HOMES FOR YOUTH", "designationCode": "C", "categoryCode": "59", "address": "PO BOX 563 STN MAIN", "city": "GODERICH", "province": "ON", "country": "CA", "postalCode": "N7A4C7", "twitter": "None", "instagram": "None", "facebook": "None", "youtube": "None", "website": "None", "summary": "None", "logo": "None", "latitude": 43.71881028701384, "longitude": -81.62792840345546}, "107446353RR0001": {"name": "HURON SHORES UNITED CHURCH", "designationCode": "C", "categoryCode": "44", "address": "P O BOX 61", "city": "GRAND BEND", "province": "ON", "country": "CA", "postalCode": "N0M1T0", "twitter": "None", "instagram": "None", "facebook": "None", "youtube": "None", "website": "None", "summary": "None", "logo": "None", "latitude": 43.235389489558244, "longitude": -81.68905893037018}, "118965714RR0001": {"name": "HURON UNIVERSITY COLLEGE", "designationCode": "C", "categoryCode": "20", "address": "1349 WESTERN ROAD", "city": "LONDON", "province": "ON", "country": "CA", "postalCode": "N6G1H3", "twitter": "None", "instagram": "None", "facebook": "None", "youtube": "None", "website": "None", "summary": "None", "logo": "None", "latitude": 43.008875883130045, "longitude": -81.27723324874056}, "118965706RR0001": {"name": "HURON UNIVERSITY COLLEGE FOUNDATION", "designationCode": "A", "categoryCode": "23", "address": "1349 WESTERN ROAD", "city": "LONDON", "province": "ON", "country": "CA", "postalCode": "N6G1H3", "twitter": "None", "instagram": "None", "facebook": "None", "youtube": "None", "website": "None", "summary": "None", "logo": "None", "latitude": 43.008875883130045, "longitude": -81.27723324874056}, "108084575RR0001": {"name": "HURON-PERTH CATHOLIC DISTRICT SCHOOL BOARD", "designationCode": "C", "categoryCode": "20", "address": "PO BOX 70", "city": "DUBLIN", "province": "ON", "country": "CA", "postalCode": "N0K1E0", "twitter": "None", "instagram": "None", "facebook": "None", "youtube": "None", "website": "None", "summary": "None", "logo": "None", "latitude": 37.70423000000005, "longitude": -121.91634999999997}, "118965847RR0001": {"name": "HURON-PERTH CENTRE FOR CHILDREN AND YOUTH", "designationCode": "C", "categoryCode": "11", "address": "2A - 63 LORNE AVE E           RR 3", "city": "STRATFORD", "province": "ON", "country": "CA", "postalCode": "N5A6S4", "twitter": "None", "instagram": "None", "facebook": "None", "youtube": "None", "website": "None", "summary": "None", "logo": "None", "latitude": 43.35275901936359, "longitude": -80.96423460995344}, "119222156RR0001": {"name": "HURON-PERTH CHILDREN'S AID SOCIETY", "designationCode": "C", "categoryCode": "01", "address": "639 LORNE AVE E", "city": "STRATFORD", "province": "ON", "country": "CA", "postalCode": "N5A6S4", "twitter": "None", "instagram": "None", "facebook": "None", "youtube": "None", "website": "None", "summary": "None", "logo": "None"}, "892217043RR0001": {"name": "HURONIA CRISIS PREGNANCY CENTRE", "designationCode": "C", "categoryCode": "09", "address": "PO BOX 549", "city": "MIDLAND", "province": "ON", "country": "CA", "postalCode": "L4R4L3", "twitter": "None", "instagram": "None", "facebook": "None", "youtube": "None", "website": "None", "summary": "None", "logo": "None", "latitude": 44.74989600000005, "longitude": -79.88850349999993}, "118965805RR0001": {"name": "HURONIA MUSEUM", "designationCode": "C", "categoryCode": "50", "address": "BOX 638", "city": "MIDLAND", "province": "ON", "country": "CA", "postalCode": "L4R4P4", "twitter": "None", "instagram": "None", "facebook": "None", "youtube": "None", "website": "None", "summary": "None", "logo": "None", "latitude": 44.74989600000005, "longitude": -79.88850349999993}, "892481169RR0001": {"name": "HURONIA PLAYERS THEATRE GROUP", "designationCode": "C", "categoryCode": "22", "address": "333 KING STREET", "city": "MIDLAND", "province": "ON", "country": "CA", "postalCode": "L4R3M7", "twitter": "None", "instagram": "None", "facebook": "None", "youtube": "None", "website": "None", "summary": "None", "logo": "None", "latitude": 44.74841430281236, "longitude": -79.88406282389639}, "865871388RR0001": {"name": "HURONIA RESTORATIVE JUSTICE PROJECT", "designationCode": "C", "categoryCode": "59", "address": "323 MIDLAND AVE               BOX 96", "city": "MIDLAND", "province": "ON", "country": "CA", "postalCode": "L4R4K6", "twitter": "None", "instagram": "None", "facebook": "None", "youtube": "None", "website": "None", "summary": "None", "logo": "None", "latitude": 44.74935529922457, "longitude": -79.88283072607001}, "889711966RR0001": {"name": "HURONIA SENIORS' VOLUNTEER CARE TEAM", "designationCode": "C", "categoryCode": "09", "address": "689 YONGE ST", "city": "MIDLAND", "province": "ON", "country": "CA", "postalCode": "L4R2E1", "twitter": "None", "instagram": "None", "facebook": "None", "youtube": "None", "website": "None", "summary": "None", "logo": "None", "latitude": 44.74343493210417, "longitude": -79.89104291391082}, "126039072RR0001": {"name": "HURONIA SYMPHONY INCORPORATED", "designationCode": "C", "categoryCode": "22", "address": "PO BOX 904  STN MAIN", "city": "BARRIE", "province": "ON", "country": "CA", "postalCode": "L4M4Y6", "twitter": "None", "instagram": "None", "facebook": "None", "youtube": "None", "website": "None", "summary": "None", "logo": "None", "latitude": 44.38929300000005, "longitude": -79.68626449999994}, "118965813RR0001": {"name": "HURONIA TRANSITION HOMES", "designationCode": "C", "categoryCode": "09", "address": "P.O. BOX 54", "city": "MIDLAND", "province": "ON", "country": "CA", "postalCode": "L4R4K6", "twitter": "None", "instagram": "None", "facebook": "None", "youtube": "None", "website": "None", "summary": "None", "logo": "None", "latitude": 44.74989600000005, "longitude": -79.88850349999993}, "888030731RR0001": {"name": "HURONIA UNITARIAN FELLOWSHIP", "designationCode": "C", "categoryCode": "39", "address": "P.O. BOX 771", "city": "BARRIE", "province": "ON", "country": "CA", "postalCode": "L4M4Y5", "twitter": "None", "instagram": "None", "facebook": "None", "youtube": "None", "website": "None", "summary": "None", "logo": "None", "latitude": 44.38929300000005, "longitude": -79.68626449999994}, "863410452RR0001": {"name": "HURONIA WEST DRUG ABUSE RESISTANCE EDUCATION (DARE)", "designationCode": "C", "categoryCode": "57", "address": "1000 RIVER RD WEST", "city": "WASAGA BEACH", "province": "ON", "country": "CA", "postalCode": "L0L2P0", "twitter": "None", "instagram": "None", "facebook": "None", "youtube": "None", "website": "None", "summary": "None", "logo": "None", "latitude": 44.51942277397055, "longitude": -80.01442033225939}, "118965854RR0001": {"name": "HUSAINI ASSOCIATION OF MANITOBA INC.", "designationCode": "C", "categoryCode": "39", "address": "7 KAMBERWELL BAY", "city": "WINNIPEG", "province": "MB", "country": "CA", "postalCode": "R2N4N1", "twitter": "None", "instagram": "None", "facebook": "None", "youtube": "None", "website": "None", "summary": "None", "logo": "None", "latitude": 49.80812900969487, "longitude": -97.08027034292218}, "858362536RR0001": {"name": "HUSKIE FOOTBALL SCHOLARSHIP FOUNDATION INC.", "designationCode": "A", "categoryCode": "03", "address": "1171 - 8TH STREET EAST", "city": "SASKATOON", "province": "SK", "country": "CA", "postalCode": "S7H0S3", "twitter": "None", "instagram": "None", "facebook": "None", "youtube": "None", "website": "None", "summary": "None", "logo": "None", "latitude": 52.11490800434586, "longitude": -106.64224585900537}, "892653965RR0001": {"name": "HUSSAINI ASSOCIATION OF CALGARY - CANADA", "designationCode": "C", "categoryCode": "60", "address": "BOX 98067                     5500 FALSEBRIDGE DRIVE", "city": "CALGARY", "province": "AB", "country": "CA", "postalCode": "T3J0K6", "twitter": "None", "instagram": "None", "facebook": "None", "youtube": "None", "website": "None", "summary": "None", "logo": "None", "latitude": 51.09780310796929, "longitude": -113.95505204111578}, "107499014RR0001": {"name": "HUSSAR & DISTRICT AGRICULTURAL SOCIETY", "designationCode": "C", "categoryCode": "56", "address": "BOX 1", "city": "HUSSAR", "province": "AB", "country": "CA", "postalCode": "T0J1S0", "twitter": "None", "instagram": "None", "facebook": "None", "youtube": "None", "website": "None", "summary": "None", "logo": "None", "latitude": 51.04448527621307, "longitude": -112.67323344392642}, "138533310RR0001": {"name": "HUSSAR HISTORICAL SOCIETY", "designationCode": "C", "categoryCode": "50", "address": "PO BOX 97", "city": "HUSSAR", "province": "AB", "country": "CA", "postalCode": "T0J1S0", "twitter": "None", "instagram": "None", "facebook": "None", "youtube": "None", "website": "None", "summary": "None", "logo": "None", "latitude": 51.05012000000005, "longitude": -112.68516999999997}, "887557866RR0001": {"name": "HUSSAR MUNICIPAL LIBRARY", "designationCode": "C", "categoryCode": "50", "address": "GENERAL DELIVERY", "city": "HUSSAR", "province": "AB", "country": "CA", "postalCode": "T0J1S0", "twitter": "None", "instagram": "None", "facebook": "None", "youtube": "None", "website": "None", "summary": "None", "logo": "None", "latitude": 51.03793500000006, "longitude": -112.67633149999993}, "860651736RR0001": {"name": "HUTCHESONS' GRAMMAR SCHOOL TRUST", "designationCode": "C", "categoryCode": "25", "address": "4 OLYMPUS AVENUE", "city": "TORONTO", "province": "ON", "country": "CA", "postalCode": "M6S1K9", "twitter": "None", "instagram": "None", "facebook": "None", "youtube": "None", "website": "None", "summary": "None", "logo": "None", "latitude": 43.65103615182637, "longitude": -79.47103578977425}, "808575476RR0001": {"name": "HUTTERIAN BRETHREN CHURCH OF HILLSIDE", "designationCode": "B", "categoryCode": "39", "address": "1401 PRINCESS AVE", "city": "BRANDON", "province": "MB", "country": "CA", "postalCode": "R7A7L7", "twitter": "None", "instagram": "None", "facebook": "None", "youtube": "None", "website": "None", "summary": "None", "logo": "None", "latitude": 49.84694947489748, "longitude": -99.957294}, "139025191RR0001": {"name": "HUTTERVILLE CHARITABLE TRUST", "designationCode": "B", "categoryCode": "39", "address": "3425 2 AVENUE SOUTH", "city": "LETHBRIDGE", "province": "AB", "country": "CA", "postalCode": "T1J4V1", "twitter": "None", "instagram": "None", "facebook": "None", "youtube": "None", "website": "None", "summary": "None", "logo": "None", "latitude": 49.696839530439966, "longitude": -112.78914308381903}, "108071861RR0001": {"name": "HUTTON HOUSE ASSOCIATION FOR ADULTS WITH DISABILITIES", "designationCode": "C", "categoryCode": "01", "address": "654 WONDERLAND RD N", "city": "LONDON", "province": "ON", "country": "CA", "postalCode": "N6H3E5", "twitter": "None", "instagram": "None", "facebook": "None", "youtube": "None", "website": "None", "summary": "None", "logo": "None", "latitude": 42.98335380965134, "longitude": -81.29245821166607}, "871369328RR0001": {"name": "HUTTON HOUSE FOUNDATION", "designationCode": "A", "categoryCode": "03", "address": "654 WONDERLAND ROAD NORTH", "city": "LONDON", "province": "ON", "country": "CA", "postalCode": "N6H3E5", "twitter": "None", "instagram": "None", "facebook": "None", "youtube": "None", "website": "None", "summary": "None", "logo": "None", "latitude": 42.98335380965134, "longitude": -81.29245821166607}, "107499170RR0001": {"name": "HUTTONVILLE UNITED CHURCH", "designationCode": "C", "categoryCode": "44", "address": "2051 EMBLETON ROAD", "city": "BRAMPTON", "province": "ON", "country": "CA", "postalCode": "L6Y0E9", "twitter": "None", "instagram": "None", "facebook": "None", "youtube": "None", "website": "None", "summary": "None", "logo": "None", "latitude": 43.643511702464124, "longitude": -79.80087273160602}, "890881667RR0001": {"name": "HUXLEY CEMETERY BOARD", "designationCode": "C", "categoryCode": "59", "address": "9202 SIDEROAD 24              RR 1", "city": "HILLSBURGH", "province": "ON", "country": "CA", "postalCode": "N0B1Z0", "twitter": "None", "instagram": "None", "facebook": "None", "youtube": "None", "website": "None", "summary": "None", "logo": "None", "latitude": 43.76139000000006, "longitude": -80.10493549999994}, "858978489RR0001": {"name": "HVACR HERITAGE CENTRE CANADA", "designationCode": "C", "categoryCode": "21", "address": "419 DEERHURST DR", "city": "BRAMPTON", "province": "ON", "country": "CA", "postalCode": "L6T5K3", "twitter": "None", "instagram": "None", "facebook": "None", "youtube": "None", "website": "None", "summary": "None", "logo": "None", "latitude": 43.74913083712244, "longitude": -79.67473759916938}, "818517278RR0001": {"name": "HWA-PYEONG CHURCH", "designationCode": "C", "categoryCode": "39", "address": "16 BRIGHTVIEW CRES", "city": "SCARBOROUGH", "province": "ON", "country": "CA", "postalCode": "M1E3Y7", "twitter": "None", "instagram": "None", "facebook": "None", "youtube": "None", "website": "None", "summary": "None", "logo": "None", "latitude": 43.771060016648434, "longitude": -79.16443575939161}, "107499451RR0001": {"name": "HYAS BAPTIST CHURCH OF HYAS, SASKATCHEWAN", "designationCode": "C", "categoryCode": "31", "address": "P.O. BOX 148", "city": "HYAS", "province": "SK", "country": "CA", "postalCode": "S0A1K0", "twitter": "None", "instagram": "None", "facebook": "None", "youtube": "None", "website": "None", "summary": "None", "logo": "None", "latitude": 51.89998000000003, "longitude": -102.26763999999997}, "887937845RR0001": {"name": "HYCROFT HERITAGE PRESERVATION FOUNDATION", "designationCode": "C", "categoryCode": "52", "address": "1489 MCRAE AVENUE", "city": "VANCOUVER", "province": "BC", "country": "CA", "postalCode": "V6H1V1", "twitter": "None", "instagram": "None", "facebook": "None", "youtube": "None", "website": "None", "summary": "None", "logo": "None", "latitude": 49.25716110296276, "longitude": -123.13794237308112}, "865216634RR0001": {"name": "HYDE CREEK COMMUNITY CHURCH", "designationCode": "C", "categoryCode": "34", "address": "2145 NOVA SCOTIA AVE", "city": "PORT COQUITLAM", "province": "BC", "country": "CA", "postalCode": "V3C5M9", "twitter": "None", "instagram": "None", "facebook": "None", "youtube": "None", "website": "None", "summary": "None", "logo": "None"}, "862133618RR0001": {"name": "HYDE CREEK WATERSHED SOCIETY", "designationCode": "C", "categoryCode": "52", "address": "3636 COAST MERIDIAN ROAD", "city": "PORT COQUITLAM", "province": "BC", "country": "CA", "postalCode": "V3B0E4", "twitter": "None", "instagram": "None", "facebook": "None", "youtube": "None", "website": "None", "summary": "None", "logo": "None", "latitude": 49.27728633100329, "longitude": -122.75606575642848}, "868563941RR0001": {"name": "HYDRO ONE EMPLOYEES' AND PENSIONERS' CHARITY TRUST FUND", "designationCode": "B", "categoryCode": "75", "address": "483 BAY STREET,SOUTH TOWER,   7TH FLOOR", "city": "TORONTO", "province": "ON", "country": "CA", "postalCode": "M5G2P5", "twitter": "None", "instagram": "None", "facebook": "None", "youtube": "None", "website": "None", "summary": "None", "logo": "None", "latitude": 43.653228000000055, "longitude": -79.38268099999993}, "118966027RR0001": {"name": "HYMERS AGRICULTURAL SOCIETY", "designationCode": "C", "categoryCode": "56", "address": "PO BOX 196", "city": "KAKABEKA FALLS", "province": "ON", "country": "CA", "postalCode": "P0T1W0", "twitter": "None", "instagram": "None", "facebook": "None", "youtube": "None", "website": "None", "summary": "None", "logo": "None", "latitude": 48.40169000000003, "longitude": -89.61458999999996}, "864911490RR0001": {"name": "HYPER-LUNE", "designationCode": "C", "categoryCode": "09", "address": "50-5675 CH CHAMBLY", "city": "SAINT-HUBERT", "province": "QC", "country": "CA", "postalCode": "J3Y3R1", "twitter": "None", "instagram": "None", "facebook": "None", "youtube": "None", "website": "None", "summary": "None", "logo": "None", "latitude": 45.501188344971006, "longitude": -73.41422132183034}, "897016275RR0001": {"name": "HYPERTENSION CANADA", "designationCode": "C", "categoryCode": "11", "address": "211-3780 14TH AVE", "city": "MARKHAM", "province": "ON", "country": "CA", "postalCode": "L3R9Y5", "twitter": "None", "instagram": "None", "facebook": "None", "youtube": "None", "website": "None", "summary": "None", "logo": "None", "latitude": 43.83811904252944, "longitude": -79.32740004235653}, "130488869RR0001": {"name": "HYTHE & DISTRICT AGRICULTURAL SOCIETY", "designationCode": "C", "categoryCode": "56", "address": "P.O.BOX 271", "city": "HYTHE", "province": "AB", "country": "CA", "postalCode": "T0H2C0", "twitter": "None", "instagram": "None", "facebook": "None", "youtube": "None", "website": "None", "summary": "None", "logo": "None", "latitude": 55.32677000000007, "longitude": -119.55663999999996}, "118966050RR0001": {"name": "HYTHE & DISTRICT PIONEER HOMES FOUNDATION", "designationCode": "C", "categoryCode": "01", "address": "BOX 388", "city": "HYTHE", "province": "AB", "country": "CA", "postalCode": "T0H2C0", "twitter": "None", "instagram": "None", "facebook": "None", "youtube": "None", "website": "None", "summary": "None", "logo": "None", "latitude": 55.32677000000007, "longitude": -119.55663999999996}, "889714762RR0001": {"name": "HYTHE COMMUNITY FELLOWSHIP", "designationCode": "C", "categoryCode": "39", "address": "10361 KATERI DR", "city": "GRANDE PRAIRIE", "province": "AB", "country": "CA", "postalCode": "T8W2W8", "twitter": "None", "instagram": "None", "facebook": "None", "youtube": "None", "website": "None", "summary": "None", "logo": "None", "latitude": 55.14537485494524, "longitude": -118.8076578406911}, "137292785RR0001": {"name": "HYTHE HERITAGE & HISTORICAL SOCIETY", "designationCode": "C", "categoryCode": "52", "address": "BOX 111", "city": "HYTHE", "province": "AB", "country": "CA", "postalCode": "T0H2C0", "twitter": "None", "instagram": "None", "facebook": "None", "youtube": "None", "website": "None", "summary": "None", "logo": "None", "latitude": 55.32677000000007, "longitude": -119.55663999999996}, "118963180RR0001": {"name": "H\u00d4PITAL LAVAL", "designationCode": "C", "categoryCode": "10", "address": "2725 CHEMIN SAINTE-FOY", "city": "SAINTE-FOY", "province": "QC", "country": "CA", "postalCode": "G1V4G5", "twitter": "None", "instagram": "None", "facebook": "None", "youtube": "None", "website": "None", "summary": "None", "logo": "None", "latitude": 46.78043799535239, "longitude": -71.30019857327315}, "835269424RR0001": {"name": "H2O4ALL", "designationCode": "C", "categoryCode": "09", "address": "603 ARGUS RD. SUITE 206", "city": "OAKVILLE", "province": "ON", "country": "CA", "postalCode": "L6J6G6", "twitter": "None", "instagram": "None", "facebook": "None", "youtube": "None", "website": "None", "summary": "None", "logo": "None", "latitude": 43.458009528160964, "longitude": -79.68466330209486}, "817783665RR0001": {"name": "H3 Network Media Alliance", "designationCode": "C", "categoryCode": "09", "address": "120 EGLINTON AVENUE EAST      SUITE 500", "city": "TORONTO", "province": "ON", "country": "CA", "postalCode": "M4P1E2", "twitter": "None", "instagram": "None", "facebook": "None", "youtube": "None", "website": "None", "summary": "None", "logo": "None", "latitude": 43.70747620901364, "longitude": -79.39487915251885}, "807458302RR0001": {"name": "I Am Alpha and Omega Ministry International", "designationCode": "C", "categoryCode": "39", "address": "48 KIDRON VALLEY DRIVE,", "city": "TORONTO", "province": "ON", "country": "CA", "postalCode": "M9V4S6", "twitter": "None", "instagram": "None", "facebook": "None", "youtube": "None", "website": "None", "summary": "None", "logo": "None", "latitude": 43.75638513240797, "longitude": -79.59416823203871}, "810146332RR0001": {"name": "I Am Someone Ending Bullying Society", "designationCode": "C", "categoryCode": "09", "address": "2215 COQUITLAM AVE", "city": "PORT COQUITLAM", "province": "BC", "country": "CA", "postalCode": "V3B1J6", "twitter": "None", "instagram": "None", "facebook": "None", "youtube": "None", "website": "None", "summary": "None", "logo": "None", "latitude": 49.267466453257384, "longitude": -122.775642}, "834103178RR0001": {"name": "I AM Compelled", "designationCode": "C", "categoryCode": "25", "address": "2018 AMHERST HEIGHTS DRIVE", "city": "BURLINGTON", "province": "ON", "country": "CA", "postalCode": "L7P3P1", "twitter": "None", "instagram": "None", "facebook": "None", "youtube": "None", "website": "None", "summary": "None", "logo": "None", "latitude": 43.35200047709051, "longitude": -79.83503389312725}, "835002437RR0001": {"name": "I AM Ministry Inc.", "designationCode": "C", "categoryCode": "39", "address": "1045 DORCHESTER AVENUE", "city": "WINNIPEG", "province": "MB", "country": "CA", "postalCode": "R3M0R1", "twitter": "None", "instagram": "None", "facebook": "None", "youtube": "None", "website": "None", "summary": "None", "logo": "None", "latitude": 49.86773189927274, "longitude": -97.16847980878862}}