{"786286690RR0001": {"name": "Sick Not Weak Charitable Foundation", "designationCode": "C", "categoryCode": "11", "address": "562 ST CLEMENTS AVE", "city": "TORONTO", "province": "ON", "country": "CA", "postalCode": "M5N1M6", "twitter": "None", "instagram": "None", "facebook": "None", "youtube": "None", "website": "None", "summary": "None", "logo": "None", "latitude": 43.70815226729747, "longitude": -79.4217961722257}, "830723177RR0001": {"name": "Sickle Cell Association of BC", "designationCode": "C", "categoryCode": "11", "address": "322-104 - 1015 COLUMBIA ST", "city": "NEW WEST MINSTER", "province": "BC", "country": "CA", "postalCode": "V3M6V3", "twitter": "None", "instagram": "None", "facebook": "None", "youtube": "None", "website": "None", "summary": "None", "logo": "None", "latitude": 49.20024300000006, "longitude": -122.91588349999994}, "138831292RR0001": {"name": "Sidaction Mauricie", "designationCode": "C", "categoryCode": "21", "address": "515 RUE STE-C\u00c9CILE", "city": "TROIS-RIVI\u00c8RES", "province": "QC", "country": "CA", "postalCode": "G9A1K9", "twitter": "None", "instagram": "None", "facebook": "None", "youtube": "None", "website": "None", "summary": "None", "logo": "None", "latitude": 46.34814386343708, "longitude": -72.53905119513519}, "801213901RR0001": {"name": "Sidney Christian Assembly", "designationCode": "C", "categoryCode": "36", "address": "PO BOX 36", "city": "SIDNEY", "province": "MB", "country": "CA", "postalCode": "R0H1L0", "twitter": "None", "instagram": "None", "facebook": "None", "youtube": "None", "website": "None", "summary": "None", "logo": "None", "latitude": 49.89945000000006, "longitude": -99.08532999999994}, "862213725RR0001": {"name": "Sidney Museum and Archives Society", "designationCode": "C", "categoryCode": "50", "address": "2423 BEACON AVE               L-3", "city": "SIDNEY", "province": "BC", "country": "CA", "postalCode": "V8L1X5", "twitter": "None", "instagram": "None", "facebook": "None", "youtube": "None", "website": "None", "summary": "None", "logo": "None", "latitude": 48.648895513994034, "longitude": -123.3993222187085}, "107980005RR0001": {"name": "Sidney Pre-School", "designationCode": "C", "categoryCode": "20", "address": "2410 MALAVIEW AVE", "city": "SIDNEY", "province": "BC", "country": "CA", "postalCode": "V8L2G3", "twitter": "None", "instagram": "None", "facebook": "None", "youtube": "None", "website": "None", "summary": "None", "logo": "None", "latitude": 48.6570965115412, "longitude": -123.4000715553696}, "819023847RR0001": {"name": "Siempre Juntos Mas Fuerte - Together We Are Stronger", "designationCode": "C", "categoryCode": "09", "address": "108 - 22 PICTON ST", "city": "LONDON", "province": "ON", "country": "CA", "postalCode": "N6B3R5", "twitter": "None", "instagram": "None", "facebook": "None", "youtube": "None", "website": "None", "summary": "None", "logo": "None", "latitude": 42.98711034277796, "longitude": -81.24475285481009}, "826392136RR0001": {"name": "Sierra Charitable Trust", "designationCode": "B", "categoryCode": "45", "address": "PO BOX 759", "city": "SHAUNAVON", "province": "SK", "country": "CA", "postalCode": "S0N2M0", "twitter": "None", "instagram": "None", "facebook": "None", "youtube": "None", "website": "None", "summary": "None", "logo": "None", "latitude": 49.64645000000007, "longitude": -108.41961999999995}, "803284629RR0001": {"name": "Sierra Leone Canadian Children's Aid Society", "designationCode": "C", "categoryCode": "01", "address": "2301 - 24 MABELLE AVE", "city": "ETOBICOKE", "province": "ON", "country": "CA", "postalCode": "M9A4X8", "twitter": "None", "instagram": "None", "facebook": "None", "youtube": "None", "website": "None", "summary": "None", "logo": "None", "latitude": 43.64631328784102, "longitude": -79.52662416157854}, "119288918RR1339": {"name": "Sign Language Circuit CA-A7B of Jehovah's Witnesses", "designationCode": "C", "categoryCode": "61", "address": "201-1015 3RD AVE", "city": "NEW WESTMINSTER", "province": "BC", "country": "CA", "postalCode": "V3M1P6", "twitter": "None", "instagram": "None", "facebook": "None", "youtube": "None", "website": "None", "summary": "None", "logo": "None", "latitude": 49.20487399111322, "longitude": -122.92176688002725}, "119288918RR1723": {"name": "Sign Language Circuit 1A of Jehovah's Witnesses", "designationCode": "C", "categoryCode": "61", "address": "6538 OPERA GLASS CRES", "city": "MISSISSAUGA", "province": "ON", "country": "CA", "postalCode": "L5W1S1", "twitter": "None", "instagram": "None", "facebook": "None", "youtube": "None", "website": "None", "summary": "None", "logo": "None", "latitude": 43.61992013379295, "longitude": -79.71169319138427}, "119288918RR1518": {"name": "Sign Language Circuit 1B of Jehovah's Witnesses", "designationCode": "C", "categoryCode": "61", "address": "3371 DE PONTOISE", "city": "TROIS-RIVI\u00c8RES", "province": "QC", "country": "CA", "postalCode": "G8Y3K2", "twitter": "None", "instagram": "None", "facebook": "None", "youtube": "None", "website": "None", "summary": "None", "logo": "None", "latitude": 46.341182776299824, "longitude": -72.59864944035986}, "119288918RR1513": {"name": "Sign Language Congregation of Jehovah's Witnesses, Calgary, Alberta", "designationCode": "C", "categoryCode": "61", "address": "114-727 56 AVENUE SW", "city": "CALGARY", "province": "AB", "country": "CA", "postalCode": "T2V4Z8", "twitter": "None", "instagram": "None", "facebook": "None", "youtube": "None", "website": "None", "summary": "None", "logo": "None", "latitude": 51.0032964884588, "longitude": -114.08011191618097}, "119288918RR1515": {"name": "Sign Language Congregation of Jehovah's Witnesses, Edmonton, Alberta", "designationCode": "C", "categoryCode": "61", "address": "312-5220 RIVERBEND RD NW", "city": "EDMONTON", "province": "AB", "country": "CA", "postalCode": "T6C3W6", "twitter": "None", "instagram": "None", "facebook": "None", "youtube": "None", "website": "None", "summary": "None", "logo": "None", "latitude": 53.49045447827963, "longitude": -113.57820057146212}, "119288918RR1568": {"name": "Sign Language Congregation of Jehovah's Witnesses, Halifax, Nova Scotia", "designationCode": "C", "categoryCode": "61", "address": "6192 CHARLES STREET", "city": "HALIFAX", "province": "NS", "country": "CA", "postalCode": "B3K1L4", "twitter": "None", "instagram": "None", "facebook": "None", "youtube": "None", "website": "None", "summary": "None", "logo": "None", "latitude": 44.65140133498767, "longitude": -63.596556944197694}, "119288918RR1491": {"name": "Sign Language Congregation of Jehovah's Witnesses, Hamilton Ontario", "designationCode": "C", "categoryCode": "61", "address": "57 DELAWARE AVENUE", "city": "HAMILTON", "province": "ON", "country": "CA", "postalCode": "L8M1T6", "twitter": "None", "instagram": "None", "facebook": "None", "youtube": "None", "website": "None", "summary": "None", "logo": "None", "latitude": 43.24744402694886, "longitude": -79.84758410462238}, "119288918RR1550": {"name": "Sign Language Congregation of Jehovah's Witnesses, Victoria , British Columbia", "designationCode": "C", "categoryCode": "61", "address": "3067 TILLICUM ROAD", "city": "VICTORIA", "province": "BC", "country": "CA", "postalCode": "V9A2B2", "twitter": "None", "instagram": "None", "facebook": "None", "youtube": "None", "website": "None", "summary": "None", "logo": "None", "latitude": 48.45126940631321, "longitude": -123.3964516616368}, "119288918RR1484": {"name": "Sign Language Congregation of Jehovah's Witnesses, Winnipeg, Manitoba", "designationCode": "C", "categoryCode": "61", "address": "325 WALLASEY STREET", "city": "WINNIPEG", "province": "MB", "country": "CA", "postalCode": "R3J3C3", "twitter": "None", "instagram": "None", "facebook": "None", "youtube": "None", "website": "None", "summary": "None", "logo": "None", "latitude": 49.881094344711194, "longitude": -97.2648882795894}, "119288918RR1535": {"name": "Sign Language East Congregation of Jehovah's Witnesses, Toronto, Ontario", "designationCode": "C", "categoryCode": "61", "address": "1425 MORNINGSIDE AVENUE", "city": "TORONTO", "province": "ON", "country": "CA", "postalCode": "M1B3J1", "twitter": "None", "instagram": "None", "facebook": "None", "youtube": "None", "website": "None", "summary": "None", "logo": "None", "latitude": 43.811110581193304, "longitude": -79.20358869908858}, "119288918RR1060": {"name": "Sign Language West Congregation of Jehovah's Witnesses, Toronto, Ontario", "designationCode": "C", "categoryCode": "61", "address": "423 BURNHAMTHORPE ROAD", "city": "ETOBICOKE", "province": "ON", "country": "CA", "postalCode": "M9B2A9", "twitter": "None", "instagram": "None", "facebook": "None", "youtube": "None", "website": "None", "summary": "None", "logo": "None", "latitude": 43.64643018347844, "longitude": -79.55945578740833}, "118945369RR0001": {"name": "Signature Support Services Society", "designationCode": "C", "categoryCode": "11", "address": "8702 - 113 STREET", "city": "GRANDE PRAIRIE", "province": "AB", "country": "CA", "postalCode": "T8V6K5", "twitter": "None", "instagram": "None", "facebook": "None", "youtube": "None", "website": "None", "summary": "None", "logo": "None", "latitude": 55.15770953975468, "longitude": -118.8380171381778}, "829934066RR0001": {"name": "Signs of Hope in Africa", "designationCode": "C", "categoryCode": "09", "address": "433-1575 BEGBIE STREET", "city": "VICTORIA", "province": "BC", "country": "CA", "postalCode": "V8R1L2", "twitter": "None", "instagram": "None", "facebook": "None", "youtube": "None", "website": "None", "summary": "None", "logo": "None", "latitude": 48.4290632455714, "longitude": -123.33682439961945}, "845021005RR0001": {"name": "Signs Wonders and Miracles Ministry Inc.", "designationCode": "C", "categoryCode": "39", "address": "485 SILVERSTONE DRIVE", "city": "ETOBICOKE", "province": "ON", "country": "CA", "postalCode": "M9V3L4", "twitter": "None", "instagram": "None", "facebook": "None", "youtube": "None", "website": "None", "summary": "None", "logo": "None", "latitude": 43.73873551705246, "longitude": -79.59601428922599}, "819417635RR0001": {"name": "Sikh Heritage Museum of Canada", "designationCode": "C", "categoryCode": "50", "address": "2980 DREW ROAD,               UNIT 125", "city": "MISSISSAUGA", "province": "ON", "country": "CA", "postalCode": "L4T0A7", "twitter": "None", "instagram": "None", "facebook": "None", "youtube": "None", "website": "None", "summary": "None", "logo": "None", "latitude": 43.71070829387188, "longitude": -79.65274526721147}, "819021692RR0001": {"name": "Sikh Research Institute Canada", "designationCode": "C", "categoryCode": "29", "address": "SUITE 307-9825-140 STREET", "city": "SURREY", "province": "BC", "country": "CA", "postalCode": "V3T5M1", "twitter": "None", "instagram": "None", "facebook": "None", "youtube": "None", "website": "None", "summary": "None", "logo": "None", "latitude": 49.18123020483006, "longitude": -122.83435387013084}, "797476694RR0001": {"name": "Sikh Sangat of Canada", "designationCode": "C", "categoryCode": "62", "address": "1730 AIMCO BLVD,", "city": "MISSISSAUGA", "province": "ON", "country": "CA", "postalCode": "L4W1V1", "twitter": "None", "instagram": "None", "facebook": "None", "youtube": "None", "website": "None", "summary": "None", "logo": "None", "latitude": 43.64385898525617, "longitude": -79.619400203936}, "817873805RR0001": {"name": "Sikh Society of Niagara Falls (Ontario)", "designationCode": "C", "categoryCode": "62", "address": "8405 LUNDY'S LANE", "city": "NIAGARA FALLS", "province": "ON", "country": "CA", "postalCode": "L2H1H5", "twitter": "None", "instagram": "None", "facebook": "None", "youtube": "None", "website": "None", "summary": "None", "logo": "None", "latitude": 43.08880246104767, "longitude": -79.13884355398464}, "835703091RR0001": {"name": "Sikh Society of Vancouver", "designationCode": "C", "categoryCode": "62", "address": "212 - 12830 80 AVE", "city": "SURREY", "province": "BC", "country": "CA", "postalCode": "V3W3A8", "twitter": "None", "instagram": "None", "facebook": "None", "youtube": "None", "website": "None", "summary": "None", "logo": "None", "latitude": 49.148118525102525, "longitude": -122.86719352553521}, "119149961RR0001": {"name": "Sikh Society Regina Inc.", "designationCode": "C", "categoryCode": "62", "address": "PO BOX 20112                  CORNWALL CENTER", "city": "REGINA", "province": "SK", "country": "CA", "postalCode": "S4P4J7", "twitter": "None", "instagram": "None", "facebook": "None", "youtube": "None", "website": "None", "summary": "None", "logo": "None", "latitude": 50.449617, "longitude": -104.6123145}, "821583176RR0001": {"name": "Sikhi Awareness Foundation", "designationCode": "C", "categoryCode": "62", "address": "273 - 8128 128 ST", "city": "SURREY", "province": "BC", "country": "CA", "postalCode": "V3W1R1", "twitter": "None", "instagram": "None", "facebook": "None", "youtube": "None", "website": "None", "summary": "None", "logo": "None", "latitude": 49.150472526718644, "longitude": -122.86794847766836}, "815949607RR0001": {"name": "Silent Children's Mission", "designationCode": "C", "categoryCode": "09", "address": "RR1 - 16060 8TH CONC", "city": "SCHOMBERG", "province": "ON", "country": "CA", "postalCode": "L0G1T0", "twitter": "None", "instagram": "None", "facebook": "None", "youtube": "None", "website": "None", "summary": "None", "logo": "None", "latitude": 43.981429369957965, "longitude": -79.64608924545489}, "829529551RR0001": {"name": "Silicz Foundation Inc.", "designationCode": "B", "categoryCode": "23", "address": "1070 WELLINGTON CRESCENT", "city": "WINNIPEG", "province": "MB", "country": "CA", "postalCode": "R3M0E1", "twitter": "None", "instagram": "None", "facebook": "None", "youtube": "None", "website": "None", "summary": "None", "logo": "None", "latitude": 49.87717564749853, "longitude": -97.18144490579361}, "819840158RR0001": {"name": "Siloam World Wide Ministries", "designationCode": "C", "categoryCode": "39", "address": "767 ESPRIT CRESCENT", "city": "MISSISSAUGA", "province": "ON", "country": "CA", "postalCode": "L5R3B7", "twitter": "None", "instagram": "None", "facebook": "None", "youtube": "None", "website": "None", "summary": "None", "logo": "None", "latitude": 43.601947374978266, "longitude": -79.67994399336357}, "107980856RR0001": {"name": "Silver Creek Centre for Early Learning & Development", "designationCode": "C", "categoryCode": "20", "address": "65 HARTSDALE DRIVE", "city": "ETOBICOKE", "province": "ON", "country": "CA", "postalCode": "M9R2S8", "twitter": "None", "instagram": "None", "facebook": "None", "youtube": "None", "website": "None", "summary": "None", "logo": "None", "latitude": 43.68348150011556, "longitude": -79.54551690671725}, "782398929RR0001": {"name": "Silver Creek Charitable Trust", "designationCode": "B", "categoryCode": "45", "address": "3425 2 AVE S", "city": "LETHBRIDGE", "province": "AB", "country": "CA", "postalCode": "T1J4V1", "twitter": "None", "instagram": "None", "facebook": "None", "youtube": "None", "website": "None", "summary": "None", "logo": "None", "latitude": 49.696839530439966, "longitude": -112.78914308381903}, "832221907RR0001": {"name": "Silver Dollar Foundation/Fondation dollar d'argent", "designationCode": "B", "categoryCode": "03", "address": "1075 MOUNT-ROYAL BOULEVARD WES", "city": "MONTREAL", "province": "QC", "country": "CA", "postalCode": "H2V2H5", "twitter": "None", "instagram": "None", "facebook": "None", "youtube": "None", "website": "None", "summary": "None", "logo": "None", "latitude": 45.51466648600598, "longitude": -73.5931214686364}, "786845693RR0001": {"name": "Silver Gummy", "designationCode": "B", "categoryCode": "05", "address": "1900 - 520 3 AVE SW", "city": "CALGARY", "province": "AB", "country": "CA", "postalCode": "T2P0R3", "twitter": "None", "instagram": "None", "facebook": "None", "youtube": "None", "website": "None", "summary": "None", "logo": "None", "latitude": 51.050585259196545, "longitude": -114.07240492388776}, "131803009RR0001": {"name": "Silver Spire United Church", "designationCode": "C", "categoryCode": "44", "address": "366 SAINT PAUL ST", "city": "ST. CATHARINES", "province": "ON", "country": "CA", "postalCode": "L2R3N2", "twitter": "None", "instagram": "None", "facebook": "None", "youtube": "None", "website": "None", "summary": "None", "logo": "None", "latitude": 43.16044054896432, "longitude": -79.24139890905451}, "765472097RR0001": {"name": "Silver Spring Charitable Trust", "designationCode": "C", "categoryCode": "39", "address": "3425 2 AVE S", "city": "LETHBRIDGE", "province": "AB", "country": "CA", "postalCode": "T1J4V1", "twitter": "None", "instagram": "None", "facebook": "None", "youtube": "None", "website": "None", "summary": "None", "logo": "None", "latitude": 49.696839530439966, "longitude": -112.78914308381903}, "821268372RR0001": {"name": "Silver Springs Botanical Gardens Society", "designationCode": "C", "categoryCode": "50", "address": "5720 SILVER RIDGE DRIVE NW", "city": "CALGARY", "province": "AB", "country": "CA", "postalCode": "T3B5E3", "twitter": "None", "instagram": "None", "facebook": "None", "youtube": "None", "website": "None", "summary": "None", "logo": "None", "latitude": 51.10390044546709, "longitude": -114.1918112828207}, "107693913RR0001": {"name": "Silvera for Seniors", "designationCode": "C", "categoryCode": "10", "address": "804-7015 MACLEOD TRAIL SW", "city": "CALGARY", "province": "AB", "country": "CA", "postalCode": "T2H2K6", "twitter": "None", "instagram": "None", "facebook": "None", "youtube": "None", "website": "None", "summary": "None", "logo": "None", "latitude": 50.99439991848855, "longitude": -114.0716953460148}, "850137449RR0001": {"name": "Silverlines Philanthropy Corporation", "designationCode": "C", "categoryCode": "09", "address": "2081 SCULLY WAY", "city": "OTTAWA", "province": "ON", "country": "CA", "postalCode": "K4A4L9", "twitter": "None", "instagram": "None", "facebook": "None", "youtube": "None", "website": "None", "summary": "None", "logo": "None", "latitude": 45.472095629465144, "longitude": -75.45716720555119}, "119288918RR1387": {"name": "Silverthorn Congregation of Jehovah's Witnesses, Olds, Alberta", "designationCode": "C", "categoryCode": "61", "address": "5209 50 STREET", "city": "OLDS", "province": "AB", "country": "CA", "postalCode": "T4H1H2", "twitter": "None", "instagram": "None", "facebook": "None", "youtube": "None", "website": "None", "summary": "None", "logo": "None", "latitude": 51.792914682209016, "longitude": -114.11068782875526}, "896478757RR0001": {"name": "Simcoe County Christian Senior Home Inc.", "designationCode": "C", "categoryCode": "09", "address": "274 HURST DRIVE", "city": "BARRIE", "province": "ON", "country": "CA", "postalCode": "L4N0Z3", "twitter": "None", "instagram": "None", "facebook": "None", "youtube": "None", "website": "None", "summary": "None", "logo": "None", "latitude": 44.36873443164597, "longitude": -79.65645845371967}, "702510496RR0001": {"name": "Simcoe County YouthReach", "designationCode": "C", "categoryCode": "09", "address": "8 STEEL STREET PO BOX 212", "city": "BARRIE", "province": "ON", "country": "CA", "postalCode": "L4M2E5", "twitter": "None", "instagram": "None", "facebook": "None", "youtube": "None", "website": "None", "summary": "None", "logo": "None", "latitude": 44.402835456575616, "longitude": -79.67429140882336}, "822317160RR0001": {"name": "Siminovitch Prize Foundation", "designationCode": "C", "categoryCode": "25", "address": "MOUNT SINAI HOSPITAL          600 UNIVERSITY AVENUE RM 778D", "city": "TORONTO", "province": "ON", "country": "CA", "postalCode": "M5G1X5", "twitter": "None", "instagram": "None", "facebook": "None", "youtube": "None", "website": "None", "summary": "None", "logo": "None", "latitude": 43.65754994892962, "longitude": -79.38964001283921}, "827423971RR0001": {"name": "Simon Fraser Hockey Scholarship Society", "designationCode": "C", "categoryCode": "21", "address": "3676 KENSINGTON AVE", "city": "BURNABY", "province": "BC", "country": "CA", "postalCode": "V5B4Z6", "twitter": "None", "instagram": "None", "facebook": "None", "youtube": "None", "website": "None", "summary": "None", "logo": "None", "latitude": 49.25309966758827, "longitude": -122.96642521437684}, "816873020RR0001": {"name": "Simoniaques th\u00e9\u00e2tre", "designationCode": "C", "categoryCode": "22", "address": "4265 AV DE LORIMIER", "city": "MONTREAL", "province": "QC", "country": "CA", "postalCode": "H2H2A9", "twitter": "None", "instagram": "None", "facebook": "None", "youtube": "None", "website": "None", "summary": "None", "logo": "None", "latitude": 45.53336594061968, "longitude": -73.56853060961406}, "130565963RR0020": {"name": "Simple Church Network", "designationCode": "C", "categoryCode": "39", "address": "201-23RD STREET EAST", "city": "NORTH VANCOUVER", "province": "BC", "country": "CA", "postalCode": "V7L3E4", "twitter": "None", "instagram": "None", "facebook": "None", "youtube": "None", "website": "None", "summary": "None", "logo": "None", "latitude": 49.330181495672186, "longitude": -123.0684734701656}, "816143713RR0001": {"name": "Simple Dreams Ministries Ontario Inc.", "designationCode": "C", "categoryCode": "09", "address": "467 WEST GORE ST", "city": "STRATFORD", "province": "ON", "country": "CA", "postalCode": "N5A1L3", "twitter": "None", "instagram": "None", "facebook": "None", "youtube": "None", "website": "None", "summary": "None", "logo": "None", "latitude": 43.36667894281271, "longitude": -80.99572309215758}, "119048122RR0001": {"name": "Sinai Health System", "designationCode": "C", "categoryCode": "10", "address": "1 BRIDGEPOINT DR", "city": "TORONTO", "province": "ON", "country": "CA", "postalCode": "M4M2B5", "twitter": "None", "instagram": "None", "facebook": "None", "youtube": "None", "website": "None", "summary": "None", "logo": "None", "latitude": 43.666738405043226, "longitude": -79.35325395267145}, "837836352RR0001": {"name": "Sincere Care Society for the Elderly", "designationCode": "C", "categoryCode": "09", "address": "514 KEEFER STREET", "city": "VANCOUVER", "province": "BC", "country": "CA", "postalCode": "V6A1Y3", "twitter": "None", "instagram": "None", "facebook": "None", "youtube": "None", "website": "None", "summary": "None", "logo": "None"}, "829252766RR0001": {"name": "Sing for Life Society of Alberta", "designationCode": "C", "categoryCode": "22", "address": "PO BOX 52182", "city": "EDMONTON", "province": "AB", "country": "CA", "postalCode": "T6G2T5", "twitter": "None", "instagram": "None", "facebook": "None", "youtube": "None", "website": "None", "summary": "None", "logo": "None", "latitude": 53.54623500000005, "longitude": -113.49037249999994}, "819833054RR0001": {"name": "Sing for Your Life Foundation", "designationCode": "C", "categoryCode": "56", "address": "203-446 WEST AVE", "city": "KELOWNA", "province": "BC", "country": "CA", "postalCode": "V1Y4Z2", "twitter": "None", "instagram": "None", "facebook": "None", "youtube": "None", "website": "None", "summary": "None", "logo": "None", "latitude": 49.86483348990112, "longitude": -119.493072}, "854703014RR0001": {"name": "Sing Canada Harmony Scholarship Fund", "designationCode": "C", "categoryCode": "22", "address": "14 KINGSWOOD GATE", "city": "GUELPH", "province": "ON", "country": "CA", "postalCode": "N1G3S1", "twitter": "None", "instagram": "None", "facebook": "None", "youtube": "None", "website": "None", "summary": "None", "logo": "None", "latitude": 43.50791413768811, "longitude": -80.241844913411}, "834078883RR0001": {"name": "Sing! The Toronto Vocal Arts Festival", "designationCode": "C", "categoryCode": "22", "address": "22 RAINSFORD ROAD", "city": "TORONTO", "province": "ON", "country": "CA", "postalCode": "M4L3N4", "twitter": "None", "instagram": "None", "facebook": "None", "youtube": "None", "website": "None", "summary": "None", "logo": "None", "latitude": 43.66937801664842, "longitude": -79.30732629214019}, "806662805RR0001": {"name": "Single Mothers in Progress", "designationCode": "C", "categoryCode": "09", "address": "44 ELNATHAN CRES", "city": "NORTH YORK", "province": "ON", "country": "CA", "postalCode": "M9L2G1", "twitter": "None", "instagram": "None", "facebook": "None", "youtube": "None", "website": "None", "summary": "None", "logo": "None", "latitude": 43.75779287454558, "longitude": -79.56738272274788}, "836957431RR0001": {"name": "Single Mothers Inspiring Leadership in Education", "designationCode": "C", "categoryCode": "09", "address": "230 SANDALWOOD PARKWAY        PO BOX 41501 HEART LAKE PO", "city": "BRAMPTON", "province": "ON", "country": "CA", "postalCode": "L6Z1R3", "twitter": "None", "instagram": "None", "facebook": "None", "youtube": "None", "website": "None", "summary": "None", "logo": "None", "latitude": 43.73045281046205, "longitude": -79.78977413465834}, "849518931RR0001": {"name": "Singyourjoy Young Adult Chorus Society", "designationCode": "C", "categoryCode": "22", "address": "1355 MITCHELL ST", "city": "VICTORIA", "province": "BC", "country": "CA", "postalCode": "V8S4P9", "twitter": "None", "instagram": "None", "facebook": "None", "youtube": "None", "website": "None", "summary": "None", "logo": "None", "latitude": 48.42468933527613, "longitude": -123.32057212167484}, "818402414RR0001": {"name": "Sioux Lookout Meno-Ya-Win Health Centre", "designationCode": "C", "categoryCode": "11", "address": "P.O. BOX 909", "city": "SIOUX LOOKOUT", "province": "ON", "country": "CA", "postalCode": "P8T1B4", "twitter": "None", "instagram": "None", "facebook": "None", "youtube": "None", "website": "None", "summary": "None", "logo": "None", "latitude": 50.09808300000006, "longitude": -91.91503249999994}, "881545446RR0001": {"name": "Sioux Lookout Meno-Ya-Win Health Centre Foundation", "designationCode": "A", "categoryCode": "13", "address": "PO BOX 909                    1 MONO YA WIN WAY", "city": "SIOUX LOOKOUT", "province": "ON", "country": "CA", "postalCode": "P8T1B4", "twitter": "None", "instagram": "None", "facebook": "None", "youtube": "None", "website": "None", "summary": "None", "logo": "None", "latitude": 50.09808300000006, "longitude": -91.91503249999994}, "849414461RR0001": {"name": "Sir William Van Horne Elementary School Parent Advisory Council (School District No. 39)", "designationCode": "C", "categoryCode": "21", "address": "5855 ONTARIO STREET", "city": "VANCOUVER", "province": "BC", "country": "CA", "postalCode": "V5W2L8", "twitter": "None", "instagram": "None", "facebook": "None", "youtube": "None", "website": "None", "summary": "None", "logo": "None", "latitude": 49.23178200000001, "longitude": -123.10574305839845}, "842324139RR0001": {"name": "Sir Winston Churchill Secondary School Alumni Association", "designationCode": "C", "categoryCode": "21", "address": "101 GLEN MORRIS DRIVE", "city": "ST. CATHARINES", "province": "ON", "country": "CA", "postalCode": "L2T2N1", "twitter": "None", "instagram": "None", "facebook": "None", "youtube": "None", "website": "None", "summary": "None", "logo": "None", "latitude": 43.14028744950555, "longitude": -79.23026563561062}, "815294046RR0001": {"name": "Sirimangalo International Buddhist Meditation Society Inc.", "designationCode": "C", "categoryCode": "35", "address": "31 BEAUCOURT RD", "city": "HAMILTON", "province": "ON", "country": "CA", "postalCode": "L8S2R1", "twitter": "None", "instagram": "None", "facebook": "None", "youtube": "None", "website": "None", "summary": "None", "logo": "None", "latitude": 43.2507617510244, "longitude": -79.93649912738765}, "816200935RR0001": {"name": "Sistema Huronia Music Academy", "designationCode": "C", "categoryCode": "22", "address": "PO BOX 402", "city": "MIDLAND", "province": "ON", "country": "CA", "postalCode": "L4R4L1", "twitter": "None", "instagram": "None", "facebook": "None", "youtube": "None", "website": "None", "summary": "None", "logo": "None", "latitude": 44.74989600000005, "longitude": -79.88850349999993}, "819256603RR0001": {"name": "Sistema Toronto Academy", "designationCode": "C", "categoryCode": "22", "address": "210 - 3300 YONGE ST", "city": "TORONTO", "province": "ON", "country": "CA", "postalCode": "M4N2L6", "twitter": "None", "instagram": "None", "facebook": "None", "youtube": "None", "website": "None", "summary": "None", "logo": "None", "latitude": 43.73059056841135, "longitude": -79.40367870416623}, "891619868RR0001": {"name": "Sisters of the Sacred Heart of Ragusa", "designationCode": "C", "categoryCode": "20", "address": "1 EDWARD ST", "city": "WELLAND", "province": "ON", "country": "CA", "postalCode": "L3C5H2", "twitter": "None", "instagram": "None", "facebook": "None", "youtube": "None", "website": "None", "summary": "None", "logo": "None", "latitude": 42.988314659415096, "longitude": -79.25455586343708}, "119151199RR0001": {"name": "Sisters of Charity - Caritas Retirement Centre", "designationCode": "C", "categoryCode": "46", "address": "215 SETON ROAD", "city": "HALIFAX", "province": "NS", "country": "CA", "postalCode": "B3M0C9", "twitter": "None", "instagram": "None", "facebook": "None", "youtube": "None", "website": "None", "summary": "None", "logo": "None", "latitude": 44.66916954180828, "longitude": -63.648298608372365}, "802625384RR0001": {"name": "Sisters of Divine Mercy, Calgary", "designationCode": "C", "categoryCode": "49", "address": "15206A TOWNSHIP ROAD 262", "city": "CALGARY", "province": "AB", "country": "CA", "postalCode": "T3P1A7", "twitter": "None", "instagram": "None", "facebook": "None", "youtube": "None", "website": "None", "summary": "None", "logo": "None", "latitude": 51.23949000000006, "longitude": -114.14022199999994}, "807557624RR0001": {"name": "Sisters of Life - Canada", "designationCode": "C", "categoryCode": "49", "address": "172 LESLIE STREET", "city": "TORONTO", "province": "ON", "country": "CA", "postalCode": "M4M3C7", "twitter": "None", "instagram": "None", "facebook": "None", "youtube": "None", "website": "None", "summary": "None", "logo": "None", "latitude": 43.66524896557799, "longitude": -79.33112571221629}, "835551441RR0001": {"name": "Sisters of Our Lady Spouse of the Holy Spirit", "designationCode": "C", "categoryCode": "46", "address": "7 - 54 ARGYLE ST S", "city": "CALEDONIA", "province": "ON", "country": "CA", "postalCode": "N3W1H9", "twitter": "None", "instagram": "None", "facebook": "None", "youtube": "None", "website": "None", "summary": "None", "logo": "None", "latitude": 43.059982423749744, "longitude": -79.96327092244705}, "835944240RR0001": {"name": "Sit With Me Rescue", "designationCode": "C", "categoryCode": "54", "address": "PO BOX 81101", "city": "OTTAWA", "province": "ON", "country": "CA", "postalCode": "K1P1B1", "twitter": "None", "instagram": "None", "facebook": "None", "youtube": "None", "website": "None", "summary": "None", "logo": "None", "latitude": 45.42177300000006, "longitude": -75.69115999999994}, "866114317RR0001": {"name": "Six Nations Polytechnic Inc.", "designationCode": "C", "categoryCode": "20", "address": "2160 FOURTH LINE              PO BOX 700", "city": "OHSWEKEN", "province": "ON", "country": "CA", "postalCode": "N0A1M0", "twitter": "None", "instagram": "None", "facebook": "None", "youtube": "None", "website": "None", "summary": "None", "logo": "None", "latitude": 43.06156282026723, "longitude": -80.09878123533505}, "818588956RR0001": {"name": "Sjogren's Society of Canada/Societe de Sjogrens du Canada", "designationCode": "C", "categoryCode": "11", "address": "304 - 31 MECHANIC ST", "city": "PARIS", "province": "ON", "country": "CA", "postalCode": "N3L1K1", "twitter": "None", "instagram": "None", "facebook": "None", "youtube": "None", "website": "None", "summary": "None", "logo": "None", "latitude": 43.19201139604145, "longitude": -80.38536317387047}, "823490743RR0001": {"name": "Skate for Kids", "designationCode": "A", "categoryCode": "03", "address": "401-55 ST CLAIR AVE WEST", "city": "TORONTO", "province": "ON", "country": "CA", "postalCode": "M4V2Y7", "twitter": "None", "instagram": "None", "facebook": "None", "youtube": "None", "website": "None", "summary": "None", "logo": "None", "latitude": 43.68788710460182, "longitude": -79.39487415272116}, "820427284RR0001": {"name": "Skate to Great Program", "designationCode": "C", "categoryCode": "09", "address": "101 - 40 HOLLY ST", "city": "TORONTO", "province": "ON", "country": "CA", "postalCode": "M4S3C3", "twitter": "None", "instagram": "None", "facebook": "None", "youtube": "None", "website": "None", "summary": "None", "logo": "None", "latitude": 43.705497248398686, "longitude": -79.39626571083132}, "802886846RR0001": {"name": "SkateABLE", "designationCode": "C", "categoryCode": "56", "address": "308 - 50 OTTAWA ST S", "city": "KITCHENER", "province": "ON", "country": "CA", "postalCode": "N2G3S7", "twitter": "None", "instagram": "None", "facebook": "None", "youtube": "None", "website": "None", "summary": "None", "logo": "None", "latitude": 43.440078990870376, "longitude": -80.47341334842217}, "807477278RR0001": {"name": "Skeena Diversity Society", "designationCode": "C", "categoryCode": "22", "address": "PO BOX 665                    STN MAIN", "city": "TERRACE", "province": "BC", "country": "CA", "postalCode": "V8G4B8", "twitter": "None", "instagram": "None", "facebook": "None", "youtube": "None", "website": "None", "summary": "None", "logo": "None", "latitude": 54.51590400000006, "longitude": -128.60321299999993}, "130463573RR0001": {"name": "Skeena Ice Arena Association", "designationCode": "C", "categoryCode": "56", "address": "2755 62 HWY", "city": "HAZELTON", "province": "BC", "country": "CA", "postalCode": "V0J1Y1", "twitter": "None", "instagram": "None", "facebook": "None", "youtube": "None", "website": "None", "summary": "None", "logo": "None", "latitude": 55.26246874603076, "longitude": -127.64766853185908}, "832887814RR0001": {"name": "SkeenaWild Conservation Trust", "designationCode": "C", "categoryCode": "55", "address": "103 - 4622 GREIG AVE", "city": "TERRACE", "province": "BC", "country": "CA", "postalCode": "V8G1M9", "twitter": "None", "instagram": "None", "facebook": "None", "youtube": "None", "website": "None", "summary": "None", "logo": "None", "latitude": 54.515867502728966, "longitude": -128.58735907065397}, "824169874RR0001": {"name": "Skeleton Lake Stewardship Association", "designationCode": "C", "categoryCode": "59", "address": "#201-265 CARLETON DRIVE", "city": "ST.ALBERT", "province": "AB", "country": "CA", "postalCode": "T8N4J9", "twitter": "None", "instagram": "None", "facebook": "None", "youtube": "None", "website": "None", "summary": "None", "logo": "None", "latitude": 53.649055608227194, "longitude": -113.56755040812428}, "799245923RR0001": {"name": "Skeleton Park Arts Festival", "designationCode": "C", "categoryCode": "22", "address": "120 PRINCESS STREET,          2ND FLOOR", "city": "KINGSTON", "province": "ON", "country": "CA", "postalCode": "K7L5M6", "twitter": "None", "instagram": "None", "facebook": "None", "youtube": "None", "website": "None", "summary": "None", "logo": "None", "latitude": 44.23166965609687, "longitude": -76.48319650167345}, "820671568RR0001": {"name": "Skilled Volunteers for Israel (Canada)", "designationCode": "C", "categoryCode": "09", "address": "1204 - 55 PRINCE ARTHUR AVE", "city": "TORONTO", "province": "ON", "country": "CA", "postalCode": "M5R1B3", "twitter": "None", "instagram": "None", "facebook": "None", "youtube": "None", "website": "None", "summary": "None", "logo": "None", "latitude": 43.66913276545114, "longitude": -79.39828698958398}, "823315965RR0001": {"name": "Skills For Hope Foundation", "designationCode": "B", "categoryCode": "21", "address": "11-2250 BELLEVUE AVENUE", "city": "WEST VANCOUVER", "province": "BC", "country": "CA", "postalCode": "V7V1C6", "twitter": "None", "instagram": "None", "facebook": "None", "youtube": "None", "website": "None", "summary": "None", "logo": "None", "latitude": 49.331131921720896, "longitude": -123.1734028286397}, "812317980RR0001": {"name": "Skin Cancer Canada/Cancer de la Peau Canada", "designationCode": "C", "categoryCode": "11", "address": "907-38 THE ESPLANADE", "city": "TORONTO", "province": "ON", "country": "CA", "postalCode": "M5E1A5", "twitter": "None", "instagram": "None", "facebook": "None", "youtube": "None", "website": "None", "summary": "None", "logo": "None", "latitude": 43.646717984476744, "longitude": -79.37450602236123}, "854211406RR0001": {"name": "Skookumchuck Heritage Society", "designationCode": "C", "categoryCode": "50", "address": "16562 TIMBERLINE ROAD", "city": "MADEIRA PARK", "province": "BC", "country": "CA", "postalCode": "V0N2H4", "twitter": "None", "instagram": "None", "facebook": "None", "youtube": "None", "website": "None", "summary": "None", "logo": "None", "latitude": 49.75203345406544, "longitude": -124.0110182906979}, "119151694RR0001": {"name": "Skudesnes Lutheran Church", "designationCode": "C", "categoryCode": "32", "address": "BOX 100", "city": "LOREBURN", "province": "SK", "country": "CA", "postalCode": "S0H2S0", "twitter": "None", "instagram": "None", "facebook": "None", "youtube": "None", "website": "None", "summary": "None", "logo": "None", "latitude": 51.216770000000054, "longitude": -106.60125}, "760937698RR0001": {"name": "Skunk's Academy", "designationCode": "C", "categoryCode": "11", "address": "17 BURLAND ST", "city": "OTTAWA", "province": "ON", "country": "CA", "postalCode": "K2B6J7", "twitter": "None", "instagram": "None", "facebook": "None", "youtube": "None", "website": "None", "summary": "None", "logo": "None", "latitude": 45.35784231447278, "longitude": -75.80623157643278}, "820096139RR0001": {"name": "Sky Light Charitable Trust", "designationCode": "B", "categoryCode": "45", "address": "PO BOX 1443", "city": "VULCAN", "province": "AB", "country": "CA", "postalCode": "T0L2B0", "twitter": "None", "instagram": "None", "facebook": "None", "youtube": "None", "website": "None", "summary": "None", "logo": "None", "latitude": 50.39734000000004, "longitude": -113.25817999999998}, "784820524RR0001": {"name": "Skyline Foundation", "designationCode": "B", "categoryCode": "03", "address": "301 - 5 DOUGLAS ST", "city": "GUELPH", "province": "ON", "country": "CA", "postalCode": "N1H2S8", "twitter": "None", "instagram": "None", "facebook": "None", "youtube": "None", "website": "None", "summary": "None", "logo": "None", "latitude": 43.54656182653355, "longitude": -80.24887940437998}, "808145668RR0001": {"name": "Skyview Charitable Trust", "designationCode": "B", "categoryCode": "45", "address": "780 SASKATCHEWAN AVE W", "city": "PORTAGE LA PRAIRIE", "province": "MB", "country": "CA", "postalCode": "R1N0M7", "twitter": "None", "instagram": "None", "facebook": "None", "youtube": "None", "website": "None", "summary": "None", "logo": "None", "latitude": 49.97373494820344, "longitude": -98.30132080652011}, "131948366RR0001": {"name": "Skyway to Heaven Church Inc.", "designationCode": "C", "categoryCode": "39", "address": "125 MAHER ST", "city": "MIRAMICHI", "province": "NB", "country": "CA", "postalCode": "E1N4B4", "twitter": "None", "instagram": "None", "facebook": "None", "youtube": "None", "website": "None", "summary": "None", "logo": "None", "latitude": 47.01556963274056, "longitude": -65.44820204098765}, "107396905RR0028": {"name": "Skyway Chapel", "designationCode": "C", "categoryCode": "39", "address": "371 MACINTOSH DR", "city": "STONEY CREEK", "province": "ON", "country": "CA", "postalCode": "L8E4E1", "twitter": "None", "instagram": "None", "facebook": "None", "youtube": "None", "website": "None", "summary": "None", "logo": "None", "latitude": 43.22319326008409, "longitude": -79.71241874104108}, "888707593RR0001": {"name": "Skyway Christian Assembly", "designationCode": "C", "categoryCode": "39", "address": "PO BOX 73003WHITE SHIELDS     2300 LAWRENCE AVENUE EAST", "city": "SCARBOROUGH", "province": "ON", "country": "CA", "postalCode": "M1P4Z5", "twitter": "None", "instagram": "None", "facebook": "None", "youtube": "None", "website": "None", "summary": "None", "logo": "None", "latitude": 43.7492616812254, "longitude": -79.27658929999521}, "811579382RR0001": {"name": "Slave Lake Dog Park Society", "designationCode": "C", "categoryCode": "56", "address": "716 4 AVE NE", "city": "SLAVE LAKE", "province": "AB", "country": "CA", "postalCode": "T0G2A2", "twitter": "None", "instagram": "None", "facebook": "None", "youtube": "None", "website": "None", "summary": "None", "logo": "None", "latitude": 55.285107525967916, "longitude": -114.75960227699233}, "893675322RR0001": {"name": "Slavic Branch of the Pentecostal Assemblies of Canada", "designationCode": "C", "categoryCode": "36", "address": "118 NINTH STREET", "city": "TORONTO", "province": "ON", "country": "CA", "postalCode": "M8V3E4", "twitter": "None", "instagram": "None", "facebook": "None", "youtube": "None", "website": "None", "summary": "None", "logo": "None", "latitude": 43.599951, "longitude": -79.50754786842735}, "843453291RR0001": {"name": "Slavic Evangelical Baptist Church of St. Catharines", "designationCode": "C", "categoryCode": "39", "address": "4519 PETTIT AVE", "city": "NIAGARA FALLS", "province": "ON", "country": "CA", "postalCode": "L2E6K9", "twitter": "None", "instagram": "None", "facebook": "None", "youtube": "None", "website": "None", "summary": "None", "logo": "None", "latitude": 43.10768713627445, "longitude": -79.10579765479787}, "812070308RR0001": {"name": "Slavic Full Gospel Church, Brantford Ontario", "designationCode": "C", "categoryCode": "36", "address": "70 SUPERIOR ST", "city": "BRANTFORD", "province": "ON", "country": "CA", "postalCode": "N3S2K4", "twitter": "None", "instagram": "None", "facebook": "None", "youtube": "None", "website": "None", "summary": "None", "logo": "None", "latitude": 43.13021587428579, "longitude": -80.25466664830658}, "848535431RR0001": {"name": "Slawa Foundation", "designationCode": "A", "categoryCode": "03", "address": "SUITE 1165                    5328 CALGARY TRAIL NW", "city": "EDMONTON", "province": "AB", "country": "CA", "postalCode": "T6H4J8", "twitter": "None", "instagram": "None", "facebook": "None", "youtube": "None", "website": "None", "summary": "None", "logo": "None", "latitude": 53.49123769080735, "longitude": -113.49539595798925}, "809493430RR0001": {"name": "Sloane's House Pediatric Recreation and Respite Care Centre Inc.", "designationCode": "C", "categoryCode": "01", "address": "130 EASTBOURNE AVE", "city": "TORONTO", "province": "ON", "country": "CA", "postalCode": "M5P2G6", "twitter": "None", "instagram": "None", "facebook": "None", "youtube": "None", "website": "None", "summary": "None", "logo": "None", "latitude": 43.70371820260834, "longitude": -79.40428694477461}}