{"893351569RR0001": {"name": "THE INTERIOR DESIGNERS OF CANADA FOUNDATION/LA FONDATION DES DESIGNERS D'INTERIEUR DU CANADA", "designationCode": "C", "categoryCode": "23", "address": "C536-43 HANNA AVENUE", "city": "TORONTO", "province": "ON", "country": "CA", "postalCode": "M6K1X1", "twitter": "None", "instagram": "None", "facebook": "None", "youtube": "None", "website": "None", "summary": "None", "logo": "None", "latitude": 43.63904826700901, "longitude": -79.41972600438608}, "119324812RR0001": {"name": "THE INTERIOR PROVINCIAL EXHIBITION ASSOCIATION, ARMSTRONG, B.C.", "designationCode": "C", "categoryCode": "56", "address": "PO BOX 490", "city": "ARMSTRONG", "province": "BC", "country": "CA", "postalCode": "V0E1B0", "twitter": "None", "instagram": "None", "facebook": "None", "youtube": "None", "website": "None", "summary": "None", "logo": "None", "latitude": 50.44798500000006, "longitude": -119.19492799999993}, "892930165RR0001": {"name": "THE INTERLAKE COMMUNITY FOUNDATION INC.", "designationCode": "A", "categoryCode": "53", "address": "BOX 1575", "city": "STONEWALL", "province": "MB", "country": "CA", "postalCode": "R0C2Z0", "twitter": "None", "instagram": "None", "facebook": "None", "youtube": "None", "website": "None", "summary": "None", "logo": "None", "latitude": 50.36947800000006, "longitude": -96.84479599999993}, "107510299RR0001": {"name": "THE INTERLAKE SCHOOL DIVISION NO. 21", "designationCode": "C", "categoryCode": "20", "address": "192-2ND AVENUE NORTH", "city": "STONEWALL", "province": "MB", "country": "CA", "postalCode": "R0C2Z0", "twitter": "None", "instagram": "None", "facebook": "None", "youtube": "None", "website": "None", "summary": "None", "logo": "None", "latitude": 50.13764652452563, "longitude": -97.31847213918864}, "108084906RR0001": {"name": "THE INTERNATIONAL BUDDHIST SOCIETY", "designationCode": "C", "categoryCode": "35", "address": "9160 STEVESTON HIGHWAY", "city": "RICHMOND", "province": "BC", "country": "CA", "postalCode": "V7A1M5", "twitter": "None", "instagram": "None", "facebook": "None", "youtube": "None", "website": "None", "summary": "None", "logo": "None", "latitude": 49.133438469560026, "longitude": -123.12171000000001}, "890439060RR0001": {"name": "THE INTERNATIONAL CENTRE FOR CRIMINAL LAW REFORM AND CRIMINAL JUSTICE POLICY", "designationCode": "C", "categoryCode": "21", "address": "1822 EAST MALL", "city": "VANCOUVER", "province": "BC", "country": "CA", "postalCode": "V6T1Z1", "twitter": "None", "instagram": "None", "facebook": "None", "youtube": "None", "website": "None", "summary": "None", "logo": "None", "latitude": 49.269845295346215, "longitude": -123.25376330810536}, "857133078RR0001": {"name": "THE INTERNATIONAL DYSLEXIA ASSOCIATION, ONTARIO BRANCH (FOUNDED IN MEMORY OF SAMUEL T. ORTON)", "designationCode": "C", "categoryCode": "23", "address": "115 HANNA RD", "city": "TORONTO", "province": "ON", "country": "CA", "postalCode": "M4G3N5", "twitter": "None", "instagram": "None", "facebook": "None", "youtube": "None", "website": "None", "summary": "None", "logo": "None", "latitude": 43.70702787676729, "longitude": -79.36954469467383}, "890421597RR0001": {"name": "THE INTERNATIONAL FESTIVAL OF SONG AND CHAMBER MUSIC SOCIETY", "designationCode": "C", "categoryCode": "22", "address": "PO BOX 38111 RPO COUNTRY HILLS", "city": "CALGARY", "province": "AB", "country": "CA", "postalCode": "T3K5G9", "twitter": "None", "instagram": "None", "facebook": "None", "youtube": "None", "website": "None", "summary": "None", "logo": "None", "latitude": 51.15431904267703, "longitude": -114.01756643016488}, "119238483RR0001": {"name": "THE INTERNATIONAL GRENFELL ASSOCIATION", "designationCode": "A", "categoryCode": "10", "address": "202-120 STAVINGER DRIVE", "city": "ST JOHN'S", "province": "NL", "country": "CA", "postalCode": "A1A5E8", "twitter": "None", "instagram": "None", "facebook": "None", "youtube": "None", "website": "None", "summary": "None", "logo": "None", "latitude": 47.61876535163609, "longitude": -52.71351103491297}, "832236541RR0001": {"name": "THE INTERNATIONAL MINISTRY OF INTIMACY WITH THE FATHER", "designationCode": "C", "categoryCode": "47", "address": "1569 GLENBURNIE RD", "city": "MISSISSAUGA", "province": "ON", "country": "CA", "postalCode": "L5G3C9", "twitter": "None", "instagram": "None", "facebook": "None", "youtube": "None", "website": "None", "summary": "None", "logo": "None", "latitude": 43.564013536528144, "longitude": -79.60000628625448}, "885576132RR0001": {"name": "THE INTERNATIONAL NAPOLEONIC SOCIETY/LA SOCIETE NAPOLEONIENNE INTERNATIONALE", "designationCode": "B", "categoryCode": "21", "address": "100 - 5415 RUE PARE", "city": "MONT-ROYAL", "province": "QC", "country": "CA", "postalCode": "H4P1P7", "twitter": "None", "instagram": "None", "facebook": "None", "youtube": "None", "website": "None", "summary": "None", "logo": "None", "latitude": 45.494311042212296, "longitude": -73.65780011189308}, "119238525RR0001": {"name": "THE INTERNATIONAL ORDER OF ST LUKE THE PHYSICIAN - REGION 8 ONTARIO CANADA", "designationCode": "C", "categoryCode": "39", "address": "GENERAL DELIVERY", "city": "WOODVIEW", "province": "ON", "country": "CA", "postalCode": "K0L3E0", "twitter": "None", "instagram": "None", "facebook": "None", "youtube": "None", "website": "None", "summary": "None", "logo": "None", "latitude": 45.061635715884144, "longitude": -77.85318289856535}, "879896512RR0001": {"name": "THE INTERNATIONAL ORDER OF ST. LUKE THE PHYSICIAN - PENTICTON CHAPTER", "designationCode": "C", "categoryCode": "39", "address": "150 ORCHARD AVE.", "city": "PENTICTON", "province": "BC", "country": "CA", "postalCode": "V2A1X8", "twitter": "None", "instagram": "None", "facebook": "None", "youtube": "None", "website": "None", "summary": "None", "logo": "None", "latitude": 49.49470875491956, "longitude": -119.59258400499166}, "889151379RR0001": {"name": "THE INTERNATIONAL PERMANENT COMMITTEE ON EPHEMEROPTERA SCHOLARSHIP FUND", "designationCode": "C", "categoryCode": "21", "address": "18 CURRIE CRES", "city": "ISLAND VIEW", "province": "NB", "country": "CA", "postalCode": "E3E1A1", "twitter": "None", "instagram": "None", "facebook": "None", "youtube": "None", "website": "None", "summary": "None", "logo": "None", "latitude": 45.966546568382704, "longitude": -66.78758964057363}, "119238558RR0001": {"name": "THE INTERNATIONAL SOCIETY FOR HEART RESEARCH", "designationCode": "C", "categoryCode": "11", "address": "2300-360 MAIN STREET", "city": "WINNIPEG", "province": "MB", "country": "CA", "postalCode": "R3C3Z3", "twitter": "None", "instagram": "None", "facebook": "None", "youtube": "None", "website": "None", "summary": "None", "logo": "None", "latitude": 49.89459781320337, "longitude": -97.1381563866637}, "118971019RR0001": {"name": "THE INTERNATIONAL SOCIETY FOR KRISHNA CONSCIOUSNESS CANADA INC. LA SOCIETE INTERNATIONAL POUR LA CONSCIENCE KRISHNA CANADA INC.", "designationCode": "C", "categoryCode": "39", "address": "1626 PIE-1X BOULEVARD", "city": "MONTREAL", "province": "QC", "country": "CA", "postalCode": "H1V2C5", "twitter": "None", "instagram": "None", "facebook": "None", "youtube": "None", "website": "None", "summary": "None", "logo": "None", "latitude": 45.54930300000005, "longitude": -73.53841399999993}, "108098997RR0001": {"name": "THE INTERNATIONAL SOCIETY FOR THE REFORM OF CRIMINAL LAW", "designationCode": "C", "categoryCode": "21", "address": "1000-840 HOWE STREET", "city": "VANCOUVER", "province": "BC", "country": "CA", "postalCode": "V6Z2M1", "twitter": "None", "instagram": "None", "facebook": "None", "youtube": "None", "website": "None", "summary": "None", "logo": "None", "latitude": 49.28130075546782, "longitude": -123.12181391046815}, "133617100RR0001": {"name": "THE INTERNATIONAL SPIRITUALIST ALLIANCE", "designationCode": "C", "categoryCode": "39", "address": "201-317 COLUMBIA ST", "city": "NEW WESTMINSTER", "province": "BC", "country": "CA", "postalCode": "V3L1A7", "twitter": "None", "instagram": "None", "facebook": "None", "youtube": "None", "website": "None", "summary": "None", "logo": "None"}, "129746087RR0001": {"name": "THE INTERNATIONAL SYMPHONY ORCHESTRA OF SARNIA AND PORT HURON", "designationCode": "C", "categoryCode": "22", "address": "251 VIDAL ST N", "city": "SARNIA", "province": "ON", "country": "CA", "postalCode": "N7T5Y5", "twitter": "None", "instagram": "None", "facebook": "None", "youtube": "None", "website": "None", "summary": "None", "logo": "None", "latitude": 42.975721568512256, "longitude": -82.40444665998304}, "119238574RR0001": {"name": "THE INTERNATIONAL WINE & FOOD FOUNDATION OF CANADA", "designationCode": "C", "categoryCode": "21", "address": "1402-39 OLD MILL ROAD", "city": "TORONTO", "province": "ON", "country": "CA", "postalCode": "M8X1G8", "twitter": "None", "instagram": "None", "facebook": "None", "youtube": "None", "website": "None", "summary": "None", "logo": "None", "latitude": 43.65116252669, "longitude": -79.49388553817293}, "119221646RR0001": {"name": "THE INTERSECT YOUTH AND FAMILY SERVICES SOCIETY", "designationCode": "C", "categoryCode": "59", "address": "1294 3RD AVE", "city": "PRINCE GEORGE", "province": "BC", "country": "CA", "postalCode": "V2L3E7", "twitter": "None", "instagram": "None", "facebook": "None", "youtube": "None", "website": "None", "summary": "None", "logo": "None", "latitude": 53.91703818837104, "longitude": -122.74585498335384}, "891323362RR0001": {"name": "THE INTREPID SOCIETY INC.", "designationCode": "C", "categoryCode": "50", "address": "180 KINGSWAY", "city": "WINNIPEG", "province": "MB", "country": "CA", "postalCode": "R3M0H2", "twitter": "None", "instagram": "None", "facebook": "None", "youtube": "None", "website": "None", "summary": "None", "logo": "None"}, "874187768RR0001": {"name": "THE IRA GLUSKIN AND MAXINE GRANOVSKY GLUSKIN CHARITABLE FOUNdation", "designationCode": "B", "categoryCode": "05", "address": "1104 - 22 ST CLAIR AVE E", "city": "TORONTO", "province": "ON", "country": "CA", "postalCode": "M4T2S3", "twitter": "None", "instagram": "None", "facebook": "None", "youtube": "None", "website": "None", "summary": "None", "logo": "None", "latitude": 43.690058011175346, "longitude": -79.38485244552025}, "899432314RR0001": {"name": "THE IRANIAN-CANADIAN BENEVOLENT FOUNDATION", "designationCode": "B", "categoryCode": "09", "address": "610 1111 MELVILLE ST", "city": "VANCOUVER", "province": "BC", "country": "CA", "postalCode": "V6E3V6", "twitter": "None", "instagram": "None", "facebook": "None", "youtube": "None", "website": "None", "summary": "None", "logo": "None", "latitude": 49.28672437942168, "longitude": -123.12237763639003}, "119238624RR0001": {"name": "THE IRAQI JEWISH ASSOCIATION OF ONTARIO", "designationCode": "C", "categoryCode": "49", "address": "7026 BATHURST ST", "city": "THORNHILL", "province": "ON", "country": "CA", "postalCode": "L4J8K3", "twitter": "None", "instagram": "None", "facebook": "None", "youtube": "None", "website": "None", "summary": "None", "logo": "None", "latitude": 43.79461578322474, "longitude": -79.44626688796176}, "124640889RR0001": {"name": "THE IRELAND FUND OF CANADA-LE FONDS IRLANDE DU CANADA", "designationCode": "C", "categoryCode": "09", "address": "1620 - 44 VICTORIA ST", "city": "TORONTO", "province": "ON", "country": "CA", "postalCode": "M5C1Y2", "twitter": "None", "instagram": "None", "facebook": "None", "youtube": "None", "website": "None", "summary": "None", "logo": "None", "latitude": 43.65039498389985, "longitude": -79.3771861788908}, "861020816RR0001": {"name": "THE IRIS FOUNDATION FOR EDUCATION", "designationCode": "C", "categoryCode": "02", "address": "1871 GROVES RD                RR 2", "city": "RUSSELL", "province": "ON", "country": "CA", "postalCode": "K4R1E5", "twitter": "None", "instagram": "None", "facebook": "None", "youtube": "None", "website": "None", "summary": "None", "logo": "None", "latitude": 45.21742390510113, "longitude": -75.31806088793404}, "892423963RR0001": {"name": "THE IRISH BENEVOLENT SOCIETY OF TORONTO", "designationCode": "C", "categoryCode": "09", "address": "P.O BOX 144                   2967 DUNDAS ST. WEST", "city": "TORONTO", "province": "ON", "country": "CA", "postalCode": "M6P1Z2", "twitter": "None", "instagram": "None", "facebook": "None", "youtube": "None", "website": "None", "summary": "None", "logo": "None", "latitude": 43.66542546681874, "longitude": -79.46809127699233}, "865509947RR0001": {"name": "THE IRMA FENNELL FOUNDATION FOR THE RELIEF OF POVERTY", "designationCode": "C", "categoryCode": "09", "address": "2833 LAKE END ROAD", "city": "VICTORIA", "province": "BC", "country": "CA", "postalCode": "V9B2W2", "twitter": "None", "instagram": "None", "facebook": "None", "youtube": "None", "website": "None", "summary": "None", "logo": "None", "latitude": 48.453878766576295, "longitude": -123.5344959763111}, "118971522RR0001": {"name": "THE IRMA MUNICIPAL LIBRARY BOARD", "designationCode": "C", "categoryCode": "50", "address": "BOX 340", "city": "IRMA", "province": "AB", "country": "CA", "postalCode": "T0B2H0", "twitter": "None", "instagram": "None", "facebook": "None", "youtube": "None", "website": "None", "summary": "None", "logo": "None", "latitude": 52.91172000000006, "longitude": -111.23200999999995}, "133851790RR0001": {"name": "THE IRRICANA & DISTRICT MUNICIPAL LIBRARY BOARD", "designationCode": "C", "categoryCode": "50", "address": "BOX 299", "city": "IRRICANA", "province": "AB", "country": "CA", "postalCode": "T0M1B0", "twitter": "None", "instagram": "None", "facebook": "None", "youtube": "None", "website": "None", "summary": "None", "logo": "None", "latitude": 51.32701000000003, "longitude": -113.59144999999995}, "119138659RR0001": {"name": "THE IRVING AND SHIRLEY SAMUELS CHARITABLE FOUNDATION", "designationCode": "B", "categoryCode": "03", "address": "108-1120 FINCH AVE W", "city": "DOWNSVIEW", "province": "ON", "country": "CA", "postalCode": "M3J3H7", "twitter": "None", "instagram": "None", "facebook": "None", "youtube": "None", "website": "None", "summary": "None", "logo": "None", "latitude": 43.76703416515657, "longitude": -79.47522690397595}, "891965840RR0001": {"name": "THE IRVING FOUNDATION", "designationCode": "B", "categoryCode": "05", "address": "P O BOX 5888", "city": "SAINT JOHN", "province": "NB", "country": "CA", "postalCode": "E2L4L4", "twitter": "None", "instagram": "None", "facebook": "None", "youtube": "None", "website": "None", "summary": "None", "logo": "None", "latitude": 45.27342600000006, "longitude": -66.06407149999993}, "119238657RR0001": {"name": "THE IRVING LEVINE FOUNDATION", "designationCode": "B", "categoryCode": "03", "address": "22 ST CLAIR AVE EAST          SUITE 1010", "city": "TORONTO", "province": "ON", "country": "CA", "postalCode": "M4T2S3", "twitter": "None", "instagram": "None", "facebook": "None", "youtube": "None", "website": "None", "summary": "None", "logo": "None", "latitude": 43.688336132408, "longitude": -79.39301839967676}, "888854072RR0001": {"name": "THE IRVING LUDMER FAMILY FOUNDATION/LA FONDATION FAMILIALE IRVING LUDMER", "designationCode": "B", "categoryCode": "03", "address": "900-3500 DE MAISONNEUVE BLVD W", "city": "MONTREAL", "province": "QC", "country": "CA", "postalCode": "H3Z3C1", "twitter": "None", "instagram": "None", "facebook": "None", "youtube": "None", "website": "None", "summary": "None", "logo": "None", "latitude": 45.49001400000001, "longitude": -73.58592825}, "819163213RR0001": {"name": "THE IRWIN BEUTEL FOUNDATION / LA FONDATION IRWIN BEUTEL", "designationCode": "B", "categoryCode": "03", "address": "234 FENWOOD STREET", "city": "DOLLARD DES ORMEAUX", "province": "QC", "country": "CA", "postalCode": "H9G2Z4", "twitter": "None", "instagram": "None", "facebook": "None", "youtube": "None", "website": "None", "summary": "None", "logo": "None", "latitude": 45.48171811766415, "longitude": -73.82467035815696}, "889077269RR0001": {"name": "THE ISAAC FAMILY FOUNDATION", "designationCode": "B", "categoryCode": "23", "address": "4130 BLACK WALNUT CRT", "city": "VINELAND", "province": "ON", "country": "CA", "postalCode": "L0R2C0", "twitter": "None", "instagram": "None", "facebook": "None", "youtube": "None", "website": "None", "summary": "None", "logo": "None", "latitude": 43.16154492948251, "longitude": -79.39751057314321}, "806930079RR0001": {"name": "THE ISAAC FOUNDATION", "designationCode": "B", "categoryCode": "03", "address": "5291 COUNTY ROAD 30           R.R. #1", "city": "CAMPBELLFORD", "province": "ON", "country": "CA", "postalCode": "K0L1L0", "twitter": "None", "instagram": "None", "facebook": "None", "youtube": "None", "website": "None", "summary": "None", "logo": "None", "latitude": 44.26013789832082, "longitude": -77.81461778654592}, "803154145RR0001": {"name": "THE ISABEL MACKAY FOUNDATION", "designationCode": "B", "categoryCode": "03", "address": "1 TORONTO STREET              SUITE 808, PO BOX 19", "city": "TORONTO", "province": "ON", "country": "CA", "postalCode": "M5C2V6", "twitter": "None", "instagram": "None", "facebook": "None", "youtube": "None", "website": "None", "summary": "None", "logo": "None", "latitude": 43.64988730558597, "longitude": -79.37604079929623}, "887371391RR0001": {"name": "THE ISLAMIC ASSOCIATION OF SASKATCHEWAN, REGINA INCORPORATED", "designationCode": "C", "categoryCode": "60", "address": "3273 MONTAGUE STREET", "city": "REGINA", "province": "SK", "country": "CA", "postalCode": "S4S1Z8", "twitter": "None", "instagram": "None", "facebook": "None", "youtube": "None", "website": "None", "summary": "None", "logo": "None", "latitude": 50.42675341796997, "longitude": -104.6296789558258}, "119238699RR0001": {"name": "THE ISLAMIC CENTRE OF CAMBRIDGE", "designationCode": "C", "categoryCode": "60", "address": "1550 DUNBAR RD", "city": "CAMBRIDGE", "province": "ON", "country": "CA", "postalCode": "N1R8J5", "twitter": "None", "instagram": "None", "facebook": "None", "youtube": "None", "website": "None", "summary": "None", "logo": "None", "latitude": 43.39080954674262, "longitude": -80.31737455842803}, "897762696RR0001": {"name": "THE ISLAMIC CENTRE OF SOUTHWEST ONTARIO", "designationCode": "C", "categoryCode": "60", "address": "951 POND MILLS ROAD", "city": "LONDON", "province": "ON", "country": "CA", "postalCode": "N6N1C3", "twitter": "None", "instagram": "None", "facebook": "None", "youtube": "None", "website": "None", "summary": "None", "logo": "None", "latitude": 42.93188285593526, "longitude": -81.19144846202862}, "888131273RR0001": {"name": "THE ISLAMIC EDUCATION FOUNDATION OF MANITOBA INC.", "designationCode": "C", "categoryCode": "21", "address": "26 BRAINERD COVE", "city": "WINNIPEG", "province": "MB", "country": "CA", "postalCode": "R3T5W3", "twitter": "None", "instagram": "None", "facebook": "None", "youtube": "None", "website": "None", "summary": "None", "logo": "None", "latitude": 49.785596510098905, "longitude": -97.17094535942637}, "863519765RR0001": {"name": "THE ISLAMIC EDUCATIONAL FOUNDATION OF CANADA INC.", "designationCode": "C", "categoryCode": "20", "address": "35 JIM ASHTON ST", "city": "LONDON", "province": "ON", "country": "CA", "postalCode": "N5V3H4", "twitter": "None", "instagram": "None", "facebook": "None", "youtube": "None", "website": "None", "summary": "None", "logo": "None", "latitude": 43.01028231611755, "longitude": -81.19778339511781}, "897203121RR0001": {"name": "THE ISLAMIC SOCIETY OF GLOUCESTER", "designationCode": "C", "categoryCode": "60", "address": "1627 MAXIME ST", "city": "GLOUCESTER", "province": "ON", "country": "CA", "postalCode": "K1B3K9", "twitter": "None", "instagram": "None", "facebook": "None", "youtube": "None", "website": "None", "summary": "None", "logo": "None", "latitude": 45.4174577282878, "longitude": -75.60511240642879}, "872505953RR0001": {"name": "THE ISLAND BEL CANTO SINGERS SOCIETY", "designationCode": "C", "categoryCode": "22", "address": "5947 BUTCHER RD", "city": "NANAIMO", "province": "BC", "country": "CA", "postalCode": "V9T5M7", "twitter": "None", "instagram": "None", "facebook": "None", "youtube": "None", "website": "None", "summary": "None", "logo": "None", "latitude": 49.2316465073721, "longitude": -124.02400622967139}, "141054569RR0001": {"name": "THE ISLAND CATHOLIC NEWS SOCIETY", "designationCode": "C", "categoryCode": "49", "address": "P.O. BOX 5424 LCD9", "city": "VICTORIA", "province": "BC", "country": "CA", "postalCode": "V8R6S4", "twitter": "None", "instagram": "None", "facebook": "None", "youtube": "None", "website": "None", "summary": "None", "logo": "None", "latitude": 48.42854700000005, "longitude": -123.36445249999994}, "119238749RR0001": {"name": "THE ISLAY HOSPITAL AUXILIARY", "designationCode": "C", "categoryCode": "19", "address": "PO BOX 80", "city": "ISLAY", "province": "AB", "country": "CA", "postalCode": "T0B2J0", "twitter": "None", "instagram": "None", "facebook": "None", "youtube": "None", "website": "None", "summary": "None", "logo": "None", "latitude": 53.39456000000007, "longitude": -110.54656999999997}, "890072994RR0001": {"name": "THE ISLE MADAME HISTORICAL SOCIETY", "designationCode": "C", "categoryCode": "50", "address": "SUSAN MARCHAND-TERRIO PRESIDENPO BOX 223", "city": "ARICHAT", "province": "NS", "country": "CA", "postalCode": "B0E1A0", "twitter": "None", "instagram": "None", "facebook": "None", "youtube": "None", "website": "None", "summary": "None", "logo": "None", "latitude": 45.51192600000006, "longitude": -61.01565199999993}, "888275849RR0001": {"name": "THE ITA WEGMAN ASSOCIATION OF BRITISH COLUMBIA FOR CURATIVE EDUCATION AND SOCIAL THERAPY", "designationCode": "C", "categoryCode": "99", "address": "4766 WATERS RD", "city": "DUNCAN", "province": "BC", "country": "CA", "postalCode": "V9L6S9", "twitter": "None", "instagram": "None", "facebook": "None", "youtube": "None", "website": "None", "summary": "None", "logo": "None", "latitude": 48.742747805126555, "longitude": -123.76707751558429}, "896175171RR0001": {"name": "THE ITALIAN-CANADIAN COMMUNITY CENTRE OF THE NATIONAL CAPITAL REGION INC.", "designationCode": "C", "categoryCode": "09", "address": "101-865 GLADSTONE AVE", "city": "OTTAWA", "province": "ON", "country": "CA", "postalCode": "K1R7T4", "twitter": "None", "instagram": "None", "facebook": "None", "youtube": "None", "website": "None", "summary": "None", "logo": "None", "latitude": 45.40504778547144, "longitude": -75.71085593935642}, "891201832RR0001": {"name": "THE ITALY CROSS, MIDDLEWOOD & DISTRICT FIRE DEPARTMENT", "designationCode": "C", "categoryCode": "59", "address": "17722 HIGHWAY 103", "city": "ITALY CROSS", "province": "NS", "country": "CA", "postalCode": "B4V0L1", "twitter": "None", "instagram": "None", "facebook": "None", "youtube": "None", "website": "None", "summary": "None", "logo": "None", "latitude": 44.25270557462999, "longitude": -64.55446198932697}, "712156124RR0001": {"name": "THE ITALY EARTHQUAKE RELIEF FUND", "designationCode": "C", "categoryCode": "02", "address": "201 - 3710 CHESSWOOD DR", "city": "NORTH YORK", "province": "ON", "country": "CA", "postalCode": "M3J2W4", "twitter": "None", "instagram": "None", "facebook": "None", "youtube": "None", "website": "None", "summary": "None", "logo": "None", "latitude": 43.75613082985177, "longitude": -79.47439523613541}, "889264511RR0001": {"name": "THE IV CHARITABLE FOUNDATION", "designationCode": "B", "categoryCode": "03", "address": "22 ST. CLAIR AVENUE EAST      SUITE 1200", "city": "TORONTO", "province": "ON", "country": "CA", "postalCode": "M4T2S3", "twitter": "None", "instagram": "None", "facebook": "None", "youtube": "None", "website": "None", "summary": "None", "logo": "None", "latitude": 43.688336132408, "longitude": -79.39301839967676}, "119238806RR0001": {"name": "THE IVAN FRANKO MUSEUM AND LIBRARY SOCIETY INCORPORATED", "designationCode": "C", "categoryCode": "22", "address": "595 PRITCHARD AVE", "city": "WINNIPEG", "province": "MB", "country": "CA", "postalCode": "R2W2K4", "twitter": "None", "instagram": "None", "facebook": "None", "youtube": "None", "website": "None", "summary": "None", "logo": "None", "latitude": 49.91780199030513, "longitude": -97.14885251927416}, "119238822RR0001": {"name": "THE IZZY AND BETTY KIRSHENBAUM FOUNDATION", "designationCode": "B", "categoryCode": "03", "address": "UNI7-1140 SHEPPARD AVE W", "city": "NORTH YORK", "province": "ON", "country": "CA", "postalCode": "M3K2A2", "twitter": "None", "instagram": "None", "facebook": "None", "youtube": "None", "website": "None", "summary": "None", "logo": "None", "latitude": 43.75439857574398, "longitude": -79.4799197125512}, "119238939RR0001": {"name": "THE J A F STEVENSON VISITING PROFESSORSHIP FUND OF THE CANADIAN PHYSIOLOGICAL SOCIETY", "designationCode": "C", "categoryCode": "21", "address": "UNIVERSITY OF TORONTO         MSB 3306, 1 KING'S COLLEGE CIR", "city": "TORONTO", "province": "ON", "country": "CA", "postalCode": "M5S1A8", "twitter": "None", "instagram": "None", "facebook": "None", "youtube": "None", "website": "None", "summary": "None", "logo": "None", "latitude": 43.66774998831461, "longitude": -79.39863994503438}, "889124442RR0001": {"name": "THE J A HOWSON BROCKLEBANK-ARTHUR DISTRICT HIGH SCHOOL SCHOLARSHIP", "designationCode": "C", "categoryCode": "21", "address": "1402 - 1 KING ST W", "city": "HAMILTON", "province": "ON", "country": "CA", "postalCode": "L8P1A4", "twitter": "None", "instagram": "None", "facebook": "None", "youtube": "None", "website": "None", "summary": "None", "logo": "None", "latitude": 43.26019321073324, "longitude": -79.88135629363086}, "889124442RR0002": {"name": "THE J A HOWSON BROCKLEBANK-ARTHUR DISTRICT HIGH SCHOOL SCHOLARSHIP #2", "designationCode": "C", "categoryCode": "21", "address": "1402 - 1 KING ST W", "city": "HAMILTON", "province": "ON", "country": "CA", "postalCode": "L8P1A4", "twitter": "None", "instagram": "None", "facebook": "None", "youtube": "None", "website": "None", "summary": "None", "logo": "None", "latitude": 43.26019321073324, "longitude": -79.88135629363086}, "891117442RR0001": {"name": "THE J W HARRY BUTCHER FUND", "designationCode": "B", "categoryCode": "25", "address": "63 SILVERLACE CIRCLE", "city": "WINONA", "province": "ON", "country": "CA", "postalCode": "L8E6A6", "twitter": "None", "instagram": "None", "facebook": "None", "youtube": "None", "website": "None", "summary": "None", "logo": "None", "latitude": 43.20853189563742, "longitude": -79.64816038715463}, "119240091RR0001": {"name": "THE J W MCCONNELL FAMILY FOUNDATION - LA FONDATION DE LA FAMILLE J W MCCONNELL", "designationCode": "B", "categoryCode": "03", "address": "1002, RUE SHERBROOKE OUEST    BUREAU 1800", "city": "MONTREAL", "province": "QC", "country": "CA", "postalCode": "H3A3L6", "twitter": "None", "instagram": "None", "facebook": "None", "youtube": "None", "website": "None", "summary": "None", "logo": "None", "latitude": 45.502789852876845, "longitude": -73.57558716772498}, "863973012RR0001": {"name": "THE J. AND B. CARROLL FAMILY FOUNDATION", "designationCode": "B", "categoryCode": "03", "address": "1508 - 61 ST CLAIR AVE W", "city": "TORONTO", "province": "ON", "country": "CA", "postalCode": "M4V2Y8", "twitter": "None", "instagram": "None", "facebook": "None", "youtube": "None", "website": "None", "summary": "None", "logo": "None", "latitude": 43.68788710460182, "longitude": -79.39487415272116}, "118973437RR0001": {"name": "THE J. DOUGLAS FERGUSON HISTORICAL RESEARCH FOUNDATION", "designationCode": "C", "categoryCode": "21", "address": "2ND FLOOR 5520 2 STREET SW", "city": "CALGARY", "province": "AB", "country": "CA", "postalCode": "T2H0G9", "twitter": "None", "instagram": "None", "facebook": "None", "youtube": "None", "website": "None", "summary": "None", "logo": "None", "latitude": 51.00489983819031, "longitude": -114.0685673480294}, "107527392RR0001": {"name": "THE J.A.V. DAVID MUSEUM INC.", "designationCode": "C", "categoryCode": "50", "address": "PO BOX 584, 414 WILLIAM STREET", "city": "KILLARNEY", "province": "MB", "country": "CA", "postalCode": "R0K1G0", "twitter": "None", "instagram": "None", "facebook": "None", "youtube": "None", "website": "None", "summary": "None", "logo": "None", "latitude": 49.182345151336335, "longitude": -99.66619996494616}, "857795835RR0001": {"name": "THE J.C. ANDERSON FAMILY FOUNDATION", "designationCode": "B", "categoryCode": "03", "address": "132 250 SHAWVILLE BLVD SE #239", "city": "CALGARY", "province": "AB", "country": "CA", "postalCode": "T2Y2Z7", "twitter": "None", "instagram": "None", "facebook": "None", "youtube": "None", "website": "None", "summary": "None", "logo": "None", "latitude": 50.90936894075023, "longitude": -114.06910533560901}, "137658142RR0001": {"name": "THE J.G. TAYLOR COMMUNITY CENTRE INC.", "designationCode": "C", "categoryCode": "56", "address": "177 KING ST E", "city": "CHATHAM", "province": "ON", "country": "CA", "postalCode": "N7M3N1", "twitter": "None", "instagram": "None", "facebook": "None", "youtube": "None", "website": "None", "summary": "None", "logo": "None", "latitude": 42.40612906691081, "longitude": -82.17510659285006}, "895350924RR0001": {"name": "THE J.T. CLARK FAMILY FOUNDATION INC.", "designationCode": "B", "categoryCode": "03", "address": "P O BOX 188", "city": "FREDERICTON", "province": "NB", "country": "CA", "postalCode": "E3B4Z2", "twitter": "None", "instagram": "None", "facebook": "None", "youtube": "None", "website": "None", "summary": "None", "logo": "None", "latitude": 45.96062100000006, "longitude": -66.63911299999994}, "835765025RR0001": {"name": "THE JACK & DARLENE POOLE FOUNDATION", "designationCode": "A", "categoryCode": "03", "address": "200-1199 WEST HASTINGS ST", "city": "VANCOUVER", "province": "BC", "country": "CA", "postalCode": "V6E3T5", "twitter": "None", "instagram": "None", "facebook": "None", "youtube": "None", "website": "None", "summary": "None", "logo": "None", "latitude": 49.288721048588954, "longitude": -123.12236507325878}, "892751769RR0001": {"name": "THE JACK & MARY TOPOLEWSKI FAMILY FOUNDATION", "designationCode": "B", "categoryCode": "03", "address": "202 1315 SUMMIT DR.", "city": "KAMLOOPS", "province": "BC", "country": "CA", "postalCode": "V2C5R9", "twitter": "None", "instagram": "None", "facebook": "None", "youtube": "None", "website": "None", "summary": "None", "logo": "None", "latitude": 50.665203134081416, "longitude": -120.34989283019848}, "119238830RR0001": {"name": "THE JACK AND BARBARA HAY FOUNDATION", "designationCode": "B", "categoryCode": "63", "address": "117 WINDSOR AVE", "city": "LONDON", "province": "ON", "country": "CA", "postalCode": "N6C1Z8", "twitter": "None", "instagram": "None", "facebook": "None", "youtube": "None", "website": "None", "summary": "None", "logo": "None", "latitude": 42.966944550637756, "longitude": -81.24313107646144}, "119238848RR0001": {"name": "THE JACK AND DORIS SHADBOLT FOUNDATION FOR THE VISUAL ARTS", "designationCode": "B", "categoryCode": "25", "address": "1556 WILLIAM STREET", "city": "VANCOUVER", "province": "BC", "country": "CA", "postalCode": "V5L2R2", "twitter": "None", "instagram": "None", "facebook": "None", "youtube": "None", "website": "None", "summary": "None", "logo": "None", "latitude": 49.273967495672174, "longitude": -123.07210047016561}, "119238855RR0001": {"name": "THE JACK B DAVIS MEMORIAL EDUCATION FOUNDATION", "designationCode": "B", "categoryCode": "25", "address": "9 HAROLD STREET PO BOX 970", "city": "RIDGETOWN", "province": "ON", "country": "CA", "postalCode": "N0P2C0", "twitter": "None", "instagram": "None", "facebook": "None", "youtube": "None", "website": "None", "summary": "None", "logo": "None", "latitude": 42.44408804942566, "longitude": -81.88235187229522}, "119238863RR0001": {"name": "THE JACK BELL FOUNDATION", "designationCode": "C", "categoryCode": "21", "address": "700 WEST 57TH AVENUE", "city": "VANCOUVER", "province": "BC", "country": "CA", "postalCode": "V6P1S1", "twitter": "None", "instagram": "None", "facebook": "None", "youtube": "None", "website": "None", "summary": "None", "logo": "None", "latitude": 49.2190234268256, "longitude": -123.1204123133387}, "888060860RR0001": {"name": "THE JACK BROWN & FAMILY ALZHEIMER RESEARCH FOUNDATION SOCIETY", "designationCode": "B", "categoryCode": "13", "address": "1763 WEST 38TH AVENUE", "city": "VANCOUVER", "province": "BC", "country": "CA", "postalCode": "V6M1R7", "twitter": "None", "instagram": "None", "facebook": "None", "youtube": "None", "website": "None", "summary": "None", "logo": "None", "latitude": 49.23697250432783, "longitude": -123.14604370038664}, "867744880RR0001": {"name": "THE JACK CLARK MEDICAL FOUNDATION", "designationCode": "B", "categoryCode": "05", "address": "PO BOX 57", "city": "INGLEWOOD", "province": "ON", "country": "CA", "postalCode": "L7C3L6", "twitter": "None", "instagram": "None", "facebook": "None", "youtube": "None", "website": "None", "summary": "None", "logo": "None", "latitude": 43.79231980971143, "longitude": -79.93633027495089}, "119238889RR0001": {"name": "THE JACK DOW MUSIC SCHOLARSHIP FUND", "designationCode": "C", "categoryCode": "21", "address": "SUITE 5300, COMMERCE COURT W", "city": "TORONTO", "province": "ON", "country": "CA", "postalCode": "M5L1B9", "twitter": "None", "instagram": "None", "facebook": "None", "youtube": "None", "website": "None", "summary": "None", "logo": "None", "latitude": 43.64868300000006, "longitude": -79.38544399999994}, "866656655RR0001": {"name": "THE JACK HERBERT CHARITABLE FOUNDATION", "designationCode": "B", "categoryCode": "25", "address": "1155 BOUL REN\u00c9-L\u00c9VESQUE O.    23IEME \u00c9TAGE", "city": "MONTREAL", "province": "QC", "country": "CA", "postalCode": "H3B2K2", "twitter": "None", "instagram": "None", "facebook": "None", "youtube": "None", "website": "None", "summary": "None", "logo": "None", "latitude": 45.498612132119526, "longitude": -73.5705753094811}, "892360462RR0001": {"name": "THE JACK MINER MIGRATORY BIRD FOUNDATION", "designationCode": "C", "categoryCode": "54", "address": "360 RD 3 W", "city": "KINGSVILLE", "province": "ON", "country": "CA", "postalCode": "N9Y2E5", "twitter": "None", "instagram": "None", "facebook": "None", "youtube": "None", "website": "None", "summary": "None", "logo": "None", "latitude": 42.065683496832655, "longitude": -82.75206722932944}, "863220034RR0001": {"name": "THE JACK NEUFELD FAMILY CHARITABLE FOUNDATION", "designationCode": "C", "categoryCode": "09", "address": "10-2305-52ND AVE SE", "city": "CALGARY", "province": "AB", "country": "CA", "postalCode": "T2C4X7", "twitter": "None", "instagram": "None", "facebook": "None", "youtube": "None", "website": "None", "summary": "None", "logo": "None", "latitude": 51.00692318163462, "longitude": -114.00412621442237}, "121838411RR0001": {"name": "THE JACK ROSE FAMILY FOUNDATION", "designationCode": "B", "categoryCode": "03", "address": "100 SCARSDALE ROAD", "city": "DON MILLS", "province": "ON", "country": "CA", "postalCode": "M3B2R8", "twitter": "None", "instagram": "None", "facebook": "None", "youtube": "None", "website": "None", "summary": "None", "logo": "None", "latitude": 43.751611614749955, "longitude": -79.35639310895023}, "804504272RR0001": {"name": "THE JACK RYRIE FOUNDATION", "designationCode": "B", "categoryCode": "05", "address": "130 KING STREET WEST          20TH FLOOR", "city": "TORONTO", "province": "ON", "country": "CA", "postalCode": "M5X1K1", "twitter": "None", "instagram": "None", "facebook": "None", "youtube": "None", "website": "None", "summary": "None", "logo": "None", "latitude": 43.64798216515656, "longitude": -79.38336717805407}, "889705562RR0001": {"name": "THE JACK WARREN EDUCATIONAL TRUST", "designationCode": "C", "categoryCode": "21", "address": "210-10451 SHELLBRIDGE WAY", "city": "RICHMOND", "province": "BC", "country": "CA", "postalCode": "V6X2W8", "twitter": "None", "instagram": "None", "facebook": "None", "youtube": "None", "website": "None", "summary": "None", "logo": "None", "latitude": 49.186189885654095, "longitude": -123.10740255805266}, "887934644RR0001": {"name": "THE JACK WEINBAUM FAMILY FOUNDATION", "designationCode": "B", "categoryCode": "03", "address": "7 ST. DENNIS DRIVE            SUITE 101", "city": "TORONTO", "province": "ON", "country": "CA", "postalCode": "M3C1E4", "twitter": "None", "instagram": "None", "facebook": "None", "youtube": "None", "website": "None", "summary": "None", "logo": "None", "latitude": 43.715889606728524, "longitude": -79.33687077901246}, "889317061RR0001": {"name": "THE JACQUELINE DESMARAIS FOUNDATION FOR YOUNG CANADIAN OPERA SINGERS LA FONDATION JACQUELINE DESMARAIS POUR LES JEUNES", "designationCode": "C", "categoryCode": "22", "address": "759 SQUARE VICTORIA SUITE 520", "city": "MONTREAL", "province": "QC", "country": "CA", "postalCode": "H2Y2J7", "twitter": "None", "instagram": "None", "facebook": "None", "youtube": "None", "website": "None", "summary": "None", "logo": "None", "latitude": 45.50162462617556, "longitude": -73.56122378362876}, "890220676RR0001": {"name": "THE JADE GROUP FOUNDATION", "designationCode": "B", "categoryCode": "03", "address": "1201-845 CHILCO ST.", "city": "VANCOUVER", "province": "BC", "country": "CA", "postalCode": "V6G2R2", "twitter": "None", "instagram": "None", "facebook": "None", "youtube": "None", "website": "None", "summary": "None", "logo": "None", "latitude": 49.2928771423913, "longitude": -123.13923796476992}, "861972073RR0001": {"name": "THE JAGELBER FUND", "designationCode": "B", "categoryCode": "05", "address": "561 AVENUE RD                 SUITE 503", "city": "TORONTO", "province": "ON", "country": "CA", "postalCode": "M4V2J8", "twitter": "None", "instagram": "None", "facebook": "None", "youtube": "None", "website": "None", "summary": "None", "logo": "None", "latitude": 43.687748021380294, "longitude": -79.40192052562213}, "889594479RR0001": {"name": "THE JAIN SOCIETY OF OTTAWA-CARLETON", "designationCode": "C", "categoryCode": "39", "address": "18 ALDRIDGE WAY", "city": "NEPEAN", "province": "ON", "country": "CA", "postalCode": "K2G4H8", "twitter": "None", "instagram": "None", "facebook": "None", "youtube": "None", "website": "None", "summary": "None", "logo": "None", "latitude": 45.33440943632051, "longitude": -75.77199313780368}, "832891741RR0001": {"name": "THE JAMAAT UL-ISLAMIAH OF ONTARIO", "designationCode": "C", "categoryCode": "60", "address": "110 FAIRBANK AVE", "city": "YORK", "province": "ON", "country": "CA", "postalCode": "M6E3Z1", "twitter": "None", "instagram": "None", "facebook": "None", "youtube": "None", "website": "None", "summary": "None", "logo": "None", "latitude": 43.69874579265979, "longitude": -79.45431388002726}, "119238970RR0001": {"name": "THE JAMAICA COLLEGE OLD BOYS ASSOCIATION OF CANADA", "designationCode": "C", "categoryCode": "21", "address": "2501 - 1 ADELAIDE ST E", "city": "TORONTO", "province": "ON", "country": "CA", "postalCode": "M5C2V9", "twitter": "None", "instagram": "None", "facebook": "None", "youtube": "None", "website": "None", "summary": "None", "logo": "None", "latitude": 43.65106129336214, "longitude": -79.3754558860496}, "890534068RR0001": {"name": "THE JAMAICAN CANADIAN ASSOCIATION", "designationCode": "C", "categoryCode": "22", "address": "995 ARROW ROAD", "city": "NORTH YORK", "province": "ON", "country": "CA", "postalCode": "M9M2Z5", "twitter": "None", "instagram": "None", "facebook": "None", "youtube": "None", "website": "None", "summary": "None", "logo": "None", "latitude": 43.749541161549885, "longitude": -79.53280143709989}, "888161262RR0001": {"name": "THE JAMES A BEATTIE FOUNDATION", "designationCode": "B", "categoryCode": "03", "address": "62 KEIL DR S", "city": "CHATHAM", "province": "ON", "country": "CA", "postalCode": "N7M3G8", "twitter": "None", "instagram": "None", "facebook": "None", "youtube": "None", "website": "None", "summary": "None", "logo": "None", "latitude": 42.3928666160776, "longitude": -82.20856959922669}, "891196941RR0001": {"name": "THE JAMES AND KATHLEEN WINTON FOUNDATION", "designationCode": "B", "categoryCode": "53", "address": "#1430 1100 MELVILLE ST", "city": "VANCOUVER", "province": "BC", "country": "CA", "postalCode": "V6E4A6", "twitter": "None", "instagram": "None", "facebook": "None", "youtube": "None", "website": "None", "summary": "None", "logo": "None", "latitude": 49.28674867886214, "longitude": -123.1225277981128}, "119239010RR0001": {"name": "THE JAMES AND PATRICIA BULLOCK FAMILY FOUNDATION", "designationCode": "B", "categoryCode": "03", "address": "204 - 6700 CENTURY AVE", "city": "MISSISSAUGA", "province": "ON", "country": "CA", "postalCode": "L5N6A4", "twitter": "None", "instagram": "None", "facebook": "None", "youtube": "None", "website": "None", "summary": "None", "logo": "None", "latitude": 43.59980112568555, "longitude": -79.74295811659627}, "119239028RR0001": {"name": "THE JAMES BAY BROADCASTING CORPORATION INC", "designationCode": "C", "categoryCode": "59", "address": "PO BOX 400", "city": "MOOSONEE", "province": "ON", "country": "CA", "postalCode": "P0L1Y0", "twitter": "None", "instagram": "None", "facebook": "None", "youtube": "None", "website": "None", "summary": "None", "logo": "None", "latitude": 51.273540000000025, "longitude": -80.64088999999996}, "119239036RR0001": {"name": "THE JAMES BAY COMMUNITY SCHOOL SOCIETY", "designationCode": "C", "categoryCode": "20", "address": "140 OSWEGO STREET", "city": "VICTORIA", "province": "BC", "country": "CA", "postalCode": "V8V2B1", "twitter": "None", "instagram": "None", "facebook": "None", "youtube": "None", "website": "None", "summary": "None", "logo": "None", "latitude": 48.416765258410656, "longitude": -123.37934511826971}, "887755122RR0001": {"name": "THE JAMES F BOUGHNER FOUNDATION", "designationCode": "B", "categoryCode": "03", "address": "96 NELSON ST.                 P.O. BOX 367", "city": "BRANTFORD", "province": "ON", "country": "CA", "postalCode": "N3T5N3", "twitter": "None", "instagram": "None", "facebook": "None", "youtube": "None", "website": "None", "summary": "None", "logo": "None", "latitude": 43.14234744272581, "longitude": -80.26145222023771}, "892418088RR0001": {"name": "THE JAMES HILLIER FOUNDATION", "designationCode": "C", "categoryCode": "21", "address": "PO BOX 367                    96 NELSON STREET", "city": "BRANTFORD", "province": "ON", "country": "CA", "postalCode": "N3T5N3", "twitter": "None", "instagram": "None", "facebook": "None", "youtube": "None", "website": "None", "summary": "None", "logo": "None", "latitude": 43.14234744272581, "longitude": -80.26145222023771}, "888482395RR0001": {"name": "THE JAMES MCPHAIL FAMILY FOUNDATION", "designationCode": "B", "categoryCode": "03", "address": "220 - 6911 GRAYBAR RD", "city": "RICHMOND", "province": "BC", "country": "CA", "postalCode": "V6W1H3", "twitter": "None", "instagram": "None", "facebook": "None", "youtube": "None", "website": "None", "summary": "None", "logo": "None", "latitude": 49.16387247486882, "longitude": -122.98921154056752}, "131814345RR0001": {"name": "THE JAMES SHAVER WOODSWORTH HOMESTEAD FOUNDATION", "designationCode": "C", "categoryCode": "50", "address": "450 THE WEST MALL", "city": "ETOBICOKE", "province": "ON", "country": "CA", "postalCode": "M9C1E9", "twitter": "None", "instagram": "None", "facebook": "None", "youtube": "None", "website": "None", "summary": "None", "logo": "None", "latitude": 43.6480017285476, "longitude": -79.56811600908834}, "107524548RR0001": {"name": "THE JAMIATUL MUSLEMIN OF TORONTO", "designationCode": "C", "categoryCode": "47", "address": "1015 DANFORTH AVENUE", "city": "TORONTO", "province": "ON", "country": "CA", "postalCode": "M4J1M1", "twitter": "None", "instagram": "None", "facebook": "None", "youtube": "None", "website": "None", "summary": "None", "logo": "None", "latitude": 43.68063484927018, "longitude": -79.33611473812688}}