{"119271724RR0001": {"name": "TRUE CHURCH OF JESUS CHRIST FELLOWSHIP", "designationCode": "C", "categoryCode": "39", "address": "96 HIGHVIEW AVENUE", "city": "SCARBOROUGH", "province": "ON", "country": "CA", "postalCode": "M1N2H7", "twitter": "None", "instagram": "None", "facebook": "None", "youtube": "None", "website": "None", "summary": "None", "logo": "None", "latitude": 43.70084117626507, "longitude": -79.2612561154711}, "892307216RR0001": {"name": "TRUE DIRECTIONS CHARITABLE FOUNDATION", "designationCode": "B", "categoryCode": "03", "address": "1401 194 ST", "city": "SURREY", "province": "BC", "country": "CA", "postalCode": "V3Z9R9", "twitter": "None", "instagram": "None", "facebook": "None", "youtube": "None", "website": "None", "summary": "None", "logo": "None", "latitude": 49.02717525330437, "longitude": -122.68549369946115}, "108142746RR0001": {"name": "TRUE EXPERIENCE SUPPORTIVE HOUSING AND COMMUNITY WORK PROGRAM", "designationCode": "C", "categoryCode": "01", "address": "201 FOREST ST EAST", "city": "DUNNVILLE", "province": "ON", "country": "CA", "postalCode": "N1A3G5", "twitter": "None", "instagram": "None", "facebook": "None", "youtube": "None", "website": "None", "summary": "None", "logo": "None", "latitude": 42.90554549070917, "longitude": -79.61249295614292}, "899688352RR0001": {"name": "TRUE HOLINESS APOSTOLIC TEMPLE OF TORONTO", "designationCode": "C", "categoryCode": "39", "address": "955 WILSON AVENUE, UNIT #8", "city": "DOWNSVIEW", "province": "ON", "country": "CA", "postalCode": "M3K2A8", "twitter": "None", "instagram": "None", "facebook": "None", "youtube": "None", "website": "None", "summary": "None", "logo": "None", "latitude": 43.72859705486836, "longitude": -79.47554508928982}, "119271732RR0001": {"name": "TRUE JESUS CHURCH (APOSTOLIC FAITH) CANADA", "designationCode": "C", "categoryCode": "39", "address": "69 SUNRISE AVE.", "city": "NORTH YORK", "province": "ON", "country": "CA", "postalCode": "M4A1A9", "twitter": "None", "instagram": "None", "facebook": "None", "youtube": "None", "website": "None", "summary": "None", "logo": "None", "latitude": 43.718497849270165, "longitude": -79.30613671259168}, "889003455RR0001": {"name": "TRUE JESUS CHURCH IN CALGARY", "designationCode": "C", "categoryCode": "39", "address": "232 8A ST NE", "city": "CALGARY", "province": "AB", "country": "CA", "postalCode": "T2E4J1", "twitter": "None", "instagram": "None", "facebook": "None", "youtube": "None", "website": "None", "summary": "None", "logo": "None", "latitude": 51.054496491257424, "longitude": -114.0415873591379}, "138550561RR0001": {"name": "TRUE JESUS CHURCH IN EDMONTON", "designationCode": "C", "categoryCode": "39", "address": "12703-109 STREET NW", "city": "EDMONTON", "province": "AB", "country": "CA", "postalCode": "T5E4Y2", "twitter": "None", "instagram": "None", "facebook": "None", "youtube": "None", "website": "None", "summary": "None", "logo": "None", "latitude": 53.58531583236194, "longitude": -113.50838718688357}, "893133447RR0001": {"name": "TRUE JESUS CHURCH IN VANCOUVER", "designationCode": "C", "categoryCode": "39", "address": "4580 GOTHARD STREET", "city": "VANCOUVER", "province": "BC", "country": "CA", "postalCode": "V5R3K7", "twitter": "None", "instagram": "None", "facebook": "None", "youtube": "None", "website": "None", "summary": "None", "logo": "None", "latitude": 49.24366243046347, "longitude": -123.05195896500105}, "890147192RR0002": {"name": "TRUE LIGHT BIBLE CHURCH", "designationCode": "C", "categoryCode": "36", "address": "302 - 188 BONIS AVE", "city": "SCARBOROUGH", "province": "ON", "country": "CA", "postalCode": "M1T3W2", "twitter": "None", "instagram": "None", "facebook": "None", "youtube": "None", "website": "None", "summary": "None", "logo": "None", "latitude": 43.78609487431445, "longitude": -79.29208159106106}, "892171448RR0001": {"name": "TRUE LIGHT FELLOWSHIP", "designationCode": "C", "categoryCode": "47", "address": "695 MARTINDALE BLVD. NE", "city": "CALGARY", "province": "AB", "country": "CA", "postalCode": "T3J3W3", "twitter": "None", "instagram": "None", "facebook": "None", "youtube": "None", "website": "None", "summary": "None", "logo": "None", "latitude": 51.120008245628725, "longitude": -113.96894677575156}, "860340561RR0001": {"name": "TRUE LOVE IN CHRIST MINISTRIES", "designationCode": "C", "categoryCode": "49", "address": "11590 LEVERE RD               R.R.#2", "city": "MOUNTAIN", "province": "ON", "country": "CA", "postalCode": "K0E1S0", "twitter": "None", "instagram": "None", "facebook": "None", "youtube": "None", "website": "None", "summary": "None", "logo": "None", "latitude": 45.06272379684339, "longitude": -75.40129388259565}, "816975742RR0001": {"name": "TRUE NORTH CHRISTIAN ACADEMY", "designationCode": "C", "categoryCode": "20", "address": "800 SUNNIDALE RD UNIT 1", "city": "WASAGA BEACH", "province": "ON", "country": "CA", "postalCode": "L9Z1J7", "twitter": "None", "instagram": "None", "facebook": "None", "youtube": "None", "website": "None", "summary": "None", "logo": "None", "latitude": 44.45967261415938, "longitude": -80.03929899521167}, "825845522RR0001": {"name": "TRUE NORTH HELPING HANDS SOCIETY", "designationCode": "C", "categoryCode": "09", "address": "7485 SALISBURY AVE", "city": "BURNABY", "province": "BC", "country": "CA", "postalCode": "V5E3A5", "twitter": "None", "instagram": "None", "facebook": "None", "youtube": "None", "website": "None", "summary": "None", "logo": "None", "latitude": 49.2153504210284, "longitude": -122.95707309080125}, "896463858RR0001": {"name": "TRUE SPORT FOUNDATION / FONDATION SPORT PUR", "designationCode": "C", "categoryCode": "59", "address": "955 GREENVALLEY CRES          SUITE 350", "city": "OTTAWA", "province": "ON", "country": "CA", "postalCode": "K2C3V4", "twitter": "None", "instagram": "None", "facebook": "None", "youtube": "None", "website": "None", "summary": "None", "logo": "None", "latitude": 45.37678500000001, "longitude": -75.7048635}, "826001349RR0001": {"name": "TRUE VINE MINISTRIES", "designationCode": "C", "categoryCode": "39", "address": "4-188 WILKINSON RD", "city": "BRAMPTON", "province": "ON", "country": "CA", "postalCode": "L6T4W9", "twitter": "None", "instagram": "None", "facebook": "None", "youtube": "None", "website": "None", "summary": "None", "logo": "None", "latitude": 43.69095827260623, "longitude": -79.6987662391661}, "864815139RR0001": {"name": "TRUE WORD APOSTOLIC CHURCH OF JESUS CHRIST", "designationCode": "C", "categoryCode": "39", "address": "7 LATANIA BLVD", "city": "BRAMPTON", "province": "ON", "country": "CA", "postalCode": "L6P1S8", "twitter": "None", "instagram": "None", "facebook": "None", "youtube": "None", "website": "None", "summary": "None", "logo": "None", "latitude": 43.78301340048484, "longitude": -79.72672295862442}, "887947844RR0001": {"name": "TRUEMANVILLE CEMETERY SOCIETY", "designationCode": "C", "categoryCode": "52", "address": "196 MANSHIP RD.", "city": "TRUEMANVILLE", "province": "NS", "country": "CA", "postalCode": "B4H3Y2", "twitter": "None", "instagram": "None", "facebook": "None", "youtube": "None", "website": "None", "summary": "None", "logo": "None", "latitude": 45.845625961134566, "longitude": -64.08264357109441}, "107804833RR0001": {"name": "TRULL'S ROAD FREE METHODIST CHURCH", "designationCode": "C", "categoryCode": "39", "address": "2301 TRULLS RD SOUTH", "city": "COURTICE", "province": "ON", "country": "CA", "postalCode": "L1E2N2", "twitter": "None", "instagram": "None", "facebook": "None", "youtube": "None", "website": "None", "summary": "None", "logo": "None", "latitude": 43.90070801139696, "longitude": -78.7838320010392}, "888693595RR0001": {"name": "TRURO & DISTRICT LIONS CLUB, NOVA SCOTIA, CHARITABLE TRUST FUND", "designationCode": "C", "categoryCode": "65", "address": "1100 PRINCE ST., PO BOX 735", "city": "TRURO", "province": "NS", "country": "CA", "postalCode": "B2N5C7", "twitter": "None", "instagram": "None", "facebook": "None", "youtube": "None", "website": "None", "summary": "None", "logo": "None", "latitude": 45.36458073991591, "longitude": -63.26611646404876}, "894945633RR0034": {"name": "TRURO ALLIANCE CHURCH", "designationCode": "C", "categoryCode": "39", "address": "PO BOX 30014 RPO ROBIE", "city": "TRURO", "province": "NS", "country": "CA", "postalCode": "B2N7J1", "twitter": "None", "instagram": "None", "facebook": "None", "youtube": "None", "website": "None", "summary": "None", "logo": "None", "latitude": 45.36786297046867, "longitude": -63.31284832687759}, "887016319RR0001": {"name": "TRURO BOYS & GIRLS CLUB", "designationCode": "C", "categoryCode": "09", "address": "40 DOUGLAS ST", "city": "TRURO", "province": "NS", "country": "CA", "postalCode": "B2N2E7", "twitter": "None", "instagram": "None", "facebook": "None", "youtube": "None", "website": "None", "summary": "None", "logo": "None", "latitude": 45.358736692163696, "longitude": -63.27498950553992}, "125937110RR0001": {"name": "TRURO CEMETERY CORPORATION", "designationCode": "C", "categoryCode": "59", "address": "PO BOX 494", "city": "TRURO", "province": "NS", "country": "CA", "postalCode": "B2N5C7", "twitter": "None", "instagram": "None", "facebook": "None", "youtube": "None", "website": "None", "summary": "None", "logo": "None", "latitude": 45.36602700000006, "longitude": -63.289042999999936}, "106926090RR0001": {"name": "TRURO CHURCH OF THE NAZARENE", "designationCode": "C", "categoryCode": "39", "address": "60 EDGEWOOD DRIVE", "city": "TRURO", "province": "NS", "country": "CA", "postalCode": "B2N1P2", "twitter": "None", "instagram": "None", "facebook": "None", "youtube": "None", "website": "None", "summary": "None", "logo": "None", "latitude": 45.351725732702555, "longitude": -63.277918098938244}, "119271807RR0001": {"name": "TRURO CONCERT BAND", "designationCode": "C", "categoryCode": "22", "address": "147 ABBEY AVE", "city": "TRURO", "province": "NS", "country": "CA", "postalCode": "B2N5Y3", "twitter": "None", "instagram": "None", "facebook": "None", "youtube": "None", "website": "None", "summary": "None", "logo": "None", "latitude": 45.34812627451082, "longitude": -63.2852387334237}, "119271856RR0001": {"name": "TRURO DISTRICT SCHOOL BANDS AUXILIARY", "designationCode": "C", "categoryCode": "22", "address": "PO BOX 25041", "city": "TRURO", "province": "NS", "country": "CA", "postalCode": "B2N7B8", "twitter": "None", "instagram": "None", "facebook": "None", "youtube": "None", "website": "None", "summary": "None", "logo": "None", "latitude": 45.36602700000006, "longitude": -63.289042999999936}, "886722438RR0001": {"name": "TRURO HEAD START SCHOOL SOCIETY", "designationCode": "C", "categoryCode": "20", "address": "36 ARTHUR ST", "city": "TRURO", "province": "NS", "country": "CA", "postalCode": "B2N1X5", "twitter": "None", "instagram": "None", "facebook": "None", "youtube": "None", "website": "None", "summary": "None", "logo": "None", "latitude": 45.3605357176989, "longitude": -63.28789670009819}, "119271815RR0001": {"name": "TRURO HEIGHTS UNITED BAPTIST CHURCH,", "designationCode": "C", "categoryCode": "31", "address": "343 TRURO HEIGHTS RD.         RR 1", "city": "TRURO", "province": "NS", "country": "CA", "postalCode": "B2N5A9", "twitter": "None", "instagram": "None", "facebook": "None", "youtube": "None", "website": "None", "summary": "None", "logo": "None", "latitude": 45.351424113289006, "longitude": -63.306774603488456}, "891816779RR0001": {"name": "TRURO MEALS ON WHEELS SOCIETY", "designationCode": "C", "categoryCode": "09", "address": "PO BOX 1128                   710 PRINCE ST", "city": "TRURO", "province": "NS", "country": "CA", "postalCode": "B2N5H1", "twitter": "None", "instagram": "None", "facebook": "None", "youtube": "None", "website": "None", "summary": "None", "logo": "None", "latitude": 45.36501161945315, "longitude": -63.28013749875925}, "119271823RR0001": {"name": "TRURO MUSIC FESTIVAL SOCIETY", "designationCode": "C", "categoryCode": "22", "address": "PO BOX 1742", "city": "TRURO", "province": "NS", "country": "CA", "postalCode": "B2N5Z5", "twitter": "None", "instagram": "None", "facebook": "None", "youtube": "None", "website": "None", "summary": "None", "logo": "None", "latitude": 45.36602700000006, "longitude": -63.289042999999936}, "119271831RR0001": {"name": "TRURO OSTOMY ASSOCIATION", "designationCode": "C", "categoryCode": "11", "address": "440 PRINCE ST", "city": "TRURO", "province": "NS", "country": "CA", "postalCode": "B2N1E7", "twitter": "None", "instagram": "None", "facebook": "None", "youtube": "None", "website": "None", "summary": "None", "logo": "None", "latitude": 45.366137634456784, "longitude": -63.29022572898029}, "107669848RR0024": {"name": "TRURO SEVENTH-DAY ADVENTIST CHURCH", "designationCode": "C", "categoryCode": "41", "address": "121 SALISBURY RD", "city": "MONCTON", "province": "NB", "country": "CA", "postalCode": "E1E1A6", "twitter": "None", "instagram": "None", "facebook": "None", "youtube": "None", "website": "None", "summary": "None", "logo": "None", "latitude": 46.0711640413756, "longitude": -64.82144086984238}, "869738393RR0001": {"name": "TRUST COMMUNICATIONS MINISTRIES", "designationCode": "C", "categoryCode": "47", "address": "115 BELL FARM RD STE 111", "city": "BARRIE", "province": "ON", "country": "CA", "postalCode": "L4M5G1", "twitter": "None", "instagram": "None", "facebook": "None", "youtube": "None", "website": "None", "summary": "None", "logo": "None", "latitude": 44.410579775174654, "longitude": -79.67630041075661}, "119271914RR0001": {"name": "TRUST DE CHARITE DU CLUB ROTARY DE THETFORD MINES", "designationCode": "C", "categoryCode": "65", "address": "8 RUE NOTRE-DAME EST          CP 523", "city": "THETFORD-MINES", "province": "QC", "country": "CA", "postalCode": "G6G5T6", "twitter": "None", "instagram": "None", "facebook": "None", "youtube": "None", "website": "None", "summary": "None", "logo": "None", "latitude": 46.091390501789, "longitude": -71.29999834883748}, "897875605RR0001": {"name": "TRUST FOR SUSTAINABLE FORESTRY", "designationCode": "C", "categoryCode": "52", "address": "506-185-911 YATES STREET", "city": "VICTORIA", "province": "BC", "country": "CA", "postalCode": "V8V4Y9", "twitter": "None", "instagram": "None", "facebook": "None", "youtube": "None", "website": "None", "summary": "None", "logo": "None", "latitude": 48.42547161555801, "longitude": -123.35756424008879}, "889354197RR0001": {"name": "TRUST FUND TO SUPPORT ACQL'S LITERARY CRITICISM PRIZES (THE GABRIELLE ROY PRIZES)/FONDS POUR LES PRIX DE CRITIQUE LITTER", "designationCode": "C", "categoryCode": "21", "address": "UNIVERSITY OF LETHBRIDGE      4401 UNIVERSITY DRIVE", "city": "LETHBRIDGE", "province": "AB", "country": "CA", "postalCode": "T1K3M4", "twitter": "None", "instagram": "None", "facebook": "None", "youtube": "None", "website": "None", "summary": "None", "logo": "None", "latitude": 49.67506000000003, "longitude": -112.86515999999995}, "890687791RR0001": {"name": "TRUST IN THE WILL OF DAVID C SAXON", "designationCode": "B", "categoryCode": "25", "address": "1709 HOLLIS STREET            PO BOX 457", "city": "HALIFAX", "province": "NS", "country": "CA", "postalCode": "B3J2P8", "twitter": "None", "instagram": "None", "facebook": "None", "youtube": "None", "website": "None", "summary": "None", "logo": "None", "latitude": 44.647722827370295, "longitude": -63.57286089243476}, "887235190RR0001": {"name": "TRUST U/W/O GEORGE HENRY STEDMAN", "designationCode": "B", "categoryCode": "05", "address": "130 KING STREET WEST, 20TH FL BOX 430, STN FIRST CANADIAN PL", "city": "TORONTO", "province": "ON", "country": "CA", "postalCode": "M5X1K1", "twitter": "None", "instagram": "None", "facebook": "None", "youtube": "None", "website": "None", "summary": "None", "logo": "None"}, "119272581RR0001": {"name": "TRUST U/W/O SIR JOSEPH FLAVELLE FOR THE VICTORIA UNIVERSITY LIBRARY", "designationCode": "B", "categoryCode": "25", "address": "130 KING STREET WEST 20TH FLO BOX 430, STN FIRST CANADIAN PL", "city": "TORONTO", "province": "ON", "country": "CA", "postalCode": "M5X1K1", "twitter": "None", "instagram": "None", "facebook": "None", "youtube": "None", "website": "None", "summary": "None", "logo": "None", "latitude": 43.64826932503962, "longitude": -79.38190945606182}, "119272177RR0001": {"name": "TRUST UNDER THE ESTATE OF MARY E STILLMAN", "designationCode": "B", "categoryCode": "55", "address": "130 KING ST W 20TH FL  BOX 430STAION FIRST CANADIAN PLACE", "city": "TORONTO", "province": "ON", "country": "CA", "postalCode": "M5X1K1", "twitter": "None", "instagram": "None", "facebook": "None", "youtube": "None", "website": "None", "summary": "None", "logo": "None", "latitude": 43.64826932503962, "longitude": -79.38190945606182}, "889579264RR0001": {"name": "TRUST UNDER THE WILL AUSTIN MICHAEL SCULLY ESTATE", "designationCode": "B", "categoryCode": "25", "address": "1402 - 1 KING ST W", "city": "HAMILTON", "province": "ON", "country": "CA", "postalCode": "L8P1A4", "twitter": "None", "instagram": "None", "facebook": "None", "youtube": "None", "website": "None", "summary": "None", "logo": "None", "latitude": 43.26019321073324, "longitude": -79.88135629363086}, "890693591RR0001": {"name": "TRUST UNDER THE WILL CHARLES F BROOKS ESTATE FOR TORONTO KIWANIS CHARITY FUND INC", "designationCode": "B", "categoryCode": "23", "address": "PO BOX 10085                  LCD PACIFIC CENTRE", "city": "VANCOUVER", "province": "BC", "country": "CA", "postalCode": "V7Y1B6", "twitter": "None", "instagram": "None", "facebook": "None", "youtube": "None", "website": "None", "summary": "None", "logo": "None", "latitude": 49.28299000000004, "longitude": -123.11890999999997}, "891314361RR0001": {"name": "TRUST UNDER THE WILL DR HAROLD B ATLEE ESTATE", "designationCode": "B", "categoryCode": "15", "address": "155 WELLINGTON ST W 20TH FLOOR", "city": "TORONTO", "province": "ON", "country": "CA", "postalCode": "M5V3K7", "twitter": "None", "instagram": "None", "facebook": "None", "youtube": "None", "website": "None", "summary": "None", "logo": "None", "latitude": 43.64596585316531, "longitude": -79.38574575644876}, "890680192RR0001": {"name": "TRUST UNDER THE WILL ESTATE OF ELEANOR A STANFIELD", "designationCode": "B", "categoryCode": "55", "address": "1709 HOLLIS STREET, 5TH FLOOR P.O. BOX 457, HALIFAX CENTRAL", "city": "HALIFAX", "province": "NS", "country": "CA", "postalCode": "B3J2P8", "twitter": "None", "instagram": "None", "facebook": "None", "youtube": "None", "website": "None", "summary": "None", "logo": "None", "latitude": 44.647722827370295, "longitude": -63.57286089243476}, "141096826RR0001": {"name": "TRUST UNDER THE WILL ESTATE OF THE LATE BERNARD LACROIX", "designationCode": "B", "categoryCode": "05", "address": "(THE CANADA TRUST CO.)        PO BOX 10085", "city": "VANCOUVER", "province": "BC", "country": "CA", "postalCode": "V7Y1B6", "twitter": "None", "instagram": "None", "facebook": "None", "youtube": "None", "website": "None", "summary": "None", "logo": "None", "latitude": 49.28294993392596, "longitude": -123.11892994113924}, "140951427RR0001": {"name": "TRUST UNDER THE WILL ESTATE OF YVONNE P ROGERS", "designationCode": "B", "categoryCode": "15", "address": "(THE CANADA TRUST CO.)        PO BOX 10085", "city": "VANCOUVER", "province": "BC", "country": "CA", "postalCode": "V7Y1B6", "twitter": "None", "instagram": "None", "facebook": "None", "youtube": "None", "website": "None", "summary": "None", "logo": "None", "latitude": 49.28294993392596, "longitude": -123.11892994113924}, "890821390RR0001": {"name": "TRUST UNDER THE WILL GEORGE F SHORTT ESTATE", "designationCode": "B", "categoryCode": "05", "address": "1 P V M 5TH FLOOR SOUTH", "city": "MONTREAL", "province": "QC", "country": "CA", "postalCode": "H3B2B2", "twitter": "None", "instagram": "None", "facebook": "None", "youtube": "None", "website": "None", "summary": "None", "logo": "None", "latitude": 45.49987500000006, "longitude": -73.56867649999994}, "889581062RR0001": {"name": "TRUST UNDER THE WILL JESSIE ANN DEWAR ESTATE", "designationCode": "B", "categoryCode": "15", "address": "1402 - 1 KING ST W", "city": "HAMILTON", "province": "ON", "country": "CA", "postalCode": "L8P1A4", "twitter": "None", "instagram": "None", "facebook": "None", "youtube": "None", "website": "None", "summary": "None", "logo": "None", "latitude": 43.26019321073324, "longitude": -79.88135629363086}, "141022830RR0001": {"name": "TRUST UNDER THE WILL MARY E LAVERS ESTATE", "designationCode": "B", "categoryCode": "15", "address": "(THE CANADA TRUST CO.)        PO BOX 10085", "city": "VANCOUVER", "province": "BC", "country": "CA", "postalCode": "V7Y1B6", "twitter": "None", "instagram": "None", "facebook": "None", "youtube": "None", "website": "None", "summary": "None", "logo": "None", "latitude": 49.28294993392596, "longitude": -123.11892994113924}, "891181174RR0001": {"name": "TRUST UNDER THE WILL NORAH PARKER CLARK ESTATE", "designationCode": "B", "categoryCode": "15", "address": "1402 - 1 KING ST W", "city": "HAMILTON", "province": "ON", "country": "CA", "postalCode": "L8P1A4", "twitter": "None", "instagram": "None", "facebook": "None", "youtube": "None", "website": "None", "summary": "None", "logo": "None", "latitude": 43.26019321073324, "longitude": -79.88135629363086}, "879026201RR0001": {"name": "TRUST UNDER THE WILL OF ALFREDA LEMPI LONSTREET", "designationCode": "B", "categoryCode": "05", "address": "89 PINE STREET                UNIT 1002", "city": "SAULT STE. MARIE", "province": "ON", "country": "CA", "postalCode": "P6A6M6", "twitter": "None", "instagram": "None", "facebook": "None", "youtube": "None", "website": "None", "summary": "None", "logo": "None", "latitude": 46.502802, "longitude": -84.30751295729675}, "898184320RR0001": {"name": "TRUST UNDER THE WILL OF ALICE E. MACINNES", "designationCode": "B", "categoryCode": "05", "address": "380 WELLINGTON STREET         12TH FLOOR", "city": "LONDON", "province": "ON", "country": "CA", "postalCode": "N6A5B5", "twitter": "None", "instagram": "None", "facebook": "None", "youtube": "None", "website": "None", "summary": "None", "logo": "None", "latitude": 42.98403487844074, "longitude": -81.24475227780037}, "851665273RR0001": {"name": "TRUST UNDER THE WILL OF AUDREY LOIS MAIR", "designationCode": "B", "categoryCode": "03", "address": "1002 SHERBROOKE ST. WEST      SUITE 540", "city": "MONTREAL", "province": "QC", "country": "CA", "postalCode": "H3A3L6", "twitter": "None", "instagram": "None", "facebook": "None", "youtube": "None", "website": "None", "summary": "None", "logo": "None", "latitude": 45.502789852876845, "longitude": -73.57558716772498}, "839523545RR0001": {"name": "TRUST UNDER THE WILL OF BEATRICE Y. MARSHALL", "designationCode": "B", "categoryCode": "15", "address": "P.O. BOX 685                  PUBLIC TRUSTEE OF NOVA SCOTIA", "city": "HALIFAX", "province": "NS", "country": "CA", "postalCode": "B3J2T3", "twitter": "None", "instagram": "None", "facebook": "None", "youtube": "None", "website": "None", "summary": "None", "logo": "None", "latitude": 44.645478000000054, "longitude": -63.576552499999934}, "134109529RR0001": {"name": "TRUST UNDER THE WILL OF C F W MOSELEY FOR PARISH OF CHRIST CHURCH, DARTMOUTH", "designationCode": "B", "categoryCode": "45", "address": "(THE CANADA TRUST CO.)        PO BOX 10085", "city": "VANCOUVER", "province": "BC", "country": "CA", "postalCode": "V7Y1B6", "twitter": "None", "instagram": "None", "facebook": "None", "youtube": "None", "website": "None", "summary": "None", "logo": "None"}, "889292595RR0001": {"name": "TRUST UNDER THE WILL OF C HOAR FOR ST ANDREW'S PRESBYTERIAN CHURCH, PICTOU COUNTY", "designationCode": "B", "categoryCode": "45", "address": "380 WELLINGTON ST", "city": "LONDON", "province": "ON", "country": "CA", "postalCode": "N6A5B5", "twitter": "None", "instagram": "None", "facebook": "None", "youtube": "None", "website": "None", "summary": "None", "logo": "None", "latitude": 42.98403487844074, "longitude": -81.24475227780037}, "826766149RR0001": {"name": "TRUST UNDER THE WILL OF CHARLES F. TODD", "designationCode": "B", "categoryCode": "03", "address": "155 WELLINGTON ST. W. 20TH FL", "city": "TORONTO", "province": "ON", "country": "CA", "postalCode": "M5V3K7", "twitter": "None", "instagram": "None", "facebook": "None", "youtube": "None", "website": "None", "summary": "None", "logo": "None", "latitude": 43.64596585316531, "longitude": -79.38574575644876}, "867120792RR0001": {"name": "TRUST UNDER THE WILL OF CHARLOTTE ELIZABETH BAKER", "designationCode": "B", "categoryCode": "45", "address": "155 WELLINGTON ST. W.         20TH FLOOR", "city": "TORONTO", "province": "ON", "country": "CA", "postalCode": "M5V3K7", "twitter": "None", "instagram": "None", "facebook": "None", "youtube": "None", "website": "None", "summary": "None", "logo": "None", "latitude": 43.64596585316531, "longitude": -79.38574575644876}, "894696228RR0001": {"name": "TRUST UNDER THE WILL OF CHARLOTTE ELIZABETH BAKER OF BEAVERBROOK ART GALLERY", "designationCode": "B", "categoryCode": "45", "address": "155 WELLINGTON ST W           20TH FLOOR", "city": "TORONTO", "province": "ON", "country": "CA", "postalCode": "M5V3K7", "twitter": "None", "instagram": "None", "facebook": "None", "youtube": "None", "website": "None", "summary": "None", "logo": "None", "latitude": 43.64596585316531, "longitude": -79.38574575644876}, "896083425RR0001": {"name": "TRUST UNDER THE WILL OF CLEMENT C. AVARD", "designationCode": "B", "categoryCode": "25", "address": "380 WELLINGTON ST, 12TH FLOOR", "city": "LONDON", "province": "ON", "country": "CA", "postalCode": "N6A5B5", "twitter": "None", "instagram": "None", "facebook": "None", "youtube": "None", "website": "None", "summary": "None", "logo": "None", "latitude": 42.98403487844074, "longitude": -81.24475227780037}, "889180063RR0001": {"name": "TRUST UNDER THE WILL OF DANIEL SUTHERLAND ESTATE", "designationCode": "B", "categoryCode": "05", "address": "155 WELLINGTON ST. W.         20TH FLOOR", "city": "TORONTO", "province": "ON", "country": "CA", "postalCode": "M5V3K7", "twitter": "None", "instagram": "None", "facebook": "None", "youtube": "None", "website": "None", "summary": "None", "logo": "None", "latitude": 43.64596585316531, "longitude": -79.38574575644876}, "119272219RR0001": {"name": "TRUST UNDER THE WILL OF DONALD S MCPHEE FORESTRY SCHOLARSHIP FUND", "designationCode": "B", "categoryCode": "25", "address": "PO BOX 10085                  PACIFIC CENTRE", "city": "VANCOUVER", "province": "BC", "country": "CA", "postalCode": "V7Y1B6", "twitter": "None", "instagram": "None", "facebook": "None", "youtube": "None", "website": "None", "summary": "None", "logo": "None", "latitude": 49.28299000000004, "longitude": -123.11890999999997}, "863504916RR0001": {"name": "TRUST UNDER THE WILL OF DONALDA MCKENNA ESTATE", "designationCode": "B", "categoryCode": "05", "address": "(THE CANADA TRUST CO.)        PO BOX 10085", "city": "VANCOUVER", "province": "BC", "country": "CA", "postalCode": "V7Y1B6", "twitter": "None", "instagram": "None", "facebook": "None", "youtube": "None", "website": "None", "summary": "None", "logo": "None", "latitude": 49.28294993392596, "longitude": -123.11892994113924}, "862340742RR0001": {"name": "TRUST UNDER THE WILL OF DOUGLAS SUTHERLAND COOMBES", "designationCode": "B", "categoryCode": "25", "address": "1709 HOLLIS ST.,5TH FLOOR     PO BOX 457", "city": "HALIFAX", "province": "NS", "country": "CA", "postalCode": "B3P2S2", "twitter": "None", "instagram": "None", "facebook": "None", "youtube": "None", "website": "None", "summary": "None", "logo": "None", "latitude": 44.647722827370295, "longitude": -63.57286089243476}, "139322515RR0001": {"name": "TRUST UNDER THE WILL OF DR WILLIAM BROWN BOYD ESTATE", "designationCode": "B", "categoryCode": "25", "address": "130 KING STREET, WEST 20TH FL.BOX 430 STN FIRST CANADIAN PL.", "city": "TORONTO", "province": "ON", "country": "CA", "postalCode": "M5X1K1", "twitter": "None", "instagram": "None", "facebook": "None", "youtube": "None", "website": "None", "summary": "None", "logo": "None", "latitude": 43.64826932503962, "longitude": -79.38190945606182}, "864415146RR0001": {"name": "TRUST UNDER THE WILL OF DR. JAMES BUCHAN", "designationCode": "B", "categoryCode": "25", "address": "1870 ALTA VISTA DRIVE", "city": "OTTAWA", "province": "ON", "country": "CA", "postalCode": "K1G6R7", "twitter": "None", "instagram": "None", "facebook": "None", "youtube": "None", "website": "None", "summary": "None", "logo": "None", "latitude": 45.39950230001739, "longitude": -75.66193704059617}, "881206510RR0001": {"name": "TRUST UNDER THE WILL OF E. AUDREY ANDERSON", "designationCode": "B", "categoryCode": "05", "address": "380 WELLINGTON ST             12TH FLOOR", "city": "LONDON", "province": "ON", "country": "CA", "postalCode": "N6A5B5", "twitter": "None", "instagram": "None", "facebook": "None", "youtube": "None", "website": "None", "summary": "None", "logo": "None", "latitude": 42.98403487844074, "longitude": -81.24475227780037}, "139482566RR0001": {"name": "TRUST UNDER THE WILL OF ELEANOR SCHAFFNER", "designationCode": "B", "categoryCode": "03", "address": "(THE CANADA TRUST CO.)        PO BOX 10085", "city": "VANCOUVER", "province": "BC", "country": "CA", "postalCode": "V7Y1B6", "twitter": "None", "instagram": "None", "facebook": "None", "youtube": "None", "website": "None", "summary": "None", "logo": "None"}, "881641906RR0001": {"name": "TRUST UNDER THE WILL OF ELIZABETH M COUTANCHE", "designationCode": "C", "categoryCode": "05", "address": "PO BOX 10085", "city": "VANCOUVER", "province": "BC", "country": "CA", "postalCode": "V7Y1B6", "twitter": "None", "instagram": "None", "facebook": "None", "youtube": "None", "website": "None", "summary": "None", "logo": "None", "latitude": 49.26037200000006, "longitude": -123.11336149999994}, "823647359RR0001": {"name": "TRUST UNDER THE WILL OF ELIZABETH M. SIMONFAY", "designationCode": "B", "categoryCode": "25", "address": "1002 SHERBROOKE STREET WEST   SUITE 540", "city": "MONTR\u00c9AL", "province": "QC", "country": "CA", "postalCode": "H3A3L6", "twitter": "None", "instagram": "None", "facebook": "None", "youtube": "None", "website": "None", "summary": "None", "logo": "None", "latitude": 45.502789852876845, "longitude": -73.57558716772498}, "871643342RR0001": {"name": "TRUST UNDER THE WILL OF ERICA ELIZABETH HUGHES", "designationCode": "B", "categoryCode": "05", "address": "(THE CANADA TRUST CO.)        PO BOX 10085", "city": "VANCOUVER", "province": "BC", "country": "CA", "postalCode": "V7Y1B6", "twitter": "None", "instagram": "None", "facebook": "None", "youtube": "None", "website": "None", "summary": "None", "logo": "None", "latitude": 49.28294993392596, "longitude": -123.11892994113924}, "854542578RR0001": {"name": "TRUST UNDER THE WILL OF EVELYN CHRISTINE BYWORTH (THE CHURCH ARMY TRUST", "designationCode": "B", "categoryCode": "25", "address": "PO BOX 10085                  LCD PACIFIC CENTRE", "city": "VANCOUVER", "province": "BC", "country": "CA", "postalCode": "V7Y1B6", "twitter": "None", "instagram": "None", "facebook": "None", "youtube": "None", "website": "None", "summary": "None", "logo": "None", "latitude": 49.28299000000004, "longitude": -123.11890999999997}, "854034238RR0001": {"name": "TRUST UNDER THE WILL OF EVELYN CHRISTINE BYWORTH (THE COLLEGE TRUST)", "designationCode": "B", "categoryCode": "25", "address": "PO BOX 10085                  LCD PACIFIC CENTRE", "city": "VANCOUVER", "province": "BC", "country": "CA", "postalCode": "V7Y1B6", "twitter": "None", "instagram": "None", "facebook": "None", "youtube": "None", "website": "None", "summary": "None", "logo": "None", "latitude": 49.28299000000004, "longitude": -123.11890999999997}, "882769144RR0001": {"name": "TRUST UNDER THE WILL OF EVELYN M HALSTEAD", "designationCode": "B", "categoryCode": "55", "address": "P.O. BOX 38073 STN BURNSIDE", "city": "DARTMOUTH", "province": "NS", "country": "CA", "postalCode": "B3B1X2", "twitter": "None", "instagram": "None", "facebook": "None", "youtube": "None", "website": "None", "summary": "None", "logo": "None", "latitude": 44.7145707288881, "longitude": -63.59110854666608}, "133712679RR0001": {"name": "TRUST UNDER THE WILL OF FRANCIS J ROBINSON", "designationCode": "B", "categoryCode": "45", "address": "380 WELLINGTON STREET         12TH FLOOR", "city": "LONDON", "province": "ON", "country": "CA", "postalCode": "N6A5B5", "twitter": "None", "instagram": "None", "facebook": "None", "youtube": "None", "website": "None", "summary": "None", "logo": "None", "latitude": 42.98403487844074, "longitude": -81.24475227780037}, "887100659RR0001": {"name": "TRUST UNDER THE WILL OF FRANCIS OUELLETTE", "designationCode": "B", "categoryCode": "05", "address": "1402 - 1 KING ST W", "city": "HAMILTON", "province": "ON", "country": "CA", "postalCode": "L8P1A4", "twitter": "None", "instagram": "None", "facebook": "None", "youtube": "None", "website": "None", "summary": "None", "logo": "None", "latitude": 43.26019321073324, "longitude": -79.88135629363086}, "858843741RR0001": {"name": "TRUST UNDER THE WILL OF FRANK ROSS", "designationCode": "B", "categoryCode": "05", "address": "1002 SHERBROOKE STREET WEST   SUITE 540, SCOTIA TRUST", "city": "MONTREAL", "province": "QC", "country": "CA", "postalCode": "H3A3L6", "twitter": "None", "instagram": "None", "facebook": "None", "youtube": "None", "website": "None", "summary": "None", "logo": "None", "latitude": 45.502789852876845, "longitude": -73.57558716772498}, "836881870RR0001": {"name": "TRUST UNDER THE WILL OF GEORGE R P GRAHAM", "designationCode": "B", "categoryCode": "25", "address": "ROYAL TRUST CORP #04043       155 WELLINGTON ST W 20TH FLR", "city": "TORONTO", "province": "ON", "country": "CA", "postalCode": "M5V3K7", "twitter": "None", "instagram": "None", "facebook": "None", "youtube": "None", "website": "None", "summary": "None", "logo": "None", "latitude": 43.64596585316531, "longitude": -79.38574575644876}, "133516344RR0001": {"name": "TRUST UNDER THE WILL OF GEORGE WILKINSON THE WILKINSON MINISTERIAL TRUST FUND", "designationCode": "B", "categoryCode": "45", "address": "380 WELLINGTON ST, 12TH FLOOR TD WEALTH PRIVATE TRUST", "city": "LONDON", "province": "ON", "country": "CA", "postalCode": "N6A5B5", "twitter": "None", "instagram": "None", "facebook": "None", "youtube": "None", "website": "None", "summary": "None", "logo": "None", "latitude": 42.98407800000005, "longitude": -81.24475399999993}, "828454926RR0001": {"name": "TRUST UNDER THE WILL OF HAZEL ANN JEWELL", "designationCode": "B", "categoryCode": "05", "address": "1402 - 1 KING ST W", "city": "HAMILTON", "province": "ON", "country": "CA", "postalCode": "L8P1A4", "twitter": "None", "instagram": "None", "facebook": "None", "youtube": "None", "website": "None", "summary": "None", "logo": "None", "latitude": 43.26019321073324, "longitude": -79.88135629363086}, "891067399RR0001": {"name": "TRUST UNDER THE WILL OF HELEN PURVES ESTATE", "designationCode": "B", "categoryCode": "15", "address": "155 WELLINGTON STREET WEST    20TH FLOOR TRANSIT 04043", "city": "TORONTO", "province": "ON", "country": "CA", "postalCode": "M5V3K7", "twitter": "None", "instagram": "None", "facebook": "None", "youtube": "None", "website": "None", "summary": "None", "logo": "None", "latitude": 43.64596585316531, "longitude": -79.38574575644876}, "864762539RR0001": {"name": "TRUST UNDER THE WILL OF HELEN U. PALMER", "designationCode": "B", "categoryCode": "05", "address": "(THE CANADA TRUST CO.)        PO BOX 10085", "city": "VANCOUVER", "province": "BC", "country": "CA", "postalCode": "V7Y1B6", "twitter": "None", "instagram": "None", "facebook": "None", "youtube": "None", "website": "None", "summary": "None", "logo": "None", "latitude": 49.28294993392596, "longitude": -123.11892994113924}, "862326741RR0001": {"name": "TRUST UNDER THE WILL OF HENRY KEENAN", "designationCode": "B", "categoryCode": "45", "address": "155 WELLINGTON ST W,          20TH FLOOR", "city": "TORONTO", "province": "ON", "country": "CA", "postalCode": "M5V3K7", "twitter": "None", "instagram": "None", "facebook": "None", "youtube": "None", "website": "None", "summary": "None", "logo": "None", "latitude": 43.64596585316531, "longitude": -79.38574575644876}, "890473390RR0001": {"name": "TRUST UNDER THE WILL OF HERBERT A JOHNSON", "designationCode": "B", "categoryCode": "25", "address": "1709 HOLLIS STREET, 5TH FLOOR P.O. BOX 457, HALIFAX CENTRAL", "city": "HALIFAX", "province": "NS", "country": "CA", "postalCode": "B3J2P8", "twitter": "None", "instagram": "None", "facebook": "None", "youtube": "None", "website": "None", "summary": "None", "logo": "None", "latitude": 44.647722827370295, "longitude": -63.57286089243476}, "854734142RR0001": {"name": "TRUST UNDER THE WILL OF HERBERT BERESFORD CLINCH", "designationCode": "B", "categoryCode": "05", "address": "402 - 1321 BLANSHARD ST", "city": "VICTORIA", "province": "BC", "country": "CA", "postalCode": "V8W0B6", "twitter": "None", "instagram": "None", "facebook": "None", "youtube": "None", "website": "None", "summary": "None", "logo": "None", "latitude": 48.42645904579034, "longitude": -123.36191337699842}, "871343877RR0001": {"name": "TRUST UNDER THE WILL OF HUGH LATIMER TRENHOLM", "designationCode": "B", "categoryCode": "05", "address": "(THE CANADA TRUST CO.)        PO BOX 10085", "city": "VANCOUVER", "province": "BC", "country": "CA", "postalCode": "V7Y1B6", "twitter": "None", "instagram": "None", "facebook": "None", "youtube": "None", "website": "None", "summary": "None", "logo": "None", "latitude": 49.28294993392596, "longitude": -123.11892994113924}, "887674794RR0001": {"name": "TRUST UNDER THE WILL OF IDA MAY KEITH", "designationCode": "B", "categoryCode": "03", "address": "155 WELLINGTON ST W 20TH FL", "city": "TORONTO", "province": "ON", "country": "CA", "postalCode": "M5V3K7", "twitter": "None", "instagram": "None", "facebook": "None", "youtube": "None", "website": "None", "summary": "None", "logo": "None", "latitude": 43.64596585316531, "longitude": -79.38574575644876}, "140774282RR0001": {"name": "TRUST UNDER THE WILL OF J W DIMOCK CANADIAN BAPTIST OVERSEASFOREIGN MISSION BOARD", "designationCode": "B", "categoryCode": "45", "address": "TD PRIVATE CLIENT SERVICES    PO BOX 10085", "city": "VANCOUVER", "province": "BC", "country": "CA", "postalCode": "V7Y1B6", "twitter": "None", "instagram": "None", "facebook": "None", "youtube": "None", "website": "None", "summary": "None", "logo": "None", "latitude": 49.26037200000006, "longitude": -123.11336149999994}, "119272250RR0001": {"name": "TRUST UNDER THE WILL OF JAMES COSMAN", "designationCode": "B", "categoryCode": "05", "address": "380 WELLINGTON ST             12TH FLOOR", "city": "LONDON", "province": "ON", "country": "CA", "postalCode": "N6A5B5", "twitter": "None", "instagram": "None", "facebook": "None", "youtube": "None", "website": "None", "summary": "None", "logo": "None", "latitude": 42.98403487844074, "longitude": -81.24475227780037}, "810732347RR0001": {"name": "TRUST UNDER THE WILL OF JEANNE YVONNE COSTELLO", "designationCode": "B", "categoryCode": "05", "address": "1 PLACE VILLE-MARIE, 6TH FLOORROYAL TRUST COMPANY, S. WING", "city": "MONTREAL", "province": "QC", "country": "CA", "postalCode": "H3B2B2", "twitter": "None", "instagram": "None", "facebook": "None", "youtube": "None", "website": "None", "summary": "None", "logo": "None", "latitude": 45.49987500000006, "longitude": -73.56867649999994}, "889376190RR0001": {"name": "TRUST UNDER THE WILL OF JOHN BENJAMIN CLARK WATKINS-CANADA COUNCIL", "designationCode": "B", "categoryCode": "25", "address": "155 WELLINGTON ST W 20TH FLOOR", "city": "TORONTO", "province": "ON", "country": "CA", "postalCode": "M5V3K7", "twitter": "None", "instagram": "None", "facebook": "None", "youtube": "None", "website": "None", "summary": "None", "logo": "None", "latitude": 43.64596585316531, "longitude": -79.38574575644876}, "866263932RR0001": {"name": "TRUST UNDER THE WILL OF JOHN MEL MACKENZIE", "designationCode": "B", "categoryCode": "45", "address": "1709 HOLLIS STREET, 5TH FLOOR P.O. BOX 457, HALIFAX CENTRAL", "city": "HALIFAX", "province": "NS", "country": "CA", "postalCode": "B3J2P8", "twitter": "None", "instagram": "None", "facebook": "None", "youtube": "None", "website": "None", "summary": "None", "logo": "None", "latitude": 44.647722827370295, "longitude": -63.57286089243476}, "140847880RR0001": {"name": "TRUST UNDER THE WILL OF JOHN RICHARD STRATHY QUEENS UNIVERSITY", "designationCode": "B", "categoryCode": "25", "address": "130 KING STREET W 20TH FLOOR  BOX 430, STN FIRST CANADIAN PL", "city": "TORONTO", "province": "ON", "country": "CA", "postalCode": "M5X1K1", "twitter": "None", "instagram": "None", "facebook": "None", "youtube": "None", "website": "None", "summary": "None", "logo": "None", "latitude": 43.64826932503962, "longitude": -79.38190945606182}, "119272268RR0001": {"name": "TRUST UNDER THE WILL OF JOSEPH ARNOLD HEMM", "designationCode": "B", "categoryCode": "15", "address": "P.O. BOX 10085                PACIFIC CENTRE", "city": "VANCOUVER", "province": "BC", "country": "CA", "postalCode": "V7Y1B6", "twitter": "None", "instagram": "None", "facebook": "None", "youtube": "None", "website": "None", "summary": "None", "logo": "None", "latitude": 49.28299000000004, "longitude": -123.11890999999997}, "887142792RR0001": {"name": "TRUST UNDER THE WILL OF JULIA A WILKINSON", "designationCode": "B", "categoryCode": "03", "address": "380 WELLINGTON STREET         12TH FLOOR", "city": "LONDON", "province": "ON", "country": "CA", "postalCode": "N6A5B5", "twitter": "None", "instagram": "None", "facebook": "None", "youtube": "None", "website": "None", "summary": "None", "logo": "None", "latitude": 42.98403487844074, "longitude": -81.24475227780037}, "843248394RR0001": {"name": "TRUST UNDER THE WILL OF KENNETH HNIDAN", "designationCode": "B", "categoryCode": "05", "address": "PO BOX 10085 PACIFIC CTR", "city": "VANCOUVER", "province": "BC", "country": "CA", "postalCode": "V7Y1B6", "twitter": "None", "instagram": "None", "facebook": "None", "youtube": "None", "website": "None", "summary": "None", "logo": "None", "latitude": 49.26037200000006, "longitude": -123.11336149999994}, "868823469RR0001": {"name": "TRUST UNDER THE WILL OF LAURENCE SESSENWEIN", "designationCode": "B", "categoryCode": "15", "address": "1 PLACE VILLE MARIE           5TH FLOOR SOUTH", "city": "MONTREAL", "province": "QC", "country": "CA", "postalCode": "H3B2B2", "twitter": "None", "instagram": "None", "facebook": "None", "youtube": "None", "website": "None", "summary": "None", "logo": "None", "latitude": 45.50188724476333, "longitude": -73.56787382018557}, "876602699RR0001": {"name": "TRUST UNDER THE WILL OF LEONA KATHLEEN RIGGS", "designationCode": "B", "categoryCode": "25", "address": "101 - 109 PRINCESS ST", "city": "KINGSTON", "province": "ON", "country": "CA", "postalCode": "K7L1A8", "twitter": "None", "instagram": "None", "facebook": "None", "youtube": "None", "website": "None", "summary": "None", "logo": "None", "latitude": 44.23167532168612, "longitude": -76.48285601664843}, "890121866RR0001": {"name": "TRUST UNDER THE WILL OF LILLIE D NELSON", "designationCode": "B", "categoryCode": "53", "address": "1709 HOLLIS STREET, 5TH FLOOR P.O. BOX 457, HALIFAX CENTRAL", "city": "HALIFAX", "province": "NS", "country": "CA", "postalCode": "B3J2P8", "twitter": "None", "instagram": "None", "facebook": "None", "youtube": "None", "website": "None", "summary": "None", "logo": "None", "latitude": 44.647722827370295, "longitude": -63.57286089243476}, "867085912RR0001": {"name": "TRUST UNDER THE WILL OF LINDSAY THOMPSON", "designationCode": "B", "categoryCode": "05", "address": "THE CANADA TRUST CO.          PO BOX 10085", "city": "VANCOUVER", "province": "BC", "country": "CA", "postalCode": "V7Y1B6", "twitter": "None", "instagram": "None", "facebook": "None", "youtube": "None", "website": "None", "summary": "None", "logo": "None", "latitude": 49.28294993392596, "longitude": -123.11892994113924}, "890689797RR0001": {"name": "TRUST UNDER THE WILL OF MABEL A CARLETON ESTATE TORONTO DIOCESE SYNOD CHURCH OF ENGLAND", "designationCode": "B", "categoryCode": "45", "address": "PO BOX 10085", "city": "VANCOUVER", "province": "BC", "country": "CA", "postalCode": "V7Y1B6", "twitter": "None", "instagram": "None", "facebook": "None", "youtube": "None", "website": "None", "summary": "None", "logo": "None", "latitude": 49.26037200000006, "longitude": -123.11336149999994}}