{"107909939RR0056": {"name": "ST. JOSEPH'S CHURCH", "designationCode": "C", "categoryCode": "38", "address": "5009 - 48 AVENUE", "city": "TABER", "province": "AB", "country": "CA", "postalCode": "T1G1T4", "twitter": "None", "instagram": "None", "facebook": "None", "youtube": "None", "website": "None", "summary": "None", "logo": "None", "latitude": 49.78385431057762, "longitude": -112.14917807729816}, "108025578RR0001": {"name": "ST. JOSEPH'S CHURCH", "designationCode": "C", "categoryCode": "38", "address": "355 ANDREWS ST", "city": "WINNIPEG", "province": "MB", "country": "CA", "postalCode": "R2W4T5", "twitter": "None", "instagram": "None", "facebook": "None", "youtube": "None", "website": "None", "summary": "None", "logo": "None", "latitude": 49.92293478988983, "longitude": -97.14111574712926}, "108025586RR0001": {"name": "ST. JOSEPH'S CHURCH", "designationCode": "C", "categoryCode": "38", "address": "PO BOX 251", "city": "CRAIK", "province": "SK", "country": "CA", "postalCode": "S0G0V0", "twitter": "None", "instagram": "None", "facebook": "None", "youtube": "None", "website": "None", "summary": "None", "logo": "None", "latitude": 51.047450000000026, "longitude": -105.82258999999999}, "119109791RR0032": {"name": "ST. JOSEPH'S CHURCH", "designationCode": "C", "categoryCode": "38", "address": "3718 NETHERBY ROAD, RR#2", "city": "STEVENSVILLE", "province": "ON", "country": "CA", "postalCode": "L0S1S0", "twitter": "None", "instagram": "None", "facebook": "None", "youtube": "None", "website": "None", "summary": "None", "logo": "None", "latitude": 42.963764508222965, "longitude": -79.05539152553523}, "119109791RR0033": {"name": "ST. JOSEPH'S CHURCH", "designationCode": "C", "categoryCode": "38", "address": "135 LIVINGSTON AVENUE", "city": "GRIMSBY", "province": "ON", "country": "CA", "postalCode": "L3M5J6", "twitter": "None", "instagram": "None", "facebook": "None", "youtube": "None", "website": "None", "summary": "None", "logo": "None", "latitude": 43.1979727504475, "longitude": -79.57910663226374}, "119109817RR0016": {"name": "ST. JOSEPH'S CHURCH", "designationCode": "C", "categoryCode": "38", "address": "96 HURON ST", "city": "STRATFORD", "province": "ON", "country": "CA", "postalCode": "N5A5S6", "twitter": "None", "instagram": "None", "facebook": "None", "youtube": "None", "website": "None", "summary": "None", "logo": "None", "latitude": 43.373626006693776, "longitude": -80.9873107712222}, "119110385RR0037": {"name": "ST. JOSEPH'S CHURCH", "designationCode": "C", "categoryCode": "38", "address": "106 ST. JACQUES ST.           P.O. BOX 40", "city": "CHAPEAU", "province": "QC", "country": "CA", "postalCode": "J0X1M0", "twitter": "None", "instagram": "None", "facebook": "None", "youtube": "None", "website": "None", "summary": "None", "logo": "None", "latitude": 45.91039984205681, "longitude": -77.07783537731555}, "119110443RR0043": {"name": "ST. JOSEPH'S CHURCH", "designationCode": "C", "categoryCode": "38", "address": "399 VICTORIA AVE", "city": "BELLEVILLE", "province": "ON", "country": "CA", "postalCode": "K8N2E7", "twitter": "None", "instagram": "None", "facebook": "None", "youtube": "None", "website": "None", "summary": "None", "logo": "None", "latitude": 44.17357915958797, "longitude": -77.35809448612153}, "894358746RR0001": {"name": "ST. JOSEPH'S CHURCH", "designationCode": "C", "categoryCode": "38", "address": "BOX 502", "city": "BOISSEVAIN", "province": "MB", "country": "CA", "postalCode": "R0K0E0", "twitter": "None", "instagram": "None", "facebook": "None", "youtube": "None", "website": "None", "summary": "None", "logo": "None", "latitude": 49.23156000000006, "longitude": -100.05945999999994}, "106880107RR0060": {"name": "ST. JOSEPH'S CHURCH, PETIT DE GRAT", "designationCode": "C", "categoryCode": "38", "address": "P.0. BOX 60", "city": "ARICHAT", "province": "NS", "country": "CA", "postalCode": "B0E1A0", "twitter": "None", "instagram": "None", "facebook": "None", "youtube": "None", "website": "None", "summary": "None", "logo": "None", "latitude": 45.51193000000006, "longitude": -61.01564999999994}, "812538874RR0001": {"name": "ST. JOSEPH'S COMMUNITY CENTRE AT FOYMOUNT", "designationCode": "C", "categoryCode": "01", "address": "32, MADAWASKA CRES. 318", "city": "FOYMOUNT", "province": "ON", "country": "CA", "postalCode": "K0J1W0", "twitter": "None", "instagram": "None", "facebook": "None", "youtube": "None", "website": "None", "summary": "None", "logo": "None", "latitude": 45.43483128279205, "longitude": -77.30408172104578}, "889295812RR0001": {"name": "ST. JOSEPH'S COUNCIL NO. 6361 CHARITABLE WELFARE TRUST", "designationCode": "A", "categoryCode": "65", "address": "127 LIBERTY STREET SOUTH", "city": "BOWMANVILLE", "province": "ON", "country": "CA", "postalCode": "L1C2P5", "twitter": "None", "instagram": "None", "facebook": "None", "youtube": "None", "website": "None", "summary": "None", "logo": "None", "latitude": 43.902937413555236, "longitude": -78.67685046595334}, "873621759RR0001": {"name": "ST. JOSEPH'S FOUNDATION OF SUDBURY", "designationCode": "B", "categoryCode": "03", "address": "1250 SOUTH BAY RD", "city": "SUDBURY", "province": "ON", "country": "CA", "postalCode": "P3E6L9", "twitter": "None", "instagram": "None", "facebook": "None", "youtube": "None", "website": "None", "summary": "None", "logo": "None", "latitude": 46.46502005190716, "longitude": -80.96542416388715}, "119183267RR0001": {"name": "ST. JOSEPH'S FOUNDATION OF THUNDER BAY", "designationCode": "A", "categoryCode": "53", "address": "63 CARRIE STREET", "city": "THUNDER BAY", "province": "ON", "country": "CA", "postalCode": "P7A4J2", "twitter": "None", "instagram": "None", "facebook": "None", "youtube": "None", "website": "None", "summary": "None", "logo": "None", "latitude": 48.442226943620774, "longitude": -89.24119136943835}, "108025842RR0001": {"name": "ST. JOSEPH'S GENERAL HOSPITAL", "designationCode": "C", "categoryCode": "10", "address": "2137 COMOX AVENUE", "city": "COMOX", "province": "BC", "country": "CA", "postalCode": "V9M1P2", "twitter": "None", "instagram": "None", "facebook": "None", "youtube": "None", "website": "None", "summary": "None", "logo": "None", "latitude": 49.67551634655669, "longitude": -124.94082592151634}, "135866713RR0001": {"name": "ST. JOSEPH'S GENERAL HOSPITAL AUXILIARY SOCIETY", "designationCode": "C", "categoryCode": "19", "address": "2137 COMOX AVE", "city": "COMOX", "province": "BC", "country": "CA", "postalCode": "V9M1P2", "twitter": "None", "instagram": "None", "facebook": "None", "youtube": "None", "website": "None", "summary": "None", "logo": "None", "latitude": 49.67551634655669, "longitude": -124.94082592151634}, "892677782RR0001": {"name": "ST. JOSEPH'S GENERAL HOSPITAL ELLIOT LAKE", "designationCode": "C", "categoryCode": "10", "address": "70 SPINE RD", "city": "ELLIOT LAKE", "province": "ON", "country": "CA", "postalCode": "P5A1X2", "twitter": "None", "instagram": "None", "facebook": "None", "youtube": "None", "website": "None", "summary": "None", "logo": "None", "latitude": 46.384222570120436, "longitude": -82.66114913455425}, "108026139RR0001": {"name": "ST. JOSEPH'S HEALTH CARE SOCIETY", "designationCode": "C", "categoryCode": "10", "address": "402 - 700 RICHMOND ST", "city": "LONDON", "province": "ON", "country": "CA", "postalCode": "N6A5C7", "twitter": "None", "instagram": "None", "facebook": "None", "youtube": "None", "website": "None", "summary": "None", "logo": "None", "latitude": 42.99403521954524, "longitude": -81.25239318829719}, "890332372RR0001": {"name": "ST. JOSEPH'S HEALTH CENTRE FOUNDATION, GUELPH", "designationCode": "A", "categoryCode": "15", "address": "100 WESTMOUNT RD", "city": "GUELPH", "province": "ON", "country": "CA", "postalCode": "N1H5H8", "twitter": "None", "instagram": "None", "facebook": "None", "youtube": "None", "website": "None", "summary": "None", "logo": "None", "latitude": 43.55088010439057, "longitude": -80.27103337871628}, "870743465RR0001": {"name": "ST. JOSEPH'S HEALTH CENTRE OF SUDBURY", "designationCode": "C", "categoryCode": "11", "address": "1140 SOUTH BAY RD", "city": "SUDBURY", "province": "ON", "country": "CA", "postalCode": "P3E0B6", "twitter": "None", "instagram": "None", "facebook": "None", "youtube": "None", "website": "None", "summary": "None", "logo": "None", "latitude": 46.46722419302016, "longitude": -80.96758935672953}, "108026055RR0001": {"name": "ST. JOSEPH'S HEALTH SERVICES ASSOCIATION OF CHATHAM INCORPORATED", "designationCode": "C", "categoryCode": "10", "address": "80 GRANDE AVE WEST            PO BOX 2030", "city": "CHATHAM", "province": "ON", "country": "CA", "postalCode": "N7M5L9", "twitter": "None", "instagram": "None", "facebook": "None", "youtube": "None", "website": "None", "summary": "None", "logo": "None", "latitude": 42.404613000000055, "longitude": -82.18960099999994}, "119183549RR0001": {"name": "ST. JOSEPH'S HEALTHCARE FOUNDATION, HAMILTON", "designationCode": "A", "categoryCode": "13", "address": "224 JAMES ST S", "city": "HAMILTON", "province": "ON", "country": "CA", "postalCode": "L8P3A9", "twitter": "None", "instagram": "None", "facebook": "None", "youtube": "None", "website": "None", "summary": "None", "logo": "None", "latitude": 43.25000998196661, "longitude": -79.87204218806605}, "108014077RR0001": {"name": "ST. JOSEPH'S HOME CARE", "designationCode": "C", "categoryCode": "11", "address": "1550 UPPER JAMES STREET", "city": "HAMILTON", "province": "ON", "country": "CA", "postalCode": "L9B2L6", "twitter": "None", "instagram": "None", "facebook": "None", "youtube": "None", "website": "None", "summary": "None", "logo": "None", "latitude": 43.203917680015984, "longitude": -79.89253586854338}, "832681670RR0001": {"name": "ST. JOSEPH'S HOSPICE RESOURCE CENTRE OF SARNIA LAMBTON", "designationCode": "C", "categoryCode": "10", "address": "475 N. CHRISTINA STREET", "city": "SARNIA", "province": "ON", "country": "CA", "postalCode": "N7T5W3", "twitter": "None", "instagram": "None", "facebook": "None", "youtube": "None", "website": "None", "summary": "None", "logo": "None", "latitude": 42.98194387956677, "longitude": -82.40224091407244}, "108026089RR0001": {"name": "ST. JOSEPH'S HOSPITAL", "designationCode": "C", "categoryCode": "10", "address": "BOX 190", "city": "MACKLIN", "province": "SK", "country": "CA", "postalCode": "S0L2C0", "twitter": "None", "instagram": "None", "facebook": "None", "youtube": "None", "website": "None", "summary": "None", "logo": "None", "latitude": 52.33280000000008, "longitude": -109.93590999999998}, "108026261RR0001": {"name": "ST. JOSEPH'S HOSPITAL", "designationCode": "C", "categoryCode": "10", "address": "100 WESTMOUNT RD", "city": "GUELPH", "province": "ON", "country": "CA", "postalCode": "N1H5H8", "twitter": "None", "instagram": "None", "facebook": "None", "youtube": "None", "website": "None", "summary": "None", "logo": "None", "latitude": 43.55088010439057, "longitude": -80.27103337871628}, "108026105RR0001": {"name": "ST. JOSEPH'S HOSPITAL OF ESTEVAN", "designationCode": "C", "categoryCode": "10", "address": "1176 NICHOLSON ROAD", "city": "ESTEVAN", "province": "SK", "country": "CA", "postalCode": "S4A0H3", "twitter": "None", "instagram": "None", "facebook": "None", "youtube": "None", "website": "None", "summary": "None", "logo": "None", "latitude": 49.151318193343755, "longitude": -103.01136227216202}, "108025222RR0001": {"name": "ST. JOSEPH'S ISLAND KEE-WAY-DIN CHRISTIAN CENTER", "designationCode": "C", "categoryCode": "56", "address": "R.R. 1", "city": "RICHARD'S LANDING", "province": "ON", "country": "CA", "postalCode": "P0R1J0", "twitter": "None", "instagram": "None", "facebook": "None", "youtube": "None", "website": "None", "summary": "None", "logo": "None", "latitude": 46.283998418832695, "longitude": -84.03190314670739}, "853952638RR0001": {"name": "ST. JOSEPH'S LAKESIDE COMMUNITY CENTER", "designationCode": "C", "categoryCode": "56", "address": "2752 OHIO EAST ROAD", "city": "ANTIGONISH", "province": "NS", "country": "CA", "postalCode": "B2G2K8", "twitter": "None", "instagram": "None", "facebook": "None", "youtube": "None", "website": "None", "summary": "None", "logo": "None", "latitude": 45.53905584422118, "longitude": -62.07576430734631}, "108026048RR0001": {"name": "ST. JOSEPH'S LIFECARE CENTRE, BRANTFORD", "designationCode": "C", "categoryCode": "10", "address": "99 WAYNE GRETZKY PARKWAY", "city": "BRANTFORD", "province": "ON", "country": "CA", "postalCode": "N3S6T6", "twitter": "None", "instagram": "None", "facebook": "None", "youtube": "None", "website": "None", "summary": "None", "logo": "None", "latitude": 43.14627270165606, "longitude": -80.23595166478212}, "105028310RR0001": {"name": "ST. JOSEPH'S LIFECARE FOUNDATION, BRANTFORD", "designationCode": "A", "categoryCode": "13", "address": "99 WAYNE GRETZKY PKWY", "city": "BRANTFORD", "province": "ON", "country": "CA", "postalCode": "N3S6T6", "twitter": "None", "instagram": "None", "facebook": "None", "youtube": "None", "website": "None", "summary": "None", "logo": "None", "latitude": 43.14627270165606, "longitude": -80.23595166478212}, "119109833RR0029": {"name": "ST. JOSEPH'S Parish", "designationCode": "C", "categoryCode": "38", "address": "123 PLEASANT STREET", "city": "BRIDGEWATER", "province": "NS", "country": "CA", "postalCode": "B4V1N3", "twitter": "None", "instagram": "None", "facebook": "None", "youtube": "None", "website": "None", "summary": "None", "logo": "None", "latitude": 44.378557608084854, "longitude": -64.52187038346105}, "107020331RR0008": {"name": "ST. JOSEPH'S PARISH", "designationCode": "C", "categoryCode": "38", "address": "48 KING STREET", "city": "CHIPMAN", "province": "NB", "country": "CA", "postalCode": "E4A2H7", "twitter": "None", "instagram": "None", "facebook": "None", "youtube": "None", "website": "None", "summary": "None", "logo": "None", "latitude": 46.173679715737016, "longitude": -65.87874154654013}, "107020331RR0013": {"name": "ST. JOSEPH'S PARISH", "designationCode": "C", "categoryCode": "38", "address": "PO. BOX 468", "city": "BATH", "province": "NB", "country": "CA", "postalCode": "E7J2N3", "twitter": "None", "instagram": "None", "facebook": "None", "youtube": "None", "website": "None", "summary": "None", "logo": "None", "latitude": 46.50950400000005, "longitude": -67.59541249999994}, "107020331RR0022": {"name": "ST. JOSEPH'S PARISH", "designationCode": "C", "categoryCode": "38", "address": "4347 LOCH LOMOND RD", "city": "SAINT JOHN", "province": "NB", "country": "CA", "postalCode": "E2N1C8", "twitter": "None", "instagram": "None", "facebook": "None", "youtube": "None", "website": "None", "summary": "None", "logo": "None", "latitude": 45.3341798057302, "longitude": -65.88382715197059}, "107307191RR0037": {"name": "ST. JOSEPH'S PARISH", "designationCode": "C", "categoryCode": "38", "address": "BOX 40", "city": "KINDERSLEY", "province": "SK", "country": "CA", "postalCode": "S0L1S0", "twitter": "None", "instagram": "None", "facebook": "None", "youtube": "None", "website": "None", "summary": "None", "logo": "None", "latitude": 51.46791900000005, "longitude": -109.15522999999993}, "107307191RR0043": {"name": "ST. JOSEPH'S PARISH", "designationCode": "C", "categoryCode": "38", "address": "535 8TH STREET EAST", "city": "SASKATOON", "province": "SK", "country": "CA", "postalCode": "S7H0P9", "twitter": "None", "instagram": "None", "facebook": "None", "youtube": "None", "website": "None", "summary": "None", "logo": "None", "latitude": 52.114706453257384, "longitude": -106.6574925}, "107910176RR0036": {"name": "ST. JOSEPH'S PARISH", "designationCode": "C", "categoryCode": "38", "address": "PO BOX 1363 STN C", "city": "ST. JOHN'S", "province": "NL", "country": "CA", "postalCode": "A1C5N5", "twitter": "None", "instagram": "None", "facebook": "None", "youtube": "None", "website": "None", "summary": "None", "logo": "None", "latitude": 47.56082100000006, "longitude": -52.71219349999993}, "107910176RR0043": {"name": "ST. JOSEPH'S PARISH", "designationCode": "C", "categoryCode": "38", "address": "PO BOX 1363", "city": "ST JOHN'S", "province": "NL", "country": "CA", "postalCode": "A1C5N5", "twitter": "None", "instagram": "None", "facebook": "None", "youtube": "None", "website": "None", "summary": "None", "logo": "None", "latitude": 47.56082100000006, "longitude": -52.71219349999993}, "107910192RR0005": {"name": "ST. JOSEPH'S PARISH", "designationCode": "C", "categoryCode": "38", "address": "P.O.BOX 100", "city": "ST.GEORGE'S", "province": "NL", "country": "CA", "postalCode": "A0N1Z0", "twitter": "None", "instagram": "None", "facebook": "None", "youtube": "None", "website": "None", "summary": "None", "logo": "None", "latitude": 48.42371000000003, "longitude": -58.504939999999976}, "108026709RR0001": {"name": "ST. JOSEPH'S PARISH", "designationCode": "C", "categoryCode": "38", "address": "1064-3RD AVE NW", "city": "MOOSE JAW", "province": "SK", "country": "CA", "postalCode": "S6H3T9", "twitter": "None", "instagram": "None", "facebook": "None", "youtube": "None", "website": "None", "summary": "None", "logo": "None", "latitude": 50.39996388093943, "longitude": -105.54288594041506}, "108094392RR0013": {"name": "ST. JOSEPH'S PARISH", "designationCode": "C", "categoryCode": "38", "address": "BOX 303", "city": "JAFFRAY", "province": "BC", "country": "CA", "postalCode": "V0B1T0", "twitter": "None", "instagram": "None", "facebook": "None", "youtube": "None", "website": "None", "summary": "None", "logo": "None", "latitude": 49.37577300000001, "longitude": -115.30324575}, "118849470RR0008": {"name": "ST. JOSEPH'S PARISH", "designationCode": "C", "categoryCode": "38", "address": "20676 FRASER HWY", "city": "LANGLEY", "province": "BC", "country": "CA", "postalCode": "V3A4G5", "twitter": "None", "instagram": "None", "facebook": "None", "youtube": "None", "website": "None", "summary": "None", "logo": "None", "latitude": 49.10298782808003, "longitude": -122.6491731468694}, "118849470RR0010": {"name": "ST. JOSEPH'S PARISH", "designationCode": "C", "categoryCode": "38", "address": "32550 7TH AVE", "city": "MISSION", "province": "BC", "country": "CA", "postalCode": "V2V2B9", "twitter": "None", "instagram": "None", "facebook": "None", "youtube": "None", "website": "None", "summary": "None", "logo": "None", "latitude": 49.14013768555261, "longitude": -122.32323388164315}, "118849470RR0055": {"name": "ST. JOSEPH'S PARISH", "designationCode": "C", "categoryCode": "38", "address": "1612 E 18TH AVE", "city": "VANCOUVER", "province": "BC", "country": "CA", "postalCode": "V5N2H6", "twitter": "None", "instagram": "None", "facebook": "None", "youtube": "None", "website": "None", "summary": "None", "logo": "None", "latitude": 49.25430851009889, "longitude": -123.07051116333889}, "118849470RR0072": {"name": "ST. JOSEPH'S PARISH", "designationCode": "C", "categoryCode": "38", "address": "140 MOODY ST", "city": "PORT MOODY", "province": "BC", "country": "CA", "postalCode": "V3H2P9", "twitter": "None", "instagram": "None", "facebook": "None", "youtube": "None", "website": "None", "summary": "None", "logo": "None", "latitude": 49.275029923394335, "longitude": -122.85015891116063}, "119109817RR0001": {"name": "ST. JOSEPH'S PARISH", "designationCode": "C", "categoryCode": "38", "address": "205 TWEEDSMUIR AVE W", "city": "CHATHAM", "province": "ON", "country": "CA", "postalCode": "N7M5N8", "twitter": "None", "instagram": "None", "facebook": "None", "youtube": "None", "website": "None", "summary": "None", "logo": "None", "latitude": 42.38845646130746, "longitude": -82.17898895423832}, "119110450RR0016": {"name": "ST. JOSEPH'S PARISH", "designationCode": "C", "categoryCode": "38", "address": "260 HERKIMER STREET", "city": "HAMILTON", "province": "ON", "country": "CA", "postalCode": "L8P2H9", "twitter": "None", "instagram": "None", "facebook": "None", "youtube": "None", "website": "None", "summary": "None", "logo": "None", "latitude": 43.25231508133753, "longitude": -79.88608517692889}, "119110450RR0041": {"name": "ST. JOSEPH'S PARISH", "designationCode": "C", "categoryCode": "38", "address": "760 ST. DAVID STREET NORTH", "city": "FERGUS", "province": "ON", "country": "CA", "postalCode": "N1M2K9", "twitter": "None", "instagram": "None", "facebook": "None", "youtube": "None", "website": "None", "summary": "None", "logo": "None", "latitude": 43.711607724555655, "longitude": -80.38748064311245}, "119110450RR0042": {"name": "ST. JOSEPH'S PARISH", "designationCode": "C", "categoryCode": "38", "address": "2028 LUMBERMAN LANE", "city": "OAKVILLE", "province": "ON", "country": "CA", "postalCode": "L6M2Z1", "twitter": "None", "instagram": "None", "facebook": "None", "youtube": "None", "website": "None", "summary": "None", "logo": "None", "latitude": 43.4348038595706, "longitude": -79.74081973218293}, "119110450RR0056": {"name": "ST. JOSEPH'S PARISH", "designationCode": "C", "categoryCode": "38", "address": "409 PAISLEY ROAD", "city": "GUELPH", "province": "ON", "country": "CA", "postalCode": "N1H2R4", "twitter": "None", "instagram": "None", "facebook": "None", "youtube": "None", "website": "None", "summary": "None", "logo": "None"}, "119110450RR0085": {"name": "ST. JOSEPH'S PARISH", "designationCode": "C", "categoryCode": "38", "address": "235 BRANT AVE.", "city": "BRANTFORD", "province": "ON", "country": "CA", "postalCode": "N3T3J4", "twitter": "None", "instagram": "None", "facebook": "None", "youtube": "None", "website": "None", "summary": "None", "logo": "None", "latitude": 43.147327327182055, "longitude": -80.27655515900035}, "119110450RR0087": {"name": "ST. JOSEPH'S PARISH", "designationCode": "C", "categoryCode": "38", "address": "148 MADISON AVE S", "city": "KITCHENER", "province": "ON", "country": "CA", "postalCode": "N2G3M6", "twitter": "None", "instagram": "None", "facebook": "None", "youtube": "None", "website": "None", "summary": "None", "logo": "None", "latitude": 43.442616519851086, "longitude": -80.48584714475723}, "119110450RR0091": {"name": "ST. JOSEPH'S PARISH", "designationCode": "C", "categoryCode": "38", "address": "PO BOX 513", "city": "MARKDALE", "province": "ON", "country": "CA", "postalCode": "N0C1H0", "twitter": "None", "instagram": "None", "facebook": "None", "youtube": "None", "website": "None", "summary": "None", "logo": "None", "latitude": 44.31914000000006, "longitude": -80.64888999999994}, "119110450RR0098": {"name": "ST. JOSEPH'S PARISH", "designationCode": "C", "categoryCode": "38", "address": "920 WELLINGTON ST             BOX 429", "city": "PORT ELGIN", "province": "ON", "country": "CA", "postalCode": "N0H2C0", "twitter": "None", "instagram": "None", "facebook": "None", "youtube": "None", "website": "None", "summary": "None", "logo": "None", "latitude": 44.44164266002067, "longitude": -81.37981840553381}, "119122778RR0012": {"name": "ST. JOSEPH'S PARISH", "designationCode": "C", "categoryCode": "38", "address": "18318 COUNTY ROAD 2", "city": "CORNWALL", "province": "ON", "country": "CA", "postalCode": "K6H5R5", "twitter": "None", "instagram": "None", "facebook": "None", "youtube": "None", "website": "None", "summary": "None", "logo": "None", "latitude": 45.033150053098105, "longitude": -74.6380429734775}, "119122786RR0006": {"name": "ST. JOSEPH'S PARISH", "designationCode": "C", "categoryCode": "38", "address": "6500 SOUTHRIDGE AVE", "city": "PRINCE GEORGE", "province": "BC", "country": "CA", "postalCode": "V2N5P9", "twitter": "None", "instagram": "None", "facebook": "None", "youtube": "None", "website": "None", "summary": "None", "logo": "None", "latitude": 53.86420563941114, "longitude": -122.78374828519728}, "129950804RR0022": {"name": "ST. JOSEPH'S PARISH", "designationCode": "C", "categoryCode": "38", "address": "P. O. BOX 119", "city": "CHEMAINUS", "province": "BC", "country": "CA", "postalCode": "V0R1K0", "twitter": "None", "instagram": "None", "facebook": "None", "youtube": "None", "website": "None", "summary": "None", "logo": "None", "latitude": 48.90353545217932, "longitude": -123.70279429748639}, "107910812RR0001": {"name": "ST. JOSEPH'S PARISH CHURCH", "designationCode": "C", "categoryCode": "38", "address": "BOX 261", "city": "AVONLEA", "province": "SK", "country": "CA", "postalCode": "S0H0C0", "twitter": "None", "instagram": "None", "facebook": "None", "youtube": "None", "website": "None", "summary": "None", "logo": "None", "latitude": 50.016770000000065, "longitude": -105.06780999999995}, "106880107RR0033": {"name": "ST. JOSEPH'S PARISH, BRAS D'OR", "designationCode": "C", "categoryCode": "38", "address": "162 CHURCH ROAD", "city": "LITTLE BRAS D'OR", "province": "NS", "country": "CA", "postalCode": "B1Y2Y2", "twitter": "None", "instagram": "None", "facebook": "None", "youtube": "None", "website": "None", "summary": "None", "logo": "None", "latitude": 46.24492600513497, "longitude": -60.291240528967144}, "106880107RR0038": {"name": "ST. JOSEPH'S PARISH, DINGWALL", "designationCode": "C", "categoryCode": "38", "address": "POST OFFICE BOX 10", "city": "DINGWALL", "province": "NS", "country": "CA", "postalCode": "B0C1G0", "twitter": "None", "instagram": "None", "facebook": "None", "youtube": "None", "website": "None", "summary": "None", "logo": "None", "latitude": 46.895580088122614, "longitude": -60.471314408045956}, "106880107RR0069": {"name": "ST. JOSEPH'S PARISH, GRAND ETANG", "designationCode": "C", "categoryCode": "38", "address": "P.O. BOX 388", "city": "CHETICAMP", "province": "NS", "country": "CA", "postalCode": "B0E1H0", "twitter": "None", "instagram": "None", "facebook": "None", "youtube": "None", "website": "None", "summary": "None", "logo": "None", "latitude": 46.60719600312706, "longitude": -61.03849596133188}, "107876468RR0031": {"name": "ST. JOSEPH'S PARISH, GRAND FALLS-WINDSOR, NF.", "designationCode": "C", "categoryCode": "38", "address": "5 STATION ROAD", "city": "GRAND FALLS-WINDSOR", "province": "NL", "country": "CA", "postalCode": "A2A1M5", "twitter": "None", "instagram": "None", "facebook": "None", "youtube": "None", "website": "None", "summary": "None", "logo": "None", "latitude": 48.945559937088845, "longitude": -55.66836430487735}, "106880107RR0070": {"name": "ST. JOSEPH'S PARISH, NORTH SYDNEY", "designationCode": "C", "categoryCode": "38", "address": "PO BOX 338", "city": "NORTH SYDNEY", "province": "NS", "country": "CA", "postalCode": "B2A3M4", "twitter": "None", "instagram": "None", "facebook": "None", "youtube": "None", "website": "None", "summary": "None", "logo": "None", "latitude": 46.20710400000006, "longitude": -60.25146199999993}, "106880107RR0063": {"name": "ST. JOSEPH'S PARISH, PORT FELIX", "designationCode": "C", "categoryCode": "38", "address": "RR #2", "city": "LARRY'S RIVER", "province": "NS", "country": "CA", "postalCode": "B0H1T0", "twitter": "None", "instagram": "None", "facebook": "None", "youtube": "None", "website": "None", "summary": "None", "logo": "None", "latitude": 45.228133156456884, "longitude": -61.37994308699102}, "106880107RR0064": {"name": "ST. JOSEPH'S PARISH, PORT HAWKESBURY", "designationCode": "C", "categoryCode": "38", "address": "138 GRANVILLE STREET", "city": "PORT HAWKESBURY", "province": "NS", "country": "CA", "postalCode": "B9A2G1", "twitter": "None", "instagram": "None", "facebook": "None", "youtube": "None", "website": "None", "summary": "None", "logo": "None", "latitude": 45.61825552236125, "longitude": -61.36748000259708}, "106880107RR0065": {"name": "ST. JOSEPH'S PARISH, RESERVE MINES", "designationCode": "C", "categoryCode": "38", "address": "22 MAIN ST", "city": "RESERVE MINES", "province": "NS", "country": "CA", "postalCode": "B1E1E5", "twitter": "None", "instagram": "None", "facebook": "None", "youtube": "None", "website": "None", "summary": "None", "logo": "None", "latitude": 46.180919471839054, "longitude": -60.0197887813784}, "106880107RR0068": {"name": "ST. JOSEPH'S PARISH, SAINT JOSEPH", "designationCode": "C", "categoryCode": "38", "address": "2730 OHIO EAST ROAD           PO BOX 1022", "city": "ANTIGONISH", "province": "NS", "country": "CA", "postalCode": "B2G2S3", "twitter": "None", "instagram": "None", "facebook": "None", "youtube": "None", "website": "None", "summary": "None", "logo": "None", "latitude": 45.538914764874214, "longitude": -62.076477762681165}, "106880107RR0085": {"name": "ST. JOSEPH'S PARISH, SOUTHWEST MARGAREE", "designationCode": "C", "categoryCode": "38", "address": "73 SOUTH WEST MARGAREE RD", "city": "SOUTH WEST MARGAREE", "province": "NS", "country": "CA", "postalCode": "B0E3H0", "twitter": "None", "instagram": "None", "facebook": "None", "youtube": "None", "website": "None", "summary": "None", "logo": "None", "latitude": 46.20081351478351, "longitude": -61.15565704390483}, "118849470RR0029": {"name": "ST. JOSEPH'S PARISH, SQUAMISH", "designationCode": "C", "categoryCode": "38", "address": "PO BOX 1262", "city": "GARIBALDI HIGHLANDS", "province": "BC", "country": "CA", "postalCode": "V0N1T0", "twitter": "None", "instagram": "None", "facebook": "None", "youtube": "None", "website": "None", "summary": "None", "logo": "None", "latitude": 49.742860000000064, "longitude": -123.11049999999994}, "108026683RR0001": {"name": "ST. JOSEPH'S RESIDENCE INC.", "designationCode": "C", "categoryCode": "01", "address": "1149 LEILA AVENUE", "city": "WINNIPEG", "province": "MB", "country": "CA", "postalCode": "R2P1S6", "twitter": "None", "instagram": "None", "facebook": "None", "youtube": "None", "website": "None", "summary": "None", "logo": "None", "latitude": 49.95585290763994, "longitude": -97.15483196373164}, "848417168RR0001": {"name": "ST. JOSEPH'S ROMAN CATHOLIC CHURCH", "designationCode": "C", "categoryCode": "38", "address": "P.O. BOX 10", "city": "GLENWORTH", "province": "SK", "country": "CA", "postalCode": "S0H1V0", "twitter": "None", "instagram": "None", "facebook": "None", "youtube": "None", "website": "None", "summary": "None", "logo": "None", "latitude": 40.660480000000064, "longitude": -76.21104999999994}, "817107519RR0001": {"name": "ST. JOSEPH'S ROMAN CATHOLIC PARISH INC.", "designationCode": "C", "categoryCode": "38", "address": "PO BOX 128", "city": "KINKORA", "province": "PE", "country": "CA", "postalCode": "C0B1N0", "twitter": "None", "instagram": "None", "facebook": "None", "youtube": "None", "website": "None", "summary": "None", "logo": "None", "latitude": 46.32277000000005, "longitude": -63.60273999999998}, "857322119RR0001": {"name": "ST. JOSEPH'S UKRAINIAN CATHOLIC CHURCH", "designationCode": "C", "categoryCode": "38", "address": "300 RIVER OAKS BLVD E", "city": "OAKVILLE", "province": "ON", "country": "CA", "postalCode": "L6H5T1", "twitter": "None", "instagram": "None", "facebook": "None", "youtube": "None", "website": "None", "summary": "None", "logo": "None", "latitude": 43.47674959501444, "longitude": -79.70580071308261}, "119184430RR0001": {"name": "ST. JOSEPH'S VILLA FOUNDATION, DUNDAS", "designationCode": "A", "categoryCode": "13", "address": "56 GOVERNOR'S ROAD", "city": "DUNDAS", "province": "ON", "country": "CA", "postalCode": "L9H5G7", "twitter": "None", "instagram": "None", "facebook": "None", "youtube": "None", "website": "None", "summary": "None", "logo": "None", "latitude": 43.26224473876206, "longitude": -79.9576194987306}, "107876468RR0007": {"name": "ST. JOSEPHS PARISH", "designationCode": "C", "categoryCode": "38", "address": "P O BOX 190", "city": "HARBOUR BRETON", "province": "NL", "country": "CA", "postalCode": "A0H1P0", "twitter": "None", "instagram": "None", "facebook": "None", "youtube": "None", "website": "None", "summary": "None", "logo": "None", "latitude": 47.483250000000055, "longitude": -55.798329999999964}, "846357275RR0001": {"name": "ST. JUDE APOSTOLIC ANGLICAN CHURCH INC.", "designationCode": "C", "categoryCode": "30", "address": "BOX 124", "city": "SINTALUTA", "province": "SK", "country": "CA", "postalCode": "S0G4N0", "twitter": "None", "instagram": "None", "facebook": "None", "youtube": "None", "website": "None", "summary": "None", "logo": "None", "latitude": 50.476410000000044, "longitude": -103.44828999999999}, "108026972RR0001": {"name": "ST. JUDE'S ANGLICAN HOME", "designationCode": "C", "categoryCode": "01", "address": "810 WEST 27TH AVENUE", "city": "VANCOUVER", "province": "BC", "country": "CA", "postalCode": "V5Z2G7", "twitter": "None", "instagram": "None", "facebook": "None", "youtube": "None", "website": "None", "summary": "None", "logo": "None", "latitude": 49.24713548845881, "longitude": -123.12309069317328}, "106925316RR0002": {"name": "ST. JUDE'S CHURCH", "designationCode": "C", "categoryCode": "30", "address": "1537 ADELAIDE ST N", "city": "LONDON", "province": "ON", "country": "CA", "postalCode": "N5X1K6", "twitter": "None", "instagram": "None", "facebook": "None", "youtube": "None", "website": "None", "summary": "None", "logo": "None", "latitude": 43.03422702080337, "longitude": -81.25442213312913}, "108099771RR0086": {"name": "ST. JUDE'S CHURCH", "designationCode": "C", "categoryCode": "30", "address": "160 WILLIAM ST", "city": "OAKVILLE", "province": "ON", "country": "CA", "postalCode": "L6J1C5", "twitter": "None", "instagram": "None", "facebook": "None", "youtube": "None", "website": "None", "summary": "None", "logo": "None", "latitude": 43.443697306682495, "longitude": -79.66768961114326}, "118849470RR0056": {"name": "ST. JUDE'S PARISH", "designationCode": "C", "categoryCode": "38", "address": "3078 RENFREW ST", "city": "VANCOUVER", "province": "BC", "country": "CA", "postalCode": "V5M3K6", "twitter": "None", "instagram": "None", "facebook": "None", "youtube": "None", "website": "None", "summary": "None", "logo": "None", "latitude": 49.256539418721324, "longitude": -123.0442703119098}, "107585085RR0062": {"name": "ST. JUDE'S PARISH, GREEN LAKE, SK", "designationCode": "C", "categoryCode": "38", "address": "BOX 39", "city": "GREEN LAKE", "province": "SK", "country": "CA", "postalCode": "S0M1B0", "twitter": "None", "instagram": "None", "facebook": "None", "youtube": "None", "website": "None", "summary": "None", "logo": "None", "latitude": 55.86629977823537, "longitude": -108.47898421578235}, "889868089RR0001": {"name": "ST. JUDE'S PROJECT (ONTARIO) INC.", "designationCode": "C", "categoryCode": "09", "address": "1602-40 RICHVIEW RD", "city": "TORONTO", "province": "ON", "country": "CA", "postalCode": "M9A5C1", "twitter": "None", "instagram": "None", "facebook": "None", "youtube": "None", "website": "None", "summary": "None", "logo": "None", "latitude": 43.684770140198275, "longitude": -79.5157701848634}, "118841055RR0004": {"name": "ST. JUDES MISSION", "designationCode": "C", "categoryCode": "38", "address": "5119-5TH AVENUE", "city": "WHITEHORSE", "province": "YT", "country": "CA", "postalCode": "Y1A1L5", "twitter": "None", "instagram": "None", "facebook": "None", "youtube": "None", "website": "None", "summary": "None", "logo": "None", "latitude": 60.7190449431637, "longitude": -135.0584880610393}, "119109791RR0031": {"name": "ST. JULIA'S CHURCH", "designationCode": "C", "categoryCode": "38", "address": "16 ADELENE CRESCENT", "city": "ST CATHARINES", "province": "ON", "country": "CA", "postalCode": "L2T3C7", "twitter": "None", "instagram": "None", "facebook": "None", "youtube": "None", "website": "None", "summary": "None", "logo": "None", "latitude": 43.14301764888352, "longitude": -79.23292459270583}, "119109817RR0119": {"name": "ST. JUSTIN'S PARISH", "designationCode": "C", "categoryCode": "38", "address": "855 JALNA BLVD", "city": "LONDON", "province": "ON", "country": "CA", "postalCode": "N6E2S2", "twitter": "None", "instagram": "None", "facebook": "None", "youtube": "None", "website": "None", "summary": "None", "logo": "None", "latitude": 42.94123226447018, "longitude": -81.23769044367809}, "107876476RR0061": {"name": "ST. KEVIN'S CHURCH", "designationCode": "C", "categoryCode": "38", "address": "4610 ST THERESE", "city": "VAL THERESE", "province": "ON", "country": "CA", "postalCode": "P3P1S5", "twitter": "None", "instagram": "None", "facebook": "None", "youtube": "None", "website": "None", "summary": "None", "logo": "None", "latitude": 46.65424511518265, "longitude": -81.00185149495101}, "119109791RR0024": {"name": "ST. KEVIN'S CHURCH", "designationCode": "C", "categoryCode": "38", "address": "303 NIAGARA ST", "city": "WELLAND", "province": "ON", "country": "CA", "postalCode": "L3C1K5", "twitter": "None", "instagram": "None", "facebook": "None", "youtube": "None", "website": "None", "summary": "None", "logo": "None", "latitude": 42.999335245628714, "longitude": -79.25284106650678}, "107910176RR0031": {"name": "ST. KEVIN'S PARISH", "designationCode": "C", "categoryCode": "38", "address": "PO BOX 1363", "city": "ST. JOHN'S", "province": "NL", "country": "CA", "postalCode": "A1C5N5", "twitter": "None", "instagram": "None", "facebook": "None", "youtube": "None", "website": "None", "summary": "None", "logo": "None", "latitude": 47.56082100000006, "longitude": -52.71219349999993}, "846488724RR0001": {"name": "ST. LAWRENCE CATHOLIC CHURCH", "designationCode": "C", "categoryCode": "38", "address": "ADMINISTRATOR                 BOX 218", "city": "MAPLE CREEK", "province": "SK", "country": "CA", "postalCode": "S0N1N0", "twitter": "None", "instagram": "None", "facebook": "None", "youtube": "None", "website": "None", "summary": "None", "logo": "None", "latitude": 49.91416000000004, "longitude": -109.46959999999996}, "108027202RR0001": {"name": "ST. LAWRENCE COLLEGE OF APPLIED ARTS & TECHNOLOGY", "designationCode": "C", "categoryCode": "20", "address": "2288 PARKEDALE AVE", "city": "BROCKVILLE", "province": "ON", "country": "CA", "postalCode": "K6V5X3", "twitter": "None", "instagram": "None", "facebook": "None", "youtube": "None", "website": "None", "summary": "None", "logo": "None", "latitude": 44.60712351400722, "longitude": -75.69554156328091}, "108027285RR0001": {"name": "ST. LAWRENCE LODGE", "designationCode": "C", "categoryCode": "01", "address": "1803 COUNTY ROAD 2 EAST", "city": "BROCKVILLE", "province": "ON", "country": "CA", "postalCode": "K6V5T1", "twitter": "None", "instagram": "None", "facebook": "None", "youtube": "None", "website": "None", "summary": "None", "logo": "None", "latitude": 44.60201286368929, "longitude": -75.66544083731222}, "119034312RR0001": {"name": "ST. LAWRENCE LODGE FOUNDATION", "designationCode": "B", "categoryCode": "03", "address": "1803 COUNTRY RD 2 EAST", "city": "BROCKVILLE", "province": "ON", "country": "CA", "postalCode": "K6V5T1", "twitter": "None", "instagram": "None", "facebook": "None", "youtube": "None", "website": "None", "summary": "None", "logo": "None", "latitude": 44.60201286368929, "longitude": -75.66544083731222}, "119110443RR0030": {"name": "ST. LAWRENCE O'TOOLE CATHOLIC CHURCH", "designationCode": "C", "categoryCode": "38", "address": "P.O. BOX 43                   230 MAIN ST. W.", "city": "MERRICKVILLE", "province": "ON", "country": "CA", "postalCode": "K0G1N0", "twitter": "None", "instagram": "None", "facebook": "None", "youtube": "None", "website": "None", "summary": "None", "logo": "None", "latitude": 44.915767535634124, "longitude": -75.83968963474526}, "812228609RR0001": {"name": "ST. LAWRENCE O'TOOLE ROMAN CATHOLIC PARISH INC.", "designationCode": "C", "categoryCode": "38", "address": "PO BOX 83", "city": "MORELL", "province": "PE", "country": "CA", "postalCode": "C0A1S0", "twitter": "None", "instagram": "None", "facebook": "None", "youtube": "None", "website": "None", "summary": "None", "logo": "None", "latitude": 46.41615000000007, "longitude": -62.70426999999995}, "106880107RR0054": {"name": "ST. LAWRENCE PARISH, MULGRAVE", "designationCode": "C", "categoryCode": "38", "address": "PO BOX 28", "city": "MULGRAVE", "province": "NS", "country": "CA", "postalCode": "B0E2G0", "twitter": "None", "instagram": "None", "facebook": "None", "youtube": "None", "website": "None", "summary": "None", "logo": "None", "latitude": 45.616850000000056, "longitude": -61.381839999999954}, "863628707RR0001": {"name": "ST. LAWRENCE SHAKESPEARE THEATRICAL COMPANY", "designationCode": "C", "categoryCode": "22", "address": "PO BOX 119                    206 KING ST WEST", "city": "PRESCOTT", "province": "ON", "country": "CA", "postalCode": "K0E1T0", "twitter": "None", "instagram": "None", "facebook": "None", "youtube": "None", "website": "None", "summary": "None", "logo": "None", "latitude": 44.70934365544508, "longitude": -75.51468256813376}, "105029102RR0001": {"name": "ST. LAWRENCE VALLEY CEMETERY CORPORATION", "designationCode": "C", "categoryCode": "59", "address": "P.O. BOX 776", "city": "LONG SAULT", "province": "ON", "country": "CA", "postalCode": "K0C1P0", "twitter": "None", "instagram": "None", "facebook": "None", "youtube": "None", "website": "None", "summary": "None", "logo": "None", "latitude": 45.01324451560865, "longitude": -74.89606844091028}, "107876476RR0072": {"name": "ST. LAWRENCE'S CHURCH", "designationCode": "C", "categoryCode": "38", "address": "PO BOX 53", "city": "WEBBWOOD", "province": "ON", "country": "CA", "postalCode": "P0P2G0", "twitter": "None", "instagram": "None", "facebook": "None", "youtube": "None", "website": "None", "summary": "None", "logo": "None", "latitude": 46.269250000000056, "longitude": -81.88954999999999}, "119110450RR0074": {"name": "ST. LAWRENCE'S PARISH", "designationCode": "C", "categoryCode": "38", "address": "475 MARY STREET NORTH", "city": "HAMILTON", "province": "ON", "country": "CA", "postalCode": "L8L4X3", "twitter": "None", "instagram": "None", "facebook": "None", "youtube": "None", "website": "None", "summary": "None", "logo": "None", "latitude": 43.26911864807546, "longitude": -79.85809576660496}}