{"107480816RR0002": {"name": "HIGHLAND BAPTIST CHURCH", "designationCode": "C", "categoryCode": "31", "address": "63 BOULDER CRESCENT", "city": "GUELPH", "province": "ON", "country": "CA", "postalCode": "N1G5A2", "twitter": "None", "instagram": "None", "facebook": "None", "youtube": "None", "website": "None", "summary": "None", "logo": "None", "latitude": 43.49490565194194, "longitude": -80.198012930175}, "864412523RR0001": {"name": "HIGHLAND COMMUNITY CHURCH", "designationCode": "C", "categoryCode": "34", "address": "3130 MCMILLAN RD", "city": "ABBOTSFORD", "province": "BC", "country": "CA", "postalCode": "V2S6A8", "twitter": "None", "instagram": "None", "facebook": "None", "youtube": "None", "website": "None", "summary": "None", "logo": "None", "latitude": 49.05927886372555, "longitude": -122.26060808875339}, "107480857RR0001": {"name": "HIGHLAND COMMUNITY RESIDENTIAL SERVICES", "designationCode": "C", "categoryCode": "01", "address": "276 FOORD ST                  PO BOX 2140", "city": "STELLARTON", "province": "NS", "country": "CA", "postalCode": "B0K1S0", "twitter": "None", "instagram": "None", "facebook": "None", "youtube": "None", "website": "None", "summary": "None", "logo": "None", "latitude": 45.557456175688145, "longitude": -62.660239401205985}, "119288918RR0201": {"name": "HIGHLAND CONGREGATION OF JEHOVAH'S WITNESSES", "designationCode": "C", "categoryCode": "61", "address": "86 BASELINE ROAD WEST", "city": "LONDON", "province": "ON", "country": "CA", "postalCode": "N6J1V2", "twitter": "None", "instagram": "None", "facebook": "None", "youtube": "None", "website": "None", "summary": "None", "logo": "None", "latitude": 42.958775460470754, "longitude": -81.26696544907378}, "119288918RR1164": {"name": "HIGHLAND CREEK CONGREGATION OF JEHOVAH'S WITNESSES", "designationCode": "C", "categoryCode": "61", "address": "1425 MORNINGSIDE AVE", "city": "SCARBOROUGH", "province": "ON", "country": "CA", "postalCode": "M1B3J1", "twitter": "None", "instagram": "None", "facebook": "None", "youtube": "None", "website": "None", "summary": "None", "logo": "None", "latitude": 43.811110581193304, "longitude": -79.20358869908858}, "107480899RR0001": {"name": "HIGHLAND HERITAGE PARK SOCIETY", "designationCode": "C", "categoryCode": "52", "address": "378 MILLSTREAM LAKE RD", "city": "VICTORIA", "province": "BC", "country": "CA", "postalCode": "V9B6H5", "twitter": "None", "instagram": "None", "facebook": "None", "youtube": "None", "website": "None", "summary": "None", "logo": "None", "latitude": 48.527423957816346, "longitude": -123.50459042472106}, "118957059RR0001": {"name": "HIGHLAND MANOR MUNICIPAL HOUSING CORPORATION", "designationCode": "C", "categoryCode": "01", "address": "PO BOX 48", "city": "NEIL'S HARBOUR", "province": "NS", "country": "CA", "postalCode": "B0C1N0", "twitter": "None", "instagram": "None", "facebook": "None", "youtube": "None", "website": "None", "summary": "None", "logo": "None", "latitude": 46.80842000000007, "longitude": -60.32177999999993}, "107480923RR0001": {"name": "HIGHLAND MENNONITE BRETHREN CHURCH", "designationCode": "C", "categoryCode": "34", "address": "4018 CENTRE B ST N W", "city": "CALGARY", "province": "AB", "country": "CA", "postalCode": "T2K0W2", "twitter": "None", "instagram": "None", "facebook": "None", "youtube": "None", "website": "None", "summary": "None", "logo": "None", "latitude": 51.08841888481737, "longitude": -114.06386731802212}, "107480931RR0001": {"name": "HIGHLAND PARK EVANGELICAL FREE CHURCH", "designationCode": "C", "categoryCode": "39", "address": "BOX 99", "city": "NEW NORWAY", "province": "AB", "country": "CA", "postalCode": "T0B3L0", "twitter": "None", "instagram": "None", "facebook": "None", "youtube": "None", "website": "None", "summary": "None", "logo": "None", "latitude": 52.86856000000006, "longitude": -112.95187999999996}, "107480949RR0001": {"name": "HIGHLAND PARK WESLEYAN CHURCH", "designationCode": "C", "categoryCode": "39", "address": "415 KENWOOD AVE", "city": "OTTAWA", "province": "ON", "country": "CA", "postalCode": "K2A0K5", "twitter": "None", "instagram": "None", "facebook": "None", "youtube": "None", "website": "None", "summary": "None", "logo": "None", "latitude": 45.387914877055756, "longitude": -75.75520894408213}, "127519718RR0001": {"name": "HIGHLAND STIRLING COMMUNITY GROUP", "designationCode": "C", "categoryCode": "59", "address": "216 MILL STREET", "city": "KITCHENER", "province": "ON", "country": "CA", "postalCode": "N2M3R2", "twitter": "None", "instagram": "None", "facebook": "None", "youtube": "None", "website": "None", "summary": "None", "logo": "None", "latitude": 43.43794563503372, "longitude": -80.48805196904041}, "107481095RR0001": {"name": "HIGHLAND VALLEY BAPTIST CHURCH", "designationCode": "C", "categoryCode": "31", "address": "BOX 1006", "city": "LOGAN LAKE", "province": "BC", "country": "CA", "postalCode": "V0K1W0", "twitter": "None", "instagram": "None", "facebook": "None", "youtube": "None", "website": "None", "summary": "None", "logo": "None", "latitude": 50.49127000000004, "longitude": -120.81466999999998}, "132019399RR0001": {"name": "HIGHLANDS BAPTIST CHURCH,", "designationCode": "C", "categoryCode": "31", "address": "5351-112 AVE. N.W.", "city": "EDMONTON", "province": "AB", "country": "CA", "postalCode": "T5W0N6", "twitter": "None", "instagram": "None", "facebook": "None", "youtube": "None", "website": "None", "summary": "None", "logo": "None", "latitude": 53.567142539529264, "longitude": -113.42558177699232}, "880262514RR0001": {"name": "HIGHLANDS CHRISTIAN MINISTRIES OF STRATFORD", "designationCode": "C", "categoryCode": "39", "address": "16 BRAEMAR CRES", "city": "STRATFORD", "province": "ON", "country": "CA", "postalCode": "N5A7C2", "twitter": "None", "instagram": "None", "facebook": "None", "youtube": "None", "website": "None", "summary": "None", "logo": "None", "latitude": 43.382315156009966, "longitude": -80.98985072090154}, "118957083RR0001": {"name": "HIGHLANDS ELEMENTARY SCHOOL PARENT ADVISORY COUNCIL", "designationCode": "C", "categoryCode": "56", "address": "3150 COLWOOD DRIVE", "city": "NORTH VANCOUVER", "province": "BC", "country": "CA", "postalCode": "V7R2R6", "twitter": "None", "instagram": "None", "facebook": "None", "youtube": "None", "website": "None", "summary": "None", "logo": "None", "latitude": 49.33816931225107, "longitude": -123.0979019953264}, "107481012RR0001": {"name": "HIGHLANDS OUT OF SCHOOL CARE SOCIETY", "designationCode": "C", "categoryCode": "20", "address": "3150 COLWOOD DRIVE", "city": "NORTH VANCOUVER", "province": "BC", "country": "CA", "postalCode": "V7R2R6", "twitter": "None", "instagram": "None", "facebook": "None", "youtube": "None", "website": "None", "summary": "None", "logo": "None", "latitude": 49.33816931225107, "longitude": -123.0979019953264}, "107481020RR0001": {"name": "HIGHLANDS PRESCHOOL CENTRE SOCIETY", "designationCode": "C", "categoryCode": "20", "address": "3255 EDGEMOUNT BLVD", "city": "NORTH VANCOUVER", "province": "BC", "country": "CA", "postalCode": "V7R2P1", "twitter": "None", "instagram": "None", "facebook": "None", "youtube": "None", "website": "None", "summary": "None", "logo": "None", "latitude": 49.33890403577835, "longitude": -123.10389820529139}, "890275993RR0001": {"name": "HIGHLANDS STEWARDSHIP FOUNDATION", "designationCode": "C", "categoryCode": "59", "address": "499 MILLSTREAM LAKE RD", "city": "VICTORIA", "province": "BC", "country": "CA", "postalCode": "V9B6H5", "twitter": "None", "instagram": "None", "facebook": "None", "youtube": "None", "website": "None", "summary": "None", "logo": "None", "latitude": 48.51279100253883, "longitude": -123.5062640409725}, "107481061RR0001": {"name": "HIGHLANDS UNITED CHURCH", "designationCode": "C", "categoryCode": "44", "address": "3255 EDGEMONT BLVD", "city": "NORTH VANCOUVER", "province": "BC", "country": "CA", "postalCode": "V7R2P1", "twitter": "None", "instagram": "None", "facebook": "None", "youtube": "None", "website": "None", "summary": "None", "logo": "None", "latitude": 49.33890403577835, "longitude": -123.10389820529139}, "118957117RR0001": {"name": "HIGHLANDS UNITED CHURCH", "designationCode": "C", "categoryCode": "44", "address": "11305-64 STREET", "city": "EDMONTON", "province": "AB", "country": "CA", "postalCode": "T5W4H6", "twitter": "None", "instagram": "None", "facebook": "None", "youtube": "None", "website": "None", "summary": "None", "logo": "None", "latitude": 53.56692064891218, "longitude": -113.43751989768622}, "107481079RR0001": {"name": "HIGHLANDS YOUTH FOR CHRIST", "designationCode": "C", "categoryCode": "47", "address": "PO BOX 21 STN A", "city": "ORANGEVILLE", "province": "ON", "country": "CA", "postalCode": "L9W2Z5", "twitter": "None", "instagram": "None", "facebook": "None", "youtube": "None", "website": "None", "summary": "None", "logo": "None", "latitude": 43.892658732251896, "longitude": -80.27525271500956}, "118916709RR0001": {"name": "HIGHVIEW BAPTIST CHURCH", "designationCode": "C", "categoryCode": "31", "address": "411 HIGHVIEW DRIVE", "city": "HUNTSVILLE", "province": "ON", "country": "CA", "postalCode": "P1H1C1", "twitter": "None", "instagram": "None", "facebook": "None", "youtube": "None", "website": "None", "summary": "None", "logo": "None", "latitude": 45.34212084595193, "longitude": -79.19622190489957}, "118927748RR0001": {"name": "HIGHVIEW COMMUNITY CHURCH", "designationCode": "C", "categoryCode": "39", "address": "295 HIGHVIEW DRIVE", "city": "KITCHENER", "province": "ON", "country": "CA", "postalCode": "N2N2K7", "twitter": "None", "instagram": "None", "facebook": "None", "youtube": "None", "website": "None", "summary": "None", "logo": "None", "latitude": 43.414745817123915, "longitude": -80.55245152846244}, "132080300RR0001": {"name": "HIGHWAY GOSPEL CHURCH", "designationCode": "C", "categoryCode": "36", "address": "530 MIDLAND AVE", "city": "SCARBOROUGH", "province": "ON", "country": "CA", "postalCode": "M1N1T1", "twitter": "None", "instagram": "None", "facebook": "None", "youtube": "None", "website": "None", "summary": "None", "logo": "None", "latitude": 43.71742182930352, "longitude": -79.25081382448474}, "118957448RR0001": {"name": "HIGHWAY GOSPEL HALL", "designationCode": "C", "categoryCode": "47", "address": "2549 HEBERT RD", "city": "WESTBANK", "province": "BC", "country": "CA", "postalCode": "V4T2J6", "twitter": "None", "instagram": "None", "facebook": "None", "youtube": "None", "website": "None", "summary": "None", "logo": "None", "latitude": 49.827663388828064, "longitude": -119.6341705331526}, "871627345RR0001": {"name": "HIGHWAY PENTECOSTAL ASSEMBLY,", "designationCode": "C", "categoryCode": "36", "address": "BOX 161", "city": "LIVERPOOL", "province": "NS", "country": "CA", "postalCode": "B0T1K0", "twitter": "None", "instagram": "None", "facebook": "None", "youtube": "None", "website": "None", "summary": "None", "logo": "None", "latitude": 44.55097261852782, "longitude": -64.99385689482226}, "871733143RR0001": {"name": "HIGHWAY PENTECOSTAL CHURCH", "designationCode": "C", "categoryCode": "36", "address": "BOX 790", "city": "HAGERSVILLE", "province": "ON", "country": "CA", "postalCode": "N0A1H0", "twitter": "None", "instagram": "None", "facebook": "None", "youtube": "None", "website": "None", "summary": "None", "logo": "None", "latitude": 42.96624567435869, "longitude": -80.04526476987148}, "893273524RR0001": {"name": "HIGHWAY PENTECOSTAL CHURCH", "designationCode": "C", "categoryCode": "36", "address": "800 STEWART BLVD", "city": "BROCKVILLE", "province": "ON", "country": "CA", "postalCode": "K6V7H2", "twitter": "None", "instagram": "None", "facebook": "None", "youtube": "None", "website": "None", "summary": "None", "logo": "None", "latitude": 44.607763241676246, "longitude": -75.7258520463959}, "871230827RR0001": {"name": "HIGHWAY TO HOLINESS MINISTRIES", "designationCode": "C", "categoryCode": "39", "address": "815 - 4673 JANE ST", "city": "TORONTO", "province": "ON", "country": "CA", "postalCode": "M3N2L1", "twitter": "None", "instagram": "None", "facebook": "None", "youtube": "None", "website": "None", "summary": "None", "logo": "None", "latitude": 43.77037541854689, "longitude": -79.52069579955604}, "858628985RR0001": {"name": "HIGHWAY 986 EVANGELISTIC CHRISTIAN WORSHIP CENTER CONGREGATION", "designationCode": "C", "categoryCode": "39", "address": "BOX 5085", "city": "PEACE RIVER", "province": "AB", "country": "CA", "postalCode": "T8S1R7", "twitter": "None", "instagram": "None", "facebook": "None", "youtube": "None", "website": "None", "summary": "None", "logo": "None", "latitude": 56.232969000000054, "longitude": -117.29043349999993}, "118957513RR0001": {"name": "HIGHWOOD LUTHERAN CHURCH", "designationCode": "C", "categoryCode": "32", "address": "419 NORTHMOUNT DRIVE N W", "city": "CALGARY", "province": "AB", "country": "CA", "postalCode": "T2K3H7", "twitter": "None", "instagram": "None", "facebook": "None", "youtube": "None", "website": "None", "summary": "None", "logo": "None", "latitude": 51.09319951901434, "longitude": -114.0804099528247}, "127096360RR0001": {"name": "HIGHWOOD MEMORIAL CENTRE", "designationCode": "C", "categoryCode": "56", "address": "BOX 5123", "city": "HIGH RIVER", "province": "AB", "country": "CA", "postalCode": "T1V1M3", "twitter": "None", "instagram": "None", "facebook": "None", "youtube": "None", "website": "None", "summary": "None", "logo": "None", "latitude": 50.57803500000006, "longitude": -113.85914299999993}, "119280741RR0001": {"name": "HIIYE'YU LELUM (HOUSE OF FRIENDSHIP) SOCIETY", "designationCode": "C", "categoryCode": "56", "address": "P.O. BOX 1015", "city": "DUNCAN", "province": "BC", "country": "CA", "postalCode": "V9L3Y2", "twitter": "None", "instagram": "None", "facebook": "None", "youtube": "None", "website": "None", "summary": "None", "logo": "None", "latitude": 48.77908800000006, "longitude": -123.70739299999994}, "118957539RR0001": {"name": "HIKE ONTARIO TRUST FUND", "designationCode": "C", "categoryCode": "56", "address": "B - 99 THAMES ST N", "city": "INGERSOLL", "province": "ON", "country": "CA", "postalCode": "N5C3C6", "twitter": "None", "instagram": "None", "facebook": "None", "youtube": "None", "website": "None", "summary": "None", "logo": "None", "latitude": 43.0418463224942, "longitude": -80.88680257135421}, "891009318RR0001": {"name": "HILBRE CEMETERY ASSOCIATION", "designationCode": "C", "categoryCode": "59", "address": "P.O.BOX 18", "city": "HILBRE", "province": "MB", "country": "CA", "postalCode": "R0C1L0", "twitter": "None", "instagram": "None", "facebook": "None", "youtube": "None", "website": "None", "summary": "None", "logo": "None", "latitude": 51.49989000000001, "longitude": -98.59279275}, "889518775RR0001": {"name": "HILBRE GOSPEL CHAPEL", "designationCode": "C", "categoryCode": "39", "address": "PO BOX 19", "city": "HILBRE", "province": "MB", "country": "CA", "postalCode": "R0C1L0", "twitter": "None", "instagram": "None", "facebook": "None", "youtube": "None", "website": "None", "summary": "None", "logo": "None", "latitude": 51.49989000000001, "longitude": -98.59279275}, "118957554RR0001": {"name": "HILDA AND COMMUNITY ASSOCIATION", "designationCode": "C", "categoryCode": "56", "address": "BOX 59", "city": "HILDA", "province": "AB", "country": "CA", "postalCode": "T0J1R0", "twitter": "None", "instagram": "None", "facebook": "None", "youtube": "None", "website": "None", "summary": "None", "logo": "None", "latitude": 50.45554000000004, "longitude": -110.07446999999996}, "871837662RR0001": {"name": "HILDA AND LEWIS D CHIPMAN MEMORIAL FUND", "designationCode": "B", "categoryCode": "05", "address": "(THE CANADA TRUST CO.)        PO BOX 10085", "city": "VANCOUVER", "province": "BC", "country": "CA", "postalCode": "V7Y1B6", "twitter": "None", "instagram": "None", "facebook": "None", "youtube": "None", "website": "None", "summary": "None", "logo": "None", "latitude": 49.28294993392596, "longitude": -123.11892994113924}, "107481905RR0001": {"name": "HILDA BAPTIST CHURCH", "designationCode": "C", "categoryCode": "31", "address": "BOX 40", "city": "HILDA", "province": "AB", "country": "CA", "postalCode": "T0J1R0", "twitter": "None", "instagram": "None", "facebook": "None", "youtube": "None", "website": "None", "summary": "None", "logo": "None", "latitude": 50.45554000000004, "longitude": -110.07446999999996}, "118957570RR0001": {"name": "HILDUR HERMANSON AUXILIARY, WOMENS MISSONARY SOCIETY, WESTERN DIVISION PRESBYTERIAN CHURCH IN CANADA", "designationCode": "C", "categoryCode": "47", "address": "436 SPADINA CRESCENT E", "city": "SASKATOON", "province": "SK", "country": "CA", "postalCode": "S7K3G6", "twitter": "None", "instagram": "None", "facebook": "None", "youtube": "None", "website": "None", "summary": "None", "logo": "None", "latitude": 52.1242552445322, "longitude": -106.66035816475252}, "119030666RR0010": {"name": "HILL AVENUE SEVENTH-DAY ADVENTIST CHURCH", "designationCode": "C", "categoryCode": "41", "address": "1004 VICTORIA AVENUE", "city": "SASKATOON", "province": "SK", "country": "CA", "postalCode": "S7N0Z8", "twitter": "None", "instagram": "None", "facebook": "None", "youtube": "None", "website": "None", "summary": "None", "logo": "None", "latitude": 52.115409, "longitude": -106.66240826773014}, "891992240RR0001": {"name": "HILL CREST CEMETERY COMPANY", "designationCode": "C", "categoryCode": "59", "address": "BOX 113", "city": "FORT ASSINIBOINE", "province": "AB", "country": "CA", "postalCode": "T0G1A0", "twitter": "None", "instagram": "None", "facebook": "None", "youtube": "None", "website": "None", "summary": "None", "logo": "None", "latitude": 54.33400000000006, "longitude": -114.77396999999996}, "869834648RR0001": {"name": "HILL HOUSE HOSPICE INC", "designationCode": "C", "categoryCode": "01", "address": "36 WRIGHT ST", "city": "RICHMOND HILL", "province": "ON", "country": "CA", "postalCode": "L4C4A1", "twitter": "None", "instagram": "None", "facebook": "None", "youtube": "None", "website": "None", "summary": "None", "logo": "None", "latitude": 43.87755088923212, "longitude": -79.44072530070987}, "881844161RR0001": {"name": "HILL PARK ALUMNI ASSOCIATION", "designationCode": "C", "categoryCode": "21", "address": "28 EAST 22ND ST.", "city": "HAMILTON", "province": "ON", "country": "CA", "postalCode": "L8V2V3", "twitter": "None", "instagram": "None", "facebook": "None", "youtube": "None", "website": "None", "summary": "None", "logo": "None", "latitude": 43.23989879610393, "longitude": -79.85255649606033}, "107726259RR0001": {"name": "HILL PARK BIBLE CHURCH", "designationCode": "C", "categoryCode": "39", "address": "668 UPPER WENTWORTH ST", "city": "HAMILTON", "province": "ON", "country": "CA", "postalCode": "L9A4V5", "twitter": "None", "instagram": "None", "facebook": "None", "youtube": "None", "website": "None", "summary": "None", "logo": "None", "latitude": 43.22875769193255, "longitude": -79.85966674164666}, "118957596RR0001": {"name": "HILLCREST APOSTOLIC CHURCH", "designationCode": "C", "categoryCode": "36", "address": "1550 MAIN ST NORTH", "city": "MOOSE JAW", "province": "SK", "country": "CA", "postalCode": "S6J1L3", "twitter": "None", "instagram": "None", "facebook": "None", "youtube": "None", "website": "None", "summary": "None", "logo": "None", "latitude": 50.40992437448776, "longitude": -105.53486877558055}, "889713772RR0001": {"name": "HILLCREST CEMETARY COMPANY", "designationCode": "C", "categoryCode": "59", "address": "RR #1", "city": "CALEDONIA", "province": "NS", "country": "CA", "postalCode": "B0T1B0", "twitter": "None", "instagram": "None", "facebook": "None", "youtube": "None", "website": "None", "summary": "None", "logo": "None", "latitude": 44.3658188498631, "longitude": -65.07745621956198}, "893180760RR0001": {"name": "HILLCREST CHARITABLE TRUST", "designationCode": "B", "categoryCode": "39", "address": "3425 2 AVENUE SOUTH", "city": "LETHBRIDGE", "province": "AB", "country": "CA", "postalCode": "T1J4V1", "twitter": "None", "instagram": "None", "facebook": "None", "youtube": "None", "website": "None", "summary": "None", "logo": "None", "latitude": 49.696839530439966, "longitude": -112.78914308381903}, "107482176RR0001": {"name": "HILLCREST CHRISTIAN CHURCH (DISCIPLES OF CHRIST)", "designationCode": "C", "categoryCode": "39", "address": "2 VAUGHAN ROAD", "city": "TORONTO", "province": "ON", "country": "CA", "postalCode": "M6G2N1", "twitter": "None", "instagram": "None", "facebook": "None", "youtube": "None", "website": "None", "summary": "None", "logo": "None", "latitude": 43.681242238675146, "longitude": -79.41778258967607}, "131196206RR0001": {"name": "HILLCREST CHRISTIAN SCHOOL", "designationCode": "C", "categoryCode": "20", "address": "201, 9925 100 AVE.", "city": "GRANDE PRAIRIE", "province": "AB", "country": "CA", "postalCode": "T8V0V1", "twitter": "None", "instagram": "None", "facebook": "None", "youtube": "None", "website": "None", "summary": "None", "logo": "None", "latitude": 55.17066548845881, "longitude": -118.79379352553522}, "119288918RR0796": {"name": "HILLCREST CONGREGATION OF JEHOVAH'S WITNESSES", "designationCode": "C", "categoryCode": "61", "address": "2 CAMGREEN COURT", "city": "RICHMOND HILL", "province": "ON", "country": "CA", "postalCode": "L4C9V6", "twitter": "None", "instagram": "None", "facebook": "None", "youtube": "None", "website": "None", "summary": "None", "logo": "None", "latitude": 43.847464325581264, "longitude": -79.45326653733622}, "862335171RR0001": {"name": "HILLCREST EVANGELICAL MISSIONARY CHURCH FELLOWSHIP", "designationCode": "C", "categoryCode": "39", "address": "3785 13 AVE SE", "city": "MEDICINE HAT", "province": "AB", "country": "CA", "postalCode": "T1B1J2", "twitter": "None", "instagram": "None", "facebook": "None", "youtube": "None", "website": "None", "summary": "None", "logo": "None", "latitude": 49.998797999999994, "longitude": -110.66430078836062}, "107482242RR0001": {"name": "HILLCREST HOME FOUNDATION", "designationCode": "C", "categoryCode": "09", "address": "4321-52 AVE", "city": "BARRHEAD", "province": "AB", "country": "CA", "postalCode": "T7N1M6", "twitter": "None", "instagram": "None", "facebook": "None", "youtube": "None", "website": "None", "summary": "None", "logo": "None", "latitude": 54.12136152452562, "longitude": -114.3903825}, "820089274RR0001": {"name": "HILLCREST LODGE", "designationCode": "C", "categoryCode": "01", "address": "86 CEDAR STREET", "city": "ORILLIA", "province": "ON", "country": "CA", "postalCode": "L3V2C5", "twitter": "None", "instagram": "None", "facebook": "None", "youtube": "None", "website": "None", "summary": "None", "logo": "None", "latitude": 44.61818317712482, "longitude": -79.42251109286465}, "107482317RR0001": {"name": "HILLCREST MENNONITE CHURCH", "designationCode": "C", "categoryCode": "34", "address": "1056 HURON STREET", "city": "NEW HAMBURG", "province": "ON", "country": "CA", "postalCode": "N3A3E9", "twitter": "None", "instagram": "None", "facebook": "None", "youtube": "None", "website": "None", "summary": "None", "logo": "None", "latitude": 43.36973032615818, "longitude": -80.7323357714524}, "132003823RR0001": {"name": "HILLCREST MENNONITE CHURCH,", "designationCode": "C", "categoryCode": "34", "address": "201-9925 100 AVE", "city": "GRANDE PRAIRIE", "province": "AB", "country": "CA", "postalCode": "T8V0V1", "twitter": "None", "instagram": "None", "facebook": "None", "youtube": "None", "website": "None", "summary": "None", "logo": "None", "latitude": 55.17066548845881, "longitude": -118.79379352553522}, "107482416RR0001": {"name": "HILLCREST UNITED BAPTIST CHURCH INC.", "designationCode": "C", "categoryCode": "31", "address": "476 LANCASTER AVENUE", "city": "SAINT JOHN", "province": "NB", "country": "CA", "postalCode": "E2M2L7", "twitter": "None", "instagram": "None", "facebook": "None", "youtube": "None", "website": "None", "summary": "None", "logo": "None", "latitude": 45.25368768414224, "longitude": -66.0805717060708}, "118957778RR0001": {"name": "HILLCREST UNITED CHURCH", "designationCode": "C", "categoryCode": "44", "address": "P.O. BOX 687", "city": "FORT NELSON", "province": "BC", "country": "CA", "postalCode": "V0C1R0", "twitter": "None", "instagram": "None", "facebook": "None", "youtube": "None", "website": "None", "summary": "None", "logo": "None", "latitude": 58.80465000000004, "longitude": -122.70046999999994}, "132527540RR0001": {"name": "HILLCREST VILLAGE INC", "designationCode": "C", "categoryCode": "01", "address": "35 ATLANTIC BAPTIST AVE", "city": "MONCTON", "province": "NB", "country": "CA", "postalCode": "E1E4N3", "twitter": "None", "instagram": "None", "facebook": "None", "youtube": "None", "website": "None", "summary": "None", "logo": "None", "latitude": 46.05999327145241, "longitude": -64.85879860263182}, "107383366RR0001": {"name": "HILLDALE LUTHERAN CHURCH", "designationCode": "C", "categoryCode": "39", "address": "321 HILLDALE ROAD", "city": "THUNDER BAY", "province": "ON", "country": "CA", "postalCode": "P7G1Y7", "twitter": "None", "instagram": "None", "facebook": "None", "youtube": "None", "website": "None", "summary": "None", "logo": "None", "latitude": 48.462668549541235, "longitude": -89.25828186837049}, "119071884RR0001": {"name": "HILLEL ACADEMY OF OTTAWA", "designationCode": "C", "categoryCode": "20", "address": "31 NADOLNY SACHS PRIVATE", "city": "OTTAWA", "province": "ON", "country": "CA", "postalCode": "K2A1R9", "twitter": "None", "instagram": "None", "facebook": "None", "youtube": "None", "website": "None", "summary": "None", "logo": "None", "latitude": 45.37610551650419, "longitude": -75.75253331672313}, "118812221RR0001": {"name": "HILLEL BC SOCIETY", "designationCode": "C", "categoryCode": "49", "address": "BOX 43, STUDENT UNION BUILDINGUNIVERSITY OF BRITISH COLUMBIA", "city": "VANCOUVER", "province": "BC", "country": "CA", "postalCode": "V6T1Z1", "twitter": "None", "instagram": "None", "facebook": "None", "youtube": "None", "website": "None", "summary": "None", "logo": "None", "latitude": 49.24515000000008, "longitude": -123.23335999999995}, "130931595RR0001": {"name": "HILLEL LODGE - OTTAWA JEWISH HOME FOR THE AGED,", "designationCode": "C", "categoryCode": "01", "address": "10 NADOLNY SACHS PRIVATE", "city": "OTTAWA", "province": "ON", "country": "CA", "postalCode": "K2A4G7", "twitter": "None", "instagram": "None", "facebook": "None", "youtube": "None", "website": "None", "summary": "None", "logo": "None", "latitude": 45.37610551650419, "longitude": -75.75253331672313}, "861002459RR0001": {"name": "HILLEL LODGE LONG-TERM CARE FOUNDATION (OTTAWA) LA FONDATION DES SOINS DE LONGUE DUR\u00c9E HILLEL LODGE (OTTAWA)", "designationCode": "A", "categoryCode": "03", "address": "10 NADOLNY SACHS PRIVATE", "city": "OTTAWA", "province": "ON", "country": "CA", "postalCode": "K2A4G7", "twitter": "None", "instagram": "None", "facebook": "None", "youtube": "None", "website": "None", "summary": "None", "logo": "None", "latitude": 45.37610551650419, "longitude": -75.75253331672313}, "888242484RR0001": {"name": "HILLEL ONTARIO", "designationCode": "C", "categoryCode": "23", "address": "36 HARBORD ST", "city": "TORONTO", "province": "ON", "country": "CA", "postalCode": "M5S1G2", "twitter": "None", "instagram": "None", "facebook": "None", "youtube": "None", "website": "None", "summary": "None", "logo": "None", "latitude": 43.66346907022905, "longitude": -79.40027654899298}, "118957810RR0001": {"name": "HILLFIELD STRATHALLAN COLLEGE", "designationCode": "C", "categoryCode": "20", "address": "299 FENNELL AVE W", "city": "HAMILTON", "province": "ON", "country": "CA", "postalCode": "L9C1G3", "twitter": "None", "instagram": "None", "facebook": "None", "youtube": "None", "website": "None", "summary": "None", "logo": "None", "latitude": 43.24144198415964, "longitude": -79.89301734430715}, "818544876RR0001": {"name": "HILLGATE JOYS CHRISTIAN FELLOWSHIP INC.", "designationCode": "C", "categoryCode": "49", "address": "7 WYATT BLVD", "city": "MOUNT PEARL", "province": "NL", "country": "CA", "postalCode": "A1N3K9", "twitter": "None", "instagram": "None", "facebook": "None", "youtube": "None", "website": "None", "summary": "None", "logo": "None", "latitude": 47.53042215736628, "longitude": -52.7995889772634}, "107482531RR0001": {"name": "HILLGROVE UNITED BAPTIST CHURCH", "designationCode": "C", "categoryCode": "31", "address": "RR#2", "city": "DIGBY", "province": "NS", "country": "CA", "postalCode": "B0V1A0", "twitter": "None", "instagram": "None", "facebook": "None", "youtube": "None", "website": "None", "summary": "None", "logo": "None", "latitude": 44.39616000000005, "longitude": -66.20374249999993}, "118957836RR0001": {"name": "HILLGROVE UNITED BAPTIST CHURCH", "designationCode": "C", "categoryCode": "31", "address": "BOX 2572", "city": "PETITCODIAC", "province": "NB", "country": "CA", "postalCode": "E4Z6H4", "twitter": "None", "instagram": "None", "facebook": "None", "youtube": "None", "website": "None", "summary": "None", "logo": "None", "latitude": 45.93200000000007, "longitude": -65.17312999999996}, "107482598RR0001": {"name": "HILLHURST UNITED CHURCH", "designationCode": "C", "categoryCode": "44", "address": "1227 KENSINGTON CLOSE NW", "city": "CALGARY", "province": "AB", "country": "CA", "postalCode": "T2N3J6", "twitter": "None", "instagram": "None", "facebook": "None", "youtube": "None", "website": "None", "summary": "None", "logo": "None", "latitude": 51.05160869663574, "longitude": -114.09195495253624}, "107482564RR0001": {"name": "HILLHURST-SUNNYSIDE COMMUNITY ASSOCIATION", "designationCode": "C", "categoryCode": "56", "address": "1320 5TH AVENUE N.W.", "city": "CALGARY", "province": "AB", "country": "CA", "postalCode": "T2N0S2", "twitter": "None", "instagram": "None", "facebook": "None", "youtube": "None", "website": "None", "summary": "None", "logo": "None", "latitude": 51.05721280428006, "longitude": -114.09213637916392}, "870088838RR0001": {"name": "HILLRIDGE CHARITABLE TRUST", "designationCode": "B", "categoryCode": "39", "address": "3425 2 AVENUE SOUTH", "city": "LETHBRIDGE", "province": "AB", "country": "CA", "postalCode": "T1J4V1", "twitter": "None", "instagram": "None", "facebook": "None", "youtube": "None", "website": "None", "summary": "None", "logo": "None", "latitude": 49.696839530439966, "longitude": -112.78914308381903}, "118958115RR0001": {"name": "HILLS OF PEACE LUTHERAN CHURCH", "designationCode": "C", "categoryCode": "32", "address": "695 ROBSON DR", "city": "KAMLOOPS", "province": "BC", "country": "CA", "postalCode": "V2E2B4", "twitter": "None", "instagram": "None", "facebook": "None", "youtube": "None", "website": "None", "summary": "None", "logo": "None", "latitude": 50.64704669914589, "longitude": -120.35313241185312}, "118958123RR0001": {"name": "HILLS RECREATION SOCIETY", "designationCode": "C", "categoryCode": "56", "address": "4480 HWY 6 HILLS", "city": "NEW DENVER", "province": "BC", "country": "CA", "postalCode": "V0G1S1", "twitter": "None", "instagram": "None", "facebook": "None", "youtube": "None", "website": "None", "summary": "None", "logo": "None", "latitude": 49.988683734181045, "longitude": -117.3722858283875}, "134548247RR0001": {"name": "HILLSBOROUGH KIWANIS COMMUNITY CENTRE, INC", "designationCode": "C", "categoryCode": "56", "address": "47 LEGION STREET", "city": "HILLSBOROUGH", "province": "NB", "country": "CA", "postalCode": "E4H2L7", "twitter": "None", "instagram": "None", "facebook": "None", "youtube": "None", "website": "None", "summary": "None", "logo": "None", "latitude": 45.92382556992536, "longitude": -64.64409117333227}, "893038562RR0001": {"name": "HILLSBOROUGH PUBLIC LIBRARY BOARD", "designationCode": "C", "categoryCode": "50", "address": "3861 ROUTE 114", "city": "HOPEWELL CAPE", "province": "NB", "country": "CA", "postalCode": "E4H3J1", "twitter": "None", "instagram": "None", "facebook": "None", "youtube": "None", "website": "None", "summary": "None", "logo": "None", "latitude": 45.84855577665162, "longitude": -64.57659222161128}, "118957893RR0001": {"name": "HILLSBOROUGH UNITED CHURCH OF CANADA", "designationCode": "C", "categoryCode": "44", "address": "2891 MAIN ST", "city": "HILLSBOROUGH", "province": "NB", "country": "CA", "postalCode": "E4H2X8", "twitter": "None", "instagram": "None", "facebook": "None", "youtube": "None", "website": "None", "summary": "None", "logo": "None", "latitude": 45.91938059339832, "longitude": -64.64368392532757}, "132964578RR0001": {"name": "HILLSBOROUGH UNITED PENTECOSTAL CHURCH", "designationCode": "C", "categoryCode": "36", "address": "65 DAWSON RD", "city": "WELDON", "province": "NB", "country": "CA", "postalCode": "E4H4N7", "twitter": "None", "instagram": "None", "facebook": "None", "youtube": "None", "website": "None", "summary": "None", "logo": "None", "latitude": 45.94695858574624, "longitude": -64.67916537997283}, "837548460RR0001": {"name": "HILLSBURGH BAPTIST CHURCH", "designationCode": "C", "categoryCode": "31", "address": "21 TRAFALGAR ROAD", "city": "HILLSBURGH", "province": "ON", "country": "CA", "postalCode": "N0B1Z0", "twitter": "None", "instagram": "None", "facebook": "None", "youtube": "None", "website": "None", "summary": "None", "logo": "None", "latitude": 44.516060903692114, "longitude": -80.260954459993}, "118957927RR0001": {"name": "HILLSBURGH COMMUNITY MEDICAL CENTRE", "designationCode": "C", "categoryCode": "11", "address": "9772 WELLINGTON RD #22", "city": "ERIN", "province": "ON", "country": "CA", "postalCode": "N0B1T0", "twitter": "None", "instagram": "None", "facebook": "None", "youtube": "None", "website": "None", "summary": "None", "logo": "None", "latitude": 43.81914767970345, "longitude": -80.09026992793002}, "118957935RR0001": {"name": "HILLSBURN UNITED BAPTIST CHURCH", "designationCode": "C", "categoryCode": "31", "address": "3727 SHORE RD. WEST           RR 3", "city": "GRANVILLE FERRY", "province": "NS", "country": "CA", "postalCode": "B0S1K0", "twitter": "None", "instagram": "None", "facebook": "None", "youtube": "None", "website": "None", "summary": "None", "logo": "None", "latitude": 44.79815906356394, "longitude": -65.56723848892015}, "130629132RR0001": {"name": "HILLSDALE BAPTIST CHURCH,", "designationCode": "C", "categoryCode": "31", "address": "101 MUNROE PL", "city": "REGINA", "province": "SK", "country": "CA", "postalCode": "S4S3E7", "twitter": "None", "instagram": "None", "facebook": "None", "youtube": "None", "website": "None", "summary": "None", "logo": "None", "latitude": 50.41431851009889, "longitude": -104.60236402553522}, "891577942RR0001": {"name": "HILLSIDE BAPTIST CHURCH", "designationCode": "C", "categoryCode": "31", "address": "870 LYNN VALLEY RD", "city": "NORTH VANCOUVER", "province": "BC", "country": "CA", "postalCode": "V7J1Z7", "twitter": "None", "instagram": "None", "facebook": "None", "youtube": "None", "website": "None", "summary": "None", "logo": "None", "latitude": 49.33170999226703, "longitude": -123.04845372583496}, "810910406RR0001": {"name": "HILLSIDE BAPTIST CHURCH INC.", "designationCode": "C", "categoryCode": "31", "address": "2290 MOUNTAIN RD", "city": "MONCTON", "province": "NB", "country": "CA", "postalCode": "E1G1B4", "twitter": "None", "instagram": "None", "facebook": "None", "youtube": "None", "website": "None", "summary": "None", "logo": "None", "latitude": 46.12818875269157, "longitude": -64.86723671016468}, "107482820RR0001": {"name": "HILLSIDE BIBLE CHAPEL", "designationCode": "C", "categoryCode": "39", "address": "PO BOX 67", "city": "ORILLIA", "province": "ON", "country": "CA", "postalCode": "L3V6H9", "twitter": "None", "instagram": "None", "facebook": "None", "youtube": "None", "website": "None", "summary": "None", "logo": "None", "latitude": 44.60657100000006, "longitude": -79.41824449999993}, "863841631RR0001": {"name": "HILLSIDE CEMETERY", "designationCode": "C", "categoryCode": "59", "address": "486 GORDON STREET", "city": "HAWKESBURY", "province": "ON", "country": "CA", "postalCode": "K6A1S7", "twitter": "None", "instagram": "None", "facebook": "None", "youtube": "None", "website": "None", "summary": "None", "logo": "None", "latitude": 45.604336883095854, "longitude": -74.6117638847282}, "891340382RR0001": {"name": "HILLSIDE CEMETERY CO", "designationCode": "C", "categoryCode": "59", "address": "263 NORTH OHIO RD", "city": "SOUTH OHIO", "province": "NS", "country": "CA", "postalCode": "B5A5L3", "twitter": "None", "instagram": "None", "facebook": "None", "youtube": "None", "website": "None", "summary": "None", "logo": "None", "latitude": 43.932633777055344, "longitude": -66.06860622058768}, "138260146RR0001": {"name": "HILLSIDE CEMETERY COMPANY", "designationCode": "C", "categoryCode": "59", "address": "RR 3", "city": "MAHONE BAY", "province": "NS", "country": "CA", "postalCode": "B0J2E0", "twitter": "None", "instagram": "None", "facebook": "None", "youtube": "None", "website": "None", "summary": "None", "logo": "None", "latitude": 44.5107664683721, "longitude": -64.5603343504879}, "118958008RR0001": {"name": "HILLSIDE CEMETERY COMPANY OF RIVER HEBERT", "designationCode": "C", "categoryCode": "59", "address": "1538 BARRONSFIELD ROAD", "city": "RIVER HEBERT", "province": "NS", "country": "CA", "postalCode": "B0L1G0", "twitter": "None", "instagram": "None", "facebook": "None", "youtube": "None", "website": "None", "summary": "None", "logo": "None", "latitude": 45.7042055492358, "longitude": -64.37659984350435}, "118958016RR0001": {"name": "HILLSIDE CEMETERY PERPETUAL CARE FUND", "designationCode": "C", "categoryCode": "59", "address": "BOX 100", "city": "BELMONT", "province": "MB", "country": "CA", "postalCode": "R0K0C0", "twitter": "None", "instagram": "None", "facebook": "None", "youtube": "None", "website": "None", "summary": "None", "logo": "None", "latitude": 49.41124000000008, "longitude": -99.45502999999997}, "862967148RR0001": {"name": "HILLSIDE CHRISTIAN FELLOWSHIP (LACRETE)", "designationCode": "C", "categoryCode": "39", "address": "BOX 86 HIGHWAY 697", "city": "LACRETE", "province": "AB", "country": "CA", "postalCode": "T0H2H0", "twitter": "None", "instagram": "None", "facebook": "None", "youtube": "None", "website": "None", "summary": "None", "logo": "None", "latitude": 58.00649996289019, "longitude": -117.22668984374586}, "118958024RR0001": {"name": "HILLSIDE CHRISTIAN FELLOWSHIP CHURCH (MENNONITE BRETHREN)", "designationCode": "C", "categoryCode": "34", "address": "BOX 176", "city": "BEECHY", "province": "SK", "country": "CA", "postalCode": "S0L0C0", "twitter": "None", "instagram": "None", "facebook": "None", "youtube": "None", "website": "None", "summary": "None", "logo": "None", "latitude": 50.87650000000008, "longitude": -107.38328999999999}, "879611325RR0001": {"name": "HILLSIDE CHRISTIAN REFORMED CHURCH", "designationCode": "C", "categoryCode": "39", "address": "PO BOX 11009                  1945 MCCALLUM RD", "city": "ABBOTSFORD", "province": "BC", "country": "CA", "postalCode": "V2S0E4", "twitter": "None", "instagram": "None", "facebook": "None", "youtube": "None", "website": "None", "summary": "None", "logo": "None", "latitude": 49.03761032163073, "longitude": -122.2933709901806}, "118958032RR0001": {"name": "HILLSIDE COMMUNITY CEMETERY FUND", "designationCode": "C", "categoryCode": "59", "address": "5018, HIGHWAY 211", "city": "BICKERTON WEST", "province": "NS", "country": "CA", "postalCode": "B0J1A0", "twitter": "None", "instagram": "None", "facebook": "None", "youtube": "None", "website": "None", "summary": "None", "logo": "None", "latitude": 45.105073265459026, "longitude": -61.73287254549182}, "141091652RR0001": {"name": "HILLSIDE COMMUNITY CHURCH", "designationCode": "C", "categoryCode": "39", "address": "1393 AUSTIN AVENUE", "city": "COQUITLAM", "province": "BC", "country": "CA", "postalCode": "V3K3P6", "twitter": "None", "instagram": "None", "facebook": "None", "youtube": "None", "website": "None", "summary": "None", "logo": "None", "latitude": 49.248990511541194, "longitude": -122.85515177699233}, "885381509RR0001": {"name": "HILLSIDE COMMUNITY CHURCH INC.", "designationCode": "C", "categoryCode": "39", "address": "10 THORNHILL ST", "city": "MORDEN", "province": "MB", "country": "CA", "postalCode": "R6M1C5", "twitter": "None", "instagram": "None", "facebook": "None", "youtube": "None", "website": "None", "summary": "None", "logo": "None", "latitude": 49.19228052899767, "longitude": -98.09269092281741}, "118958057RR0001": {"name": "HILLSIDE CONCERT AND STAGE BAND ASSOCIATION", "designationCode": "C", "categoryCode": "22", "address": "POSTAL BAG 3", "city": "VALLEYVIEW", "province": "AB", "country": "CA", "postalCode": "T0H3N0", "twitter": "None", "instagram": "None", "facebook": "None", "youtube": "None", "website": "None", "summary": "None", "logo": "None", "latitude": 55.06843200000006, "longitude": -117.27239299999994}, "118958073RR0001": {"name": "HILLSIDE PENTECOSTAL ASSEMBLY", "designationCode": "C", "categoryCode": "36", "address": "PO BOX 229", "city": "TOTTENHAM", "province": "ON", "country": "CA", "postalCode": "L0G1W0", "twitter": "None", "instagram": "None", "facebook": "None", "youtube": "None", "website": "None", "summary": "None", "logo": "None", "latitude": 44.101466326769575, "longitude": -79.82930921542986}, "119049195RR0001": {"name": "HILLSIDE PINES HOME FOR SPECIAL CARE SOCIETY", "designationCode": "C", "categoryCode": "01", "address": "77 EXHIBITION DRIVE", "city": "BRIDGEWATER", "province": "NS", "country": "CA", "postalCode": "B4V3K6", "twitter": "None", "instagram": "None", "facebook": "None", "youtube": "None", "website": "None", "summary": "None", "logo": "None", "latitude": 44.3685091823819, "longitude": -64.5212693971093}, "128841368RR0001": {"name": "HILLSIDE WESLEYAN CHURCH", "designationCode": "C", "categoryCode": "39", "address": "50 RITCEY CRES", "city": "COLE HARBOUR", "province": "NS", "country": "CA", "postalCode": "B2W6J8", "twitter": "None", "instagram": "None", "facebook": "None", "youtube": "None", "website": "None", "summary": "None", "logo": "None", "latitude": 44.674311465750876, "longitude": -63.47143130310447}}