{"891381394RR0001": {"name": "WECAN FOOD BASKET SOCIETY OF ALBERTA", "designationCode": "C", "categoryCode": "29", "address": "PO BOX 34148 RPO KINGSWAY", "city": "EDMONTON", "province": "AB", "country": "CA", "postalCode": "T5G3G4", "twitter": "None", "instagram": "None", "facebook": "None", "youtube": "None", "website": "None", "summary": "None", "logo": "None", "latitude": 53.56289679754917, "longitude": -113.51348977067242}, "132386905RR0001": {"name": "WECAN SOCIETY TRUST", "designationCode": "C", "categoryCode": "50", "address": "3RD FLR 10215 112 ST NW", "city": "EDMONTON", "province": "AB", "country": "CA", "postalCode": "T5K1M7", "twitter": "None", "instagram": "None", "facebook": "None", "youtube": "None", "website": "None", "summary": "None", "logo": "None", "latitude": 53.543222161809695, "longitude": -113.51389527070259}, "119290195RR0001": {"name": "WEDGE PUBLISHING FOUNDATION", "designationCode": "C", "categoryCode": "47", "address": "P O BOX 1000", "city": "JORDAN STATION", "province": "ON", "country": "CA", "postalCode": "L0R1S0", "twitter": "None", "instagram": "None", "facebook": "None", "youtube": "None", "website": "None", "summary": "None", "logo": "None", "latitude": 43.1561250316656, "longitude": -79.35975663896875}, "119290203RR0001": {"name": "WEDGEWOOD MANOR MEMORIAL TRUST FUND", "designationCode": "A", "categoryCode": "15", "address": "310 BROPHY STREET", "city": "SUMMERSIDE", "province": "PE", "country": "CA", "postalCode": "C1N5N4", "twitter": "None", "instagram": "None", "facebook": "None", "youtube": "None", "website": "None", "summary": "None", "logo": "None", "latitude": 46.40492909547581, "longitude": -63.79532773633788}, "890714942RR0001": {"name": "WEE BAIRNS DAY CARE INC", "designationCode": "C", "categoryCode": "01", "address": "260 REDONDA STREET", "city": "WINNIPEG", "province": "MB", "country": "CA", "postalCode": "R2C1L6", "twitter": "None", "instagram": "None", "facebook": "None", "youtube": "None", "website": "None", "summary": "None", "logo": "None", "latitude": 49.89877310891712, "longitude": -96.97978664008112}, "119290237RR0001": {"name": "WEE CARE CHILD CENTRE CARMAN INC", "designationCode": "C", "categoryCode": "20", "address": "BOX 1312", "city": "CARMAN", "province": "MB", "country": "CA", "postalCode": "R0G0J0", "twitter": "None", "instagram": "None", "facebook": "None", "youtube": "None", "website": "None", "summary": "None", "logo": "None", "latitude": 49.50860000000006, "longitude": -98.00231999999994}, "119290245RR0001": {"name": "WEE CARE DEVELOPMENTAL DAY CARE CENTRE", "designationCode": "C", "categoryCode": "01", "address": "5217 YOUNG ST", "city": "HALIFAX", "province": "NS", "country": "CA", "postalCode": "B3K6A6", "twitter": "None", "instagram": "None", "facebook": "None", "youtube": "None", "website": "None", "summary": "None", "logo": "None", "latitude": 44.66480182933219, "longitude": -63.59501003514316}, "138724257RR0001": {"name": "WEE R SPECIAL INC", "designationCode": "C", "categoryCode": "01", "address": "BOX 809", "city": "DELORAINE", "province": "MB", "country": "CA", "postalCode": "R0M0M0", "twitter": "None", "instagram": "None", "facebook": "None", "youtube": "None", "website": "None", "summary": "None", "logo": "None", "latitude": 49.19157000000007, "longitude": -100.49399999999997}, "105611214RR0001": {"name": "WEE WORLD DAY CARE INC.", "designationCode": "C", "categoryCode": "01", "address": "600 3RD STREET N. E.", "city": "PORTAGE LA PRAIRIE", "province": "MB", "country": "CA", "postalCode": "R1N1R4", "twitter": "None", "instagram": "None", "facebook": "None", "youtube": "None", "website": "None", "summary": "None", "logo": "None", "latitude": 49.98167866925718, "longitude": -98.28451926186412}, "871120770RR0001": {"name": "WEEDON PIONEER COMMUNITY ASSOCIATION", "designationCode": "C", "categoryCode": "56", "address": "PO BOX 1505 STN MAIN", "city": "COCHRANE", "province": "AB", "country": "CA", "postalCode": "T4C1B4", "twitter": "None", "instagram": "None", "facebook": "None", "youtube": "None", "website": "None", "summary": "None", "logo": "None", "latitude": 51.19089900000006, "longitude": -114.46804249999994}, "119290260RR0001": {"name": "WEEKES EVANGELICAL CHAPEL", "designationCode": "C", "categoryCode": "34", "address": "PO BOX 24", "city": "WEEKES", "province": "SK", "country": "CA", "postalCode": "S0E1V0", "twitter": "None", "instagram": "None", "facebook": "None", "youtube": "None", "website": "None", "summary": "None", "logo": "None", "latitude": 52.57089000000008, "longitude": -102.87029999999999}, "897234795RR0001": {"name": "WEENEEBAYKO FOUNDATION", "designationCode": "A", "categoryCode": "11", "address": "19 HOSPITAL DRIVE             P. O. BOX 664", "city": "MOOSE FACTORY", "province": "ON", "country": "CA", "postalCode": "P0L1W0", "twitter": "None", "instagram": "None", "facebook": "None", "youtube": "None", "website": "None", "summary": "None", "logo": "None", "latitude": 51.25074597454462, "longitude": -80.6165454642504}, "864857487RR0001": {"name": "WEENGUSHK FILM INSTITUTE", "designationCode": "C", "categoryCode": "22", "address": "PO BOX 357", "city": "M'CHIGEENG", "province": "ON", "country": "CA", "postalCode": "P0P1G0", "twitter": "None", "instagram": "None", "facebook": "None", "youtube": "None", "website": "None", "summary": "None", "logo": "None", "latitude": 45.828160000000025, "longitude": -82.16273999999999}, "888733854RR0001": {"name": "WEIDER FOUNDATION/FONDATION WEIDER", "designationCode": "B", "categoryCode": "13", "address": "100 - 5415 RUE PARE", "city": "MONT-ROYAL", "province": "QC", "country": "CA", "postalCode": "H4P1P7", "twitter": "None", "instagram": "None", "facebook": "None", "youtube": "None", "website": "None", "summary": "None", "logo": "None", "latitude": 45.494311042212296, "longitude": -73.65780011189308}, "119290302RR0001": {"name": "WEILER MALONEY NELSON STAFF CHARITY FUND", "designationCode": "C", "categoryCode": "75", "address": "201 - 1001 WILLIAM ST.", "city": "THUNDER BAY", "province": "ON", "country": "CA", "postalCode": "P7B2M1", "twitter": "None", "instagram": "None", "facebook": "None", "youtube": "None", "website": "None", "summary": "None", "logo": "None", "latitude": 48.39998751341712, "longitude": -89.25718122300768}, "865935589RR0001": {"name": "WEINBERG FOUNDATION INC.", "designationCode": "B", "categoryCode": "03", "address": "1001 CORDON AVE               SUITE 300", "city": "WINNIPEG", "province": "MB", "country": "CA", "postalCode": "R3M0B6", "twitter": "None", "instagram": "None", "facebook": "None", "youtube": "None", "website": "None", "summary": "None", "logo": "None", "latitude": 49.86756390648612, "longitude": -97.16318075771817}, "887712867RR0001": {"name": "WEIR MEMORIAL PARK INCORPORATED", "designationCode": "C", "categoryCode": "56", "address": "2495 CH. CEDARVILLE", "city": "OGDEN", "province": "QC", "country": "CA", "postalCode": "J0B3E3", "twitter": "None", "instagram": "None", "facebook": "None", "youtube": "None", "website": "None", "summary": "None", "logo": "None", "latitude": 45.02421000000001, "longitude": -72.21429234384487}, "852469337RR0001": {"name": "WELCOME HOME EVANGELISTIC MINISTRIES", "designationCode": "C", "categoryCode": "39", "address": "3 TIDELAND DRIVE", "city": "BRAMPTON", "province": "ON", "country": "CA", "postalCode": "L7A2W3", "twitter": "None", "instagram": "None", "facebook": "None", "youtube": "None", "website": "None", "summary": "None", "logo": "None", "latitude": 43.70306147570553, "longitude": -79.82577126920204}, "863289799RR0001": {"name": "WELCOME HOME FOUNDATION", "designationCode": "B", "categoryCode": "03", "address": "6911 KING GEORGE BOULEVARD", "city": "SURREY", "province": "BC", "country": "CA", "postalCode": "V3W5A1", "twitter": "None", "instagram": "None", "facebook": "None", "youtube": "None", "website": "None", "summary": "None", "logo": "None", "latitude": 49.128232950947016, "longitude": -122.84563595907564}, "107690992RR0001": {"name": "WELCOME INN COMMUNITY CENTRE OF HAMILTON", "designationCode": "C", "categoryCode": "56", "address": "40 WOOD STREET EAST", "city": "HAMILTON", "province": "ON", "country": "CA", "postalCode": "L8L3Y3", "twitter": "None", "instagram": "None", "facebook": "None", "youtube": "None", "website": "None", "summary": "None", "logo": "None", "latitude": 43.271168878700536, "longitude": -79.86061827200065}, "888351046RR0001": {"name": "WELCOME WOOD PRODUCTIONS; A CREATIVE EXCHANGE INC.", "designationCode": "C", "categoryCode": "22", "address": "PO BOX 8", "city": "LANSDOWNE", "province": "ON", "country": "CA", "postalCode": "K0E1L0", "twitter": "None", "instagram": "None", "facebook": "None", "youtube": "None", "website": "None", "summary": "None", "logo": "None", "latitude": 44.37270600000005, "longitude": -75.98540599999993}, "119290401RR0001": {"name": "WELDON CHRISTIAN TABERNACLE", "designationCode": "C", "categoryCode": "39", "address": "BOX 453", "city": "KINISTINO", "province": "SK", "country": "CA", "postalCode": "S0J1H0", "twitter": "None", "instagram": "None", "facebook": "None", "youtube": "None", "website": "None", "summary": "None", "logo": "None", "latitude": 52.95167619052169, "longitude": -105.02926971926463}, "119290435RR0001": {"name": "WELDON SILVER TONE CLUB INC", "designationCode": "C", "categoryCode": "56", "address": "BOX 53", "city": "WELDON", "province": "SK", "country": "CA", "postalCode": "S0J3A0", "twitter": "None", "instagram": "None", "facebook": "None", "youtube": "None", "website": "None", "summary": "None", "logo": "None", "latitude": 53.01675000000006, "longitude": -105.13429999999994}, "119290443RR0001": {"name": "WELDON UNITED BAPTIST CHURCH", "designationCode": "C", "categoryCode": "31", "address": "155 DAWSON RD", "city": "WELDON", "province": "NB", "country": "CA", "postalCode": "E4H4N8", "twitter": "None", "instagram": "None", "facebook": "None", "youtube": "None", "website": "None", "summary": "None", "logo": "None", "latitude": 45.94693486570011, "longitude": -64.68107632618901}, "106734783RR0001": {"name": "WELFARE COMMITTEE FOR THE ASSYRIAN COMMUNITY IN CANADA", "designationCode": "C", "categoryCode": "09", "address": "72 ORPINGTON AVENUE", "city": "TORONTO", "province": "ON", "country": "CA", "postalCode": "M9V3E6", "twitter": "None", "instagram": "None", "facebook": "None", "youtube": "None", "website": "None", "summary": "None", "logo": "None", "latitude": 43.73737158200138, "longitude": -79.58415260505508}, "119290484RR0001": {"name": "WELLAND AND DISTRICT SOCIETY FOR PREVENTION OF CRUELTY T O ANIMALS", "designationCode": "C", "categoryCode": "54", "address": "60 PROVINCIAL STREET", "city": "WELLAND", "province": "ON", "country": "CA", "postalCode": "L3B5W7", "twitter": "None", "instagram": "None", "facebook": "None", "youtube": "None", "website": "None", "summary": "None", "logo": "None", "latitude": 42.96870645077588, "longitude": -79.26041439976368}, "119290526RR0001": {"name": "WELLAND BRETHREN IN CHRIST CHURCH,", "designationCode": "C", "categoryCode": "39", "address": "50 LINCOLN STREET WEST", "city": "WELLAND", "province": "ON", "country": "CA", "postalCode": "L3C5J1", "twitter": "None", "instagram": "None", "facebook": "None", "youtube": "None", "website": "None", "summary": "None", "logo": "None", "latitude": 42.98405111220509, "longitude": -79.26302437881738}, "119290534RR0001": {"name": "WELLAND CANAL MISSION", "designationCode": "C", "categoryCode": "39", "address": "81 DOROTHY ST", "city": "ST CATHARINES", "province": "ON", "country": "CA", "postalCode": "L2N4A8", "twitter": "None", "instagram": "None", "facebook": "None", "youtube": "None", "website": "None", "summary": "None", "logo": "None", "latitude": 43.1826130885509, "longitude": -79.25828788135492}, "129906913RR0001": {"name": "WELLAND HERITAGE COUNCIL AND MULTICULTURAL CENTRE", "designationCode": "C", "categoryCode": "09", "address": "26 MAIN STREET", "city": "WELLAND", "province": "ON", "country": "CA", "postalCode": "L3B3W3", "twitter": "None", "instagram": "None", "facebook": "None", "youtube": "None", "website": "None", "summary": "None", "logo": "None", "latitude": 42.99192277858709, "longitude": -79.25000420025123}, "108195645RR0001": {"name": "WELLAND PUBLIC LIBRARY BOARD", "designationCode": "C", "categoryCode": "50", "address": "50 THE BOARDWALK", "city": "WELLAND", "province": "ON", "country": "CA", "postalCode": "L3B6J1", "twitter": "None", "instagram": "None", "facebook": "None", "youtube": "None", "website": "None", "summary": "None", "logo": "None", "latitude": 42.99254313765943, "longitude": -79.24982125835334}, "891104994RR0001": {"name": "WELLAND'S MERRITTSVILLE FIRE BRIGADE", "designationCode": "C", "categoryCode": "50", "address": "257 CHAFFEY STREET", "city": "WELLAND", "province": "ON", "country": "CA", "postalCode": "L3B2Y7", "twitter": "None", "instagram": "None", "facebook": "None", "youtube": "None", "website": "None", "summary": "None", "logo": "None", "latitude": 42.970455419095174, "longitude": -79.24415448456367}, "139767743RR0001": {"name": "WELLANDPORT UNITED REFORMED CHURCH", "designationCode": "C", "categoryCode": "39", "address": "14 PARKDALE CRES", "city": "FONTHILL", "province": "ON", "country": "CA", "postalCode": "L0S1E3", "twitter": "None", "instagram": "None", "facebook": "None", "youtube": "None", "website": "None", "summary": "None", "logo": "None", "latitude": 43.04918872020906, "longitude": -79.27854037702707}, "119290732RR0001": {"name": "WELLBURN PASTORAL CHARGE", "designationCode": "C", "categoryCode": "44", "address": "18000 PLOVER MILLS ROAD       RR 3", "city": "THORNDALE", "province": "ON", "country": "CA", "postalCode": "N0M2P0", "twitter": "None", "instagram": "None", "facebook": "None", "youtube": "None", "website": "None", "summary": "None", "logo": "None", "latitude": 43.174232802901045, "longitude": -81.11323198029221}, "108195686RR0001": {"name": "WELLESLEY ALLIANCE CHURCH OF THE CHRISTIAN AND MISSIONARY ALLIANCE IN CANADA", "designationCode": "C", "categoryCode": "39", "address": "3158 NAFZIGER RD              BOX 117", "city": "WELLESLEY", "province": "ON", "country": "CA", "postalCode": "N0B2T0", "twitter": "None", "instagram": "None", "facebook": "None", "youtube": "None", "website": "None", "summary": "None", "logo": "None", "latitude": 43.45448129889221, "longitude": -80.75640227676118}, "119290740RR0001": {"name": "WELLESLEY AND DISTRICT CO-OPERATIVE PRESCHOOL INC", "designationCode": "C", "categoryCode": "20", "address": "157 DAVID ST", "city": "WELLESLEY", "province": "ON", "country": "CA", "postalCode": "N0B2T0", "twitter": "None", "instagram": "None", "facebook": "None", "youtube": "None", "website": "None", "summary": "None", "logo": "None", "latitude": 43.47118861340678, "longitude": -80.76635453012891}, "852872076RR0001": {"name": "WELLESLEY CENTRAL RESIDENCES INC.", "designationCode": "C", "categoryCode": "09", "address": "815 DANFORTH AVENUE           SUITE 402", "city": "TORONTO", "province": "ON", "country": "CA", "postalCode": "M4J1L2", "twitter": "None", "instagram": "None", "facebook": "None", "youtube": "None", "website": "None", "summary": "None", "logo": "None", "latitude": 43.67965075823778, "longitude": -79.34105624104107}, "108103862RR0001": {"name": "WELLESLEY INSTITUTE", "designationCode": "C", "categoryCode": "10", "address": "300-10 ALCORN AVE", "city": "TORONTO", "province": "ON", "country": "CA", "postalCode": "M4V3A9", "twitter": "None", "instagram": "None", "facebook": "None", "youtube": "None", "website": "None", "summary": "None", "logo": "None", "latitude": 43.68198319069178, "longitude": -79.39252811977026}, "830166641RR0001": {"name": "WELLESLEY MENNONITE CHURCH", "designationCode": "C", "categoryCode": "34", "address": "157 DAVID ST.", "city": "WELLESLEY", "province": "ON", "country": "CA", "postalCode": "N0B2T0", "twitter": "None", "instagram": "None", "facebook": "None", "youtube": "None", "website": "None", "summary": "None", "logo": "None", "latitude": 43.47118861340678, "longitude": -80.76635453012891}, "840109813RR0001": {"name": "WELLFORT COMMUNITY HEALTH SERVICES", "designationCode": "C", "categoryCode": "11", "address": "40 FINCHGATE BLVD             SUITE 224", "city": "BRAMPTON", "province": "ON", "country": "CA", "postalCode": "L6T3J1", "twitter": "None", "instagram": "None", "facebook": "None", "youtube": "None", "website": "None", "summary": "None", "logo": "None", "latitude": 43.7276801069014, "longitude": -79.7125979956435}, "894477892RR0001": {"name": "WELLINGTON & YOUNG CHARITABLE FOUNDATION", "designationCode": "B", "categoryCode": "53", "address": "P.O. BOX 3377 STN MAIN", "city": "MISSION", "province": "BC", "country": "CA", "postalCode": "V2V4J5", "twitter": "None", "instagram": "None", "facebook": "None", "youtube": "None", "website": "None", "summary": "None", "logo": "None", "latitude": 49.13294100000006, "longitude": -122.32108249999993}, "119290815RR0001": {"name": "WELLINGTON BOYS & GIRLS CLUB", "designationCode": "C", "categoryCode": "09", "address": "P.O. BOX 78", "city": "WELLINGTON", "province": "PE", "country": "CA", "postalCode": "C0B2E0", "twitter": "None", "instagram": "None", "facebook": "None", "youtube": "None", "website": "None", "summary": "None", "logo": "None", "latitude": 46.451227719875675, "longitude": -63.99615305664649}, "123386435RR0001": {"name": "WELLINGTON CEMETERY COMPANY", "designationCode": "C", "categoryCode": "59", "address": "BOX 166", "city": "WELLINGTON", "province": "ON", "country": "CA", "postalCode": "K0K3L0", "twitter": "None", "instagram": "None", "facebook": "None", "youtube": "None", "website": "None", "summary": "None", "logo": "None", "latitude": 44.300473210135635, "longitude": -77.54765621199132}, "119290831RR0001": {"name": "WELLINGTON COUNTY HISTORICAL RESEARCH SOCIETY", "designationCode": "C", "categoryCode": "50", "address": "BOX 5", "city": "FERGUS", "province": "ON", "country": "CA", "postalCode": "N1M2W7", "twitter": "None", "instagram": "None", "facebook": "None", "youtube": "None", "website": "None", "summary": "None", "logo": "None", "latitude": 43.705428000000055, "longitude": -80.37816199999993}, "129261103RR0001": {"name": "WELLINGTON COUNTY LEARNING CENTRE", "designationCode": "C", "categoryCode": "21", "address": "207A GEORGE STREET", "city": "ARTHUR", "province": "ON", "country": "CA", "postalCode": "N0G1A0", "twitter": "None", "instagram": "None", "facebook": "None", "youtube": "None", "website": "None", "summary": "None", "logo": "None", "latitude": 43.8307900886538, "longitude": -80.53531942055933}, "119290849RR0001": {"name": "WELLINGTON COUNTY 4-H ASSOCIATION", "designationCode": "C", "categoryCode": "29", "address": "6156 THIRD LINE", "city": "FERGUS", "province": "ON", "country": "CA", "postalCode": "N1M2W5", "twitter": "None", "instagram": "None", "facebook": "None", "youtube": "None", "website": "None", "summary": "None", "logo": "None", "latitude": 43.7027394987306, "longitude": -80.31136824565738}, "138071014RR0001": {"name": "WELLINGTON EARLY LEARNING CENTRES INC", "designationCode": "C", "categoryCode": "01", "address": "271 STEPHANIE DRIVE           TAYLOR EVANS SCHOOL", "city": "GUELPH", "province": "ON", "country": "CA", "postalCode": "N1K1P1", "twitter": "None", "instagram": "None", "facebook": "None", "youtube": "None", "website": "None", "summary": "None", "logo": "None", "latitude": 43.52210000000008, "longitude": -80.27753999999999}, "829067552RR0001": {"name": "WELLINGTON FINANCIAL LP CHARITABLE FOUNDATION", "designationCode": "B", "categoryCode": "03", "address": "5001 - 40 KING ST W", "city": "TORONTO", "province": "ON", "country": "CA", "postalCode": "M5H3Y2", "twitter": "None", "instagram": "None", "facebook": "None", "youtube": "None", "website": "None", "summary": "None", "logo": "None", "latitude": 43.64813467004466, "longitude": -79.38254906728791}, "108195934RR0001": {"name": "WELLINGTON LEGION MANOR CORPORATION", "designationCode": "C", "categoryCode": "01", "address": "68 MAPLE ST PO BOX 208", "city": "WELLINGTON", "province": "ON", "country": "CA", "postalCode": "K0K3L0", "twitter": "None", "instagram": "None", "facebook": "None", "youtube": "None", "website": "None", "summary": "None", "logo": "None", "latitude": 43.95464118872989, "longitude": -77.34514111775012}, "892340365RR0001": {"name": "WELLINGTON PASTORAL CHARGE", "designationCode": "C", "categoryCode": "44", "address": "P.O. BOX 216", "city": "WELLINGTON", "province": "PE", "country": "CA", "postalCode": "C0B2E0", "twitter": "None", "instagram": "None", "facebook": "None", "youtube": "None", "website": "None", "summary": "None", "logo": "None", "latitude": 46.451227719875675, "longitude": -63.99615305664649}, "108196072RR0001": {"name": "WELLINGTON SQUARE UNITED CHURCH", "designationCode": "C", "categoryCode": "44", "address": "2121 CAROLINE ST", "city": "BURLINGTON", "province": "ON", "country": "CA", "postalCode": "L7R1L7", "twitter": "None", "instagram": "None", "facebook": "None", "youtube": "None", "website": "None", "summary": "None", "logo": "None", "latitude": 43.330747973396925, "longitude": -79.79670105848535}, "871776548RR0001": {"name": "WELLINGTON STREET PENTECOSTAL CHURCH", "designationCode": "C", "categoryCode": "36", "address": "38 WELLINGTON ST", "city": "BRACEBRIDGE", "province": "ON", "country": "CA", "postalCode": "P1L1E8", "twitter": "None", "instagram": "None", "facebook": "None", "youtube": "None", "website": "None", "summary": "None", "logo": "None", "latitude": 45.033213070488834, "longitude": -79.31667572470978}, "108196122RR0001": {"name": "WELLINGTON UNITED CHURCH", "designationCode": "C", "categoryCode": "44", "address": "PO BOX 513                    243 MAIN STREET", "city": "WELLINGTON", "province": "ON", "country": "CA", "postalCode": "K0K3L0", "twitter": "None", "instagram": "None", "facebook": "None", "youtube": "None", "website": "None", "summary": "None", "logo": "None", "latitude": 43.95172698168906, "longitude": -77.34707361342201}, "865538532RR0001": {"name": "WELLINGTON WEST FOUNDATION INC.", "designationCode": "B", "categoryCode": "03", "address": "3RD FLOOR                     201 PORTAGE AVENUE", "city": "WINNIPEG", "province": "MB", "country": "CA", "postalCode": "R3B3K6", "twitter": "None", "instagram": "None", "facebook": "None", "youtube": "None", "website": "None", "summary": "None", "logo": "None", "latitude": 49.895359615067065, "longitude": -97.13919299627776}, "864256862RR0001": {"name": "WELLMAN LAKE BIBLE CAMP", "designationCode": "C", "categoryCode": "49", "address": "P.O. BOX 60", "city": "SWAN RIVER", "province": "MB", "country": "CA", "postalCode": "R0L1Z0", "twitter": "None", "instagram": "None", "facebook": "None", "youtube": "None", "website": "None", "summary": "None", "logo": "None", "latitude": 52.11672730414978, "longitude": -101.25989472758229}, "120630777RR0001": {"name": "WELLMAN LAKE UNITED CHURCH CAMP INC.", "designationCode": "C", "categoryCode": "56", "address": "PO BOX 140", "city": "KENVILLE", "province": "MB", "country": "CA", "postalCode": "R0L0Z0", "twitter": "None", "instagram": "None", "facebook": "None", "youtube": "None", "website": "None", "summary": "None", "logo": "None", "latitude": 51.99863000000005, "longitude": -101.32298999999995}, "873855423RR0001": {"name": "WELLS GRAY SEARCH AND RESCUE SOCIETY", "designationCode": "C", "categoryCode": "59", "address": "36E OLD N THOMPSON HWY", "city": "CLEARWATER", "province": "BC", "country": "CA", "postalCode": "V0E1N2", "twitter": "None", "instagram": "None", "facebook": "None", "youtube": "None", "website": "None", "summary": "None", "logo": "None", "latitude": 51.64532700000005, "longitude": -120.09179149999994}, "108196197RR0001": {"name": "WELLS HISTORICAL SOCIETY", "designationCode": "C", "categoryCode": "50", "address": "BOX 244", "city": "WELLS", "province": "BC", "country": "CA", "postalCode": "V0K2R0", "twitter": "None", "instagram": "None", "facebook": "None", "youtube": "None", "website": "None", "summary": "None", "logo": "None", "latitude": 53.10154000000006, "longitude": -121.57406999999995}, "834281768RR0001": {"name": "WELLS OF HOPE INTERNATIONAL DEVELOPMENT INC.", "designationCode": "C", "categoryCode": "09", "address": "1499 IRVINE ROAD", "city": "NIAGARA-ON-THE-LAKE", "province": "ON", "country": "CA", "postalCode": "L0S1J0", "twitter": "None", "instagram": "None", "facebook": "None", "youtube": "None", "website": "None", "summary": "None", "logo": "None", "latitude": 43.236928288649096, "longitude": -79.17175387910454}, "809013675RR0001": {"name": "WELLSPRING CALGARY", "designationCode": "C", "categoryCode": "01", "address": "1404 HOME ROAD NW", "city": "CALGARY", "province": "AB", "country": "CA", "postalCode": "T3B1G7", "twitter": "None", "instagram": "None", "facebook": "None", "youtube": "None", "website": "None", "summary": "None", "logo": "None", "latitude": 51.06941874271453, "longitude": -114.1643903480294}, "892728940RR0001": {"name": "WELLSPRING CANCER SUPPORT FOUNDATION/FONDATION WELLSPRING POUR LES PERSONNES ATTEINTES DE CANCER", "designationCode": "C", "categoryCode": "09", "address": "2075 BAYVIEW AVE", "city": "TORONTO", "province": "ON", "country": "CA", "postalCode": "M4N3M5", "twitter": "None", "instagram": "None", "facebook": "None", "youtube": "None", "website": "None", "summary": "None", "logo": "None", "latitude": 43.72146646433722, "longitude": -79.37898625976698}, "897705349RR0001": {"name": "WELLSPRING CENTRE FUND", "designationCode": "C", "categoryCode": "46", "address": "BETHANY", "city": "ANTIGONISH", "province": "NS", "country": "CA", "postalCode": "B2G2G6", "twitter": "None", "instagram": "None", "facebook": "None", "youtube": "None", "website": "None", "summary": "None", "logo": "None", "latitude": 45.62844900000006, "longitude": -61.979452999999936}, "849349568RR0001": {"name": "WELLSPRING CHINGUACOUSY FOUNDATION", "designationCode": "C", "categoryCode": "11", "address": "121 MUIRLAND CRES", "city": "BRAMPTON", "province": "ON", "country": "CA", "postalCode": "L6X4E9", "twitter": "None", "instagram": "None", "facebook": "None", "youtube": "None", "website": "None", "summary": "None", "logo": "None", "latitude": 43.678280389116544, "longitude": -79.79292842134552}, "119290963RR0001": {"name": "WELLSPRING CULTURAL FOUNDATION", "designationCode": "C", "categoryCode": "21", "address": "156 ST. GEORGE ST", "city": "TORONTO", "province": "ON", "country": "CA", "postalCode": "M5S2G1", "twitter": "None", "instagram": "None", "facebook": "None", "youtube": "None", "website": "None", "summary": "None", "logo": "None", "latitude": 43.66658455952457, "longitude": -79.39948612799323}, "119290989RR0001": {"name": "WELLSPRING FAMILY RESOURCE & CRISIS CENTRE SOCIETY", "designationCode": "C", "categoryCode": "09", "address": "5116-51 AVE", "city": "WHITECOURT", "province": "AB", "country": "CA", "postalCode": "T7S1A1", "twitter": "None", "instagram": "None", "facebook": "None", "youtube": "None", "website": "None", "summary": "None", "logo": "None", "latitude": 54.14145546047076, "longitude": -115.68841216763806}, "864246129RR0001": {"name": "WELLSPRING LONDON AND REGION", "designationCode": "C", "categoryCode": "09", "address": "382 WATERLOO STREET", "city": "LONDON", "province": "ON", "country": "CA", "postalCode": "N6B2N8", "twitter": "None", "instagram": "None", "facebook": "None", "youtube": "None", "website": "None", "summary": "None", "logo": "None", "latitude": 42.98499175855489, "longitude": -81.24209274000282}, "852823475RR0001": {"name": "WELLSPRING LONDON AND REGION FOUNDATION", "designationCode": "A", "categoryCode": "03", "address": "382 WATERLOO STREET", "city": "LONDON", "province": "ON", "country": "CA", "postalCode": "N6B2N8", "twitter": "None", "instagram": "None", "facebook": "None", "youtube": "None", "website": "None", "summary": "None", "logo": "None", "latitude": 42.98499175855489, "longitude": -81.24209274000282}, "864146162RR0001": {"name": "WELLSPRING NIAGARA CANCER SUPPORT FOUNDATION", "designationCode": "C", "categoryCode": "11", "address": "3250 SCHMON PARKWAY UNIT 3", "city": "THOROLD", "province": "ON", "country": "CA", "postalCode": "L2V4Y6", "twitter": "None", "instagram": "None", "facebook": "None", "youtube": "None", "website": "None", "summary": "None", "logo": "None", "latitude": 43.11153290543511, "longitude": -79.24165342184375}, "118798859RR0001": {"name": "WELLSPRING WORSHIP CENTRE", "designationCode": "C", "categoryCode": "39", "address": "89 CENTRE AVE.", "city": "WILLOWDALE", "province": "ON", "country": "CA", "postalCode": "M2M2L7", "twitter": "None", "instagram": "None", "facebook": "None", "youtube": "None", "website": "None", "summary": "None", "logo": "None", "latitude": 43.793224852011456, "longitude": -79.4108755810204}, "891422040RR0001": {"name": "WELLWOOD CHARITABLE TRUST", "designationCode": "B", "categoryCode": "39", "address": "1401 PRINCESS AVENUE", "city": "BRANDON", "province": "MB", "country": "CA", "postalCode": "R7A7L7", "twitter": "None", "instagram": "None", "facebook": "None", "youtube": "None", "website": "None", "summary": "None", "logo": "None", "latitude": 49.84694947489748, "longitude": -99.957294}, "896955036RR0001": {"name": "WELLWOOD RESOURCE CENTRE OF HAMILTON", "designationCode": "C", "categoryCode": "09", "address": "501 SANATORIUM ROAD", "city": "HAMILTON", "province": "ON", "country": "CA", "postalCode": "L9C0C3", "twitter": "None", "instagram": "None", "facebook": "None", "youtube": "None", "website": "None", "summary": "None", "logo": "None", "latitude": 43.23751200000001, "longitude": -79.91579923414484}, "119291011RR0001": {"name": "WELSFORD PASTORAL CHARGE", "designationCode": "C", "categoryCode": "44", "address": "6135 RTE 101", "city": "HOYT", "province": "NB", "country": "CA", "postalCode": "E5L1Z9", "twitter": "None", "instagram": "None", "facebook": "None", "youtube": "None", "website": "None", "summary": "None", "logo": "None", "latitude": 45.58167085721441, "longitude": -66.54913690767393}, "877856112RR0001": {"name": "WELSFORD VALLEY CEMETERY COMPANY LIMITED", "designationCode": "C", "categoryCode": "59", "address": "7926 ROUTE 101", "city": "CLARENDON", "province": "NB", "country": "CA", "postalCode": "E5K4C2", "twitter": "None", "instagram": "None", "facebook": "None", "youtube": "None", "website": "None", "summary": "None", "logo": "None", "latitude": 45.49578626945493, "longitude": -66.46296914096528}, "119291029RR0001": {"name": "WELWYN UNITED CHURCH", "designationCode": "C", "categoryCode": "44", "address": "BOX 44", "city": "WELWYN", "province": "SK", "country": "CA", "postalCode": "S0A4L0", "twitter": "None", "instagram": "None", "facebook": "None", "youtube": "None", "website": "None", "summary": "None", "logo": "None", "latitude": 50.32496070630703, "longitude": -101.51907828679097}, "119291037RR0001": {"name": "WEMBLEY AND DISTRICT AGRICULTURAL SOCIETY", "designationCode": "C", "categoryCode": "56", "address": "BOX 238", "city": "WEMBLEY", "province": "AB", "country": "CA", "postalCode": "T0H3S0", "twitter": "None", "instagram": "None", "facebook": "None", "youtube": "None", "website": "None", "summary": "None", "logo": "None", "latitude": 55.15416000000005, "longitude": -119.14110999999997}, "894028778RR0001": {"name": "WEMBLEY BAPTIST CHURCH", "designationCode": "C", "categoryCode": "31", "address": "BOX 338", "city": "WEMBLEY", "province": "AB", "country": "CA", "postalCode": "T0H3S0", "twitter": "None", "instagram": "None", "facebook": "None", "youtube": "None", "website": "None", "summary": "None", "logo": "None", "latitude": 55.15416000000005, "longitude": -119.14110999999997}, "882168503RR0001": {"name": "WEN WEI DANCE SOCIETY", "designationCode": "C", "categoryCode": "22", "address": "104-336 1ST AVE E", "city": "VANCOUVER", "province": "BC", "country": "CA", "postalCode": "V5T4R6", "twitter": "None", "instagram": "None", "facebook": "None", "youtube": "None", "website": "None", "summary": "None", "logo": "None", "latitude": 49.267835582001375, "longitude": -123.09651320970615}, "119291060RR0001": {"name": "WEN-DO WOMEN'S SELF-DEFENCE CORPORATION", "designationCode": "C", "categoryCode": "09", "address": "PO BOX 92017                  1562 DANFORTH AVENUE", "city": "TORONTO", "province": "ON", "country": "CA", "postalCode": "M4J1N4", "twitter": "None", "instagram": "None", "facebook": "None", "youtube": "None", "website": "None", "summary": "None", "logo": "None", "latitude": 43.683309176265055, "longitude": -79.3238876708407}, "108196353RR0001": {"name": "WENDAT COMMUNITY PROGRAMS", "designationCode": "C", "categoryCode": "01", "address": "P.O. BOX 832", "city": "MIDLAND", "province": "ON", "country": "CA", "postalCode": "L4R4P4", "twitter": "None", "instagram": "None", "facebook": "None", "youtube": "None", "website": "None", "summary": "None", "logo": "None", "latitude": 44.74989600000005, "longitude": -79.88850349999993}, "838216679RR0001": {"name": "WENDY RUTH NICKERSON MEMORIAL BURSARY FUND", "designationCode": "B", "categoryCode": "21", "address": "35 PINECONE LANE", "city": "WATERBOROUGH", "province": "NB", "country": "CA", "postalCode": "E4C0A5", "twitter": "None", "instagram": "None", "facebook": "None", "youtube": "None", "website": "None", "summary": "None", "logo": "None", "latitude": 45.931606705026226, "longitude": -65.99912447330122}, "108196668RR0001": {"name": "WENTWORTH BAPTIST CHURCH", "designationCode": "C", "categoryCode": "31", "address": "120 WENTWORTH ST NORTH", "city": "HAMILTON", "province": "ON", "country": "CA", "postalCode": "L8L5V7", "twitter": "None", "instagram": "None", "facebook": "None", "youtube": "None", "website": "None", "summary": "None", "logo": "None", "latitude": 43.25615104218364, "longitude": -79.84716001038736}, "888644663RR0001": {"name": "WENTWORTH CEMETERY COMPANY", "designationCode": "C", "categoryCode": "59", "address": "526 LAKE ROAD RR #2", "city": "WENTWORTH", "province": "NS", "country": "CA", "postalCode": "B0M1Z0", "twitter": "None", "instagram": "None", "facebook": "None", "youtube": "None", "website": "None", "summary": "None", "logo": "None", "latitude": 45.67638559556271, "longitude": -63.521178762710754}, "119291136RR0001": {"name": "WENTWORTH UNITED BAPTIST CHURCH,", "designationCode": "C", "categoryCode": "31", "address": "RR 2", "city": "WENTWORTH", "province": "NS", "country": "CA", "postalCode": "B0M1Z0", "twitter": "None", "instagram": "None", "facebook": "None", "youtube": "None", "website": "None", "summary": "None", "logo": "None", "latitude": 45.6166798431852, "longitude": -63.5731011107196}, "119291144RR0001": {"name": "WENTWORTH UNITED CHURCH", "designationCode": "C", "categoryCode": "44", "address": "526 LAKE ROAD", "city": "WENTWORTH", "province": "NS", "country": "CA", "postalCode": "B0M1Z0", "twitter": "None", "instagram": "None", "facebook": "None", "youtube": "None", "website": "None", "summary": "None", "logo": "None", "latitude": 45.67638559556271, "longitude": -63.521178762710754}, "871440848RR0001": {"name": "WENTWORTH VALLEY COMMUNITY HALL ASSOCIATION", "designationCode": "C", "categoryCode": "56", "address": "233 STATION ROAD", "city": "WENTWORTH VALLEY", "province": "NS", "country": "CA", "postalCode": "B0M1Z0", "twitter": "None", "instagram": "None", "facebook": "None", "youtube": "None", "website": "None", "summary": "None", "logo": "None", "latitude": 45.42384557001337, "longitude": -63.59468861671792}, "119291169RR0001": {"name": "WEQUEDONG LODGE OF THUNDER BAY", "designationCode": "C", "categoryCode": "11", "address": "656 CITY RD                   BOX 17", "city": "FORT WILLIAM FIRST NATION", "province": "ON", "country": "CA", "postalCode": "P7J1K3", "twitter": "None", "instagram": "None", "facebook": "None", "youtube": "None", "website": "None", "summary": "None", "logo": "None", "latitude": 48.35684928763778, "longitude": -89.26734193204076}, "119291177RR0001": {"name": "WEREDALE FOUNDATION / FONDATION WEREDALE", "designationCode": "C", "categoryCode": "03", "address": "608 CHEMIN DU GOLF            RR 2", "city": "HUDSON", "province": "QC", "country": "CA", "postalCode": "J0P1H0", "twitter": "None", "instagram": "None", "facebook": "None", "youtube": "None", "website": "None", "summary": "None", "logo": "None", "latitude": 45.45478379932489, "longitude": -74.17023724744638}, "842593923RR0001": {"name": "WERKLUND FOUNDATION", "designationCode": "B", "categoryCode": "03", "address": "4500 - 400 3 AVE SW", "city": "CALGARY", "province": "AB", "country": "CA", "postalCode": "T2P4H2", "twitter": "None", "instagram": "None", "facebook": "None", "youtube": "None", "website": "None", "summary": "None", "logo": "None", "latitude": 51.050585259196545, "longitude": -114.07240492388776}, "889254264RR0001": {"name": "WERNER & HELGA HOING FOUNDATION", "designationCode": "B", "categoryCode": "03", "address": "4400 DOMINION ST. SUITE 206", "city": "BURNABY", "province": "BC", "country": "CA", "postalCode": "V5G4G3", "twitter": "None", "instagram": "None", "facebook": "None", "youtube": "None", "website": "None", "summary": "None", "logo": "None", "latitude": 49.25620952120739, "longitude": -123.00495392550044}, "119291201RR0001": {"name": "WERZBERGER FAMILY CHARITABLE TRUST", "designationCode": "B", "categoryCode": "25", "address": "561 QUERBES AVE", "city": "OUTREMONT", "province": "QC", "country": "CA", "postalCode": "H2V3W4", "twitter": "None", "instagram": "None", "facebook": "None", "youtube": "None", "website": "None", "summary": "None", "logo": "None", "latitude": 45.521450275895795, "longitude": -73.60663961114325}, "886452192RR0001": {"name": "WESBROOK PRESCHOOL (COUNCIL OF PARENT PARTICIPATION PRESCHOOLS IN BRITISH COLUMBIA)", "designationCode": "C", "categoryCode": "20", "address": "4405 WEST 8TH AVENUE", "city": "VANCOUVER", "province": "BC", "country": "CA", "postalCode": "V6R2A3", "twitter": "None", "instagram": "None", "facebook": "None", "youtube": "None", "website": "None", "summary": "None", "logo": "None", "latitude": 49.26554346047076, "longitude": -123.20664249708581}, "891129942RR0001": {"name": "WESCOM MEDI-LEND SOCIETY", "designationCode": "C", "categoryCode": "09", "address": "1242 SATURNA DR", "city": "PARKSVILLE", "province": "BC", "country": "CA", "postalCode": "V9P2X5", "twitter": "None", "instagram": "None", "facebook": "None", "youtube": "None", "website": "None", "summary": "None", "logo": "None", "latitude": 49.30570236358132, "longitude": -124.25677994061967}, "119291656RR0001": {"name": "WESLEY (MIMICO) UNITED CHURCH,", "designationCode": "C", "categoryCode": "44", "address": "403 - 2405 LAKE SHORE BLVD W", "city": "ETOBICOKE", "province": "ON", "country": "CA", "postalCode": "M8V1C6", "twitter": "None", "instagram": "None", "facebook": "None", "youtube": "None", "website": "None", "summary": "None", "logo": "None", "latitude": 43.6086218892631, "longitude": -79.49033377478737}, "867722720RR0001": {"name": "WESLEY ACRES INC.", "designationCode": "C", "categoryCode": "56", "address": "PO BOX 330", "city": "BLOOMFIELD", "province": "ON", "country": "CA", "postalCode": "K0K1G0", "twitter": "None", "instagram": "None", "facebook": "None", "youtube": "None", "website": "None", "summary": "None", "logo": "None", "latitude": 44.066016000000005, "longitude": -77.86520099999998}, "108197344RR0001": {"name": "WESLEY CHAPEL FREE METHODIST CHURCH", "designationCode": "C", "categoryCode": "39", "address": "2385 WARDEN AVE", "city": "SCARBOROUGH", "province": "ON", "country": "CA", "postalCode": "M1W2L6", "twitter": "None", "instagram": "None", "facebook": "None", "youtube": "None", "website": "None", "summary": "None", "logo": "None", "latitude": 43.78580679268847, "longitude": -79.31106989558009}, "107406316RR0026": {"name": "WESLEY CHAPEL JAPANESE CHURCH", "designationCode": "C", "categoryCode": "39", "address": "2385 WARDEN AVE.", "city": "SCARBOROUGH", "province": "ON", "country": "CA", "postalCode": "M1W2L6", "twitter": "None", "instagram": "None", "facebook": "None", "youtube": "None", "website": "None", "summary": "None", "logo": "None", "latitude": 43.78580679268847, "longitude": -79.31106989558009}, "129870457RR0001": {"name": "WESLEY COMMUNITY CHURCH", "designationCode": "C", "categoryCode": "39", "address": "210 RENFREW STREET", "city": "PEMBROKE", "province": "ON", "country": "CA", "postalCode": "K8A5S1", "twitter": "None", "instagram": "None", "facebook": "None", "youtube": "None", "website": "None", "summary": "None", "logo": "None", "latitude": 45.823857151797704, "longitude": -77.1176315703446}, "119291631RR0001": {"name": "WESLEY KNOX UNITED CHURCH", "designationCode": "C", "categoryCode": "44", "address": "91 ASKIN ST.", "city": "LONDON", "province": "ON", "country": "CA", "postalCode": "N6C1E7", "twitter": "None", "instagram": "None", "facebook": "None", "youtube": "None", "website": "None", "summary": "None", "logo": "None", "latitude": 42.97322659391792, "longitude": -81.25635941603673}, "108197492RR0001": {"name": "WESLEY UNITED CHURCH", "designationCode": "C", "categoryCode": "44", "address": "5964 NOTRE DAME DE GRACE AVE", "city": "MONTREAL", "province": "QC", "country": "CA", "postalCode": "H4A1N1", "twitter": "None", "instagram": "None", "facebook": "None", "youtube": "None", "website": "None", "summary": "None", "logo": "None", "latitude": 45.469622410756614, "longitude": -73.62215713693828}, "108197567RR0001": {"name": "WESLEY UNITED CHURCH", "designationCode": "C", "categoryCode": "44", "address": "580 MIDDLE SIDE ROAD          COUNTY ROAD 10", "city": "AMHERSTBURG", "province": "ON", "country": "CA", "postalCode": "N9V3R3", "twitter": "None", "instagram": "None", "facebook": "None", "youtube": "None", "website": "None", "summary": "None", "logo": "None", "latitude": 42.14401700390473, "longitude": -83.10678735299129}, "108197583RR0001": {"name": "WESLEY UNITED CHURCH", "designationCode": "C", "categoryCode": "44", "address": "3913 HILLSDALE STREET", "city": "REGINA", "province": "SK", "country": "CA", "postalCode": "S4S3Y6", "twitter": "None", "instagram": "None", "facebook": "None", "youtube": "None", "website": "None", "summary": "None", "logo": "None", "latitude": 50.416506, "longitude": -104.60150988975171}}