{"852134725RR0001": {"name": "Council of Canadian Bassoonists", "designationCode": "C", "categoryCode": "22", "address": "PO BOX 221", "city": "DRAYTON", "province": "ON", "country": "CA", "postalCode": "N0G1P0", "twitter": "None", "instagram": "None", "facebook": "None", "youtube": "None", "website": "None", "summary": "None", "logo": "None", "latitude": 43.77309915143594, "longitude": -80.9225621280716}, "883740813RR0001": {"name": "Council For Persons with Disabilities (Peterborough)", "designationCode": "C", "categoryCode": "56", "address": "1 - 175 GEORGE ST N", "city": "PETERBOROUGH", "province": "ON", "country": "CA", "postalCode": "K9J3G6", "twitter": "None", "instagram": "None", "facebook": "None", "youtube": "None", "website": "None", "summary": "None", "logo": "None", "latitude": 44.29829623320046, "longitude": -78.31953138069476}, "101736742RR0001": {"name": "Counselling and Support Services of Stormont, Dundas & Glengarry", "designationCode": "C", "categoryCode": "09", "address": "26 MONTREAL RD", "city": "CORNWALL", "province": "ON", "country": "CA", "postalCode": "K6H1B1", "twitter": "None", "instagram": "None", "facebook": "None", "youtube": "None", "website": "None", "summary": "None", "logo": "None", "latitude": 45.018460340008, "longitude": -74.71531648043738}, "818964769RR0001": {"name": "Count de Nueville Fund", "designationCode": "C", "categoryCode": "46", "address": "490 RATHBURN RD", "city": "ETOBICOKE", "province": "ON", "country": "CA", "postalCode": "M9C3S8", "twitter": "None", "instagram": "None", "facebook": "None", "youtube": "None", "website": "None", "summary": "None", "logo": "None", "latitude": 43.652029074124165, "longitude": -79.57691989967677}, "827961442RR0001": {"name": "Count Me In Youth Initiative", "designationCode": "C", "categoryCode": "59", "address": "121 TRAFALGAR SQ", "city": "THORNHILL", "province": "ON", "country": "CA", "postalCode": "L4J7M9", "twitter": "None", "instagram": "None", "facebook": "None", "youtube": "None", "website": "None", "summary": "None", "logo": "None"}, "881632319RR0001": {"name": "Counterpoint Counselling and Educational Co-Operative Inc.", "designationCode": "C", "categoryCode": "09", "address": "605 - 920 YONGE ST", "city": "TORONTO", "province": "ON", "country": "CA", "postalCode": "M4W3C7", "twitter": "None", "instagram": "None", "facebook": "None", "youtube": "None", "website": "None", "summary": "None", "logo": "None", "latitude": 43.674218340816054, "longitude": -79.3884529969989}, "813821006RR0001": {"name": "Country Heritage Agricultural Society", "designationCode": "C", "categoryCode": "56", "address": "PO BOX 38", "city": "MILTON", "province": "ON", "country": "CA", "postalCode": "L9T2Y3", "twitter": "None", "instagram": "None", "facebook": "None", "youtube": "None", "website": "None", "summary": "None", "logo": "None", "latitude": 43.51104600000005, "longitude": -79.88386399999993}, "736579327RR0001": {"name": "Countryside Community Church", "designationCode": "C", "categoryCode": "39", "address": "1827 LINE 4 N", "city": "ORO-MEDONTE", "province": "ON", "country": "CA", "postalCode": "L0L2L0", "twitter": "None", "instagram": "None", "facebook": "None", "youtube": "None", "website": "None", "summary": "None", "logo": "None", "latitude": 44.511657378909426, "longitude": -79.62357927194236}, "119288918RR1662": {"name": "Countryside Punjabi Congregation of Jehovah's Witnesses, Brampton, Ontario", "designationCode": "C", "categoryCode": "61", "address": "1985 NORTH PARK DR", "city": "BRAMPTON", "province": "ON", "country": "CA", "postalCode": "L6S4G2", "twitter": "None", "instagram": "None", "facebook": "None", "youtube": "None", "website": "None", "summary": "None", "logo": "None", "latitude": 43.74423230584577, "longitude": -79.73238545764346}, "132071556RR0001": {"name": "Countryside United Church", "designationCode": "C", "categoryCode": "44", "address": "44 MCCAGUE CRES", "city": "ALLISTON", "province": "ON", "country": "CA", "postalCode": "L9R1A6", "twitter": "None", "instagram": "None", "facebook": "None", "youtube": "None", "website": "None", "summary": "None", "logo": "None", "latitude": 44.14607155646613, "longitude": -79.87952360505508}, "814159737RR0001": {"name": "County of Leduc Animal Shelter Society", "designationCode": "C", "categoryCode": "54", "address": "44 CAMPBELL RD", "city": "LEDUC", "province": "AB", "country": "CA", "postalCode": "T9E8C8", "twitter": "None", "instagram": "None", "facebook": "None", "youtube": "None", "website": "None", "summary": "None", "logo": "None", "latitude": 53.244377255352255, "longitude": -113.53628358690611}, "843118035RR0001": {"name": "Coup de pouce alimentaire de Val-des-Lacs", "designationCode": "C", "categoryCode": "09", "address": "89, CHEMIN BEAUPR\u00c9", "city": "VAL-DES-LACS", "province": "QC", "country": "CA", "postalCode": "J0T2P0", "twitter": "None", "instagram": "None", "facebook": "None", "youtube": "None", "website": "None", "summary": "None", "logo": "None", "latitude": 46.17961304746378, "longitude": -74.35969955418618}, "843513136RR0001": {"name": "Coup de pouce nourrice", "designationCode": "C", "categoryCode": "09", "address": "8 NOTRE-DAME EST              CASE POSTALE 101", "city": "THETFORD MINES", "province": "QC", "country": "CA", "postalCode": "G6G5R9", "twitter": "None", "instagram": "None", "facebook": "None", "youtube": "None", "website": "None", "summary": "None", "logo": "None", "latitude": 46.091390501789, "longitude": -71.29999834883748}, "811438969RR0001": {"name": "Couples For Christ Canada", "designationCode": "C", "categoryCode": "47", "address": "201 - 7025 TOMKEN RD", "city": "MISSISSAUGA", "province": "ON", "country": "CA", "postalCode": "L5S1R6", "twitter": "None", "instagram": "None", "facebook": "None", "youtube": "None", "website": "None", "summary": "None", "logo": "None", "latitude": 43.66618280366242, "longitude": -79.68548368271387}, "883022196RR0001": {"name": "Couples For Christ, Ontario Inc", "designationCode": "C", "categoryCode": "49", "address": "3 - 418A HANLAN RD", "city": "WOODBRIDGE", "province": "ON", "country": "CA", "postalCode": "L4L4Z1", "twitter": "None", "instagram": "None", "facebook": "None", "youtube": "None", "website": "None", "summary": "None", "logo": "None", "latitude": 43.77140740211939, "longitude": -79.55324683943999}, "801357419RR0001": {"name": "Courage Foundation", "designationCode": "B", "categoryCode": "03", "address": "100-1027 TRENCH PLACE", "city": "KELOWNA", "province": "BC", "country": "CA", "postalCode": "V1Y9Y4", "twitter": "None", "instagram": "None", "facebook": "None", "youtube": "None", "website": "None", "summary": "None", "logo": "None", "latitude": 49.8970100804995, "longitude": -119.47771260044424}, "741271290RR0001": {"name": "Courageous Companions / Compagnons Courageux", "designationCode": "C", "categoryCode": "11", "address": "502 - 885 MEADOWLANDS DR", "city": "OTTAWA", "province": "ON", "country": "CA", "postalCode": "K2C3N2", "twitter": "None", "instagram": "None", "facebook": "None", "youtube": "None", "website": "None", "summary": "None", "logo": "None", "latitude": 45.368048730278375, "longitude": -75.70217637183295}, "824418503RR0001": {"name": "Courir pour la vie inc.", "designationCode": "B", "categoryCode": "59", "address": "1255, RUE D'AUBIGNY", "city": "QUEBEC", "province": "QC", "country": "CA", "postalCode": "G1H1N2", "twitter": "None", "instagram": "None", "facebook": "None", "youtube": "None", "website": "None", "summary": "None", "logo": "None", "latitude": 46.864314250360586, "longitude": -71.24653274966808}, "800960536RR0001": {"name": "Cours ta R\u00e9ussite", "designationCode": "C", "categoryCode": "09", "address": "1750-1050 AV DE LA MED\u00c9CINE   PAVILLON FERDINAND-VANDRY", "city": "QU\u00c9BEC", "province": "QC", "country": "CA", "postalCode": "G1V0A6", "twitter": "None", "instagram": "None", "facebook": "None", "youtube": "None", "website": "None", "summary": "None", "logo": "None", "latitude": 46.78017900000006, "longitude": -71.27544499999993}, "813726502RR0001": {"name": "Courtland's Hope Foundation", "designationCode": "C", "categoryCode": "09", "address": "78 MOUNT PLEASANT DR", "city": "CAMROSE", "province": "AB", "country": "CA", "postalCode": "T4V2M6", "twitter": "None", "instagram": "None", "facebook": "None", "youtube": "None", "website": "None", "summary": "None", "logo": "None", "latitude": 53.01138130016666, "longitude": -112.84533504617177}, "781901129RR0001": {"name": "Couvent Mont-Saint-Patrice", "designationCode": "C", "categoryCode": "52", "address": "322 - 1010 RUE PRINCIPALE N", "city": "RICHMOND", "province": "QC", "country": "CA", "postalCode": "J0B2H0", "twitter": "None", "instagram": "None", "facebook": "None", "youtube": "None", "website": "None", "summary": "None", "logo": "None", "latitude": 45.66564319239933, "longitude": -72.14877390558235}, "767958721RR0001": {"name": "Covell Foundation", "designationCode": "B", "categoryCode": "03", "address": "67 CHESTNUT PARK ROAD", "city": "TORONTO", "province": "ON", "country": "CA", "postalCode": "M4W1W7", "twitter": "None", "instagram": "None", "facebook": "None", "youtube": "None", "website": "None", "summary": "None", "logo": "None", "latitude": 43.67943717652487, "longitude": -79.38428146653025}, "819558636RR0001": {"name": "Covenant of Glory Church Inc.", "designationCode": "C", "categoryCode": "39", "address": "508 VICTOR STREET", "city": "WINNIPEG", "province": "MB", "country": "CA", "postalCode": "R3G1R2", "twitter": "None", "instagram": "None", "facebook": "None", "youtube": "None", "website": "None", "summary": "None", "logo": "None", "latitude": 49.89399479156327, "longitude": -97.16301543522398}, "848666574RR0001": {"name": "Covenant of Peace Sanctuary", "designationCode": "C", "categoryCode": "39", "address": "73 - 740 KENNEDY RD", "city": "SCARBOROUGH", "province": "ON", "country": "CA", "postalCode": "M1K2C5", "twitter": "None", "instagram": "None", "facebook": "None", "youtube": "None", "website": "None", "summary": "None", "logo": "None", "latitude": 43.73127399895723, "longitude": -79.26765940912708}, "734587520RR0001": {"name": "Covenant of Redemption Ministries", "designationCode": "C", "categoryCode": "39", "address": "34 GRAHAM COURT", "city": "WHITBY", "province": "ON", "country": "CA", "postalCode": "L1N6E1", "twitter": "None", "instagram": "None", "facebook": "None", "youtube": "None", "website": "None", "summary": "None", "logo": "None", "latitude": 43.89303018347844, "longitude": -78.94175903886541}, "773943287RR0001": {"name": "Covenant Alliance Church (Orangeville)", "designationCode": "C", "categoryCode": "39", "address": "3 ZINA ST", "city": "ORANGEVILLE", "province": "ON", "country": "CA", "postalCode": "L9W1E2", "twitter": "None", "instagram": "None", "facebook": "None", "youtube": "None", "website": "None", "summary": "None", "logo": "None", "latitude": 43.92015618347842, "longitude": -80.09800985680063}, "844943373RR0001": {"name": "Covenant Care", "designationCode": "C", "categoryCode": "09", "address": "9040 84 AVE NW", "city": "EDMONTON", "province": "AB", "country": "CA", "postalCode": "T6C1E4", "twitter": "None", "instagram": "None", "facebook": "None", "youtube": "None", "website": "None", "summary": "None", "logo": "None", "latitude": 53.52006346104768, "longitude": -113.4664335}, "845296151RR0001": {"name": "Covenant Chapel (The Redeemed Christian Church of God Canada)", "designationCode": "C", "categoryCode": "39", "address": "66 TORO ROAD", "city": "TORONTO", "province": "ON", "country": "CA", "postalCode": "M3J2A8", "twitter": "None", "instagram": "None", "facebook": "None", "youtube": "None", "website": "None", "summary": "None", "logo": "None", "latitude": 43.76068416573349, "longitude": -79.48619601722534}, "868453382RR0001": {"name": "Covenant Church", "designationCode": "C", "categoryCode": "39", "address": "3010 THE COLLEGEWAY", "city": "MISSISSAUGA", "province": "ON", "country": "CA", "postalCode": "L5L4X9", "twitter": "None", "instagram": "None", "facebook": "None", "youtube": "None", "website": "None", "summary": "None", "logo": "None", "latitude": 43.5301327535059, "longitude": -79.69358407989523}, "844220251RR0001": {"name": "Covenant Community Church", "designationCode": "C", "categoryCode": "39", "address": "1730 ECHO POINT COURT", "city": "PICKERING", "province": "ON", "country": "CA", "postalCode": "L1V5C8", "twitter": "None", "instagram": "None", "facebook": "None", "youtube": "None", "website": "None", "summary": "None", "logo": "None", "latitude": 43.836145295540454, "longitude": -79.10490234669741}, "125868125RR0001": {"name": "Covenant Foundation", "designationCode": "A", "categoryCode": "03", "address": "9R 11111 JASPER AVE", "city": "EDMONTON", "province": "AB", "country": "CA", "postalCode": "T5K0L4", "twitter": "None", "instagram": "None", "facebook": "None", "youtube": "None", "website": "None", "summary": "None", "logo": "None", "latitude": 53.54089750836813, "longitude": -113.51300302553523}, "832431217RR0001": {"name": "Covenant Keepers Ministry", "designationCode": "C", "categoryCode": "39", "address": "12061 HURONTARIO ST", "city": "BRAMPTON", "province": "ON", "country": "CA", "postalCode": "L6Z4P8", "twitter": "None", "instagram": "None", "facebook": "None", "youtube": "None", "website": "None", "summary": "None", "logo": "None", "latitude": 43.735072911217976, "longitude": -79.82671163566889}, "852186006RR0001": {"name": "Covenant Light Assembly", "designationCode": "C", "categoryCode": "39", "address": "12 GLENAYR GATE", "city": "WHITBY", "province": "ON", "country": "CA", "postalCode": "L1N8J3", "twitter": "None", "instagram": "None", "facebook": "None", "youtube": "None", "website": "None", "summary": "None", "logo": "None", "latitude": 43.899331303941196, "longitude": -78.92773833265039}, "743080921RR0001": {"name": "Covenant Reformed Church (Steinbach) Inc.", "designationCode": "C", "categoryCode": "39", "address": "1 - 121 ACRES DR", "city": "STEINBACH", "province": "MB", "country": "CA", "postalCode": "R5G0W5", "twitter": "None", "instagram": "None", "facebook": "None", "youtube": "None", "website": "None", "summary": "None", "logo": "None", "latitude": 49.53951131803208, "longitude": -96.70296547426673}, "833125040RR0001": {"name": "Covenant Remnant Ministries Inc.", "designationCode": "C", "categoryCode": "39", "address": "2133 BLUE RIDGE CRES", "city": "PICKERING", "province": "ON", "country": "CA", "postalCode": "L1X2N3", "twitter": "None", "instagram": "None", "facebook": "None", "youtube": "None", "website": "None", "summary": "None", "logo": "None", "latitude": 43.86257582198044, "longitude": -79.08683393125736}, "892350810RR0001": {"name": "Cow Over Moon Children's Theatre", "designationCode": "C", "categoryCode": "22", "address": "283 KING ANDREW DR.", "city": "MISSISSAUGA", "province": "ON", "country": "CA", "postalCode": "L4Z1S4", "twitter": "None", "instagram": "None", "facebook": "None", "youtube": "None", "website": "None", "summary": "None", "logo": "None", "latitude": 43.60035389205938, "longitude": -79.62859123414484}, "858847767RR0001": {"name": "Cowboy Trail Church", "designationCode": "C", "categoryCode": "39", "address": "P.O. BOX 783", "city": "COCHRANE", "province": "AB", "country": "CA", "postalCode": "T4C1A9", "twitter": "None", "instagram": "None", "facebook": "None", "youtube": "None", "website": "None", "summary": "None", "logo": "None", "latitude": 51.19089900000006, "longitude": -114.46804249999994}, "849601281RR0001": {"name": "Cowichan Consort Society", "designationCode": "C", "categoryCode": "22", "address": "PO BOX 10", "city": "COWICHAN BAY", "province": "BC", "country": "CA", "postalCode": "V0R1N0", "twitter": "None", "instagram": "None", "facebook": "None", "youtube": "None", "website": "None", "summary": "None", "logo": "None"}, "836159731RR0001": {"name": "Cowichan Estuary Restoration and Conservation Association", "designationCode": "C", "categoryCode": "52", "address": "1069 KHENIPSEN RD", "city": "DUNCAN", "province": "BC", "country": "CA", "postalCode": "V9L5L3", "twitter": "None", "instagram": "None", "facebook": "None", "youtube": "None", "website": "None", "summary": "None", "logo": "None", "latitude": 48.76637978994716, "longitude": -123.62256255710132}, "118878263RR0001": {"name": "Cowichan Foundation", "designationCode": "A", "categoryCode": "23", "address": "574 CEDAR PL", "city": "DUNCAN", "province": "BC", "country": "CA", "postalCode": "V9L1J6", "twitter": "None", "instagram": "None", "facebook": "None", "youtube": "None", "website": "None", "summary": "None", "logo": "None", "latitude": 48.78323543213691, "longitude": -123.71783111091212}, "820121176RR0001": {"name": "Cowichan Green Community Foundation", "designationCode": "C", "categoryCode": "20", "address": "360 DUNCAN STREET", "city": "DUNCAN", "province": "BC", "country": "CA", "postalCode": "V9L3W4", "twitter": "None", "instagram": "None", "facebook": "None", "youtube": "None", "website": "None", "summary": "None", "logo": "None", "latitude": 48.778026491019695, "longitude": -123.70623034982975}, "890881063RR0001": {"name": "Cowichan Seniors Community Foundation", "designationCode": "A", "categoryCode": "13", "address": "135 THIRD STREET", "city": "DUNCAN", "province": "BC", "country": "CA", "postalCode": "V9L1R9", "twitter": "None", "instagram": "None", "facebook": "None", "youtube": "None", "website": "None", "summary": "None", "logo": "None", "latitude": 48.78259843524358, "longitude": -123.70908322135601}, "807706155RR0001": {"name": "Cowichan Station Area Association", "designationCode": "C", "categoryCode": "56", "address": "2375 KOKSILAH ROAD", "city": "DUNCAN", "province": "BC", "country": "CA", "postalCode": "V9L6M5", "twitter": "None", "instagram": "None", "facebook": "None", "youtube": "None", "website": "None", "summary": "None", "logo": "None", "latitude": 48.72956188711979, "longitude": -123.66325698339901}, "814386561RR0001": {"name": "Cowichan Valley Animal Rescue Association", "designationCode": "B", "categoryCode": "54", "address": "2339 BOULDING RD", "city": "MILL BAY", "province": "BC", "country": "CA", "postalCode": "V0R2P4", "twitter": "None", "instagram": "None", "facebook": "None", "youtube": "None", "website": "None", "summary": "None", "logo": "None", "latitude": 48.63446283208413, "longitude": -123.5568062274427}, "119288918RR1594": {"name": "Cowichan Valley Congregation of Jehovah's Witnesses, Duncan, British Columbia", "designationCode": "C", "categoryCode": "61", "address": "6262 NORTH RD", "city": "DUNCAN", "province": "BC", "country": "CA", "postalCode": "V9L6K9", "twitter": "None", "instagram": "None", "facebook": "None", "youtube": "None", "website": "None", "summary": "None", "logo": "None", "latitude": 48.800690042198376, "longitude": -123.75093129756968}, "774239321RR0001": {"name": "Cowichan Valley Monthly Meeting, Religious Society of Friends", "designationCode": "C", "categoryCode": "39", "address": "3291 RENITA RIDGE RD", "city": "DUNCAN", "province": "BC", "country": "CA", "postalCode": "V9L5J6", "twitter": "None", "instagram": "None", "facebook": "None", "youtube": "None", "website": "None", "summary": "None", "logo": "None", "latitude": 48.78800028561932, "longitude": -123.73631694491884}, "834768681RR0001": {"name": "Cowichan Valley Performing Arts Foundation", "designationCode": "C", "categoryCode": "22", "address": "4-6250 PALAHI ROAD", "city": "DUNCAN", "province": "BC", "country": "CA", "postalCode": "V9L6Z3", "twitter": "None", "instagram": "None", "facebook": "None", "youtube": "None", "website": "None", "summary": "None", "logo": "None", "latitude": 48.79685247157924, "longitude": -123.72841569470249}, "118870989RR0001": {"name": "Cowichan Valley Youth Services Society", "designationCode": "C", "categoryCode": "59", "address": "PO BOX 743 STN MAIN", "city": "DUNCAN", "province": "BC", "country": "CA", "postalCode": "V9L3Y1", "twitter": "None", "instagram": "None", "facebook": "None", "youtube": "None", "website": "None", "summary": "None", "logo": "None", "latitude": 48.77908800000006, "longitude": -123.70739299999994}, "804681906RR0001": {"name": "Cowtown Opera Company Society", "designationCode": "C", "categoryCode": "22", "address": "PO BOX 93032 RPO STAMPEDE", "city": "CALGARY", "province": "AB", "country": "CA", "postalCode": "T2G0X6", "twitter": "None", "instagram": "None", "facebook": "None", "youtube": "None", "website": "None", "summary": "None", "logo": "None", "latitude": 51.03871997446481, "longitude": -114.05363998110118}, "748651528RR0001": {"name": "Cox Charitable Foundation", "designationCode": "B", "categoryCode": "03", "address": "200 - 1281 91 ST SW", "city": "EDMONTON", "province": "AB", "country": "CA", "postalCode": "T6X1H1", "twitter": "None", "instagram": "None", "facebook": "None", "youtube": "None", "website": "None", "summary": "None", "logo": "None", "latitude": 53.42123064276668, "longitude": -113.47600564631603}, "130153463RR0001": {"name": "CoDevelopment Canada Association", "designationCode": "C", "categoryCode": "09", "address": "260-2747 E HASTINGS STREET", "city": "VANCOUVER", "province": "BC", "country": "CA", "postalCode": "V5K1Z8", "twitter": "None", "instagram": "None", "facebook": "None", "youtube": "None", "website": "None", "summary": "None", "logo": "None", "latitude": 49.28116551154119, "longitude": -123.04769302553522}, "887874212RR0001": {"name": "Cr\u00e9ateurs de Paix / Peace Creators", "designationCode": "C", "categoryCode": "21", "address": "1999,CHEMIN DEMERS", "city": "ST-NICOLAS", "province": "QC", "country": "CA", "postalCode": "G7A2N3", "twitter": "None", "instagram": "None", "facebook": "None", "youtube": "None", "website": "None", "summary": "None", "logo": "None", "latitude": 46.671628528420754, "longitude": -71.42186313918864}, "815309414RR0001": {"name": "Crafting for a Cure", "designationCode": "A", "categoryCode": "20", "address": "1057 STEELS AVENUE W          PO BOX 698", "city": "NORTH YORK", "province": "ON", "country": "CA", "postalCode": "M2R3X1", "twitter": "None", "instagram": "None", "facebook": "None", "youtube": "None", "website": "None", "summary": "None", "logo": "None"}, "820362713RR0001": {"name": "Craig Matthew Persia Foundation", "designationCode": "A", "categoryCode": "13", "address": "7 PARKDALE DR", "city": "THOROLD", "province": "ON", "country": "CA", "postalCode": "L2V2N5", "twitter": "None", "instagram": "None", "facebook": "None", "youtube": "None", "website": "None", "summary": "None", "logo": "None", "latitude": 43.1243225323159, "longitude": -79.2118898068267}, "842352759RR0001": {"name": "Craig's Cause Pancreatic Cancer Society", "designationCode": "A", "categoryCode": "13", "address": "37 INVERARY COURT", "city": "WEST PORTER'S LAKE", "province": "NS", "country": "CA", "postalCode": "B3E1M8", "twitter": "None", "instagram": "None", "facebook": "None", "youtube": "None", "website": "None", "summary": "None", "logo": "None"}, "830258695RR0001": {"name": "Craigmyle Historic Society", "designationCode": "C", "categoryCode": "50", "address": "SITE 1B - 3                   POSTAL OFFICE BOX 14", "city": "CRAIGMYLE", "province": "AB", "country": "CA", "postalCode": "T0J1T0", "twitter": "None", "instagram": "None", "facebook": "None", "youtube": "None", "website": "None", "summary": "None", "logo": "None", "latitude": 51.67194670187799, "longitude": -112.24446440082241}, "837844752RR0001": {"name": "Cranbrook and District Restorative Justice Society", "designationCode": "C", "categoryCode": "59", "address": "930 BAKER STREET", "city": "CRANBROOK", "province": "BC", "country": "CA", "postalCode": "V1C1A5", "twitter": "None", "instagram": "None", "facebook": "None", "youtube": "None", "website": "None", "summary": "None", "logo": "None"}, "119271500RR0001": {"name": "Cranbrook Bugle Band Society", "designationCode": "C", "categoryCode": "22", "address": "BOX 442", "city": "CRANBROOK", "province": "BC", "country": "CA", "postalCode": "V1C4H9", "twitter": "None", "instagram": "None", "facebook": "None", "youtube": "None", "website": "None", "summary": "None", "logo": "None", "latitude": 49.513515000000055, "longitude": -115.76875399999994}, "845050145RR0001": {"name": "Cranbrook Kimberley Hospice Society", "designationCode": "C", "categoryCode": "01", "address": "230-20 23RD AVE SOUTH", "city": "CRANBROOK", "province": "BC", "country": "CA", "postalCode": "V1C5V1", "twitter": "None", "instagram": "None", "facebook": "None", "youtube": "None", "website": "None", "summary": "None", "logo": "None", "latitude": 49.51052255973714, "longitude": -115.75083561648745}, "106736150RR0001": {"name": "Crandall University Universit\u00e9 Crandall", "designationCode": "C", "categoryCode": "20", "address": "P.O. BOX 6004", "city": "MONCTON", "province": "NB", "country": "CA", "postalCode": "E1C9L7", "twitter": "None", "instagram": "None", "facebook": "None", "youtube": "None", "website": "None", "summary": "None", "logo": "None", "latitude": 46.08834900000005, "longitude": -64.77824149999994}, "834161457RR0001": {"name": "Crapaud Gospel Hall", "designationCode": "C", "categoryCode": "39", "address": "113 DAWN DR", "city": "MILTON STATION", "province": "PE", "country": "CA", "postalCode": "C1E0M6", "twitter": "None", "instagram": "None", "facebook": "None", "youtube": "None", "website": "None", "summary": "None", "logo": "None", "latitude": 46.281692797391656, "longitude": -63.200982504443395}, "843909979RR0001": {"name": "Crave Church Ministry", "designationCode": "C", "categoryCode": "39", "address": "4830 BOUNDARY RD", "city": "BURNABY", "province": "BC", "country": "CA", "postalCode": "V5R2N8", "twitter": "None", "instagram": "None", "facebook": "None", "youtube": "None", "website": "None", "summary": "None", "logo": "None", "latitude": 49.24133809524697, "longitude": -123.02354371425915}, "889415170RR0001": {"name": "Crawford United Church", "designationCode": "C", "categoryCode": "44", "address": "RR 1", "city": "CARGILL", "province": "ON", "country": "CA", "postalCode": "N0G1J0", "twitter": "None", "instagram": "None", "facebook": "None", "youtube": "None", "website": "None", "summary": "None", "logo": "None", "latitude": 44.214196766404434, "longitude": -81.38177523238173}, "107760282RR0001": {"name": "Created 4 Me Early Learning Centre Inc.", "designationCode": "C", "categoryCode": "01", "address": "264A HODDINOTT ROAD", "city": "EAST ST PAUL", "province": "MB", "country": "CA", "postalCode": "R2E0H7", "twitter": "None", "instagram": "None", "facebook": "None", "youtube": "None", "website": "None", "summary": "None", "logo": "None", "latitude": 49.98845387367341, "longitude": -97.03738545018307}, "745594291RR0001": {"name": "Creating from the Heart", "designationCode": "C", "categoryCode": "19", "address": "#2 55 VETERANS WAY            POST OFFICE BOX 635", "city": "MELITA", "province": "MB", "country": "CA", "postalCode": "R0M1L0", "twitter": "None", "instagram": "None", "facebook": "None", "youtube": "None", "website": "None", "summary": "None", "logo": "None", "latitude": 49.26665000000003, "longitude": -100.96985999999998}, "864168711RR0001": {"name": "Creating Alternatives Day Program", "designationCode": "C", "categoryCode": "59", "address": "4300 STEELES AVE WEST UNIT 35", "city": "VAUGHAN", "province": "ON", "country": "CA", "postalCode": "L4L4C2", "twitter": "None", "instagram": "None", "facebook": "None", "youtube": "None", "website": "None", "summary": "None", "logo": "None", "latitude": 43.76722125402458, "longitude": -79.561655825033}, "853301901RR0001": {"name": "Creating Awareness Resources and Empowerment Society (CARE)", "designationCode": "C", "categoryCode": "21", "address": "SUITE 350                     305 - 4625 VARSITY DRIVE NW", "city": "CALGARY", "province": "AB", "country": "CA", "postalCode": "T3A0Z9", "twitter": "None", "instagram": "None", "facebook": "None", "youtube": "None", "website": "None", "summary": "None", "logo": "None", "latitude": 51.09301869274061, "longitude": -114.1530987305095}, "833835457RR0001": {"name": "Creating Community Wellness Society", "designationCode": "C", "categoryCode": "11", "address": "1287 BOULDERPATH RD", "city": "VICTORIA", "province": "BC", "country": "CA", "postalCode": "V9C3X5", "twitter": "None", "instagram": "None", "facebook": "None", "youtube": "None", "website": "None", "summary": "None", "logo": "None", "latitude": 48.40490234722134, "longitude": -123.56001951373423}, "842378093RR0001": {"name": "Creating Courage Charitable Foundation", "designationCode": "B", "categoryCode": "03", "address": "1700-1631 DICKSON AVE", "city": "KELOWNA", "province": "BC", "country": "CA", "postalCode": "V1Y0B5", "twitter": "None", "instagram": "None", "facebook": "None", "youtube": "None", "website": "None", "summary": "None", "logo": "None", "latitude": 49.88064051067581, "longitude": -119.46192316763806}, "825242613RR0001": {"name": "Creating Homefulness Society", "designationCode": "C", "categoryCode": "59", "address": "PO BOX 622", "city": "SAANICHTON", "province": "BC", "country": "CA", "postalCode": "V8M2C5", "twitter": "None", "instagram": "None", "facebook": "None", "youtube": "None", "website": "None", "summary": "None", "logo": "None", "latitude": 48.595209000000054, "longitude": -123.41690449999993}, "859361123RR0001": {"name": "Creating Hope Society of Alberta", "designationCode": "C", "categoryCode": "11", "address": "34 - 9538 107 AVE NW", "city": "EDMONTON", "province": "AB", "country": "CA", "postalCode": "T5H0T7", "twitter": "None", "instagram": "None", "facebook": "None", "youtube": "None", "website": "None", "summary": "None", "logo": "None", "latitude": 53.55289940218694, "longitude": -113.48388591355524}, "804204337RR0001": {"name": "Creating Hopes Canada", "designationCode": "C", "categoryCode": "09", "address": "6 COACH HOUSE CRT", "city": "BRAMPTON", "province": "ON", "country": "CA", "postalCode": "L6Y2Y3", "twitter": "None", "instagram": "None", "facebook": "None", "youtube": "None", "website": "None", "summary": "None", "logo": "None", "latitude": 43.646249813250634, "longitude": -79.76906357852037}, "839082385RR0001": {"name": "Creating Opportunities for Guatemalans", "designationCode": "C", "categoryCode": "25", "address": "8505 RUE CENTRALE", "city": "LASALLE", "province": "QC", "country": "CA", "postalCode": "H8P1M9", "twitter": "None", "instagram": "None", "facebook": "None", "youtube": "None", "website": "None", "summary": "None", "logo": "None", "latitude": 45.41865108133753, "longitude": -73.61498918388246}, "118878891RR0001": {"name": "Creation Ministries International (Canada)", "designationCode": "C", "categoryCode": "49", "address": "300 MILL ST.                  UNIT 7", "city": "KITCHENER", "province": "ON", "country": "CA", "postalCode": "N2M5G8", "twitter": "None", "instagram": "None", "facebook": "None", "youtube": "None", "website": "None", "summary": "None", "logo": "None", "latitude": 43.43588786658148, "longitude": -80.48582894295787}, "797716925RR0001": {"name": "Creative Aging Calgary Society", "designationCode": "C", "categoryCode": "22", "address": "3028 DON ETHELL BLVD SW", "city": "CALGARY", "province": "AB", "country": "CA", "postalCode": "T3E0C9", "twitter": "None", "instagram": "None", "facebook": "None", "youtube": "None", "website": "None", "summary": "None", "logo": "None", "latitude": 51.00478145325738, "longitude": -114.1277535}, "787257922RR0001": {"name": "Creative Kids Canada Inc.", "designationCode": "C", "categoryCode": "21", "address": "404 - 2125 11TH AVE", "city": "REGINA", "province": "SK", "country": "CA", "postalCode": "S4P3X3", "twitter": "None", "instagram": "None", "facebook": "None", "youtube": "None", "website": "None", "summary": "None", "logo": "None", "latitude": 50.45038148845882, "longitude": -104.61184102553523}, "891944985RR0001": {"name": "Creative Minds Early Learning Society", "designationCode": "C", "categoryCode": "20", "address": "5351 CAMOSUN ST", "city": "VANCOUVER", "province": "BC", "country": "CA", "postalCode": "V6N2C4", "twitter": "None", "instagram": "None", "facebook": "None", "youtube": "None", "website": "None", "summary": "None", "logo": "None", "latitude": 49.23753300000001, "longitude": -123.19691260499683}, "845303700RR0001": {"name": "Creative Voices of Truro Society", "designationCode": "C", "categoryCode": "22", "address": "271 VALLEY ROAD", "city": "VALLEY", "province": "NS", "country": "CA", "postalCode": "B6L4M1", "twitter": "None", "instagram": "None", "facebook": "None", "youtube": "None", "website": "None", "summary": "None", "logo": "None", "latitude": 45.386465301142564, "longitude": -63.186295299901815}, "838738169RR0001": {"name": "Creator's Arts Centre Society", "designationCode": "C", "categoryCode": "22", "address": "2333 HUNTER ROAD", "city": "KELOWNA", "province": "BC", "country": "CA", "postalCode": "V1X7C5", "twitter": "None", "instagram": "None", "facebook": "None", "youtube": "None", "website": "None", "summary": "None", "logo": "None", "latitude": 49.88661947735032, "longitude": -119.4328611931733}, "119229011RR0001": {"name": "Credit Canada Debt Solutions Inc.", "designationCode": "C", "categoryCode": "59", "address": "45 SHEPPARD AVENUE EAST       SUITE 810", "city": "TORONTO", "province": "ON", "country": "CA", "postalCode": "M2N5W9", "twitter": "None", "instagram": "None", "facebook": "None", "youtube": "None", "website": "None", "summary": "None", "logo": "None", "latitude": 43.76206888201875, "longitude": -79.40837710032322}, "819538885RR0001": {"name": "Creedan Valley Resident Bus Fund", "designationCode": "C", "categoryCode": "09", "address": "143 MARY STREET,", "city": "CREEMORE", "province": "ON", "country": "CA", "postalCode": "L0M1G0", "twitter": "None", "instagram": "None", "facebook": "None", "youtube": "None", "website": "None", "summary": "None", "logo": "None", "latitude": 44.32681572078786, "longitude": -80.10069803826349}, "888230398RR0001": {"name": "Creemore Baptist Church", "designationCode": "C", "categoryCode": "31", "address": "12 WELLINGTON ST W", "city": "CREEMORE", "province": "ON", "country": "CA", "postalCode": "L0M1G0", "twitter": "None", "instagram": "None", "facebook": "None", "youtube": "None", "website": "None", "summary": "None", "logo": "None", "latitude": 44.328037803788305, "longitude": -80.10805274371285}, "817133515RR0001": {"name": "Cremona Gold and Silver Society", "designationCode": "C", "categoryCode": "56", "address": "113 CENTRE STREET - CREMONA   POST OFFICE BOX 312", "city": "CREMONA", "province": "AB", "country": "CA", "postalCode": "T0M0R0", "twitter": "None", "instagram": "None", "facebook": "None", "youtube": "None", "website": "None", "summary": "None", "logo": "None", "latitude": 51.54427008842871, "longitude": -114.49074992877654}, "840125843RR0001": {"name": "Cremona School Enhancement Society", "designationCode": "C", "categoryCode": "21", "address": "CREMONA SCHOOL                GD", "city": "CREMONA", "province": "AB", "country": "CA", "postalCode": "T0M0R0", "twitter": "None", "instagram": "None", "facebook": "None", "youtube": "None", "website": "None", "summary": "None", "logo": "None", "latitude": 51.55010000000004, "longitude": -114.48530999999997}, "119288918RR1018": {"name": "Cresthaven Congregation of Jehovah's Witnesses, Brampton, Ontario", "designationCode": "C", "categoryCode": "61", "address": "56 MASTERS GREEN CRES", "city": "BRAMPTON", "province": "ON", "country": "CA", "postalCode": "L7A3K5", "twitter": "None", "instagram": "None", "facebook": "None", "youtube": "None", "website": "None", "summary": "None", "logo": "None", "latitude": 43.72175903384511, "longitude": -79.81950157977967}, "106992894RR0001": {"name": "Creston Baptist Church of Creston, British Columbia", "designationCode": "C", "categoryCode": "31", "address": "2431 ASH STREET", "city": "CRESTON", "province": "BC", "country": "CA", "postalCode": "V0B1G5", "twitter": "None", "instagram": "None", "facebook": "None", "youtube": "None", "website": "None", "summary": "None", "logo": "None", "latitude": 49.08960852160945, "longitude": -116.49688734544664}, "842092124RR0001": {"name": "Creston Concert Society", "designationCode": "C", "categoryCode": "22", "address": "P.O. BOX 134", "city": "CRESTON", "province": "BC", "country": "CA", "postalCode": "V0B1G0", "twitter": "None", "instagram": "None", "facebook": "None", "youtube": "None", "website": "None", "summary": "None", "logo": "None", "latitude": 49.738704000000055, "longitude": -115.87167349999993}, "808408017RR0001": {"name": "Creston Valley Community Housing Society", "designationCode": "C", "categoryCode": "09", "address": "215 25 AVE S", "city": "CRESTON", "province": "BC", "country": "CA", "postalCode": "V0B1G5", "twitter": "None", "instagram": "None", "facebook": "None", "youtube": "None", "website": "None", "summary": "None", "logo": "None", "latitude": 49.09452074984813, "longitude": -116.49585651515757}, "119288918RR0173": {"name": "Crestview Congregation of Jehovah's Witnesses, Winnipeg, Manitoba.", "designationCode": "C", "categoryCode": "61", "address": "325 WALLASEY ST", "city": "WINNIPEG", "province": "MB", "country": "CA", "postalCode": "R3J3K3", "twitter": "None", "instagram": "None", "facebook": "None", "youtube": "None", "website": "None", "summary": "None", "logo": "None", "latitude": 49.881094344711194, "longitude": -97.2648882795894}, "823355219RR0001": {"name": "Crestwood Preparatory College Scholarship Foundation", "designationCode": "C", "categoryCode": "23", "address": "217 BROOKBANKS DRIVE", "city": "TORONTO", "province": "ON", "country": "CA", "postalCode": "M3A2T7", "twitter": "None", "instagram": "None", "facebook": "None", "youtube": "None", "website": "None", "summary": "None", "logo": "None", "latitude": 43.75964256033262, "longitude": -79.3251651044495}, "843637398RR0001": {"name": "Crime Prevention Society of Nova Scotia", "designationCode": "C", "categoryCode": "59", "address": "35 HIGHLAND DRIVE", "city": "NEW GLASGOW", "province": "NS", "country": "CA", "postalCode": "B2H4C3", "twitter": "None", "instagram": "None", "facebook": "None", "youtube": "None", "website": "None", "summary": "None", "logo": "None", "latitude": 45.59792952233257, "longitude": -62.635075825437035}, "137015491RR0001": {"name": "Crime Stoppers Guelph Wellington", "designationCode": "C", "categoryCode": "59", "address": "PO BOX 391", "city": "FERGUS", "province": "ON", "country": "CA", "postalCode": "N1M3E2", "twitter": "None", "instagram": "None", "facebook": "None", "youtube": "None", "website": "None", "summary": "None", "logo": "None", "latitude": 43.705428000000055, "longitude": -80.37816199999993}, "800518136RR0001": {"name": "Criminalit\u00e9 et \u00e9ducation financi\u00e8re (CRIMFICO)", "designationCode": "C", "categoryCode": "59", "address": "6681, RUE DE BORDEAUX", "city": "MONTR\u00c9AL", "province": "QC", "country": "CA", "postalCode": "H2G2S2", "twitter": "None", "instagram": "None", "facebook": "None", "youtube": "None", "website": "None", "summary": "None", "logo": "None", "latitude": 45.54624811547109, "longitude": -73.5978311308501}, "832859854RR0001": {"name": "Crimson River Gospel Music Association", "designationCode": "C", "categoryCode": "47", "address": "3963 HOLLEFORD RD", "city": "HARTINGTON", "province": "ON", "country": "CA", "postalCode": "K0H1W0", "twitter": "None", "instagram": "None", "facebook": "None", "youtube": "None", "website": "None", "summary": "None", "logo": "None", "latitude": 44.455400450516095, "longitude": -76.63398299431584}, "130529506RR0001": {"name": "Crisis Homes Inc.", "designationCode": "C", "categoryCode": "01", "address": "P.O. BOX 10172", "city": "THUNDER BAY", "province": "ON", "country": "CA", "postalCode": "P7B6T7", "twitter": "None", "instagram": "None", "facebook": "None", "youtube": "None", "website": "None", "summary": "None", "logo": "None", "latitude": 48.38168400000005, "longitude": -89.24550199999993}, "107910259RR0233": {"name": "Cristo Rei Parish", "designationCode": "C", "categoryCode": "38", "address": "3495 CONFEDERATION PARKWAY", "city": "MISSISSAUGA", "province": "ON", "country": "CA", "postalCode": "L5B3G5", "twitter": "None", "instagram": "None", "facebook": "None", "youtube": "None", "website": "None", "summary": "None", "logo": "None", "latitude": 43.58363783184234, "longitude": -79.63663851800474}, "738598721RR0001": {"name": "Croatian Foundation of Windsor", "designationCode": "A", "categoryCode": "03", "address": "1701 TURNER ROAD", "city": "WINDSOR", "province": "ON", "country": "CA", "postalCode": "N8W3J9", "twitter": "None", "instagram": "None", "facebook": "None", "youtube": "None", "website": "None", "summary": "None", "logo": "None", "latitude": 42.30541791672924, "longitude": -82.99774901445538}, "107910259RR0180": {"name": "Croatian Martyrs Parish", "designationCode": "C", "categoryCode": "38", "address": "4605 MISSISSAUGA ROAD", "city": "MISSISSAUGA", "province": "ON", "country": "CA", "postalCode": "L5M7C6", "twitter": "None", "instagram": "None", "facebook": "None", "youtube": "None", "website": "None", "summary": "None", "logo": "None", "latitude": 43.56762926423905, "longitude": -79.6946551204341}, "832070387RR0001": {"name": "Crocus Vale Cemetery", "designationCode": "C", "categoryCode": "59", "address": "PO BOX 376 RURAL MUNI.376     NE-3-38-11 WEST OF THE 3RD", "city": "ARLEE", "province": "SK", "country": "CA", "postalCode": "S0K0H0", "twitter": "None", "instagram": "None", "facebook": "None", "youtube": "None", "website": "None", "summary": "None", "logo": "None", "latitude": 52.25944200000005, "longitude": -107.50321249999993}, "700873326RR0001": {"name": "Croisades D'\u00c9vang\u00e9lisation", "designationCode": "C", "categoryCode": "47", "address": "984 104I\u00c8ME AVENUE", "city": "DRUMMONDVILLE", "province": "QC", "country": "CA", "postalCode": "J2B4R2", "twitter": "None", "instagram": "None", "facebook": "None", "youtube": "None", "website": "None", "summary": "None", "logo": "None", "latitude": 45.86085179156328, "longitude": -72.47042352997862}}