{"896872371RR0001": {"name": "LE RELAIS DES JEUNES FAMILLES", "designationCode": "C", "categoryCode": "09", "address": "9335, BOUL. PIE 1X            APP. 1", "city": "MONTREAL", "province": "QC", "country": "CA", "postalCode": "H1Z3W5", "twitter": "None", "instagram": "None", "facebook": "None", "youtube": "None", "website": "None", "summary": "None", "logo": "None", "latitude": 45.58192525757394, "longitude": -73.62599976865377}, "119115004RR0001": {"name": "LE RELAIS DES JEUNES GATINOIS", "designationCode": "C", "categoryCode": "56", "address": "315 MIGNEAULT                 C.P 793", "city": "GATINEAU", "province": "QC", "country": "CA", "postalCode": "J8P6J3", "twitter": "None", "instagram": "None", "facebook": "None", "youtube": "None", "website": "None", "summary": "None", "logo": "None", "latitude": 45.48716903635526, "longitude": -75.66798255848535}, "874409352RR0001": {"name": "LE RELAIS DU QUARTIER DE ST-VINCENT-DE-PAUL", "designationCode": "C", "categoryCode": "09", "address": "4899 RUE ST-JOSEPH", "city": "LAVAL", "province": "QC", "country": "CA", "postalCode": "H7C1H6", "twitter": "None", "instagram": "None", "facebook": "None", "youtube": "None", "website": "None", "summary": "None", "logo": "None", "latitude": 45.61117873633789, "longitude": -73.64874444338962}, "886256395RR0001": {"name": "LE RELAIS DU SOURIRE - LEMOYNE INC", "designationCode": "C", "categoryCode": "01", "address": "305-1700 DE L'EGLISE", "city": "VILLE DE LEMOYNE", "province": "QC", "country": "CA", "postalCode": "J4P2C8", "twitter": "None", "instagram": "None", "facebook": "None", "youtube": "None", "website": "None", "summary": "None", "logo": "None", "latitude": 45.50807817681294, "longitude": -73.49262694190358}, "896032737RR0001": {"name": "LE RELAIS JEUNESSE DE LAVALTRIE", "designationCode": "C", "categoryCode": "09", "address": "47, CHEMIN DE LAVALTRIE", "city": "LAVALTRIE", "province": "QC", "country": "CA", "postalCode": "J5T2H3", "twitter": "None", "instagram": "None", "facebook": "None", "youtube": "None", "website": "None", "summary": "None", "logo": "None", "latitude": 45.890796942235795, "longitude": -73.28990323053816}, "899389027RR0001": {"name": "LE RELAIS MONT-ROYAL (DIOCESE DE MONTREAL)", "designationCode": "C", "categoryCode": "49", "address": "500 EST, AVENUE MONT-ROYAL", "city": "MONTREAL", "province": "QC", "country": "CA", "postalCode": "H2J1W5", "twitter": "None", "instagram": "None", "facebook": "None", "youtube": "None", "website": "None", "summary": "None", "logo": "None", "latitude": 45.52527419926146, "longitude": -73.5816664938545}, "888396264RR0001": {"name": "LE RELAIS POPULAIRE INC.", "designationCode": "C", "categoryCode": "09", "address": "1100, RUE NOTRE DAME", "city": "LACHINE", "province": "QC", "country": "CA", "postalCode": "H8S2C4", "twitter": "None", "instagram": "None", "facebook": "None", "youtube": "None", "website": "None", "summary": "None", "logo": "None", "latitude": 45.43493946768412, "longitude": -73.6737522485429}, "879392967RR0001": {"name": "LE RENDEZ-VOUS FAMILIAL INC.", "designationCode": "C", "categoryCode": "09", "address": "4520B BOUL SAINT-JOSEPH", "city": "DRUMMONDVILLE", "province": "QC", "country": "CA", "postalCode": "J2A1B2", "twitter": "None", "instagram": "None", "facebook": "None", "youtube": "None", "website": "None", "summary": "None", "logo": "None", "latitude": 45.841941899340796, "longitude": -72.43835154050603}, "867557894RR0001": {"name": "LE REPAS DU PASSANT", "designationCode": "C", "categoryCode": "09", "address": "700 BOUL. STE-FOY", "city": "LONGUEUIL", "province": "QC", "country": "CA", "postalCode": "J4J5E9", "twitter": "None", "instagram": "None", "facebook": "None", "youtube": "None", "website": "None", "summary": "None", "logo": "None", "latitude": 45.524416351607435, "longitude": -73.49427386355265}, "136327350RR0001": {"name": "LE REPERE DES JEUNES ILE-DES-SOEURS", "designationCode": "C", "categoryCode": "59", "address": "1208-700 RUE DE GASPE", "city": "VERDUN", "province": "QC", "country": "CA", "postalCode": "H3E1H2", "twitter": "None", "instagram": "None", "facebook": "None", "youtube": "None", "website": "None", "summary": "None", "logo": "None", "latitude": 45.45391344044679, "longitude": -73.54739854818492}, "893898775RR0001": {"name": "LE REPIT DANIEL POTVIN INC.", "designationCode": "C", "categoryCode": "09", "address": "898 BOUL. BLANCHE", "city": "BAIE COMEAU", "province": "QC", "country": "CA", "postalCode": "G5C2B9", "twitter": "None", "instagram": "None", "facebook": "None", "youtube": "None", "website": "None", "summary": "None", "logo": "None", "latitude": 49.19280949570082, "longitude": -68.26044408517535}, "103061156RR0001": {"name": "LE REPIT DU PASSANT INC.", "designationCode": "C", "categoryCode": "01", "address": "205 ST-CYPRIEN", "city": "RIMOUSKI", "province": "QC", "country": "CA", "postalCode": "G5L3J4", "twitter": "None", "instagram": "None", "facebook": "None", "youtube": "None", "website": "None", "summary": "None", "logo": "None", "latitude": 48.450394624473475, "longitude": -68.52288008993587}, "125956441RR0001": {"name": "LE REPOS SAINT-FRANCOIS D'ASSISE", "designationCode": "C", "categoryCode": "59", "address": "6893 RUE SHERBROOKE EST", "city": "MONTREAL", "province": "QC", "country": "CA", "postalCode": "H1N1C7", "twitter": "None", "instagram": "None", "facebook": "None", "youtube": "None", "website": "None", "summary": "None", "logo": "None", "latitude": 45.58605803941369, "longitude": -73.5413421103352}, "119008589RR0001": {"name": "LE RESEAU COMMUNAUTAIRE D'AIDE AUX ALCOOLIQUES ET AUTRES TOXICOMANES", "designationCode": "C", "categoryCode": "57", "address": "200 RUE DE SALABERRY", "city": "JOLIETTE", "province": "QC", "country": "CA", "postalCode": "J6E4G1", "twitter": "None", "instagram": "None", "facebook": "None", "youtube": "None", "website": "None", "summary": "None", "logo": "None", "latitude": 46.018426513762904, "longitude": -73.43291349685467}, "107614000RR0001": {"name": "LE RESEAU D'AIDE AUX PERSONNES SEULES ET ITINERANTES DE MONTREAL INC.", "designationCode": "C", "categoryCode": "59", "address": "1431 FULLUM, BUREAU 203", "city": "MONTR\u00c9AL", "province": "QC", "country": "CA", "postalCode": "H2K0B1", "twitter": "None", "instagram": "None", "facebook": "None", "youtube": "None", "website": "None", "summary": "None", "logo": "None", "latitude": 45.52754518154519, "longitude": -73.54883886730356}, "120598875RR0001": {"name": "LE RESEAU D'AMIS DE SHERBROOKE ET DES ENVIRONS", "designationCode": "C", "categoryCode": "09", "address": "2634 GALT OUEST", "city": "SHERBROOKE", "province": "QC", "country": "CA", "postalCode": "J1K2X2", "twitter": "None", "instagram": "None", "facebook": "None", "youtube": "None", "website": "None", "summary": "None", "logo": "None", "latitude": 45.38694292570271, "longitude": -71.9377080691279}, "890443260RR0001": {"name": "LE RESEAU DES AIDANTS NATURELS D'AUTRAY", "designationCode": "C", "categoryCode": "09", "address": "588 RUE MONTCALM              BUREAU 220", "city": "BERTHIERVILLE", "province": "QC", "country": "CA", "postalCode": "J0K1A0", "twitter": "None", "instagram": "None", "facebook": "None", "youtube": "None", "website": "None", "summary": "None", "logo": "None", "latitude": 46.083804284782595, "longitude": -73.17541070335815}, "892972969RR0001": {"name": "LE RESTE REVIENDRA / KEHILAT SHE'AR YASHUV", "designationCode": "C", "categoryCode": "42", "address": "8255 MOUNTAIN SIGHTS          SUITE 225", "city": "MONTREAL", "province": "QC", "country": "CA", "postalCode": "H4P2B5", "twitter": "None", "instagram": "None", "facebook": "None", "youtube": "None", "website": "None", "summary": "None", "logo": "None", "latitude": 45.50046843741702, "longitude": -73.65805523463578}, "132071382RR0001": {"name": "LE RIVAGE DU VAL ST-FRANCOIS", "designationCode": "C", "categoryCode": "01", "address": "423, RUE PRINCIPALE NORD", "city": "RICHMOND", "province": "QC", "country": "CA", "postalCode": "J0B2H0", "twitter": "None", "instagram": "None", "facebook": "None", "youtube": "None", "website": "None", "summary": "None", "logo": "None", "latitude": 45.66200351817765, "longitude": -72.14349656968076}, "867368565RR0001": {"name": "LE RUBAN ROSE", "designationCode": "C", "categoryCode": "11", "address": "443, 4I\u00c8ME RUE", "city": "SHAWINIGAN", "province": "QC", "country": "CA", "postalCode": "G9N1G6", "twitter": "None", "instagram": "None", "facebook": "None", "youtube": "None", "website": "None", "summary": "None", "logo": "None", "latitude": 46.615296548057444, "longitude": -72.68797581133698}, "891980948RR0001": {"name": "LE SAC A MOTS", "designationCode": "C", "categoryCode": "21", "address": "706 RUE SUD", "city": "COWANSVILLE", "province": "QC", "country": "CA", "postalCode": "J2K2Y1", "twitter": "None", "instagram": "None", "facebook": "None", "youtube": "None", "website": "None", "summary": "None", "logo": "None", "latitude": 45.202344474609006, "longitude": -72.74745531490545}, "887460517RR0001": {"name": "LE SAMARITAIN DU NORD", "designationCode": "C", "categoryCode": "09", "address": "C.P. 3324", "city": "HEARST", "province": "ON", "country": "CA", "postalCode": "P0L1N0", "twitter": "None", "instagram": "None", "facebook": "None", "youtube": "None", "website": "None", "summary": "None", "logo": "None", "latitude": 49.68503700000005, "longitude": -83.65433749999994}, "119138725RR0001": {"name": "LE SANCTUAIRE DES AMIS DE STE-ANNE INC.", "designationCode": "C", "categoryCode": "49", "address": "8245, RANG SAINT-EUGENE", "city": "LA DORE", "province": "QC", "country": "CA", "postalCode": "G8J1G6", "twitter": "None", "instagram": "None", "facebook": "None", "youtube": "None", "website": "None", "summary": "None", "logo": "None", "latitude": 48.77084998111471, "longitude": -72.7137977850786}, "120500087RR0001": {"name": "LE SANCTUAIRE DU ROSAIRE (NIAGARA) INC", "designationCode": "C", "categoryCode": "52", "address": "16 MUIRFIELD TRAIL", "city": "WELLAND", "province": "ON", "country": "CA", "postalCode": "L3B6G7", "twitter": "None", "instagram": "None", "facebook": "None", "youtube": "None", "website": "None", "summary": "None", "logo": "None", "latitude": 43.021691223440364, "longitude": -79.2166247082925}, "854402302RR0001": {"name": "LE SANCTUAIRE DU SAINT-SACREMENT - MONTREAL", "designationCode": "C", "categoryCode": "49", "address": "2000, RUE SHERBROOKE OUEST", "city": "MONTREAL", "province": "QC", "country": "CA", "postalCode": "H3H1G4", "twitter": "None", "instagram": "None", "facebook": "None", "youtube": "None", "website": "None", "summary": "None", "logo": "None", "latitude": 45.49368344489018, "longitude": -73.5842704953837}, "857124507RR0001": {"name": "LE SECURITELEPHONE INC.", "designationCode": "C", "categoryCode": "09", "address": "344 RUE SAINT PATRICE EST", "city": "MAGOG", "province": "QC", "country": "CA", "postalCode": "J1X1V2", "twitter": "None", "instagram": "None", "facebook": "None", "youtube": "None", "website": "None", "summary": "None", "logo": "None", "latitude": 45.26409654674262, "longitude": -72.13709211226845}, "119015360RR0001": {"name": "LE SEMINAIRE DE SAINTE-THERESE", "designationCode": "C", "categoryCode": "20", "address": "YVES CARRIERE                 355 RUE ST-GEORGES", "city": "ST-JEROME", "province": "QC", "country": "CA", "postalCode": "J7Z5A9", "twitter": "None", "instagram": "None", "facebook": "None", "youtube": "None", "website": "None", "summary": "None", "logo": "None", "latitude": 45.777748484592315, "longitude": -74.00276650911793}, "119015378RR0001": {"name": "LE SEMINAIRE SAINT-JOSPEH DE MONT-LAURIER", "designationCode": "C", "categoryCode": "20", "address": "435 RUE DE LA MADONE", "city": "MONT-LAURIER", "province": "QC", "country": "CA", "postalCode": "J9L1S1", "twitter": "None", "instagram": "None", "facebook": "None", "youtube": "None", "website": "None", "summary": "None", "logo": "None", "latitude": 46.55167978270512, "longitude": -75.50047181170281}, "119144970RR0001": {"name": "LE SEMINAIRE SALESIEN DE SHERBROOKE", "designationCode": "C", "categoryCode": "20", "address": "135 RUE DON-BOSCO NORD", "city": "SHERBROOKE", "province": "QC", "country": "CA", "postalCode": "J1L1E5", "twitter": "None", "instagram": "None", "facebook": "None", "youtube": "None", "website": "None", "summary": "None", "logo": "None", "latitude": 45.398836946859596, "longitude": -71.95052486197717}, "883631699RR0001": {"name": "LE SENTIER DU COEUR INC.", "designationCode": "C", "categoryCode": "39", "address": "211, RUE BOURQUE", "city": "STE-CROIX", "province": "QC", "country": "CA", "postalCode": "G0S2H0", "twitter": "None", "instagram": "None", "facebook": "None", "youtube": "None", "website": "None", "summary": "None", "logo": "None", "latitude": 46.62196027171221, "longitude": -71.74145085224167}, "131548448RR0001": {"name": "LE SERVICE \"LES HABITATIONS PARTAGEES DU SAGUENAY\"", "designationCode": "C", "categoryCode": "01", "address": "2505 RUE SAINT-HUBERT         10IEME ETAGE", "city": "JONQUIERE", "province": "QC", "country": "CA", "postalCode": "G7X7W2", "twitter": "None", "instagram": "None", "facebook": "None", "youtube": "None", "website": "None", "summary": "None", "logo": "None", "latitude": 48.40616406688214, "longitude": -71.24896503935638}, "864041504RR0001": {"name": "LE SERVICE ALIMENTAIRE COMMUNAUTAIRE (S.A.C.)", "designationCode": "C", "categoryCode": "09", "address": "50, RUE WEBB", "city": "SALABERRY-DE-VALLEYFIELD", "province": "QC", "country": "CA", "postalCode": "J6T6L5", "twitter": "None", "instagram": "None", "facebook": "None", "youtube": "None", "website": "None", "summary": "None", "logo": "None", "latitude": 45.24995369006945, "longitude": -74.12490802891975}, "118838721RR0001": {"name": "LE SERVICE CARITAS ESTRIE INC.", "designationCode": "C", "categoryCode": "43", "address": "110 RUE OZIAS-LEDUC", "city": "SHERBROOKE", "province": "QC", "country": "CA", "postalCode": "J1H1M7", "twitter": "None", "instagram": "None", "facebook": "None", "youtube": "None", "website": "None", "summary": "None", "logo": "None", "latitude": 45.40291963780367, "longitude": -71.89225612877264}, "119015410RR0001": {"name": "LE SERVICE D'AIDE AUX NEO-CANADIENS (SHERBROOKE) INC. / SERVICE AND ASSISTANCE FOR NEW CANADIANS (SHERBROOKE) INC.", "designationCode": "C", "categoryCode": "09", "address": "530 RUE PROSPECT", "city": "SHERBROOKE", "province": "QC", "country": "CA", "postalCode": "J1H1A8", "twitter": "None", "instagram": "None", "facebook": "None", "youtube": "None", "website": "None", "summary": "None", "logo": "None", "latitude": 45.407687616423395, "longitude": -71.89768622274788}, "119015428RR0001": {"name": "LE SERVICE D'ENTRAIDE DE CHARNY INC.", "designationCode": "C", "categoryCode": "09", "address": "2480 CH DE CHARNY", "city": "LEVIS", "province": "QC", "country": "CA", "postalCode": "G6X2V2", "twitter": "None", "instagram": "None", "facebook": "None", "youtube": "None", "website": "None", "summary": "None", "logo": "None", "latitude": 46.71252308021235, "longitude": -71.27093717277396}, "867565079RR0001": {"name": "LE SERVICE DE SOINS PALLIATIFS DE L'OUEST DE L'ILE INC/THE WEST ISLAND PALLIATIVE CARE SERVICE INC", "designationCode": "C", "categoryCode": "11", "address": "265 ANDRE BRUNET", "city": "KIRKLAND", "province": "QC", "country": "CA", "postalCode": "H9H3R4", "twitter": "None", "instagram": "None", "facebook": "None", "youtube": "None", "website": "None", "summary": "None", "logo": "None", "latitude": 45.448347928674444, "longitude": -73.8364439364074}, "107616575RR0001": {"name": "LE SEUIL DE L'ESTRIE INC.", "designationCode": "C", "categoryCode": "09", "address": "C.P. 1503 SUCC.               PLACE DE LA CIT\u00c9", "city": "SHERBROOKE", "province": "QC", "country": "CA", "postalCode": "J1H5M4", "twitter": "None", "instagram": "None", "facebook": "None", "youtube": "None", "website": "None", "summary": "None", "logo": "None", "latitude": 45.39993924181269, "longitude": -71.89518081045317}, "131360299RR0001": {"name": "LE SILLON REGROUPEMENT DES PARENTS ET AMIS DE LA PERSONNE ATTEINTE D'UNE MALADIE MENTALE", "designationCode": "C", "categoryCode": "09", "address": "477 90E RUE                   SUITE 240", "city": "SAINT-GEORGES", "province": "QC", "country": "CA", "postalCode": "G5Y3L1", "twitter": "None", "instagram": "None", "facebook": "None", "youtube": "None", "website": "None", "summary": "None", "logo": "None", "latitude": 46.13159896618357, "longitude": -70.69424991889267}, "860984863RR0001": {"name": "LE SUPPORT", "designationCode": "C", "categoryCode": "09", "address": "59, RUE MONFETTE              LOCAL 101", "city": "VICTORIAVILLE", "province": "QC", "country": "CA", "postalCode": "G6P1J8", "twitter": "None", "instagram": "None", "facebook": "None", "youtube": "None", "website": "None", "summary": "None", "logo": "None", "latitude": 46.06164779188039, "longitude": -71.9668892342031}, "140817446RR0001": {"name": "LE TEMPLE HINDOU DU QUEBEC THE HINDU TEMPLE OF QUEBEC HINDU-MANDIR", "designationCode": "C", "categoryCode": "48", "address": "50 KESMARK", "city": "D D O", "province": "QC", "country": "CA", "postalCode": "H9B3K4", "twitter": "None", "instagram": "None", "facebook": "None", "youtube": "None", "website": "None", "summary": "None", "logo": "None", "latitude": 45.48351384399005, "longitude": -73.80128797665782}, "105194609RR0001": {"name": "LE TH\u00c9\u00c2TRE DE LA MANUFACTURE INC.", "designationCode": "C", "categoryCode": "22", "address": "4559 AV. PAPINEAU", "city": "MONTREAL", "province": "QC", "country": "CA", "postalCode": "H2H1V4", "twitter": "None", "instagram": "None", "facebook": "None", "youtube": "None", "website": "None", "summary": "None", "logo": "None", "latitude": 45.53343518486342, "longitude": -73.57563792226915}, "103311395RR0001": {"name": "LE THEATRE DE L'OPSIS INC.", "designationCode": "C", "categoryCode": "22", "address": "114 - 1600 AV DE LORIMIER", "city": "MONTREAL", "province": "QC", "country": "CA", "postalCode": "H2K3W5", "twitter": "None", "instagram": "None", "facebook": "None", "youtube": "None", "website": "None", "summary": "None", "logo": "None", "latitude": 45.52597796055766, "longitude": -73.55291510286204}, "889266706RR0001": {"name": "LE THEATRE DE LA BANQUETTE ARRIERE", "designationCode": "C", "categoryCode": "22", "address": "2205 PARTHENAIS LOCAL 217", "city": "MONTR\u00c9AL", "province": "QC", "country": "CA", "postalCode": "H2K3T3", "twitter": "None", "instagram": "None", "facebook": "None", "youtube": "None", "website": "None", "summary": "None", "logo": "None", "latitude": 45.53064607550915, "longitude": -73.55857163806347}, "103311460RR0001": {"name": "LE THEATRE DE LA VIEILLE 17", "designationCode": "C", "categoryCode": "22", "address": "204 KING EDWARD AVE", "city": "OTTAWA", "province": "ON", "country": "CA", "postalCode": "K1N7L7", "twitter": "None", "instagram": "None", "facebook": "None", "youtube": "None", "website": "None", "summary": "None", "logo": "None", "latitude": 45.43284535108784, "longitude": -75.68936980962533}, "102967569RR0001": {"name": "LE THEATRE DENISE-PELLETIER INC.", "designationCode": "C", "categoryCode": "22", "address": "4353 RUE SAINTE-CATHERINE EST", "city": "MONTREAL", "province": "QC", "country": "CA", "postalCode": "H1V1Y2", "twitter": "None", "instagram": "None", "facebook": "None", "youtube": "None", "website": "None", "summary": "None", "logo": "None", "latitude": 45.5512786228287, "longitude": -73.5337898970797}, "122909062RR0001": {"name": "LE THEATRE DES CONFETTIS INC", "designationCode": "C", "categoryCode": "22", "address": "310 BOUL. LANGELIER BUR. 303", "city": "QUEBEC", "province": "QC", "country": "CA", "postalCode": "G1K5N3", "twitter": "None", "instagram": "None", "facebook": "None", "youtube": "None", "website": "None", "summary": "None", "logo": "None", "latitude": 46.81331749624909, "longitude": -71.23192445533486}, "897940755RR0001": {"name": "LE THEATRE DES CUISINES INC.", "designationCode": "C", "categoryCode": "22", "address": "CP 2008", "city": "RIMOUSKI", "province": "QC", "country": "CA", "postalCode": "G0L1B0", "twitter": "None", "instagram": "None", "facebook": "None", "youtube": "None", "website": "None", "summary": "None", "logo": "None", "latitude": 48.44934000000006, "longitude": -68.52473999999995}, "142787662RR0001": {"name": "LE THEATRE DES PETITES LANTERNES", "designationCode": "C", "categoryCode": "22", "address": "250, RUE DU D\u00c9P\u00d4T             BUR. 218", "city": "SHERBROOKE", "province": "QC", "country": "CA", "postalCode": "J1H5H1", "twitter": "None", "instagram": "None", "facebook": "None", "youtube": "None", "website": "None", "summary": "None", "logo": "None", "latitude": 45.39807494806416, "longitude": -71.88814775238072}, "867293334RR0001": {"name": "LE THEATRE DES VENTREBLEUS", "designationCode": "C", "categoryCode": "22", "address": "925 DE VILLIEU", "city": "TERREBONNE", "province": "QC", "country": "CA", "postalCode": "J6X1L6", "twitter": "None", "instagram": "None", "facebook": "None", "youtube": "None", "website": "None", "summary": "None", "logo": "None", "latitude": 45.70570774854292, "longitude": -73.66691114054497}, "103311486RR0001": {"name": "LE THEATRE DU DOUBLE SIGNE", "designationCode": "C", "categoryCode": "22", "address": "250 RUE DU DEPOT              BUREAU 224", "city": "SHERBROOKE", "province": "QC", "country": "CA", "postalCode": "J1H5G1", "twitter": "None", "instagram": "None", "facebook": "None", "youtube": "None", "website": "None", "summary": "None", "logo": "None", "latitude": 45.39807494806416, "longitude": -71.88814775238072}, "119018554RR0001": {"name": "LE THEATRE DU NOUVEL-ONTARIO INC.", "designationCode": "C", "categoryCode": "22", "address": "21, BOULEVARD LASALLE", "city": "SUDBURY", "province": "ON", "country": "CA", "postalCode": "P3A6B1", "twitter": "None", "instagram": "None", "facebook": "None", "youtube": "None", "website": "None", "summary": "None", "logo": "None", "latitude": 46.51572053836716, "longitude": -81.00132297305763}, "103311510RR0001": {"name": "LE THEATRE DU TRIDENT INC.", "designationCode": "C", "categoryCode": "22", "address": "269 BOUL RENE-LEVESQUE EST", "city": "QUEBEC", "province": "QC", "country": "CA", "postalCode": "G1R2B3", "twitter": "None", "instagram": "None", "facebook": "None", "youtube": "None", "website": "None", "summary": "None", "logo": "None", "latitude": 46.80651293807555, "longitude": -71.22246997222109}, "119018588RR0001": {"name": "LE THEATRE FRANCAIS DE TORONTO", "designationCode": "C", "categoryCode": "22", "address": "21 RUE COLLEGE                BUREAU 610", "city": "TORONTO", "province": "ON", "country": "CA", "postalCode": "M5G2B3", "twitter": "None", "instagram": "None", "facebook": "None", "youtube": "None", "website": "None", "summary": "None", "logo": "None", "latitude": 43.66120084205681, "longitude": -79.38382523091353}, "121767628RR0001": {"name": "LE THEATRE PETIT A PETIT", "designationCode": "C", "categoryCode": "22", "address": "4949 RUE CLARK", "city": "MONTREAL", "province": "QC", "country": "CA", "postalCode": "H2T2T6", "twitter": "None", "instagram": "None", "facebook": "None", "youtube": "None", "website": "None", "summary": "None", "logo": "None", "latitude": 45.521791155433036, "longitude": -73.59157953551853}, "119018596RR0001": {"name": "LE TIERS-ORDRE DE SAINT-DOMINIQUE", "designationCode": "C", "categoryCode": "49", "address": "12282, CATELLI", "city": "MONTR\u00c9AL", "province": "QC", "country": "CA", "postalCode": "H1E7R4", "twitter": "None", "instagram": "None", "facebook": "None", "youtube": "None", "website": "None", "summary": "None", "logo": "None", "latitude": 45.645333978619725, "longitude": -73.57965243271381}, "119018620RR0001": {"name": "LE TOIT DE L'AMITIE", "designationCode": "C", "categoryCode": "01", "address": "CP 37", "city": "LA TUQUE", "province": "QC", "country": "CA", "postalCode": "G9X3P1", "twitter": "None", "instagram": "None", "facebook": "None", "youtube": "None", "website": "None", "summary": "None", "logo": "None", "latitude": 47.43777300000005, "longitude": -72.78446149999994}, "107623423RR0001": {"name": "LE TOUR DE LIRE", "designationCode": "C", "categoryCode": "20", "address": "1691 BOUL. PIE IX", "city": "MONTREAL", "province": "QC", "country": "CA", "postalCode": "H1V2C3", "twitter": "None", "instagram": "None", "facebook": "None", "youtube": "None", "website": "None", "summary": "None", "logo": "None", "latitude": 45.549584819348844, "longitude": -73.53872267288952}, "138180120RR0001": {"name": "LE TOURNESOL DE LA RIVE-NORD INC", "designationCode": "C", "categoryCode": "09", "address": "222 RUE NOTRE-DAME", "city": "REPENTIGNY", "province": "QC", "country": "CA", "postalCode": "J6A2R2", "twitter": "None", "instagram": "None", "facebook": "None", "youtube": "None", "website": "None", "summary": "None", "logo": "None", "latitude": 45.72134125255361, "longitude": -73.46327027142374}, "830600276RR0001": {"name": "LE TRAIT D'UNION DE ST-REMI INC.", "designationCode": "C", "categoryCode": "09", "address": "287 RUE MCLAUGHLIN", "city": "ST-REMI D'AMHERST", "province": "QC", "country": "CA", "postalCode": "J0T2L0", "twitter": "None", "instagram": "None", "facebook": "None", "youtube": "None", "website": "None", "summary": "None", "logo": "None", "latitude": 46.01225603514262, "longitude": -74.76223887558467}, "140840265RR0001": {"name": "LE TRAIT D'UNION, GROUPE D'ENTRAIDE POUR PERSONNES AYANT DESTROUBLES DE SANT\u00c9 MENTALE", "designationCode": "C", "categoryCode": "09", "address": "64, RUE SAINT-JEAN-BAPTISTE O", "city": "MONTMAGNY", "province": "QC", "country": "CA", "postalCode": "G5V3B7", "twitter": "None", "instagram": "None", "facebook": "None", "youtube": "None", "website": "None", "summary": "None", "logo": "None", "latitude": 46.978451162906204, "longitude": -70.56691506021704}, "103312138RR0001": {"name": "LE TRANFERT INC.", "designationCode": "C", "categoryCode": "01", "address": "245 RUE DU CURE-MAJEAU", "city": "JOLIETTE", "province": "QC", "country": "CA", "postalCode": "J6E8S8", "twitter": "None", "instagram": "None", "facebook": "None", "youtube": "None", "website": "None", "summary": "None", "logo": "None", "latitude": 46.01382006852692, "longitude": -73.42487392099974}, "130889868RR0001": {"name": "LE TRAVERSIER, SERVICE D'ENTRAIDE EN SANTE MENTALE", "designationCode": "C", "categoryCode": "09", "address": "2096 AVENUE A", "city": "TROIS-RIVIERES", "province": "QC", "country": "CA", "postalCode": "G8Z2X2", "twitter": "None", "instagram": "None", "facebook": "None", "youtube": "None", "website": "None", "summary": "None", "logo": "None", "latitude": 46.34832287705576, "longitude": -72.5531491670898}, "899716344RR0001": {"name": "LE TREMPLIN DES LECTEURS", "designationCode": "C", "categoryCode": "21", "address": "160 BOULEVARD MALONEY EST     APP.#12", "city": "GATINEAU", "province": "QC", "country": "CA", "postalCode": "J8P1C1", "twitter": "None", "instagram": "None", "facebook": "None", "youtube": "None", "website": "None", "summary": "None", "logo": "None", "latitude": 45.48378061613492, "longitude": -75.6503565195626}, "882081805RR0001": {"name": "LE TREMPLIN 16-30 DE SHERBROOKE", "designationCode": "C", "categoryCode": "09", "address": "95 RUE WELLINGTON SUD #10", "city": "SHERBROOKE", "province": "QC", "country": "CA", "postalCode": "J1H5C8", "twitter": "None", "instagram": "None", "facebook": "None", "youtube": "None", "website": "None", "summary": "None", "logo": "None", "latitude": 45.399822684978986, "longitude": -71.88936994506307}, "108138553RR0001": {"name": "LE TRIBUNAL ECCLESIASTIQUE D'OTTAWA", "designationCode": "C", "categoryCode": "49", "address": "1247 PLACE KILBORN", "city": "OTTAWA", "province": "ON", "country": "CA", "postalCode": "K1H6K9", "twitter": "None", "instagram": "None", "facebook": "None", "youtube": "None", "website": "None", "summary": "None", "logo": "None", "latitude": 45.38617910467131, "longitude": -75.67189246282967}, "121148878RR0001": {"name": "LE VAISSEAU D'OR (DES MOULINS)", "designationCode": "C", "categoryCode": "09", "address": "486 RUE GAGNON", "city": "TERREBONNE", "province": "QC", "country": "CA", "postalCode": "J6W1N7", "twitter": "None", "instagram": "None", "facebook": "None", "youtube": "None", "website": "None", "summary": "None", "logo": "None", "latitude": 45.696977256448754, "longitude": -73.63072526369076}, "872125174RR0001": {"name": "LE VELO VERT INC", "designationCode": "C", "categoryCode": "59", "address": "3030 BOUL SAINTE-ANNE", "city": "BEAUPORT", "province": "QC", "country": "CA", "postalCode": "G1E6N1", "twitter": "None", "instagram": "None", "facebook": "None", "youtube": "None", "website": "None", "summary": "None", "logo": "None", "latitude": 46.847244930319235, "longitude": -71.21030652703577}, "888978723RR0001": {"name": "LE VERGER, CENTRE COMMUNAUTAIRE EN SANT\u00c9 MENTALE", "designationCode": "C", "categoryCode": "09", "address": "934 AVENUE DU CHANOINE-SCOTT", "city": "QUEBEC", "province": "QC", "country": "CA", "postalCode": "G1V3N7", "twitter": "None", "instagram": "None", "facebook": "None", "youtube": "None", "website": "None", "summary": "None", "logo": "None", "latitude": 46.77618207242206, "longitude": -71.29810738484602}, "887213486RR0001": {"name": "LE VILLAGE HISTORIQUE ACADIEN DE LA NOUVELLE-ECOSSE", "designationCode": "C", "categoryCode": "99", "address": "91 OLD CHURCH RD", "city": "PUBNICO-OUEST", "province": "NS", "country": "CA", "postalCode": "B0W2C0", "twitter": "None", "instagram": "None", "facebook": "None", "youtube": "None", "website": "None", "summary": "None", "logo": "None", "latitude": 43.636611053637914, "longitude": -65.79353657851024}, "119018802RR0001": {"name": "LE VILLAGE QUEBECOIS D'ANTAN", "designationCode": "C", "categoryCode": "52", "address": "1425 MONTPLAISIR", "city": "DRUMMONDVILLE", "province": "QC", "country": "CA", "postalCode": "J2C0M2", "twitter": "None", "instagram": "None", "facebook": "None", "youtube": "None", "website": "None", "summary": "None", "logo": "None", "latitude": 45.892483419354974, "longitude": -72.48786509752367}, "119010098RR0001": {"name": "LEADER & DISTRICT ARTS COUNCIL", "designationCode": "C", "categoryCode": "22", "address": "BOX 151", "city": "LEADER", "province": "SK", "country": "CA", "postalCode": "S0N1H0", "twitter": "None", "instagram": "None", "facebook": "None", "youtube": "None", "website": "None", "summary": "None", "logo": "None", "latitude": 50.883410000000026, "longitude": -109.55153999999999}, "888375664RR0001": {"name": "LEADER & DISTRICT DONOR'S CHOICE ORGANIZATION", "designationCode": "A", "categoryCode": "05", "address": "BOX 389", "city": "LEADER", "province": "SK", "country": "CA", "postalCode": "S0N1H0", "twitter": "None", "instagram": "None", "facebook": "None", "youtube": "None", "website": "None", "summary": "None", "logo": "None", "latitude": 50.883410000000026, "longitude": -109.55153999999999}, "108086497RR0001": {"name": "LEADER ALLIANCE CHURCH", "designationCode": "C", "categoryCode": "39", "address": "BOX 717", "city": "LEADER", "province": "SK", "country": "CA", "postalCode": "S0N1H0", "twitter": "None", "instagram": "None", "facebook": "None", "youtube": "None", "website": "None", "summary": "None", "logo": "None", "latitude": 50.883410000000026, "longitude": -109.55153999999999}, "888528064RR0001": {"name": "LEADER FRIENDSHIP CENTRE", "designationCode": "C", "categoryCode": "56", "address": "BOX 423", "city": "LEADER", "province": "SK", "country": "CA", "postalCode": "S0N1H0", "twitter": "None", "instagram": "None", "facebook": "None", "youtube": "None", "website": "None", "summary": "None", "logo": "None", "latitude": 50.883410000000026, "longitude": -109.55153999999999}, "132800079RR0001": {"name": "LEADER UNITED CHURCH,", "designationCode": "C", "categoryCode": "44", "address": "PO BOX 747", "city": "LEADER", "province": "SK", "country": "CA", "postalCode": "S0N1H0", "twitter": "None", "instagram": "None", "facebook": "None", "youtube": "None", "website": "None", "summary": "None", "logo": "None", "latitude": 50.883410000000026, "longitude": -109.55153999999999}, "119010080RR0001": {"name": "LEADER VICTORY FELLOWSHP INC.", "designationCode": "C", "categoryCode": "36", "address": "PO BOX 747", "city": "LEADER", "province": "SK", "country": "CA", "postalCode": "S0N1H0", "twitter": "None", "instagram": "None", "facebook": "None", "youtube": "None", "website": "None", "summary": "None", "logo": "None", "latitude": 50.883410000000026, "longitude": -109.55153999999999}, "886199793RR0001": {"name": "LEADER-POST FOUNDATION INC.", "designationCode": "B", "categoryCode": "23", "address": "P.O. BOX 2020 STN MAIN", "city": "REGINA", "province": "SK", "country": "CA", "postalCode": "S4P3G4", "twitter": "None", "instagram": "None", "facebook": "None", "youtube": "None", "website": "None", "summary": "None", "logo": "None", "latitude": 50.448246000000054, "longitude": -104.59517299999993}, "892469446RR0001": {"name": "LEADERSHIP DEVELOPMENT INTERNATIONAL INC", "designationCode": "C", "categoryCode": "47", "address": "5166 CORDOVA BAY ROAD         PO BOX 41012", "city": "VICTORIA", "province": "BC", "country": "CA", "postalCode": "V8Y0A3", "twitter": "None", "instagram": "None", "facebook": "None", "youtube": "None", "website": "None", "summary": "None", "logo": "None", "latitude": 48.52402974628397, "longitude": -123.3679994418247}, "819990342RR0001": {"name": "LEADERSHIP EDMONTON", "designationCode": "C", "categoryCode": "59", "address": "270 VALLEY SPRINGS TERR NW", "city": "CALGARY", "province": "AB", "country": "CA", "postalCode": "T3B5P8", "twitter": "None", "instagram": "None", "facebook": "None", "youtube": "None", "website": "None", "summary": "None", "logo": "None", "latitude": 51.095682511541185, "longitude": -114.24256427852153}, "897636700RR0001": {"name": "LEADERSHIP SASKATOON INC.", "designationCode": "C", "categoryCode": "20", "address": "P.O. BOX 7594", "city": "SASKATOON", "province": "SK", "country": "CA", "postalCode": "S7K4R4", "twitter": "None", "instagram": "None", "facebook": "None", "youtube": "None", "website": "None", "summary": "None", "logo": "None", "latitude": 52.13049000000005, "longitude": -106.65926449999994}, "846151520RR0001": {"name": "LEADERSHIP THUNDER BAY", "designationCode": "C", "categoryCode": "59", "address": "PO BOX 28003", "city": "THUNDER BAY", "province": "ON", "country": "CA", "postalCode": "P7E5M8", "twitter": "None", "instagram": "None", "facebook": "None", "youtube": "None", "website": "None", "summary": "None", "logo": "None", "latitude": 48.38080200000006, "longitude": -89.24907049999993}, "887822617RR0001": {"name": "LEADERSHIP WATERLOO REGION", "designationCode": "C", "categoryCode": "20", "address": "290 WESTMOUNT ROAD N.", "city": "WATERLOO", "province": "ON", "country": "CA", "postalCode": "N2L3G3", "twitter": "None", "instagram": "None", "facebook": "None", "youtube": "None", "website": "None", "summary": "None", "logo": "None", "latitude": 43.46828657573936, "longitude": -80.5482409349947}, "856565767RR0001": {"name": "LEADING INFLUENCE SOCIETY", "designationCode": "C", "categoryCode": "49", "address": "626 BLANSHARD ST", "city": "VICTORIA", "province": "BC", "country": "CA", "postalCode": "V9W3G6", "twitter": "None", "instagram": "None", "facebook": "None", "youtube": "None", "website": "None", "summary": "None", "logo": "None", "latitude": 48.420385123521186, "longitude": -123.36406285140495}, "855585378RR0001": {"name": "LEADING THE WAY WITH MICHAEL YOUSSEF OF CANADA", "designationCode": "C", "categoryCode": "49", "address": "PO BOX 142", "city": "MAPLE RIDGE", "province": "BC", "country": "CA", "postalCode": "V2X7E9", "twitter": "None", "instagram": "None", "facebook": "None", "youtube": "None", "website": "None", "summary": "None", "logo": "None", "latitude": 49.21686600000005, "longitude": -122.60537449999993}, "865204655RR0001": {"name": "LEADING TONE ARTS PRODUCTIONS INC.", "designationCode": "C", "categoryCode": "22", "address": "156 WOODMOUNT AVENUE", "city": "TORONTO", "province": "ON", "country": "CA", "postalCode": "M4C3Z1", "twitter": "None", "instagram": "None", "facebook": "None", "youtube": "None", "website": "None", "summary": "None", "logo": "None", "latitude": 43.690275461278794, "longitude": -79.31742560188108}, "107605388RR0001": {"name": "LEADS EMPLOYMENT SERVICES LONDON INC.", "designationCode": "C", "categoryCode": "59", "address": "171 QUEENS AVENUE, SUITE 410", "city": "LONDON", "province": "ON", "country": "CA", "postalCode": "N6A5J7", "twitter": "None", "instagram": "None", "facebook": "None", "youtube": "None", "website": "None", "summary": "None", "logo": "None", "latitude": 42.98463801471517, "longitude": -81.25012151621574}, "123613523RR0016": {"name": "LEAGUE DES CADETS DE L'AIR, ESCADRON 544 LOTBINIERE", "designationCode": "C", "categoryCode": "29", "address": "133 RUE BERGERON", "city": "LAURIER-STATION", "province": "QC", "country": "CA", "postalCode": "G0S1N0", "twitter": "None", "instagram": "None", "facebook": "None", "youtube": "None", "website": "None", "summary": "None", "logo": "None", "latitude": 46.5371679297438, "longitude": -71.62807700096073}, "123773764RR0001": {"name": "LEAGUE OF CANADIAN POETS", "designationCode": "C", "categoryCode": "81", "address": "101 - 688 RICHMOND ST W", "city": "TORONTO", "province": "ON", "country": "CA", "postalCode": "M6J1C5", "twitter": "None", "instagram": "None", "facebook": "None", "youtube": "None", "website": "None", "summary": "None", "logo": "None", "latitude": 43.64558904069499, "longitude": -79.40791988388742}, "119010213RR0001": {"name": "LEAMINGTON AND DISTRICT HALF-CENTURY CENTRE INC.", "designationCode": "C", "categoryCode": "09", "address": "160 TALBOT ST E", "city": "LEAMINGTON", "province": "ON", "country": "CA", "postalCode": "N8H1M2", "twitter": "None", "instagram": "None", "facebook": "None", "youtube": "None", "website": "None", "summary": "None", "logo": "None", "latitude": 42.054936980264486, "longitude": -82.59203438161471}, "119010189RR0001": {"name": "LEAMINGTON AND MERSEA HISTORICAL SOCIETY", "designationCode": "C", "categoryCode": "50", "address": "PO BOX 201", "city": "LEAMINGTON", "province": "ON", "country": "CA", "postalCode": "N8H3W2", "twitter": "None", "instagram": "None", "facebook": "None", "youtube": "None", "website": "None", "summary": "None", "logo": "None", "latitude": 42.05413500000006, "longitude": -82.59973099999993}, "889269148RR0001": {"name": "LEAMINGTON CEMETERY COMPANY", "designationCode": "C", "categoryCode": "59", "address": "11730 HIGHWAY 2               RR 1", "city": "SPRINGHILL", "province": "NS", "country": "CA", "postalCode": "B0M1X0", "twitter": "None", "instagram": "None", "facebook": "None", "youtube": "None", "website": "None", "summary": "None", "logo": "None", "latitude": 45.629835245200354, "longitude": -64.0804488365331}, "786585323RR0001": {"name": "LEAMINGTON CHRISTIAN CENTRE INC.", "designationCode": "C", "categoryCode": "39", "address": "98 ELLIOTT STREET", "city": "LEAMINGTON", "province": "ON", "country": "CA", "postalCode": "N8H3M8", "twitter": "None", "instagram": "None", "facebook": "None", "youtube": "None", "website": "None", "summary": "None", "logo": "None", "latitude": 42.05807494415243, "longitude": -82.60605941057572}, "119288918RR1078": {"name": "LEAMINGTON CONGREGATION OF JEHOVAH'S WITNESSES", "designationCode": "C", "categoryCode": "61", "address": "42 GRACE ST", "city": "LEAMINGTON", "province": "ON", "country": "CA", "postalCode": "N8H1K9", "twitter": "None", "instagram": "None", "facebook": "None", "youtube": "None", "website": "None", "summary": "None", "logo": "None", "latitude": 42.05100088923209, "longitude": -82.61308554925277}, "891251720RR0001": {"name": "LEAMINGTON DISTRICT SECONDARY SCHOOL TRUST", "designationCode": "A", "categoryCode": "03", "address": "1402 - 1 KING ST W", "city": "HAMILTON", "province": "ON", "country": "CA", "postalCode": "L8P1A4", "twitter": "None", "instagram": "None", "facebook": "None", "youtube": "None", "website": "None", "summary": "None", "logo": "None", "latitude": 43.26019321073324, "longitude": -79.88135629363086}, "851339812RR0001": {"name": "LEAMINGTON EVANGELICAL MENNONITE CHURCH", "designationCode": "C", "categoryCode": "39", "address": "108 MERSEA ROAD 3,            RR#2 STN MAIN", "city": "LEAMINGTON", "province": "ON", "country": "CA", "postalCode": "N8H3V5", "twitter": "None", "instagram": "None", "facebook": "None", "youtube": "None", "website": "None", "summary": "None", "logo": "None", "latitude": 42.06081192626182, "longitude": -82.64225141501964}, "865868806RR0001": {"name": "LEAMINGTON GOSPEL HALL", "designationCode": "C", "categoryCode": "39", "address": "4 GERRARD STREET              P O BOX 603", "city": "LEAMINGTON", "province": "ON", "country": "CA", "postalCode": "N8H3X4", "twitter": "None", "instagram": "None", "facebook": "None", "youtube": "None", "website": "None", "summary": "None", "logo": "None", "latitude": 42.05365455785112, "longitude": -82.5952774926424}, "119010221RR0001": {"name": "LEAMINGTON KIWANIS BOYS AND GIRLS CAMP", "designationCode": "C", "categoryCode": "56", "address": "BOX 102", "city": "LEAMINGTON", "province": "ON", "country": "CA", "postalCode": "N8H3W1", "twitter": "None", "instagram": "None", "facebook": "None", "youtube": "None", "website": "None", "summary": "None", "logo": "None", "latitude": 42.05413500000006, "longitude": -82.59973099999993}, "119010239RR0001": {"name": "LEAMINGTON LIONS CHARITABLE TRUST", "designationCode": "C", "categoryCode": "65", "address": "8 DONALD AVE.", "city": "LEAMINGTON", "province": "ON", "country": "CA", "postalCode": "N8H4J3", "twitter": "None", "instagram": "None", "facebook": "None", "youtube": "None", "website": "None", "summary": "None", "logo": "None", "latitude": 42.02789323535695, "longitude": -82.59480636271593}, "107605602RR0001": {"name": "LEAMINGTON PASTORAL CHARGE", "designationCode": "C", "categoryCode": "44", "address": "9 JOHN ST", "city": "LEAMINGTON", "province": "ON", "country": "CA", "postalCode": "N8H1H1", "twitter": "None", "instagram": "None", "facebook": "None", "youtube": "None", "website": "None", "summary": "None", "logo": "None", "latitude": 42.05404309302296, "longitude": -82.60067978253224}, "107797383RR0081": {"name": "LEAMINGTON SEVENTH-DAY ADVENTIST CHURCH", "designationCode": "C", "categoryCode": "41", "address": "220 ERIE ST. N.", "city": "LEAMINGTON", "province": "ON", "country": "CA", "postalCode": "N8H3A4", "twitter": "None", "instagram": "None", "facebook": "None", "youtube": "None", "website": "None", "summary": "None", "logo": "None", "latitude": 42.06279576963474, "longitude": -82.59866360736369}}