{"874671910RR0001": {"name": "KIMBERLEY & DISTRICT COMMUNITY FOUNDATION", "designationCode": "A", "categoryCode": "03", "address": "42-101 AVENUE", "city": "KIMBERLEY", "province": "BC", "country": "CA", "postalCode": "V1A1A3", "twitter": "None", "instagram": "None", "facebook": "None", "youtube": "None", "website": "None", "summary": "None", "logo": "None", "latitude": 49.667401383288144, "longitude": -115.96942466209813}, "118981000RR0001": {"name": "KIMBERLEY ARTS COUNCIL - CENTRE 64", "designationCode": "C", "categoryCode": "22", "address": "64 DEER PARK AVE", "city": "KIMBERLEY", "province": "BC", "country": "CA", "postalCode": "V1A2J2", "twitter": "None", "instagram": "None", "facebook": "None", "youtube": "None", "website": "None", "summary": "None", "logo": "None", "latitude": 49.687217466270475, "longitude": -115.98281011209556}, "119288918RR0268": {"name": "KIMBERLEY CONGREGATION OF JEHOVAH'S WITNESSES,", "designationCode": "C", "categoryCode": "61", "address": "BOX 183", "city": "KIMBERLEY", "province": "BC", "country": "CA", "postalCode": "V1A2Y4", "twitter": "None", "instagram": "None", "facebook": "None", "youtube": "None", "website": "None", "summary": "None", "logo": "None", "latitude": 49.67002500000005, "longitude": -115.97810299999993}, "118981026RR0001": {"name": "KIMBERLEY DISTRICT HERITAGE SOCIETY", "designationCode": "C", "categoryCode": "52", "address": "105 SPOKANE STREET", "city": "KIMBERLEY", "province": "BC", "country": "CA", "postalCode": "V1A2E5", "twitter": "None", "instagram": "None", "facebook": "None", "youtube": "None", "website": "None", "summary": "None", "logo": "None", "latitude": 49.686212041375605, "longitude": -115.98486255063774}, "814082343RR0001": {"name": "KIMBERLEY FOUNDATION", "designationCode": "A", "categoryCode": "03", "address": "900-1450 CREEKSIDE DRIVE", "city": "VANCOUVER", "province": "BC", "country": "CA", "postalCode": "V6J5B3", "twitter": "None", "instagram": "None", "facebook": "None", "youtube": "None", "website": "None", "summary": "None", "logo": "None", "latitude": 49.2730658598304, "longitude": -123.14067372574898}, "861433753RR0001": {"name": "KIMBERLEY HEALTH-CARE AUXILIARY", "designationCode": "C", "categoryCode": "15", "address": "PO BOX 34 STN MAIN", "city": "KIMBERLEY", "province": "BC", "country": "CA", "postalCode": "V1A2Y5", "twitter": "None", "instagram": "None", "facebook": "None", "youtube": "None", "website": "None", "summary": "None", "logo": "None", "latitude": 49.67002500000005, "longitude": -115.97810299999993}, "118981067RR0001": {"name": "KIMBERLEY HELPING HANDS FOOD BANK SOCIETY", "designationCode": "C", "categoryCode": "09", "address": "340 LEADENHALL STREET", "city": "KIMBERLEY", "province": "BC", "country": "CA", "postalCode": "V1A2B1", "twitter": "None", "instagram": "None", "facebook": "None", "youtube": "None", "website": "None", "summary": "None", "logo": "None", "latitude": 49.682586929770984, "longitude": -115.98340008035659}, "855483798RR0001": {"name": "KIMBERLEY PENTECOSTAL CHURCH", "designationCode": "C", "categoryCode": "36", "address": "8687 HIGHWAY 95A", "city": "RURAL KIMBERLEY", "province": "BC", "country": "CA", "postalCode": "V1A3M3", "twitter": "None", "instagram": "None", "facebook": "None", "youtube": "None", "website": "None", "summary": "None", "logo": "None", "latitude": 49.63324713007712, "longitude": -115.93632539938304}, "107568651RR0001": {"name": "KIMBERLEY PUBLIC LIBRARY ASSOCIATION", "designationCode": "C", "categoryCode": "50", "address": "115 SPOKANE ST", "city": "KIMBERLEY", "province": "BC", "country": "CA", "postalCode": "V1A2E5", "twitter": "None", "instagram": "None", "facebook": "None", "youtube": "None", "website": "None", "summary": "None", "logo": "None", "latitude": 49.686272582938, "longitude": -115.98486968934789}, "866381171RR0001": {"name": "KIMBERLEY SEARCH AND RESCUE SOCIETY", "designationCode": "C", "categoryCode": "59", "address": "340 SPOKANE ST.", "city": "KIMBERLEY", "province": "BC", "country": "CA", "postalCode": "V1A2E8", "twitter": "None", "instagram": "None", "facebook": "None", "youtube": "None", "website": "None", "summary": "None", "logo": "None", "latitude": 49.68531150800336, "longitude": -115.98203151945215}, "887593390RR0001": {"name": "KIMBERLEY SOCIETY FOR COMMUNITY LIVING", "designationCode": "C", "categoryCode": "11", "address": "440-106 AVENUE", "city": "KIMBERLEY", "province": "BC", "country": "CA", "postalCode": "V1A1B9", "twitter": "None", "instagram": "None", "facebook": "None", "youtube": "None", "website": "None", "summary": "None", "logo": "None", "latitude": 49.67378004662706, "longitude": -115.97507075148575}, "107568685RR0001": {"name": "KIMBERLEY UNITED CHURCH", "designationCode": "C", "categoryCode": "44", "address": "10 BOUNDARY STREET", "city": "KIMBERLEY", "province": "BC", "country": "CA", "postalCode": "V1A3C8", "twitter": "None", "instagram": "None", "facebook": "None", "youtube": "None", "website": "None", "summary": "None", "logo": "None", "latitude": 49.68817252510252, "longitude": -115.98170010782503}, "842090326RR0001": {"name": "KIMBERLEY WELLNESS FOUNDATION", "designationCode": "A", "categoryCode": "03", "address": "260 4TH AVENUE", "city": "KIMBERLEY", "province": "BC", "country": "CA", "postalCode": "V1A2R6", "twitter": "None", "instagram": "None", "facebook": "None", "youtube": "None", "website": "None", "summary": "None", "logo": "None", "latitude": 49.6900411973441, "longitude": -115.98580439715381}, "107568750RR0001": {"name": "KIMBOURNE PARK UNITED CHURCH", "designationCode": "C", "categoryCode": "44", "address": "200 WOLVERLEIGH BLVD.", "city": "TORONTO", "province": "ON", "country": "CA", "postalCode": "M4C1S2", "twitter": "None", "instagram": "None", "facebook": "None", "youtube": "None", "website": "None", "summary": "None", "logo": "None", "latitude": 43.68539319458693, "longitude": -79.32234778019496}, "857339436RR0001": {"name": "KIN CANADA FOUNDATION/FONDATION KIN CANADA", "designationCode": "A", "categoryCode": "03", "address": "BOX 3460                      1920 ROGERS DRIVE", "city": "CAMBRIDGE", "province": "ON", "country": "CA", "postalCode": "N3H5C6", "twitter": "None", "instagram": "None", "facebook": "None", "youtube": "None", "website": "None", "summary": "None", "logo": "None", "latitude": 43.40931021178363, "longitude": -80.36057454322192}, "119102895RR0001": {"name": "KIN ENTERPRISES INC.", "designationCode": "C", "categoryCode": "01", "address": "300-15TH AVE E", "city": "PRINCE ALBERT", "province": "SK", "country": "CA", "postalCode": "S6V2N7", "twitter": "None", "instagram": "None", "facebook": "None", "youtube": "None", "website": "None", "summary": "None", "logo": "None", "latitude": 53.206687184553196, "longitude": -105.70527830843754}, "854041886RR0001": {"name": "KINA SOCIAL VENTURES SOCIETY", "designationCode": "C", "categoryCode": "09", "address": "1501-2628 ASH ST.", "city": "VANCOUVER", "province": "BC", "country": "CA", "postalCode": "V5Z4L2", "twitter": "None", "instagram": "None", "facebook": "None", "youtube": "None", "website": "None", "summary": "None", "logo": "None", "latitude": 49.261750795169945, "longitude": -123.1175014871894}, "118981125RR0001": {"name": "KINARK CHILD AND FAMILY SERVICES", "designationCode": "C", "categoryCode": "11", "address": "500 HOOD RD SUITE 200", "city": "MARKHAM", "province": "ON", "country": "CA", "postalCode": "L3R9Z3", "twitter": "None", "instagram": "None", "facebook": "None", "youtube": "None", "website": "None", "summary": "None", "logo": "None", "latitude": 43.83223400193324, "longitude": -79.32950904059618}, "838236164RR0001": {"name": "KINARK FOUNDATION", "designationCode": "A", "categoryCode": "03", "address": "500 HOOD ROAD                 SUITE 200", "city": "MARKHAM", "province": "ON", "country": "CA", "postalCode": "L3R9Z3", "twitter": "None", "instagram": "None", "facebook": "None", "youtube": "None", "website": "None", "summary": "None", "logo": "None", "latitude": 43.83223400193324, "longitude": -79.32950904059618}, "118981133RR0001": {"name": "KINASAO LUTHERAN BIBLE CAMP, CHRISTOPHER LAKE", "designationCode": "C", "categoryCode": "56", "address": "BOX 327", "city": "CHRISTOPHER LAKE", "province": "SK", "country": "CA", "postalCode": "S0J0N0", "twitter": "None", "instagram": "None", "facebook": "None", "youtube": "None", "website": "None", "summary": "None", "logo": "None", "latitude": 53.533390000000054, "longitude": -105.80098999999996}, "874169626RR0001": {"name": "KINCAID & DISTRICT HEALTH CENTRE BOARD INC", "designationCode": "C", "categoryCode": "19", "address": "BOX 11", "city": "KINCAID", "province": "SK", "country": "CA", "postalCode": "S0H2J0", "twitter": "None", "instagram": "None", "facebook": "None", "youtube": "None", "website": "None", "summary": "None", "logo": "None", "latitude": 49.66676000000007, "longitude": -107.00125999999995}, "891036386RR0001": {"name": "KINCAID DISTRICT COMMUNITY SERVICE CLUB", "designationCode": "C", "categoryCode": "56", "address": "490 NORTH AVENUE              BOX 126", "city": "KINCAID", "province": "SK", "country": "CA", "postalCode": "S0H2J0", "twitter": "None", "instagram": "None", "facebook": "None", "youtube": "None", "website": "None", "summary": "None", "logo": "None", "latitude": 39.59213208807601, "longitude": -89.4140336174567}, "118981166RR0001": {"name": "KINCAID RURAL FIRE DEPARTMENT", "designationCode": "C", "categoryCode": "59", "address": "PO BOX 239", "city": "KINCAID", "province": "SK", "country": "CA", "postalCode": "S0H2J0", "twitter": "None", "instagram": "None", "facebook": "None", "youtube": "None", "website": "None", "summary": "None", "logo": "None", "latitude": 49.66676000000007, "longitude": -107.00125999999995}, "118981240RR0001": {"name": "KINCARDINE & DISTRICT RIGHT TO LIFE GROUP", "designationCode": "C", "categoryCode": "09", "address": "P.O. BOX 252", "city": "KINCARDINE", "province": "ON", "country": "CA", "postalCode": "N2Z2Y7", "twitter": "None", "instagram": "None", "facebook": "None", "youtube": "None", "website": "None", "summary": "None", "logo": "None", "latitude": 44.18160900000005, "longitude": -81.63174049999994}, "843277146RR0001": {"name": "KINCARDINE AGRICULTURAL SOCIETY", "designationCode": "C", "categoryCode": "56", "address": "133 BROADWAY STREET", "city": "KINCARDINE", "province": "ON", "country": "CA", "postalCode": "N2Z1A9", "twitter": "None", "instagram": "None", "facebook": "None", "youtube": "None", "website": "None", "summary": "None", "logo": "None", "latitude": 44.183572138981745, "longitude": -81.63756618648304}, "893081075RR0001": {"name": "KINCARDINE AND COMMUNITY HEALTH CARE FOUNDATION", "designationCode": "A", "categoryCode": "13", "address": "1199 QUEEN STREET", "city": "KINCARDINE", "province": "ON", "country": "CA", "postalCode": "N2Z1G6", "twitter": "None", "instagram": "None", "facebook": "None", "youtube": "None", "website": "None", "summary": "None", "logo": "None", "latitude": 44.18605986166428, "longitude": -81.62829951838465}, "107569022RR0001": {"name": "KINCARDINE BAPTIST CHURCH", "designationCode": "C", "categoryCode": "31", "address": "569 QUEEN ST", "city": "KINCARDINE", "province": "ON", "country": "CA", "postalCode": "N2Z2J1", "twitter": "None", "instagram": "None", "facebook": "None", "youtube": "None", "website": "None", "summary": "None", "logo": "None", "latitude": 44.17130805828381, "longitude": -81.63960370246411}, "886120799RR0001": {"name": "KINCARDINE COMMUNITY CONCERT BAND", "designationCode": "C", "categoryCode": "22", "address": "446 FRASER DR", "city": "KINCARDINE", "province": "ON", "country": "CA", "postalCode": "N2Z3B2", "twitter": "None", "instagram": "None", "facebook": "None", "youtube": "None", "website": "None", "summary": "None", "logo": "None", "latitude": 44.16405333472788, "longitude": -81.63070907565337}, "118981232RR0001": {"name": "KINCARDINE COMMUNITY SERVICES ASSOCIATION", "designationCode": "C", "categoryCode": "59", "address": "64 BOILER BEACH RD  BOX 527", "city": "KINCARDINE", "province": "ON", "country": "CA", "postalCode": "N2Z2Y9", "twitter": "None", "instagram": "None", "facebook": "None", "youtube": "None", "website": "None", "summary": "None", "logo": "None", "latitude": 44.149551397648544, "longitude": -81.66662544746535}, "890392376RR0001": {"name": "KINCARDINE SCOTTISH PIPE BAND", "designationCode": "C", "categoryCode": "22", "address": "P.O. BOX 476", "city": "KINCARDINE", "province": "ON", "country": "CA", "postalCode": "N2Z2Y9", "twitter": "None", "instagram": "None", "facebook": "None", "youtube": "None", "website": "None", "summary": "None", "logo": "None", "latitude": 44.18160900000005, "longitude": -81.63174049999994}, "819630344RR0001": {"name": "KINCARDINE SUMMER MUSIC FESTIVAL INC.", "designationCode": "C", "categoryCode": "22", "address": "BOX 251", "city": "KINCARDINE", "province": "ON", "country": "CA", "postalCode": "N2Z2Y7", "twitter": "None", "instagram": "None", "facebook": "None", "youtube": "None", "website": "None", "summary": "None", "logo": "None", "latitude": 44.18160900000005, "longitude": -81.63174049999994}, "886344399RR0001": {"name": "KINCARDINE THEATRE GUILD", "designationCode": "C", "categoryCode": "22", "address": "PO BOX 211", "city": "KINCARDINE", "province": "ON", "country": "CA", "postalCode": "N2Z2Y7", "twitter": "None", "instagram": "None", "facebook": "None", "youtube": "None", "website": "None", "summary": "None", "logo": "None"}, "129945580RR0001": {"name": "KINCARDINE UNITED CHURCH", "designationCode": "C", "categoryCode": "44", "address": "721 PRINCES STREET", "city": "KINCARDINE", "province": "ON", "country": "CA", "postalCode": "N2Z2A3", "twitter": "None", "instagram": "None", "facebook": "None", "youtube": "None", "website": "None", "summary": "None", "logo": "None", "latitude": 44.17450789318995, "longitude": -81.63488593292182}, "119288918RR0275": {"name": "KINCARDINE, ONTARIO, CONGREGATION OF JEHOVAH'S WITNESSES KINGDOM HALL,", "designationCode": "C", "categoryCode": "61", "address": "404 MCLEOD AVE", "city": "KINCARDINE", "province": "ON", "country": "CA", "postalCode": "N2Z1W7", "twitter": "None", "instagram": "None", "facebook": "None", "youtube": "None", "website": "None", "summary": "None", "logo": "None", "latitude": 44.18473653093091, "longitude": -81.6249338319579}, "106721921RR0001": {"name": "KINDALE DEVELOPMENTAL ASSOCIATION", "designationCode": "C", "categoryCode": "11", "address": "BOX 94", "city": "ARMSTRONG", "province": "BC", "country": "CA", "postalCode": "V0E1B0", "twitter": "None", "instagram": "None", "facebook": "None", "youtube": "None", "website": "None", "summary": "None", "logo": "None", "latitude": 50.44798500000006, "longitude": -119.19492799999993}, "107569196RR0001": {"name": "KINDER KORNER DAY CARE CENTRE INC.", "designationCode": "C", "categoryCode": "01", "address": "307 HANOVER STREET", "city": "STEINBACH", "province": "MB", "country": "CA", "postalCode": "R5G0G1", "twitter": "None", "instagram": "None", "facebook": "None", "youtube": "None", "website": "None", "summary": "None", "logo": "None", "latitude": 49.528172835088824, "longitude": -96.68120945868056}, "893005967RR0001": {"name": "KINDERSLEY & DISTRICT HEALTH & WELLNESS FOUNDATION INC.", "designationCode": "A", "categoryCode": "13", "address": "BOX 195", "city": "KINDERSLEY", "province": "SK", "country": "CA", "postalCode": "S0L1S0", "twitter": "None", "instagram": "None", "facebook": "None", "youtube": "None", "website": "None", "summary": "None", "logo": "None", "latitude": 51.46791900000005, "longitude": -109.15522999999993}, "107569261RR0001": {"name": "KINDERSLEY ALLIANCE CHURCH", "designationCode": "C", "categoryCode": "39", "address": "74 WEST RD", "city": "KINDERSLEY", "province": "SK", "country": "CA", "postalCode": "S0L1S1", "twitter": "None", "instagram": "None", "facebook": "None", "youtube": "None", "website": "None", "summary": "None", "logo": "None", "latitude": 51.46327194146605, "longitude": -109.13497501721905}, "118981331RR0001": {"name": "KINDERSLEY AND DISTRICT ARTS COUNCIL", "designationCode": "C", "categoryCode": "22", "address": "BOX 2324", "city": "KINDERSLEY", "province": "SK", "country": "CA", "postalCode": "S0L1S0", "twitter": "None", "instagram": "None", "facebook": "None", "youtube": "None", "website": "None", "summary": "None", "logo": "None", "latitude": 51.46791900000005, "longitude": -109.15522999999993}, "118981349RR0001": {"name": "KINDERSLEY BRETHREN IN CHRIST CHURCH", "designationCode": "C", "categoryCode": "39", "address": "PO BOX 1914", "city": "KINDERSLEY", "province": "SK", "country": "CA", "postalCode": "S0L1S0", "twitter": "None", "instagram": "None", "facebook": "None", "youtube": "None", "website": "None", "summary": "None", "logo": "None", "latitude": 51.46791900000005, "longitude": -109.15522999999993}, "118981356RR0001": {"name": "KINDERSLEY CHRISTIAN FELLOWSHIP INC.", "designationCode": "C", "categoryCode": "39", "address": "PO BOX 1868", "city": "KINDERSLEY", "province": "SK", "country": "CA", "postalCode": "S0L1S0", "twitter": "None", "instagram": "None", "facebook": "None", "youtube": "None", "website": "None", "summary": "None", "logo": "None", "latitude": 51.46791900000005, "longitude": -109.15522999999993}, "871209706RR0001": {"name": "KINDERSLEY DISTRICT MUSIC FESTIVAL ASSOCIATION", "designationCode": "C", "categoryCode": "22", "address": "40 O'CONNOR CRESCENT", "city": "KINDERSLEY", "province": "SK", "country": "CA", "postalCode": "S0L1S1", "twitter": "None", "instagram": "None", "facebook": "None", "youtube": "None", "website": "None", "summary": "None", "logo": "None", "latitude": 51.46282808755147, "longitude": -109.13631954987535}, "119288918RR0067": {"name": "KINDERSLEY, SASKATCHEWAN, CONGREGATION OF JEHOVAH'S WITNESSES", "designationCode": "C", "categoryCode": "61", "address": "BOX 2616", "city": "KINDERSLEY", "province": "SK", "country": "CA", "postalCode": "S0L1S0", "twitter": "None", "instagram": "None", "facebook": "None", "youtube": "None", "website": "None", "summary": "None", "logo": "None", "latitude": 51.46791900000005, "longitude": -109.15522999999993}, "884469800RR0001": {"name": "KINDERVILLE FOUNDATION / FONDATION KINDERVILLE", "designationCode": "B", "categoryCode": "03", "address": "104 - 7505 BOUL TASCHEREAU", "city": "BROSSARD", "province": "QC", "country": "CA", "postalCode": "J4Y1A2", "twitter": "None", "instagram": "None", "facebook": "None", "youtube": "None", "website": "None", "summary": "None", "logo": "None", "latitude": 45.45734423036529, "longitude": -73.46482195302718}, "130726334RR0001": {"name": "KINDERWORLD DAYCARE INC", "designationCode": "C", "categoryCode": "01", "address": "1511 GATEWAY RD", "city": "WINNIPEG", "province": "MB", "country": "CA", "postalCode": "R2G3L4", "twitter": "None", "instagram": "None", "facebook": "None", "youtube": "None", "website": "None", "summary": "None", "logo": "None", "latitude": 49.94062336384113, "longitude": -97.05626389532028}, "887806263RR0001": {"name": "KINDNESS IN ACTION SERVICE SOCIETY OF ALBERTA", "designationCode": "C", "categoryCode": "11", "address": "PO BOX 157 STN MAIN", "city": "VEGREVILLE", "province": "AB", "country": "CA", "postalCode": "T9C1R2", "twitter": "None", "instagram": "None", "facebook": "None", "youtube": "None", "website": "None", "summary": "None", "logo": "None", "latitude": 53.49528600000005, "longitude": -112.05415249999993}, "118981448RR0001": {"name": "KINESIS DANCE SOCIETY", "designationCode": "C", "categoryCode": "22", "address": "6TH FL-677 DAVIE ST           SCOTIA BANK DANCE CENTRE", "city": "VANCOUVER", "province": "BC", "country": "CA", "postalCode": "V6B2G6", "twitter": "None", "instagram": "None", "facebook": "None", "youtube": "None", "website": "None", "summary": "None", "logo": "None", "latitude": 49.27699003664376, "longitude": -123.12586997778297}, "868081803RR0001": {"name": "KINETIC STUDIO SOCIETY", "designationCode": "C", "categoryCode": "22", "address": "41 GLENBOURNE CRT", "city": "HALIFAX", "province": "NS", "country": "CA", "postalCode": "B3S1E2", "twitter": "None", "instagram": "None", "facebook": "None", "youtube": "None", "website": "None", "summary": "None", "logo": "None", "latitude": 44.670194770182995, "longitude": -63.67016766322332}, "824121362RR0001": {"name": "KING BIBLE CHURCH", "designationCode": "C", "categoryCode": "39", "address": "1555 KING RD", "city": "KING CITY", "province": "ON", "country": "CA", "postalCode": "L7B1L4", "twitter": "None", "instagram": "None", "facebook": "None", "youtube": "None", "website": "None", "summary": "None", "logo": "None", "latitude": 43.93337890971835, "longitude": -79.50725366954265}, "129214417RR0001": {"name": "KING CITY PASTORAL CHARGE,", "designationCode": "C", "categoryCode": "44", "address": "50 ELIZABETH GROVE", "city": "KING CITY", "province": "ON", "country": "CA", "postalCode": "L7B1H7", "twitter": "None", "instagram": "None", "facebook": "None", "youtube": "None", "website": "None", "summary": "None", "logo": "None", "latitude": 43.92400224967001, "longitude": -79.52519723660616}, "107569592RR0001": {"name": "KING DAVID CONGREGATION OF TORONTO, EMUNAH SHLEIMAH SYNAGOGUE", "designationCode": "C", "categoryCode": "42", "address": "1008 - 3636 BATHURST ST", "city": "NORTH YORK", "province": "ON", "country": "CA", "postalCode": "M6A2Y5", "twitter": "None", "instagram": "None", "facebook": "None", "youtube": "None", "website": "None", "summary": "None", "logo": "None", "latitude": 43.73254326449885, "longitude": -79.43289658661764}, "118981570RR0001": {"name": "KING EDWARD CHILD CARE SOCIETY", "designationCode": "C", "categoryCode": "20", "address": "8530 101 ST NW", "city": "EDMONTON", "province": "AB", "country": "CA", "postalCode": "T6E3Z5", "twitter": "None", "instagram": "None", "facebook": "None", "youtube": "None", "website": "None", "summary": "None", "logo": "None", "latitude": 53.52123193123642, "longitude": -113.49131724371497}, "136380979RR0001": {"name": "KING EDWARD CHOIR (BARRIE)", "designationCode": "C", "categoryCode": "22", "address": "128 PENETANG STREET           PO BOX 27014", "city": "BARRIE", "province": "ON", "country": "CA", "postalCode": "L4M6K4", "twitter": "None", "instagram": "None", "facebook": "None", "youtube": "None", "website": "None", "summary": "None", "logo": "None", "latitude": 44.39868720067512, "longitude": -79.67839627728078}, "106144801RR0001": {"name": "KING GEORGE MASONIC TEMPLE", "designationCode": "C", "categoryCode": "63", "address": "2323 OSBORNE CRES SW", "city": "CALGARY", "province": "AB", "country": "CA", "postalCode": "T2T0Y7", "twitter": "None", "instagram": "None", "facebook": "None", "youtube": "None", "website": "None", "summary": "None", "logo": "None", "latitude": 51.0313167568528, "longitude": -114.11640612741631}, "870734092RR0001": {"name": "KING GEORGE SENIORS AFFORDABLE HOUSING", "designationCode": "C", "categoryCode": "53", "address": "BOX 587", "city": "LAKE COWICHAN", "province": "BC", "country": "CA", "postalCode": "V0R2G0", "twitter": "None", "instagram": "None", "facebook": "None", "youtube": "None", "website": "None", "summary": "None", "logo": "None", "latitude": 48.810804726537235, "longitude": -123.97042104319344}, "872906466RR0001": {"name": "KING GEORGE VI PUBLIC SCHOOL ADVISORY COUNCIL (KGVI-SAC)", "designationCode": "C", "categoryCode": "21", "address": "227 DELAWARE AVENUE", "city": "CHATHAM", "province": "ON", "country": "CA", "postalCode": "N7L2W5", "twitter": "None", "instagram": "None", "facebook": "None", "youtube": "None", "website": "None", "summary": "None", "logo": "None", "latitude": 42.4182216492293, "longitude": -82.19165449298912}, "873748156RR0001": {"name": "KING OF GLORY CHRISTIAN FELLOWSHIP", "designationCode": "C", "categoryCode": "39", "address": "PO BOX 11123", "city": "EDMONTON", "province": "AB", "country": "CA", "postalCode": "T5J3K4", "twitter": "None", "instagram": "None", "facebook": "None", "youtube": "None", "website": "None", "summary": "None", "logo": "None", "latitude": 53.54623500000005, "longitude": -113.49037249999994}, "132144767RR0001": {"name": "KING OF GLORY LUTHERAN CHURCH INC.", "designationCode": "C", "categoryCode": "32", "address": "3318 MERRITT ST", "city": "SASKATOON", "province": "SK", "country": "CA", "postalCode": "S7M3P6", "twitter": "None", "instagram": "None", "facebook": "None", "youtube": "None", "website": "None", "summary": "None", "logo": "None", "latitude": 52.111850529863055, "longitude": -106.7315625}, "118981646RR0001": {"name": "KING OF GLORY LUTHERAN CHURCH OF CALGARY ALBERTA", "designationCode": "C", "categoryCode": "32", "address": "2640 RUNDLELAWN ROAD N.E.", "city": "CALGARY", "province": "AB", "country": "CA", "postalCode": "T1Y5X3", "twitter": "None", "instagram": "None", "facebook": "None", "youtube": "None", "website": "None", "summary": "None", "logo": "None", "latitude": 51.07599745989381, "longitude": -113.97405696070187}, "862071040RR0001": {"name": "KING OF KINGS FELLOWSHIP (LETHBRIDGE)", "designationCode": "C", "categoryCode": "49", "address": "533 18TH ST SOUTH", "city": "LETHBRIDGE", "province": "AB", "country": "CA", "postalCode": "T1J3E6", "twitter": "None", "instagram": "None", "facebook": "None", "youtube": "None", "website": "None", "summary": "None", "logo": "None", "latitude": 49.69189800000001, "longitude": -112.81617854255902}, "706498896RR0001": {"name": "KING OF KINGS LUTHERAN CHURCH (SPRUCE VIEW DISTRICT)", "designationCode": "C", "categoryCode": "32", "address": "PO BOX 25", "city": "SPRUCE VIEW", "province": "AB", "country": "CA", "postalCode": "T0M1V0", "twitter": "None", "instagram": "None", "facebook": "None", "youtube": "None", "website": "None", "summary": "None", "logo": "None", "latitude": 51.98923333840575, "longitude": -114.89338336150753}, "131537573RR0001": {"name": "KING OF KINGS LUTHERAN CHURCH OF ST. ALBERT, ALBERTA", "designationCode": "C", "categoryCode": "32", "address": "PO BOX 65165                  RPO MISSION HILL PL", "city": "ST. ALBERT", "province": "AB", "country": "CA", "postalCode": "T8N5Y3", "twitter": "None", "instagram": "None", "facebook": "None", "youtube": "None", "website": "None", "summary": "None", "logo": "None", "latitude": 53.63292839909977, "longitude": -113.63602607541739}, "107569808RR0001": {"name": "KING OF KINGS NEW TESTAMENT CHURCH", "designationCode": "C", "categoryCode": "39", "address": "BOX 3", "city": "MIDWAY", "province": "BC", "country": "CA", "postalCode": "V0H1M0", "twitter": "None", "instagram": "None", "facebook": "None", "youtube": "None", "website": "None", "summary": "None", "logo": "None", "latitude": 49.10113921679708, "longitude": -118.67616064840723}, "107833394RR0044": {"name": "KING OF KINGS PENTECOSTAL CHURCH", "designationCode": "C", "categoryCode": "36", "address": "P O BOX 116", "city": "KING'S POINT", "province": "NL", "country": "CA", "postalCode": "A0J1H0", "twitter": "None", "instagram": "None", "facebook": "None", "youtube": "None", "website": "None", "summary": "None", "logo": "None", "latitude": 49.58146000000005, "longitude": -56.180439999999976}, "118981661RR0001": {"name": "KING OF LIFE LUTHERAN CHURCH", "designationCode": "C", "categoryCode": "32", "address": "1198 FALCON DR", "city": "COQUITLAM", "province": "BC", "country": "CA", "postalCode": "V3E2M4", "twitter": "None", "instagram": "None", "facebook": "None", "youtube": "None", "website": "None", "summary": "None", "logo": "None", "latitude": 49.28409205219562, "longitude": -122.8188066507585}, "895362614RR0001": {"name": "KING ROAD MENNONITE BRETHREN CHURCH", "designationCode": "C", "categoryCode": "34", "address": "32068 KING RD", "city": "ABBOTSFORD", "province": "BC", "country": "CA", "postalCode": "V2T5Z5", "twitter": "None", "instagram": "None", "facebook": "None", "youtube": "None", "website": "None", "summary": "None", "logo": "None", "latitude": 49.03088552120739, "longitude": -122.33600002553523}, "118982420RR0001": {"name": "KING STREET BAPTIST CHURCH", "designationCode": "C", "categoryCode": "31", "address": "361 KING ST EAST", "city": "CAMBRIDGE", "province": "ON", "country": "CA", "postalCode": "N3H3M7", "twitter": "None", "instagram": "None", "facebook": "None", "youtube": "None", "website": "None", "summary": "None", "logo": "None", "latitude": 43.39806355427311, "longitude": -80.36259942893425}, "118982453RR0001": {"name": "KING STREET COMMUNITY CHURCH", "designationCode": "C", "categoryCode": "44", "address": "649 KING STREET", "city": "LONDON", "province": "ON", "country": "CA", "postalCode": "N5W2X1", "twitter": "None", "instagram": "None", "facebook": "None", "youtube": "None", "website": "None", "summary": "None", "logo": "None", "latitude": 42.987923038548324, "longitude": -81.22947433192925}, "893458521RR0001": {"name": "KING STREET COMMUNITY CHURCH", "designationCode": "C", "categoryCode": "36", "address": "611 KING ST W", "city": "OSHAWA", "province": "ON", "country": "CA", "postalCode": "L1J2L1", "twitter": "None", "instagram": "None", "facebook": "None", "youtube": "None", "website": "None", "summary": "None", "logo": "None", "latitude": 43.8922000578494, "longitude": -78.88718116157452}, "118982636RR0001": {"name": "KING TOWNSHIP HISTORICAL SOCIETY", "designationCode": "C", "categoryCode": "50", "address": "2920 KING RD", "city": "KING CITY", "province": "ON", "country": "CA", "postalCode": "L7B1L6", "twitter": "None", "instagram": "None", "facebook": "None", "youtube": "None", "website": "None", "summary": "None", "logo": "None", "latitude": 43.92357018795049, "longitude": -79.55052730962532}, "107571127RR0001": {"name": "KING TOWNSHIP PUBLIC LIBRARY", "designationCode": "C", "categoryCode": "50", "address": "BOX 399", "city": "KING CITY", "province": "ON", "country": "CA", "postalCode": "L7B1A6", "twitter": "None", "instagram": "None", "facebook": "None", "youtube": "None", "website": "None", "summary": "None", "logo": "None", "latitude": 43.92781800000006, "longitude": -79.52797249999993}, "118981471RR0001": {"name": "KING-BAY CHAPLAINCY", "designationCode": "C", "categoryCode": "49", "address": "21 DALE AVENUE, TERRACE B", "city": "TORONTO", "province": "ON", "country": "CA", "postalCode": "M4W1K3", "twitter": "None", "instagram": "None", "facebook": "None", "youtube": "None", "website": "None", "summary": "None", "logo": "None", "latitude": 43.67444692024993, "longitude": -79.37181617967019}, "868845892RR0001": {"name": "KING`S MEADOW RESIDENCE SOCIETY", "designationCode": "C", "categoryCode": "01", "address": "5466 CHESTER ROAD             RR 1", "city": "WINDSOR", "province": "NS", "country": "CA", "postalCode": "B0N2T0", "twitter": "None", "instagram": "None", "facebook": "None", "youtube": "None", "website": "None", "summary": "None", "logo": "None", "latitude": 44.98003500000006, "longitude": -64.14505099999994}, "871881348RR0001": {"name": "KING'S BRIDGE EVANGELICAL EPISCOPAL CHURCH", "designationCode": "C", "categoryCode": "39", "address": "8 - 1612 14 AVE SW", "city": "CALGARY", "province": "AB", "country": "CA", "postalCode": "T3C0W5", "twitter": "None", "instagram": "None", "facebook": "None", "youtube": "None", "website": "None", "summary": "None", "logo": "None", "latitude": 51.04048551154119, "longitude": -114.09766285928214}, "894479062RR0001": {"name": "KING'S CHAPEL UNITED PENTECOSTAL CHURCH", "designationCode": "C", "categoryCode": "39", "address": "2840 WYCLIFFE PARK RD", "city": "CRANBROOK", "province": "BC", "country": "CA", "postalCode": "V1C7C7", "twitter": "None", "instagram": "None", "facebook": "None", "youtube": "None", "website": "None", "summary": "None", "logo": "None", "latitude": 49.58378664475354, "longitude": -115.83326114475311}, "866120629RR0001": {"name": "KING'S CHRISTIAN COLLEGIATE", "designationCode": "C", "categoryCode": "20", "address": "528 BURNHAMTHORPE RD W", "city": "OAKVILLE", "province": "ON", "country": "CA", "postalCode": "L6M4K6", "twitter": "None", "instagram": "None", "facebook": "None", "youtube": "None", "website": "None", "summary": "None", "logo": "None", "latitude": 43.478583339431076, "longitude": -79.7632410345376}, "825160328RR0001": {"name": "KING'S CHURCH", "designationCode": "C", "categoryCode": "39", "address": "52 PERKINS DRIVE", "city": "BRAMPTON", "province": "ON", "country": "CA", "postalCode": "L6V3X3", "twitter": "None", "instagram": "None", "facebook": "None", "youtube": "None", "website": "None", "summary": "None", "logo": "None", "latitude": 43.72107209798597, "longitude": -79.82801108731013}, "839041316RR0001": {"name": "KING'S COMMUNITY CHURCH OAKVILLE", "designationCode": "C", "categoryCode": "39", "address": "528 BURNHAMTHORPE ROAD WEST", "city": "OAKVILLE", "province": "ON", "country": "CA", "postalCode": "L6M4K6", "twitter": "None", "instagram": "None", "facebook": "None", "youtube": "None", "website": "None", "summary": "None", "logo": "None", "latitude": 43.478583339431076, "longitude": -79.7632410345376}, "872425624RR0001": {"name": "KING'S COUNTY MEMORIAL HOSPITAL AUXILIARY", "designationCode": "A", "categoryCode": "15", "address": "P.O. BOX 1397", "city": "MONTAGUE", "province": "PE", "country": "CA", "postalCode": "C0A1R0", "twitter": "None", "instagram": "None", "facebook": "None", "youtube": "None", "website": "None", "summary": "None", "logo": "None", "latitude": 46.14343222329997, "longitude": -62.75594020244682}, "890737745RR0001": {"name": "KING'S KIDS PROMOTIONS OUTREACH MINISTRIES INCORPORATED", "designationCode": "C", "categoryCode": "47", "address": "PO BOX 5512", "city": "FORT MCMURRAY", "province": "AB", "country": "CA", "postalCode": "T9H3G5", "twitter": "None", "instagram": "None", "facebook": "None", "youtube": "None", "website": "None", "summary": "None", "logo": "None", "latitude": 56.72719500000005, "longitude": -111.38028199999994}, "861463941RR0001": {"name": "KING'S MEADOW RESIDENCE FOUNDATION", "designationCode": "A", "categoryCode": "03", "address": "PO BOX 2042", "city": "WINDSOR", "province": "NS", "country": "CA", "postalCode": "B0N2T0", "twitter": "None", "instagram": "None", "facebook": "None", "youtube": "None", "website": "None", "summary": "None", "logo": "None", "latitude": 44.990170000000035, "longitude": -64.12904999999995}, "873722714RR0001": {"name": "KING'S POINT HERITAGE SOCIETY INC.", "designationCode": "C", "categoryCode": "50", "address": "PO BOX 27", "city": "KING'S POINT", "province": "NL", "country": "CA", "postalCode": "A0J1H0", "twitter": "None", "instagram": "None", "facebook": "None", "youtube": "None", "website": "None", "summary": "None", "logo": "None", "latitude": 49.58146000000005, "longitude": -56.180439999999976}, "892449166RR0001": {"name": "KING'S POINT INTERFAITH CEMETERY COMMITTEE", "designationCode": "C", "categoryCode": "59", "address": "P O BOX 294", "city": "KINGS POINT", "province": "NL", "country": "CA", "postalCode": "A0J1H0", "twitter": "None", "instagram": "None", "facebook": "None", "youtube": "None", "website": "None", "summary": "None", "logo": "None", "latitude": 47.12910000000005, "longitude": -53.52169999999995}, "108154089RR0001": {"name": "KING'S POINT PASTORAL CHARGE", "designationCode": "C", "categoryCode": "44", "address": "P.O. BOX 67", "city": "JACKSON'S COVE", "province": "NL", "country": "CA", "postalCode": "A0J1G0", "twitter": "None", "instagram": "None", "facebook": "None", "youtube": "None", "website": "None", "summary": "None", "logo": "None", "latitude": 49.65360900000006, "longitude": -56.037391999999926}, "825122146RR0001": {"name": "KING'S TOWN SCHOOL", "designationCode": "C", "categoryCode": "20", "address": "66 RIDEAU STREET", "city": "KINGSTON", "province": "ON", "country": "CA", "postalCode": "K7K2Z7", "twitter": "None", "instagram": "None", "facebook": "None", "youtube": "None", "website": "None", "summary": "None", "logo": "None", "latitude": 44.2353946588955, "longitude": -76.48264831308778}, "889496394RR0001": {"name": "KING'S UNITED CHURCH", "designationCode": "C", "categoryCode": "44", "address": "RR 2, 886, HWY 316", "city": "GOSHEN", "province": "NS", "country": "CA", "postalCode": "B0H1M0", "twitter": "None", "instagram": "None", "facebook": "None", "youtube": "None", "website": "None", "summary": "None", "logo": "None", "latitude": 45.39585847607984, "longitude": -61.936773585827055}, "885508788RR0001": {"name": "KING'S UNIVERSITY COLLEGE FOUNDATION AT THE UNIVERSITY OF WESTERN ONTARIO", "designationCode": "A", "categoryCode": "23", "address": "266 EPWORTH AVENUE", "city": "LONDON", "province": "ON", "country": "CA", "postalCode": "N6A2M3", "twitter": "None", "instagram": "None", "facebook": "None", "youtube": "None", "website": "None", "summary": "None", "logo": "None", "latitude": 43.01188493202134, "longitude": -81.25738129185173}, "107726812RR0001": {"name": "KING'S VIEW COMMUNITY CHURCH", "designationCode": "C", "categoryCode": "36", "address": "1267 PARAMOUNT DRIVE", "city": "STONEY CREEK", "province": "ON", "country": "CA", "postalCode": "L8J2M8", "twitter": "None", "instagram": "None", "facebook": "None", "youtube": "None", "website": "None", "summary": "None", "logo": "None", "latitude": 43.19923163751522, "longitude": -79.80608934508655}, "118981794RR0001": {"name": "KING'S-EDGEHILL SCHOOL", "designationCode": "C", "categoryCode": "20", "address": "KING'S EDGEHILL SCHOOL        33 KING'S EDGEHILL LANE", "city": "WINDSOR", "province": "NS", "country": "CA", "postalCode": "B0N2T0", "twitter": "None", "instagram": "None", "facebook": "None", "youtube": "None", "website": "None", "summary": "None", "logo": "None", "latitude": 44.99559005496562, "longitude": -64.13765991949916}, "129885778RR0001": {"name": "KINGCOLE HOMES INCORPORATED", "designationCode": "C", "categoryCode": "09", "address": "109 YORK STREET", "city": "KINGSTON", "province": "ON", "country": "CA", "postalCode": "K7K1P9", "twitter": "None", "instagram": "None", "facebook": "None", "youtube": "None", "website": "None", "summary": "None", "logo": "None", "latitude": 44.237390143776295, "longitude": -76.49257167969886}, "131289621RR0001": {"name": "KINGCRAFTS", "designationCode": "C", "categoryCode": "22", "address": "12936 KEELE STREET", "city": "KING CITY", "province": "ON", "country": "CA", "postalCode": "L7B1H6", "twitter": "None", "instagram": "None", "facebook": "None", "youtube": "None", "website": "None", "summary": "None", "logo": "None", "latitude": 43.92627909824576, "longitude": -79.5275981680994}, "892983263RR0001": {"name": "KINGCREST INTERNATIONAL NEIGHBOURS SOCIETY", "designationCode": "C", "categoryCode": "49", "address": "2208 MADRONA PLACE", "city": "SURREY", "province": "BC", "country": "CA", "postalCode": "V4A7Z4", "twitter": "None", "instagram": "None", "facebook": "None", "youtube": "None", "website": "None", "summary": "None", "logo": "None", "latitude": 49.04213744630383, "longitude": -122.79207221383241}, "881067037RR0001": {"name": "KINGDOM ADVANCE MINISTRIES", "designationCode": "C", "categoryCode": "39", "address": "4318 RUE PARTHENAIS", "city": "MONTREAL", "province": "QC", "country": "CA", "postalCode": "H2H2G3", "twitter": "None", "instagram": "None", "facebook": "None", "youtube": "None", "website": "None", "summary": "None", "logo": "None", "latitude": 45.53504985509855, "longitude": -73.56809223094218}, "132902677RR0001": {"name": "KINGDOM COVENANT INTERNATIONAL", "designationCode": "C", "categoryCode": "39", "address": "1224 DUNDAS ST E UNIT 20", "city": "MISSISSAUGA", "province": "ON", "country": "CA", "postalCode": "L4Y4A2", "twitter": "None", "instagram": "None", "facebook": "None", "youtube": "None", "website": "None", "summary": "None", "logo": "None", "latitude": 43.605770032431465, "longitude": -79.58772951408095}, "890332448RR0001": {"name": "KINGDOM COVENANT MINISTRIES", "designationCode": "C", "categoryCode": "39", "address": "1224 DUNDAS STREET E. UNIT 20", "city": "MISSISSAUGA", "province": "ON", "country": "CA", "postalCode": "L4Y4A2", "twitter": "None", "instagram": "None", "facebook": "None", "youtube": "None", "website": "None", "summary": "None", "logo": "None", "latitude": 43.605770032431465, "longitude": -79.58772951408095}, "832886592RR0001": {"name": "KINGDOM FAMILY CHAPEL INC.", "designationCode": "C", "categoryCode": "39", "address": "18 PURPLE SAGE CRES", "city": "WINNIPEG", "province": "MB", "country": "CA", "postalCode": "R3X0K5", "twitter": "None", "instagram": "None", "facebook": "None", "youtube": "None", "website": "None", "summary": "None", "logo": "None", "latitude": 49.82959239494492, "longitude": -97.02956073705903}, "892032640RR0001": {"name": "KINGDOM GLORY MINISTRIES", "designationCode": "C", "categoryCode": "39", "address": "1261 NORTH SHERIDAN WAY", "city": "MISSISSAUGA", "province": "ON", "country": "CA", "postalCode": "L5H2A3", "twitter": "None", "instagram": "None", "facebook": "None", "youtube": "None", "website": "None", "summary": "None", "logo": "None", "latitude": 43.54104793756125, "longitude": -79.63011448808344}, "889138863RR0001": {"name": "KINGDOM HARVEST MINISTRIES INTERNATIONAL", "designationCode": "C", "categoryCode": "39", "address": "PO BOX 19142                  1153 56TH STREET", "city": "DELTA", "province": "BC", "country": "CA", "postalCode": "V4L2P8", "twitter": "None", "instagram": "None", "facebook": "None", "youtube": "None", "website": "None", "summary": "None", "logo": "None", "latitude": 49.023807104694626, "longitude": -123.06882928791019}, "859564056RR0001": {"name": "KINGDOM IMPACT CHURCH", "designationCode": "C", "categoryCode": "39", "address": "18 SLADER HEIGHTS STREET", "city": "AJAX", "province": "ON", "country": "CA", "postalCode": "L1Z1P8", "twitter": "None", "instagram": "None", "facebook": "None", "youtube": "None", "website": "None", "summary": "None", "logo": "None", "latitude": 43.87494717236992, "longitude": -79.0044780431646}, "870501970RR0001": {"name": "KINGDOM LIFE MINISTRIES INC.", "designationCode": "C", "categoryCode": "39", "address": "1166 CARDIFF BOULEVARD", "city": "MISSISSAUGA", "province": "ON", "country": "CA", "postalCode": "L5S1P7", "twitter": "None", "instagram": "None", "facebook": "None", "youtube": "None", "website": "None", "summary": "None", "logo": "None", "latitude": 43.67213374822579, "longitude": -79.68468027956074}}