{"106805930RR0001": {"name": "BRAMPTON INTERFAITH FAMILY CHURCH", "designationCode": "C", "categoryCode": "39", "address": "9446 MCLAUGHLIN ROAD NORTH    UNIT 11", "city": "BRAMPTON", "province": "ON", "country": "CA", "postalCode": "L6X4H9", "twitter": "None", "instagram": "None", "facebook": "None", "youtube": "None", "website": "None", "summary": "None", "logo": "None", "latitude": 43.684172728547594, "longitude": -79.78162801459867}, "891374464RR0001": {"name": "BRAMPTON MULTICULTURAL COMMUNITY CENTRE", "designationCode": "C", "categoryCode": "56", "address": "197 COUNTY COURT BOULEVARD    SUITE 303", "city": "BRAMPTON", "province": "ON", "country": "CA", "postalCode": "L6W4P6", "twitter": "None", "instagram": "None", "facebook": "None", "youtube": "None", "website": "None", "summary": "None", "logo": "None", "latitude": 43.66156026135086, "longitude": -79.72049841980551}, "826799801RR0001": {"name": "BRAMPTON NEW LIFE COMMUNITY CHURCH", "designationCode": "C", "categoryCode": "36", "address": "9281 GOREWAY DR.", "city": "BRAMPTON", "province": "ON", "country": "CA", "postalCode": "L6P0N5", "twitter": "None", "instagram": "None", "facebook": "None", "youtube": "None", "website": "None", "summary": "None", "logo": "None", "latitude": 43.75823835310707, "longitude": -79.69130634073007}, "118816453RR0001": {"name": "BRAMPTON PUBLIC LIBRARY BOARD", "designationCode": "C", "categoryCode": "50", "address": "65 QUEEN STREET EAST", "city": "BRAMPTON", "province": "ON", "country": "CA", "postalCode": "L6W3L6", "twitter": "None", "instagram": "None", "facebook": "None", "youtube": "None", "website": "None", "summary": "None", "logo": "None", "latitude": 43.68770012072255, "longitude": -79.75789935149186}, "107797383RR0015": {"name": "BRAMPTON SEVENTH-DAY ADVENTIST CHURCH", "designationCode": "C", "categoryCode": "41", "address": "37 MILLSTONE DR", "city": "BRAMPTON", "province": "ON", "country": "CA", "postalCode": "L6Y4G1", "twitter": "None", "instagram": "None", "facebook": "None", "youtube": "None", "website": "None", "summary": "None", "logo": "None", "latitude": 43.648215739079184, "longitude": -79.7480325871086}, "871966248RR0001": {"name": "BRAMPTON SUNNATUL ISLAMIC ASSOCIATION", "designationCode": "C", "categoryCode": "60", "address": "2 LAUDER HILL ROAD", "city": "BRAMPTON", "province": "ON", "country": "CA", "postalCode": "L6P2Y9", "twitter": "None", "instagram": "None", "facebook": "None", "youtube": "None", "website": "None", "summary": "None", "logo": "None", "latitude": 43.78828446462569, "longitude": -79.7448104094003}, "880159157RR0001": {"name": "BRAMPTON VIETNAMESE ALLIANCE CHURCH OF THE CHRISTIAN AND MISSIONARY ALLIANCE IN CANADA", "designationCode": "C", "categoryCode": "39", "address": "114 - 1055 CANADIAN PLACE", "city": "MISSISSAUGA", "province": "ON", "country": "CA", "postalCode": "L4W0C2", "twitter": "None", "instagram": "None", "facebook": "None", "youtube": "None", "website": "None", "summary": "None", "logo": "None", "latitude": 43.62671187457425, "longitude": -79.6273813054704}, "891798944RR0001": {"name": "BRAMPTON WORSHIP CENTRE", "designationCode": "C", "categoryCode": "39", "address": "980 CENTRAL PARK DRIVE        PO BOX 36001  RPO NORTHGATE", "city": "BRAMPTON", "province": "ON", "country": "CA", "postalCode": "L6S6A3", "twitter": "None", "instagram": "None", "facebook": "None", "youtube": "None", "website": "None", "summary": "None", "logo": "None", "latitude": 43.73321094840995, "longitude": -79.72000573775152}, "132503731RR0001": {"name": "BRAMPTON 9235 OUTREACH CORP", "designationCode": "C", "categoryCode": "09", "address": "4-287 GLIDDEN RD", "city": "BRAMPTON", "province": "ON", "country": "CA", "postalCode": "L6W1H9", "twitter": "None", "instagram": "None", "facebook": "None", "youtube": "None", "website": "None", "summary": "None", "logo": "None", "latitude": 43.68289360808486, "longitude": -79.7304654190665}, "140620998RR0001": {"name": "BRAMPTON/MISSISSAUGA AND DISTRICT LABOUR COUNCIL INJURED WORKERS MONUMENT INCORPORATED", "designationCode": "C", "categoryCode": "09", "address": "989 DERRY ROAD EAST SUITE 403", "city": "MISSISAUGA", "province": "ON", "country": "CA", "postalCode": "L5T2J8", "twitter": "None", "instagram": "None", "facebook": "None", "youtube": "None", "website": "None", "summary": "None", "logo": "None", "latitude": 43.665242277309446, "longitude": -79.68545315436518}, "100622661RR0001": {"name": "BRANCH 133 LEGION VILLAGE INC.", "designationCode": "C", "categoryCode": "01", "address": "111 HIBERNIA STREET", "city": "COBOURG", "province": "ON", "country": "CA", "postalCode": "K9A4Y7", "twitter": "None", "instagram": "None", "facebook": "None", "youtube": "None", "website": "None", "summary": "None", "logo": "None"}, "862942612RR0001": {"name": "BRANCH 133, LEGION VILLAGE FOUNDATION", "designationCode": "A", "categoryCode": "03", "address": "111 HIBERNIA STREET", "city": "COBOURG", "province": "ON", "country": "CA", "postalCode": "K9A4Y7", "twitter": "None", "instagram": "None", "facebook": "None", "youtube": "None", "website": "None", "summary": "None", "logo": "None", "latitude": 43.95618553260436, "longitude": -78.16949402446737}, "130921653RR0001": {"name": "BRANCH 393 ROYAL CANADIAN LEGION SENIOR CITIZENS COMPLEX", "designationCode": "C", "categoryCode": "01", "address": "171 MILL STREET", "city": "SMITHVILLE", "province": "ON", "country": "CA", "postalCode": "L0R2A0", "twitter": "None", "instagram": "None", "facebook": "None", "youtube": "None", "website": "None", "summary": "None", "logo": "None", "latitude": 43.09597654111671, "longitude": -79.54353575359282}, "106806557RR0001": {"name": "BRANDER GARDENS AFTER SCHOOL PARENTS ASSOCIATION", "designationCode": "C", "categoryCode": "01", "address": "14865-56 AVENUE", "city": "EDMONTON", "province": "AB", "country": "CA", "postalCode": "T6H5G2", "twitter": "None", "instagram": "None", "facebook": "None", "youtube": "None", "website": "None", "summary": "None", "logo": "None", "latitude": 53.49378462219444, "longitude": -113.57736651177233}, "118816636RR0001": {"name": "BRANDON & DISTRICT CHAPTER L.D.A.M. INC.", "designationCode": "C", "categoryCode": "21", "address": "129B-12TH STREET", "city": "BRANDON", "province": "MB", "country": "CA", "postalCode": "R7A4L8", "twitter": "None", "instagram": "None", "facebook": "None", "youtube": "None", "website": "None", "summary": "None", "logo": "None", "latitude": 49.847997068051434, "longitude": -99.95412365189611}, "122781040RR0001": {"name": "BRANDON CENTENNIAL AUDITORIUM CORPORATION INC", "designationCode": "C", "categoryCode": "56", "address": "205-20TH STREET", "city": "BRANDON", "province": "MB", "country": "CA", "postalCode": "R7B1L6", "twitter": "None", "instagram": "None", "facebook": "None", "youtube": "None", "website": "None", "summary": "None", "logo": "None", "latitude": 49.84590742230054, "longitude": -99.96469633040353}, "890546666RR0001": {"name": "BRANDON CENTRAL COMMUNITY CLUB INC", "designationCode": "C", "categoryCode": "56", "address": "APT 107-620 MCDIARMID DR", "city": "BRANDON", "province": "MB", "country": "CA", "postalCode": "R7B2H5", "twitter": "None", "instagram": "None", "facebook": "None", "youtube": "None", "website": "None", "summary": "None", "logo": "None", "latitude": 49.83947387039065, "longitude": -99.97628383311174}, "872901863RR0001": {"name": "BRANDON CHAMBER PLAYERS INC", "designationCode": "C", "categoryCode": "22", "address": "P.O. BOX 21124", "city": "BRANDON", "province": "MB", "country": "CA", "postalCode": "R7B2L0", "twitter": "None", "instagram": "None", "facebook": "None", "youtube": "None", "website": "None", "summary": "None", "logo": "None", "latitude": 49.83591999999999, "longitude": -99.97909865624996}, "118816594RR0001": {"name": "BRANDON CHURCH OF CHRIST", "designationCode": "C", "categoryCode": "39", "address": "241-10TH ST. E.", "city": "BRANDON", "province": "MB", "country": "CA", "postalCode": "R7A5V6", "twitter": "None", "instagram": "None", "facebook": "None", "youtube": "None", "website": "None", "summary": "None", "logo": "None", "latitude": 49.84589661226846, "longitude": -99.92642891156467}, "106806623RR0001": {"name": "BRANDON CIVIC SENIOR CITIZENS INC.", "designationCode": "C", "categoryCode": "09", "address": "241 8TH ST", "city": "BRANDON", "province": "MB", "country": "CA", "postalCode": "R7A3X2", "twitter": "None", "instagram": "None", "facebook": "None", "youtube": "None", "website": "None", "summary": "None", "logo": "None", "latitude": 49.846312679633314, "longitude": -99.94868513867337}, "106806656RR0001": {"name": "BRANDON COMMUNITY OPTIONS INC.", "designationCode": "C", "categoryCode": "11", "address": "136 11TH STREET", "city": "BRANDON", "province": "MB", "country": "CA", "postalCode": "R3A4J4", "twitter": "None", "instagram": "None", "facebook": "None", "youtube": "None", "website": "None", "summary": "None", "logo": "None", "latitude": 49.84753499999999, "longitude": -99.95285360286205}, "120646831RR0001": {"name": "BRANDON DANCE ENSEMBLE INC", "designationCode": "C", "categoryCode": "22", "address": "126-10TH STREET", "city": "BRANDON", "province": "MB", "country": "CA", "postalCode": "R7A4E6", "twitter": "None", "instagram": "None", "facebook": "None", "youtube": "None", "website": "None", "summary": "None", "logo": "None", "latitude": 49.84802441972925, "longitude": -99.95148777970725}, "132712043RR0001": {"name": "BRANDON FESTIVAL OF THE ARTS INCORPORATED", "designationCode": "C", "categoryCode": "22", "address": "100 1300 18TH STREET          OFFICE 130", "city": "BRANDON", "province": "MB", "country": "CA", "postalCode": "R7A6X7", "twitter": "None", "instagram": "None", "facebook": "None", "youtube": "None", "website": "None", "summary": "None", "logo": "None", "latitude": 49.82881499999999, "longitude": -99.96205456679523}, "889084455RR0001": {"name": "BRANDON FILM FESTIVAL INC", "designationCode": "C", "categoryCode": "22", "address": "BOX 21084                     WEST END POSTAL", "city": "BRANDON", "province": "MB", "country": "CA", "postalCode": "R7B3W8", "twitter": "None", "instagram": "None", "facebook": "None", "youtube": "None", "website": "None", "summary": "None", "logo": "None", "latitude": 49.84965600000005, "longitude": -99.96197299999993}, "139358600RR0001": {"name": "BRANDON FIREFIGHTERS CHARITY FUND", "designationCode": "A", "categoryCode": "55", "address": "1408 2ND ST", "city": "BRANDON", "province": "MB", "country": "CA", "postalCode": "R7A3B3", "twitter": "None", "instagram": "None", "facebook": "None", "youtube": "None", "website": "None", "summary": "None", "logo": "None", "latitude": 49.828284, "longitude": -99.94056605179159}, "131683161RR0001": {"name": "BRANDON FOLK, MUSIC AND ART SOCIETY INC", "designationCode": "C", "categoryCode": "22", "address": "PO BOX 22091 STN MAIN", "city": "BRANDON", "province": "MB", "country": "CA", "postalCode": "R7A6Y9", "twitter": "None", "instagram": "None", "facebook": "None", "youtube": "None", "website": "None", "summary": "None", "logo": "None", "latitude": 49.84965600000005, "longitude": -99.96197299999993}, "118816677RR0001": {"name": "BRANDON FRIENDSHIP CENTRE INC.", "designationCode": "C", "categoryCode": "09", "address": "836 LORNE AVE", "city": "BRANDON", "province": "MB", "country": "CA", "postalCode": "R7A0T8", "twitter": "None", "instagram": "None", "facebook": "None", "youtube": "None", "website": "None", "summary": "None", "logo": "None", "latitude": 49.845298506780686, "longitude": -99.94964327699232}, "120704614RR0001": {"name": "BRANDON FRIENDSHIP HOUSING AUTHORITY INC", "designationCode": "C", "categoryCode": "09", "address": "836 LORNE AVE", "city": "BRANDON", "province": "MB", "country": "CA", "postalCode": "R7A0T8", "twitter": "None", "instagram": "None", "facebook": "None", "youtube": "None", "website": "None", "summary": "None", "logo": "None", "latitude": 49.845298506780686, "longitude": -99.94964327699232}, "108219809RR0001": {"name": "BRANDON GENERAL HOSPITAL AUXILIARY INC.", "designationCode": "A", "categoryCode": "03", "address": "150A-7TH STREET", "city": "BRANDON", "province": "MB", "country": "CA", "postalCode": "R7A7M2", "twitter": "None", "instagram": "None", "facebook": "None", "youtube": "None", "website": "None", "summary": "None", "logo": "None", "latitude": 49.84766063477749, "longitude": -99.94738844807098}, "845515972RR0001": {"name": "BRANDON HILLS MENNONITE CHURCH INC.", "designationCode": "C", "categoryCode": "34", "address": "PO BOX 779", "city": "SOURIS", "province": "MB", "country": "CA", "postalCode": "R0K2C0", "twitter": "None", "instagram": "None", "facebook": "None", "youtube": "None", "website": "None", "summary": "None", "logo": "None", "latitude": 49.59915625917259, "longitude": -99.8622610573006}, "894700806RR0001": {"name": "BRANDON JAZZ FESTIVAL INCORPORATED", "designationCode": "C", "categoryCode": "22", "address": "SITE 150, BOX 18, RR # 1", "city": "BRANDON", "province": "MB", "country": "CA", "postalCode": "R7A5Y1", "twitter": "None", "instagram": "None", "facebook": "None", "youtube": "None", "website": "None", "summary": "None", "logo": "None", "latitude": 49.84267200000005, "longitude": -99.85728049999993}, "892876731RR0001": {"name": "BRANDON LITERACY COUNCIL INC", "designationCode": "C", "categoryCode": "21", "address": "129 12TH ST", "city": "BRANDON", "province": "MB", "country": "CA", "postalCode": "R7A4L8", "twitter": "None", "instagram": "None", "facebook": "None", "youtube": "None", "website": "None", "summary": "None", "logo": "None", "latitude": 49.84778649708582, "longitude": -99.95413991156467}, "118816610RR0001": {"name": "BRANDON MCC COMMUNITY ASSISTANCE CENTRE INC.", "designationCode": "A", "categoryCode": "49", "address": "414 PACIFIC AVE", "city": "BRANDON", "province": "MB", "country": "CA", "postalCode": "R7A0H5", "twitter": "None", "instagram": "None", "facebook": "None", "youtube": "None", "website": "None", "summary": "None", "logo": "None", "latitude": 49.84953151399404, "longitude": -99.94383377699232}, "118816735RR0001": {"name": "BRANDON MUSEUM INC.", "designationCode": "C", "categoryCode": "50", "address": "122-18TH STREET", "city": "BRANDON", "province": "MB", "country": "CA", "postalCode": "R7A5A4", "twitter": "None", "instagram": "None", "facebook": "None", "youtube": "None", "website": "None", "summary": "None", "logo": "None", "latitude": 49.847921748542916, "longitude": -99.96207507732682}, "100623602RR0001": {"name": "BRANDON NURSERY SCHOOL INC.", "designationCode": "C", "categoryCode": "20", "address": "KNOX UNITED CHURCH            451-18TH ST", "city": "BRANDON", "province": "MB", "country": "CA", "postalCode": "R7A5A9", "twitter": "None", "instagram": "None", "facebook": "None", "youtube": "None", "website": "None", "summary": "None", "logo": "None", "latitude": 49.84309085976433, "longitude": -99.96179949363147}, "894800077RR0001": {"name": "BRANDON RIVERBANK INC.", "designationCode": "C", "categoryCode": "52", "address": "RIVERBANK DISCOVERY CENTRE    1-545 CONSERVATION DRIVE", "city": "BRANDON", "province": "MB", "country": "CA", "postalCode": "R7A7L8", "twitter": "None", "instagram": "None", "facebook": "None", "youtube": "None", "website": "None", "summary": "None", "logo": "None", "latitude": 49.860729817098495, "longitude": -99.95615455176294}, "118816768RR0001": {"name": "BRANDON ROTARY CLUB WESTMAN FOUNDATION INC.", "designationCode": "A", "categoryCode": "03", "address": "3360 VICOTORIA AVENUE         PO BOX 21041", "city": "BRANDON", "province": "MB", "country": "CA", "postalCode": "R7B3W8", "twitter": "None", "instagram": "None", "facebook": "None", "youtube": "None", "website": "None", "summary": "None", "logo": "None", "latitude": 49.84207008651779, "longitude": -99.9833013089461}, "120194550RR0001": {"name": "BRANDON SENIORS FOR SENIORS CO-OP INC", "designationCode": "C", "categoryCode": "09", "address": "311 PARK AVE E", "city": "BRANDON", "province": "MB", "country": "CA", "postalCode": "R7A7A7", "twitter": "None", "instagram": "None", "facebook": "None", "youtube": "None", "website": "None", "summary": "None", "logo": "None", "latitude": 49.83589243219422, "longitude": -99.93397682970755}, "119030666RR0020": {"name": "BRANDON SEVENTH-DAY ADVENTIST CHURCH", "designationCode": "C", "categoryCode": "41", "address": "1004 VICTORIA AVE", "city": "SASKATOON", "province": "SK", "country": "CA", "postalCode": "S7N0Z8", "twitter": "None", "instagram": "None", "facebook": "None", "youtube": "None", "website": "None", "summary": "None", "logo": "None", "latitude": 52.115409, "longitude": -106.66240826773014}, "118816784RR0001": {"name": "BRANDON SOCIETY FOR THE PREVENTION OF CRUELTY TO ANIMALS", "designationCode": "C", "categoryCode": "54", "address": "2200-17TH ST E", "city": "BRANDON", "province": "MB", "country": "CA", "postalCode": "R7A0L3", "twitter": "None", "instagram": "None", "facebook": "None", "youtube": "None", "website": "None", "summary": "None", "logo": "None", "latitude": 49.81619972189672, "longitude": -99.91631128001859}, "893011965RR0001": {"name": "BRANDON STREET COMMUNITY DEVELOPMENT PROJECT", "designationCode": "A", "categoryCode": "63", "address": "495 SUMMERPARK CRES", "city": "PICKERING", "province": "ON", "country": "CA", "postalCode": "L1V7A8", "twitter": "None", "instagram": "None", "facebook": "None", "youtube": "None", "website": "None", "summary": "None", "logo": "None", "latitude": 43.83158565474054, "longitude": -79.13630494047543}, "889535449RR0001": {"name": "BRANDON UNIVERSITY FOUNDATION", "designationCode": "A", "categoryCode": "23", "address": "BRANDON UNIVERSITY", "city": "BRANDON", "province": "MB", "country": "CA", "postalCode": "R7A6A9", "twitter": "None", "instagram": "None", "facebook": "None", "youtube": "None", "website": "None", "summary": "None", "logo": "None", "latitude": 49.84554000000003, "longitude": -99.96204999999998}, "861137735RR0001": {"name": "BRANDON VINEYARD CHRISTIAN FELLOWSHIP", "designationCode": "C", "categoryCode": "39", "address": "PO BOX 866", "city": "BOISSEVAIN", "province": "MB", "country": "CA", "postalCode": "R0K0E0", "twitter": "None", "instagram": "None", "facebook": "None", "youtube": "None", "website": "None", "summary": "None", "logo": "None", "latitude": 49.23156000000006, "longitude": -100.05945999999994}, "852970631RR0001": {"name": "BRANDON WESTRIDGE COMMUNITY CENTRE INC.", "designationCode": "C", "categoryCode": "56", "address": "P.O.BOX 21021", "city": "BRANDON", "province": "MB", "country": "CA", "postalCode": "R7B3W8", "twitter": "None", "instagram": "None", "facebook": "None", "youtube": "None", "website": "None", "summary": "None", "logo": "None", "latitude": 49.84965600000005, "longitude": -99.96197299999993}, "118816818RR0001": {"name": "BRANDON-WESTMAN CHRISTMAS CHEER REGISTRY INC.", "designationCode": "C", "categoryCode": "09", "address": "BOX 50003", "city": "BRANDON", "province": "MB", "country": "CA", "postalCode": "R7A7E4", "twitter": "None", "instagram": "None", "facebook": "None", "youtube": "None", "website": "None", "summary": "None", "logo": "None", "latitude": 49.84965600000005, "longitude": -99.96197299999993}, "893813873RR0001": {"name": "BRANDT FOUNDATION INC.", "designationCode": "B", "categoryCode": "03", "address": "P.O. BOX 6", "city": "ROSENORT", "province": "MB", "country": "CA", "postalCode": "R0G1W0", "twitter": "None", "instagram": "None", "facebook": "None", "youtube": "None", "website": "None", "summary": "None", "logo": "None", "latitude": 49.45817000000005, "longitude": -97.43545999999998}, "118816826RR0001": {"name": "BRANKSOME HALL", "designationCode": "C", "categoryCode": "20", "address": "DIRECTOR FINANCE & ADMIN.     10 ELM AVENUE", "city": "TORONTO", "province": "ON", "country": "CA", "postalCode": "M4W1N4", "twitter": "None", "instagram": "None", "facebook": "None", "youtube": "None", "website": "None", "summary": "None", "logo": "None", "latitude": 43.67463412908976, "longitude": -79.37982899890348}, "880196159RR0001": {"name": "BRANT ANIMAL AID FOUNDATION", "designationCode": "A", "categoryCode": "55", "address": "P.O. BOX 25017                RPO WEST BRANTFORD", "city": "BRANTFORD", "province": "ON", "country": "CA", "postalCode": "N3T6K5", "twitter": "None", "instagram": "None", "facebook": "None", "youtube": "None", "website": "None", "summary": "None", "logo": "None", "latitude": 43.14300920844691, "longitude": -80.26710173448376}, "869051375RR0001": {"name": "BRANT ARTS & CULTURE ASSOCIATION", "designationCode": "C", "categoryCode": "22", "address": "84 DUNDAS ST E", "city": "PARIS", "province": "ON", "country": "CA", "postalCode": "N3L3H5", "twitter": "None", "instagram": "None", "facebook": "None", "youtube": "None", "website": "None", "summary": "None", "logo": "None", "latitude": 43.190656756575976, "longitude": -80.36724921353942}, "141049932RR0001": {"name": "BRANT CHARITABLE TRUST", "designationCode": "B", "categoryCode": "39", "address": "3425 2 AVE S", "city": "LETHBRIDGE", "province": "AB", "country": "CA", "postalCode": "T1J4V1", "twitter": "None", "instagram": "None", "facebook": "None", "youtube": "None", "website": "None", "summary": "None", "logo": "None", "latitude": 49.696839530439966, "longitude": -112.78914308381903}, "139462790RR0001": {"name": "BRANT CHRISTIAN SCHOOL SOCIETY", "designationCode": "C", "categoryCode": "20", "address": "BOX 130", "city": "BRANT", "province": "AB", "country": "CA", "postalCode": "T0L0L0", "twitter": "None", "instagram": "None", "facebook": "None", "youtube": "None", "website": "None", "summary": "None", "logo": "None", "latitude": 50.515809814717215, "longitude": -113.51225628026519}, "888663804RR0001": {"name": "BRANT COMMUNITY CHURCH", "designationCode": "C", "categoryCode": "39", "address": "69 SUPERIOR STREET", "city": "BRANTFORD", "province": "ON", "country": "CA", "postalCode": "N3S2K5", "twitter": "None", "instagram": "None", "facebook": "None", "youtube": "None", "website": "None", "summary": "None", "logo": "None", "latitude": 43.130374104074136, "longitude": -80.25486035832985}, "883564494RR0001": {"name": "BRANT COMMUNITY FOUNDATION", "designationCode": "A", "categoryCode": "03", "address": "30 BRANT AVE", "city": "BRANTFORD", "province": "ON", "country": "CA", "postalCode": "N3T3G6", "twitter": "None", "instagram": "None", "facebook": "None", "youtube": "None", "website": "None", "summary": "None", "logo": "None", "latitude": 43.13929244543846, "longitude": -80.2696690014423}, "118817014RR0001": {"name": "BRANT COMMUNITY HEALTHCARE SYSTEM", "designationCode": "C", "categoryCode": "10", "address": "200 TERRACE HILL ST.", "city": "BRANTFORD", "province": "ON", "country": "CA", "postalCode": "N3R1G9", "twitter": "None", "instagram": "None", "facebook": "None", "youtube": "None", "website": "None", "summary": "None", "logo": "None", "latitude": 43.1525449863004, "longitude": -80.27577595363758}, "119217065RR0001": {"name": "BRANT COMMUNITY HEALTHCARE SYSTEM FOUNDATION", "designationCode": "A", "categoryCode": "13", "address": "200 TERRACE HILL ST", "city": "BRANTFORD", "province": "ON", "country": "CA", "postalCode": "N3R1G9", "twitter": "None", "instagram": "None", "facebook": "None", "youtube": "None", "website": "None", "summary": "None", "logo": "None", "latitude": 43.1525449863004, "longitude": -80.27577595363758}, "106806979RR0001": {"name": "BRANT COUNTY HEALTH UNIT", "designationCode": "C", "categoryCode": "19", "address": "194 TERRACE HILL ST", "city": "BRANTFORD", "province": "ON", "country": "CA", "postalCode": "N3R1G7", "twitter": "None", "instagram": "None", "facebook": "None", "youtube": "None", "website": "None", "summary": "None", "logo": "None", "latitude": 43.15206251260906, "longitude": -80.27433410603604}, "898369319RR0001": {"name": "BRANT COUNTY SOCIETY FOR THE PREVENTION OF CRUELTY TO ANIMALS", "designationCode": "C", "categoryCode": "54", "address": "539 MOHAWK ST", "city": "BRANTFORD", "province": "ON", "country": "CA", "postalCode": "N3T5M8", "twitter": "None", "instagram": "None", "facebook": "None", "youtube": "None", "website": "None", "summary": "None", "logo": "None", "latitude": 43.13556832136901, "longitude": -80.22414750066383}, "140752387RR0001": {"name": "BRANT COUNTY WAR MEMORIALS COMMITTEE", "designationCode": "C", "categoryCode": "52", "address": "P.O. BOX 28121                NORTH PARK PLAZA P.0.", "city": "BRANTFORD", "province": "ON", "country": "CA", "postalCode": "N3R7X5", "twitter": "None", "instagram": "None", "facebook": "None", "youtube": "None", "website": "None", "summary": "None", "logo": "None", "latitude": 43.18297834148203, "longitude": -80.25038434639718}, "879918506RR0001": {"name": "BRANT COUNTY WILDLIFE RESCUE AND ENVIRONMENTAL PROGRAM INC.", "designationCode": "C", "categoryCode": "54", "address": "34 SIXTH CONCESSION RD", "city": "BRANTFORD", "province": "ON", "country": "CA", "postalCode": "N3R0B8", "twitter": "None", "instagram": "None", "facebook": "None", "youtube": "None", "website": "None", "summary": "None", "logo": "None", "latitude": 43.11688329196543, "longitude": -80.42504480593173}, "861021947RR0001": {"name": "BRANT FOOD FOR THOUGHT", "designationCode": "C", "categoryCode": "11", "address": "446 GREY STREET               SUITE 103 B", "city": "BRANTFORD", "province": "ON", "country": "CA", "postalCode": "N3S7L6", "twitter": "None", "instagram": "None", "facebook": "None", "youtube": "None", "website": "None", "summary": "None", "logo": "None", "latitude": 43.147154417190585, "longitude": -80.23327711350919}, "106806995RR0002": {"name": "BRANT HALDIMAND-NORFOLK CATHOLIC DISTRICT SCHOOL BOARD", "designationCode": "C", "categoryCode": "20", "address": "PO BOX 217 STN MAIN           322 FAIRVIEW DR", "city": "BRANTFORD", "province": "ON", "country": "CA", "postalCode": "N3T5M8", "twitter": "None", "instagram": "None", "facebook": "None", "youtube": "None", "website": "None", "summary": "None", "logo": "None", "latitude": 43.17072320229123, "longitude": -80.2579933988114}, "106807241RR0001": {"name": "BRANT HILLS PRESBYTERIAN CHURCH", "designationCode": "C", "categoryCode": "37", "address": "2138 BRANT ST", "city": "BURLINGTON", "province": "ON", "country": "CA", "postalCode": "L7P3W5", "twitter": "None", "instagram": "None", "facebook": "None", "youtube": "None", "website": "None", "summary": "None", "logo": "None", "latitude": 43.35495550594396, "longitude": -79.84095711466304}, "118817113RR0001": {"name": "BRANT HISTORICAL SOCIETY", "designationCode": "C", "categoryCode": "52", "address": "57 CHARLOTTE ST", "city": "BRANTFORD", "province": "ON", "country": "CA", "postalCode": "N3T2W6", "twitter": "None", "instagram": "None", "facebook": "None", "youtube": "None", "website": "None", "summary": "None", "logo": "None", "latitude": 43.14189886011885, "longitude": -80.26088469897302}, "118817139RR0001": {"name": "BRANT RIGHT TO LIFE CHARITABLE TRUST", "designationCode": "C", "categoryCode": "09", "address": "26 BELHOLME AVE", "city": "BRANTFORD", "province": "ON", "country": "CA", "postalCode": "N3T1S1", "twitter": "None", "instagram": "None", "facebook": "None", "youtube": "None", "website": "None", "summary": "None", "logo": "None", "latitude": 43.109681092965644, "longitude": -80.27823515941509}, "106807290RR0001": {"name": "BRANT UNITED WAY", "designationCode": "C", "categoryCode": "05", "address": "125 MORRELL STREET", "city": "BRANTFORD", "province": "ON", "country": "CA", "postalCode": "N3T4J9", "twitter": "None", "instagram": "None", "facebook": "None", "youtube": "None", "website": "None", "summary": "None", "logo": "None", "latitude": 43.14519509296562, "longitude": -80.28783268495032}, "890833692RR0001": {"name": "BRANT VILLA DAY CARE SOCIETY", "designationCode": "C", "categoryCode": "01", "address": "4103 BRANT ST", "city": "VANCOUVER", "province": "BC", "country": "CA", "postalCode": "V5N5B5", "twitter": "None", "instagram": "None", "facebook": "None", "youtube": "None", "website": "None", "summary": "None", "logo": "None", "latitude": 49.24842319900168, "longitude": -123.0580535377689}, "890559248RR0001": {"name": "BRANT WATERWAYS FOUNDATION", "designationCode": "A", "categoryCode": "53", "address": "PO BOX 21014                  84 LYNDEN RD", "city": "BRANTFORD", "province": "ON", "country": "CA", "postalCode": "N3R6B8", "twitter": "None", "instagram": "None", "facebook": "None", "youtube": "None", "website": "None", "summary": "None", "logo": "None", "latitude": 43.173290251138475, "longitude": -80.2421037313642}, "889315867RR0001": {"name": "BRANT YOUTH SYMPHONY ORCHESTRA", "designationCode": "C", "categoryCode": "22", "address": "110 WEST RIVER", "city": "PARIS", "province": "ON", "country": "CA", "postalCode": "N3L2V1", "twitter": "None", "instagram": "None", "facebook": "None", "youtube": "None", "website": "None", "summary": "None", "logo": "None", "latitude": 43.196133542039426, "longitude": -80.38872024871579}, "139321988RR0001": {"name": "BRANTFORD & DISTRICT OSTOMY ASSOCIATION", "designationCode": "C", "categoryCode": "11", "address": "61 BANBURY ROAD", "city": "BRANTFORD", "province": "ON", "country": "CA", "postalCode": "N3P1E1", "twitter": "None", "instagram": "None", "facebook": "None", "youtube": "None", "website": "None", "summary": "None", "logo": "None", "latitude": 43.191327518754555, "longitude": -80.23947236081135}, "896563491RR0001": {"name": "BRANTFORD AND DISTRICT SUPERVISED ACCESS CENTRE", "designationCode": "C", "categoryCode": "59", "address": "82 CHARLOTTE ST", "city": "BRANTFORD", "province": "ON", "country": "CA", "postalCode": "N3T2X1", "twitter": "None", "instagram": "None", "facebook": "None", "youtube": "None", "website": "None", "summary": "None", "logo": "None", "latitude": 43.14292425815677, "longitude": -80.26113907308428}, "848335469RR0001": {"name": "BRANTFORD BLESSING CENTRE INC.", "designationCode": "C", "categoryCode": "39", "address": "P.O. BOX 28035 NPP", "city": "BRANTFORD", "province": "ON", "country": "CA", "postalCode": "N3R7X5", "twitter": "None", "instagram": "None", "facebook": "None", "youtube": "None", "website": "None", "summary": "None", "logo": "None", "latitude": 43.14136200000006, "longitude": -80.26173349999993}, "118816941RR0001": {"name": "BRANTFORD CHRISTADELPHIAN ECCLESIA", "designationCode": "C", "categoryCode": "39", "address": "442 DUNSDON ST.", "city": "BRANTFORD", "province": "ON", "country": "CA", "postalCode": "N3P2B1", "twitter": "None", "instagram": "None", "facebook": "None", "youtube": "None", "website": "None", "summary": "None", "logo": "None", "latitude": 43.182927714380696, "longitude": -80.24124782347513}, "889414447RR0001": {"name": "BRANTFORD CHURCH OF THE NAZARENE", "designationCode": "C", "categoryCode": "39", "address": "347 FAIRVIEW DR", "city": "BRANTFORD", "province": "ON", "country": "CA", "postalCode": "N3R2X7", "twitter": "None", "instagram": "None", "facebook": "None", "youtube": "None", "website": "None", "summary": "None", "logo": "None", "latitude": 43.17122708643098, "longitude": -80.25609862837273}, "878976604RR0001": {"name": "BRANTFORD COLLEGIATE INSTITUTE & VOCATIONAL SCHOOL ALUMNI FOUNDATION", "designationCode": "C", "categoryCode": "21", "address": "H. CAMERON JOHNSTON           PO BOX 367", "city": "BRANTFORD", "province": "ON", "country": "CA", "postalCode": "N3T5N3", "twitter": "None", "instagram": "None", "facebook": "None", "youtube": "None", "website": "None", "summary": "None", "logo": "None", "latitude": 43.14136200000006, "longitude": -80.26173349999993}, "118816966RR0001": {"name": "BRANTFORD CORNERSTONE CHURCH", "designationCode": "C", "categoryCode": "39", "address": "203 GRAND RIVER AVE", "city": "BRANTFORD", "province": "ON", "country": "CA", "postalCode": "N3T4Y1", "twitter": "None", "instagram": "None", "facebook": "None", "youtube": "None", "website": "None", "summary": "None", "logo": "None", "latitude": 43.141475376651705, "longitude": -80.28435439661835}, "802376475RR0001": {"name": "BRANTFORD HINDU CHARITABLE ASSOCIATION", "designationCode": "C", "categoryCode": "48", "address": "10 COX LANE", "city": "BRANTFORD", "province": "ON", "country": "CA", "postalCode": "N3T0L9", "twitter": "None", "instagram": "None", "facebook": "None", "youtube": "None", "website": "None", "summary": "None", "logo": "None", "latitude": 43.129523296634275, "longitude": -80.32321011979421}, "893560383RR0001": {"name": "BRANTFORD KOREAN PRESBYTERIAN CHURCH", "designationCode": "C", "categoryCode": "37", "address": "268 MARLBOROUGH ST", "city": "BRANTFORD", "province": "ON", "country": "CA", "postalCode": "N3S4T5", "twitter": "None", "instagram": "None", "facebook": "None", "youtube": "None", "website": "None", "summary": "None", "logo": "None", "latitude": 43.14594748600598, "longitude": -80.24818383680534}, "107824252RR0001": {"name": "BRANTFORD LITTLE SCHOOL COMMUNITY CHILD CARE CENTRE", "designationCode": "C", "categoryCode": "01", "address": "629 COLBORNE ST", "city": "BRANTFORD", "province": "ON", "country": "CA", "postalCode": "N3S3M8", "twitter": "None", "instagram": "None", "facebook": "None", "youtube": "None", "website": "None", "summary": "None", "logo": "None", "latitude": 43.14042035647507, "longitude": -80.24041956984674}, "118817022RR0001": {"name": "BRANTFORD OPERA GUILD", "designationCode": "C", "categoryCode": "22", "address": "15 JUBILEE AVE", "city": "BRANTFORD", "province": "ON", "country": "CA", "postalCode": "N3T4Z4", "twitter": "None", "instagram": "None", "facebook": "None", "youtube": "None", "website": "None", "summary": "None", "logo": "None", "latitude": 43.141488299059056, "longitude": -80.28254312310968}, "869320804RR0001": {"name": "BRANTFORD PIPES AND DRUMS", "designationCode": "C", "categoryCode": "22", "address": "28 HOLBORN ST", "city": "BRANTFORD", "province": "ON", "country": "CA", "postalCode": "N3R2B8", "twitter": "None", "instagram": "None", "facebook": "None", "youtube": "None", "website": "None", "summary": "None", "logo": "None", "latitude": 43.16253564057363, "longitude": -80.27649835916657}, "118817055RR0001": {"name": "BRANTFORD SCHOOL OF INSTRUMENTAL MUSIC CHARITABLE TRUST", "designationCode": "C", "categoryCode": "25", "address": "96 NELSON ST. PO BOX 367", "city": "BRANTFORD", "province": "ON", "country": "CA", "postalCode": "N3T5N3", "twitter": "None", "instagram": "None", "facebook": "None", "youtube": "None", "website": "None", "summary": "None", "logo": "None", "latitude": 43.14234744272581, "longitude": -80.26145222023771}, "118817063RR0001": {"name": "BRANTFORD SCOTTISH RITE ASSOCIATION CHARITABLE TRUST", "designationCode": "C", "categoryCode": "19", "address": "117 CHARING CROSS ST (REAR)", "city": "BRANTFORD", "province": "ON", "country": "CA", "postalCode": "N3R2H8", "twitter": "None", "instagram": "None", "facebook": "None", "youtube": "None", "website": "None", "summary": "None", "logo": "None", "latitude": 43.15926152403468, "longitude": -80.26462115984778}, "107797383RR0109": {"name": "BRANTFORD SEVENTH-DAY ADVENTIST CHURCH", "designationCode": "C", "categoryCode": "41", "address": "714 COLBORNE STREET", "city": "BRANTFORD", "province": "ON", "country": "CA", "postalCode": "N3S3R6", "twitter": "None", "instagram": "None", "facebook": "None", "youtube": "None", "website": "None", "summary": "None", "logo": "None", "latitude": 43.1424750780193, "longitude": -80.23283979695897}, "127941607RR0001": {"name": "BRANTFORD SYMPHONY ORCHESTRA ASSOCIATION INC.", "designationCode": "C", "categoryCode": "22", "address": "PO BOX 24012                  185 KING GEORGE RD", "city": "BRANTFORD", "province": "ON", "country": "CA", "postalCode": "N3R7X3", "twitter": "None", "instagram": "None", "facebook": "None", "youtube": "None", "website": "None", "summary": "None", "logo": "None", "latitude": 43.1730996197416, "longitude": -80.27787712874304}, "888633575RR0001": {"name": "BRANTFORD WORSHIP CENTRE, INC.", "designationCode": "C", "categoryCode": "43", "address": "25 CHARLOTTE STREET", "city": "BRANTFORD", "province": "ON", "country": "CA", "postalCode": "N3T2W3", "twitter": "None", "instagram": "None", "facebook": "None", "youtube": "None", "website": "None", "summary": "None", "logo": "None", "latitude": 43.13992964128972, "longitude": -80.26062205437916}, "895406643RR0001": {"name": "BRANTFORD/BRANT COUNTY CRISIS PREGNANCY CENTRE", "designationCode": "C", "categoryCode": "59", "address": "CLARENCE RPO                  PO BOX 20001", "city": "BRANTFORD", "province": "ON", "country": "CA", "postalCode": "N3R0A4", "twitter": "None", "instagram": "None", "facebook": "None", "youtube": "None", "website": "None", "summary": "None", "logo": "None", "latitude": 43.14850925837028, "longitude": -80.26202572788945}, "119288918RR0581": {"name": "BRANTWOOD CONGREGATION OF JEHOVAH'S WITNESSES, BRANTFORD ONT", "designationCode": "C", "categoryCode": "61", "address": "80 COULBECK ROAD", "city": "BRANTFORD", "province": "ON", "country": "CA", "postalCode": "N3P1Z2", "twitter": "None", "instagram": "None", "facebook": "None", "youtube": "None", "website": "None", "summary": "None", "logo": "None", "latitude": 43.19251588649082, "longitude": -80.23526065719338}, "106807324RR0001": {"name": "BRANTWOOD RESIDENTIAL DEVELOPMENT CENTRE", "designationCode": "C", "categoryCode": "10", "address": "25 BELL LANE", "city": "BRANTFORD", "province": "ON", "country": "CA", "postalCode": "N3T1E1", "twitter": "None", "instagram": "None", "facebook": "None", "youtube": "None", "website": "None", "summary": "None", "logo": "None", "latitude": 43.126145033593666, "longitude": -80.28027349031927}, "892884164RR0001": {"name": "BRAS D'OR PRESERVATION NATURE TRUST", "designationCode": "C", "categoryCode": "52", "address": "532 CHEBUCTO ST               BOX 711", "city": "BADDECK", "province": "NS", "country": "CA", "postalCode": "B0E1B0", "twitter": "None", "instagram": "None", "facebook": "None", "youtube": "None", "website": "None", "summary": "None", "logo": "None", "latitude": 46.10097473659769, "longitude": -60.74817678781236}, "884704446RR0001": {"name": "BRAS VILLERAY", "designationCode": "C", "categoryCode": "09", "address": "660, RUE VILLERAY BUREAU 1.104", "city": "MONTR\u00c9AL", "province": "QC", "country": "CA", "postalCode": "H2R1J1", "twitter": "None", "instagram": "None", "facebook": "None", "youtube": "None", "website": "None", "summary": "None", "logo": "None", "latitude": 45.54332852316931, "longitude": -73.62167189589721}, "136358157RR0001": {"name": "BRASS BELL FAMILY RESOURCE CENTRE INC.", "designationCode": "C", "categoryCode": "09", "address": "RR 1 DORION LOOP ROAD", "city": "DORION", "province": "ON", "country": "CA", "postalCode": "P0T1K0", "twitter": "None", "instagram": "None", "facebook": "None", "youtube": "None", "website": "None", "summary": "None", "logo": "None", "latitude": 48.772458, "longitude": -88.56117558720523}, "130746993RR0001": {"name": "BRASSROOTS", "designationCode": "C", "categoryCode": "22", "address": "7 KILBIRNIE CRT", "city": "KITCHENER", "province": "ON", "country": "CA", "postalCode": "N2R1B7", "twitter": "None", "instagram": "None", "facebook": "None", "youtube": "None", "website": "None", "summary": "None", "logo": "None", "latitude": 43.38811456506448, "longitude": -80.45741489370415}, "888975992RR0001": {"name": "BRAVE-HEARTS RIDING CLUB", "designationCode": "C", "categoryCode": "56", "address": "19195 COUNTY RD 25", "city": "APPLE HILL", "province": "ON", "country": "CA", "postalCode": "K0C1B0", "twitter": "None", "instagram": "None", "facebook": "None", "youtube": "None", "website": "None", "summary": "None", "logo": "None", "latitude": 45.21435634139297, "longitude": -74.68551210739236}, "118817188RR0001": {"name": "BRAWN FOUNDATION", "designationCode": "B", "categoryCode": "53", "address": "2516 14A ST. S.W.", "city": "CALGARY", "province": "AB", "country": "CA", "postalCode": "T2T3X5", "twitter": "None", "instagram": "None", "facebook": "None", "youtube": "None", "website": "None", "summary": "None", "logo": "None", "latitude": 51.03158651457096, "longitude": -114.09585850124074}, "119103240RR0001": {"name": "BRAZIER STREET NURSERY SCHOOL INC.", "designationCode": "C", "categoryCode": "20", "address": "649 BRAZIER STREET", "city": "WINNIPEG", "province": "MB", "country": "CA", "postalCode": "R2K2N4", "twitter": "None", "instagram": "None", "facebook": "None", "youtube": "None", "website": "None", "summary": "None", "logo": "None", "latitude": 49.92244849789387, "longitude": -97.10247390541917}, "108074022RR0001": {"name": "BRAZIL LAKE WESLEYAN CHURCH", "designationCode": "C", "categoryCode": "39", "address": "919 BRAZIL LAKE RD", "city": "BRAZIL LAKE", "province": "NS", "country": "CA", "postalCode": "B5A5N3", "twitter": "None", "instagram": "None", "facebook": "None", "youtube": "None", "website": "None", "summary": "None", "logo": "None", "latitude": 43.98269976296963, "longitude": -66.00925648796786}, "890649064RR0001": {"name": "BREAD OF LIFE CENTRE", "designationCode": "C", "categoryCode": "09", "address": "3130 3RD AVE", "city": "PORT ALBERNI", "province": "BC", "country": "CA", "postalCode": "V9Y4C8", "twitter": "None", "instagram": "None", "facebook": "None", "youtube": "None", "website": "None", "summary": "None", "logo": "None", "latitude": 49.235083744854514, "longitude": -124.80762928580378}, "864484399RR0001": {"name": "BREAD OF LIFE CHRISTIAN CENTER IN MONTREAL", "designationCode": "C", "categoryCode": "39", "address": "6260 VICTORIA , SUITE 200", "city": "MONTREAL", "province": "QC", "country": "CA", "postalCode": "H3W2S3", "twitter": "None", "instagram": "None", "facebook": "None", "youtube": "None", "website": "None", "summary": "None", "logo": "None", "latitude": 45.49468790285078, "longitude": -73.63844226700898}, "864762935RR0001": {"name": "BREAD OF LIFE CHRISTIAN CHURCH IN RICHMOND LING-LEUNG WORLD-WIDE EVANGELISTIC MISSION", "designationCode": "C", "categoryCode": "39", "address": "100 - 5960 MINORU BLVD", "city": "RICHMOND", "province": "BC", "country": "CA", "postalCode": "V6X3J3", "twitter": "None", "instagram": "None", "facebook": "None", "youtube": "None", "website": "None", "summary": "None", "logo": "None", "latitude": 49.170932245628705, "longitude": -123.1402010232562}, "891853038RR0001": {"name": "BREAD OF LIFE CHRISTIAN CHURCH IN SURREY LING LEUNG WORLDWIDE EVANGELICAL MISSION", "designationCode": "C", "categoryCode": "39", "address": "116 13045 84 AVE.", "city": "SURREY", "province": "BC", "country": "CA", "postalCode": "V3W1B3", "twitter": "None", "instagram": "None", "facebook": "None", "youtube": "None", "website": "None", "summary": "None", "logo": "None", "latitude": 49.155507811978445, "longitude": -122.86103534803942}}