{"812537793RR0001": {"name": "Edmonton Logos Presbyterian Church", "designationCode": "C", "categoryCode": "37", "address": "PO BOX 88114 RPO RABBIT HILL", "city": "EDMONTON", "province": "AB", "country": "CA", "postalCode": "T6R0M5", "twitter": "None", "instagram": "None", "facebook": "None", "youtube": "None", "website": "None", "summary": "None", "logo": "None", "latitude": 53.44712266655038, "longitude": -113.5656225}, "106693047RR0053": {"name": "Edmonton Maranatha Seventh-day Adventist Church", "designationCode": "C", "categoryCode": "41", "address": "5816 HIGHWAY, 2A", "city": "LACOMBE", "province": "AB", "country": "CA", "postalCode": "T4L2G5", "twitter": "None", "instagram": "None", "facebook": "None", "youtube": "None", "website": "None", "summary": "None", "logo": "None", "latitude": 52.474063600197404, "longitude": -113.71692568401835}, "118893957RR0001": {"name": "Edmonton Mennonite Centre for Newcomers", "designationCode": "C", "categoryCode": "09", "address": "11713 82ST", "city": "EDMONTON", "province": "AB", "country": "CA", "postalCode": "T5B2V9", "twitter": "None", "instagram": "None", "facebook": "None", "youtube": "None", "website": "None", "summary": "None", "logo": "None", "latitude": 53.569213072162285, "longitude": -113.46728383619975}, "810647347RR0001": {"name": "Edmonton Metropolitan Chorus Society", "designationCode": "C", "categoryCode": "22", "address": "PO BOX 68028 BONNIE DOON", "city": "EDMONTON", "province": "AB", "country": "CA", "postalCode": "T6C4N6", "twitter": "None", "instagram": "None", "facebook": "None", "youtube": "None", "website": "None", "summary": "None", "logo": "None", "latitude": 53.52827000000008, "longitude": -113.47149999999999}, "106693047RR0043": {"name": "Edmonton Mill Woods Seventh-day Adventist Church", "designationCode": "C", "categoryCode": "41", "address": "5816 HIGHWAY, 2A", "city": "LACOMBE", "province": "AB", "country": "CA", "postalCode": "T4L2G5", "twitter": "None", "instagram": "None", "facebook": "None", "youtube": "None", "website": "None", "summary": "None", "logo": "None", "latitude": 52.474063600197404, "longitude": -113.71692568401835}, "106693047RR0050": {"name": "Edmonton North Seventh-day Adventist Church", "designationCode": "C", "categoryCode": "41", "address": "5816 HIGHWAY, 2A", "city": "LACOMBE", "province": "AB", "country": "CA", "postalCode": "T4L2G5", "twitter": "None", "instagram": "None", "facebook": "None", "youtube": "None", "website": "None", "summary": "None", "logo": "None", "latitude": 52.474063600197404, "longitude": -113.71692568401835}, "106693047RR0045": {"name": "Edmonton Renacer Spanish Seventh-day Adventist Church", "designationCode": "C", "categoryCode": "41", "address": "5816 HIGHWAY, 2A", "city": "LACOMBE", "province": "AB", "country": "CA", "postalCode": "T4L2G5", "twitter": "None", "instagram": "None", "facebook": "None", "youtube": "None", "website": "None", "summary": "None", "logo": "None", "latitude": 52.474063600197404, "longitude": -113.71692568401835}, "838160265RR0001": {"name": "Edmonton Rite to Learn Foundation", "designationCode": "C", "categoryCode": "09", "address": "10318-100 AVE NW", "city": "EDMONTON", "province": "AB", "country": "CA", "postalCode": "T5J0A2", "twitter": "None", "instagram": "None", "facebook": "None", "youtube": "None", "website": "None", "summary": "None", "logo": "None", "latitude": 53.538862471579236, "longitude": -113.49810047155059}, "808870463RR0001": {"name": "Edmonton Symphony & Concert Hall Foundation", "designationCode": "A", "categoryCode": "03", "address": "9720 102 AVE NW", "city": "EDMONTON", "province": "AB", "country": "CA", "postalCode": "T5J4B2", "twitter": "None", "instagram": "None", "facebook": "None", "youtube": "None", "website": "None", "summary": "None", "logo": "None", "latitude": 53.54367228561932, "longitude": -113.48764807550914}, "890629983RR0001": {"name": "Edmonton Violence Prevention Centre", "designationCode": "C", "categoryCode": "01", "address": "115 - 9303 34 AVE NW", "city": "EDMONTON", "province": "AB", "country": "CA", "postalCode": "T6E5W8", "twitter": "None", "instagram": "None", "facebook": "None", "youtube": "None", "website": "None", "summary": "None", "logo": "None", "latitude": 53.46643162258934, "longitude": -113.47710844889744}, "768683526RR0001": {"name": "Edmonton Vocal Alchemy Society", "designationCode": "C", "categoryCode": "22", "address": "PO BOX 2101 STN MAIN", "city": "EDMONTON", "province": "AB", "country": "CA", "postalCode": "T5J2P4", "twitter": "None", "instagram": "None", "facebook": "None", "youtube": "None", "website": "None", "summary": "None", "logo": "None", "latitude": 53.54623500000005, "longitude": -113.49037249999994}, "869967224RR0001": {"name": "Edmonton Young Voices Choral Society", "designationCode": "C", "categoryCode": "22", "address": "10037 84 AVE NW", "city": "EDMONTON", "province": "AB", "country": "CA", "postalCode": "T6E2G6", "twitter": "None", "instagram": "None", "facebook": "None", "youtube": "None", "website": "None", "summary": "None", "logo": "None", "latitude": 53.51996453952926, "longitude": -113.49075158381903}, "837490853RR0001": {"name": "Edna & Halvor Lunden Charitable Foundation", "designationCode": "B", "categoryCode": "05", "address": "2800 - 666 BURRARD ST", "city": "VANCOUVER", "province": "BC", "country": "CA", "postalCode": "V6C2Z7", "twitter": "None", "instagram": "None", "facebook": "None", "youtube": "None", "website": "None", "summary": "None", "logo": "None", "latitude": 49.28527682817835, "longitude": -123.11971421339973}, "811042845RR0001": {"name": "Edson Animal Rescue Society (EARS)", "designationCode": "C", "categoryCode": "54", "address": "PO BOX 7028 STN MAIN", "city": "EDSON", "province": "AB", "country": "CA", "postalCode": "T7E1V3", "twitter": "None", "instagram": "None", "facebook": "None", "youtube": "None", "website": "None", "summary": "None", "logo": "None", "latitude": 53.58212700000006, "longitude": -116.43412399999994}, "101580918RR0001": {"name": "Edson Friendship Centre", "designationCode": "C", "categoryCode": "56", "address": "13 5023-3RD AVE", "city": "EDSON", "province": "AB", "country": "CA", "postalCode": "T7E1X7", "twitter": "None", "instagram": "None", "facebook": "None", "youtube": "None", "website": "None", "summary": "None", "logo": "None", "latitude": 53.58207493308919, "longitude": -116.43224447833124}, "107283855RR0001": {"name": "Edson Playschool Association", "designationCode": "C", "categoryCode": "20", "address": "4529 8TH AVE                  PO BOX 7294", "city": "EDSON", "province": "AB", "country": "CA", "postalCode": "T7E1V5", "twitter": "None", "instagram": "None", "facebook": "None", "youtube": "None", "website": "None", "summary": "None", "logo": "None", "latitude": 53.59004930356512, "longitude": -116.42372184580302}, "816895569RR0001": {"name": "Edson Run of Hope Foundation", "designationCode": "A", "categoryCode": "13", "address": "1432 54 ST", "city": "EDSON", "province": "AB", "country": "CA", "postalCode": "T7E1H4", "twitter": "None", "instagram": "None", "facebook": "None", "youtube": "None", "website": "None", "summary": "None", "logo": "None", "latitude": 53.59201198917997, "longitude": -116.44370183490075}, "821175270RR0001": {"name": "Educate the Children", "designationCode": "C", "categoryCode": "20", "address": "3 ROSTHERNE CRES.", "city": "LONDON", "province": "ON", "country": "CA", "postalCode": "N6E1Y3", "twitter": "None", "instagram": "None", "facebook": "None", "youtube": "None", "website": "None", "summary": "None", "logo": "None", "latitude": 42.94111670719597, "longitude": -81.19980727280871}, "834075848RR0001": {"name": "Educate Orphans Nepal Charitable Trust", "designationCode": "C", "categoryCode": "21", "address": "34 COUGAR RIDGE LANDING SW", "city": "CALGARY", "province": "AB", "country": "CA", "postalCode": "T3H0X8", "twitter": "None", "instagram": "None", "facebook": "None", "youtube": "None", "website": "None", "summary": "None", "logo": "None", "latitude": 51.06615352369639, "longitude": -114.18840119731833}, "830802237RR0001": {"name": "Education in Action Society", "designationCode": "C", "categoryCode": "09", "address": "1250-1500 WEST GEORGIA STREET BOX 62", "city": "VANCOUVER", "province": "BC", "country": "CA", "postalCode": "V6G2Z6", "twitter": "None", "instagram": "None", "facebook": "None", "youtube": "None", "website": "None", "summary": "None", "logo": "None", "latitude": 49.290187500000016, "longitude": -123.130035}, "800827081RR0001": {"name": "Education 20/20 Inc.", "designationCode": "C", "categoryCode": "21", "address": "101 KENT ST                   BOX 624", "city": "CHARLOTTETOWN", "province": "PE", "country": "CA", "postalCode": "C1A1N3", "twitter": "None", "instagram": "None", "facebook": "None", "youtube": "None", "website": "None", "summary": "None", "logo": "None", "latitude": 46.23535726617227, "longitude": -63.129016094235034}, "809632607RR0001": {"name": "Education 4 Change", "designationCode": "C", "categoryCode": "20", "address": "468 ALBERT ST                 PO BOX 28035", "city": "WATERLOO", "province": "ON", "country": "CA", "postalCode": "N2L3V4", "twitter": "None", "instagram": "None", "facebook": "None", "youtube": "None", "website": "None", "summary": "None", "logo": "None", "latitude": 43.486140108834654, "longitude": -80.54115030766437}, "825855893RR0001": {"name": "Educational Foundation for Children'S Care Canada", "designationCode": "C", "categoryCode": "09", "address": "31 COOMER CRESCENT", "city": "AJAX", "province": "ON", "country": "CA", "postalCode": "L1T3C2", "twitter": "None", "instagram": "None", "facebook": "None", "youtube": "None", "website": "None", "summary": "None", "logo": "None", "latitude": 43.864497176265075, "longitude": -79.03073614530548}, "830520912RR0001": {"name": "EduAfrica", "designationCode": "C", "categoryCode": "21", "address": "505 BRAID ST", "city": "NEW WESTMINSTER", "province": "BC", "country": "CA", "postalCode": "V3L0C5", "twitter": "None", "instagram": "None", "facebook": "None", "youtube": "None", "website": "None", "summary": "None", "logo": "None", "latitude": 49.2325102228437, "longitude": -122.8954385765871}, "828682971RR0001": {"name": "Edward Ndlovu Community Libraries", "designationCode": "C", "categoryCode": "21", "address": "70 HARRISON ST", "city": "TORONTO", "province": "ON", "country": "CA", "postalCode": "M6J1Z9", "twitter": "None", "instagram": "None", "facebook": "None", "youtube": "None", "website": "None", "summary": "None", "logo": "None", "latitude": 43.65124308855089, "longitude": -79.41996740689014}, "834854200RR0001": {"name": "Edward Stern Family Foundation/Fondation familiale Edward Stern", "designationCode": "B", "categoryCode": "03", "address": "333 DECARIE BLVD. SUITE 500", "city": "MONTREAL", "province": "QC", "country": "CA", "postalCode": "H4N3M9", "twitter": "None", "instagram": "None", "facebook": "None", "youtube": "None", "website": "None", "summary": "None", "logo": "None", "latitude": 45.50709646951271, "longitude": -73.67068264853644}, "805002037RR0001": {"name": "Edwin and Velma Raggett Foundation", "designationCode": "B", "categoryCode": "05", "address": "1402 - 1 KING ST W", "city": "HAMILTON", "province": "ON", "country": "CA", "postalCode": "L8P1A4", "twitter": "None", "instagram": "None", "facebook": "None", "youtube": "None", "website": "None", "summary": "None", "logo": "None", "latitude": 43.26019321073324, "longitude": -79.88135629363086}, "878936426RR0001": {"name": "Edwin S. Richards Elementary School Parents Association", "designationCode": "C", "categoryCode": "21", "address": "33419 CHERRY AVENUE", "city": "MISSION", "province": "BC", "country": "CA", "postalCode": "V2V2V5", "twitter": "None", "instagram": "None", "facebook": "None", "youtube": "None", "website": "None", "summary": "None", "logo": "None", "latitude": 49.15465161165753, "longitude": -122.29903228650454}, "841048812RR0001": {"name": "Effie's Foundation of Wellness", "designationCode": "A", "categoryCode": "03", "address": "200 - 1127 17 AVE SW", "city": "CALGARY", "province": "AB", "country": "CA", "postalCode": "T2T0B6", "twitter": "None", "instagram": "None", "facebook": "None", "youtube": "None", "website": "None", "summary": "None", "logo": "None", "latitude": 51.037721168164346, "longitude": -114.08867633183564}, "118894740RR0001": {"name": "Eglinton Calvary Cross Church of the Apostolic Faith", "designationCode": "C", "categoryCode": "39", "address": "2528 EGLINGTON AVENUE WEST", "city": "TORONTO", "province": "ON", "country": "CA", "postalCode": "M6M1T1", "twitter": "None", "instagram": "None", "facebook": "None", "youtube": "None", "website": "None", "summary": "None", "logo": "None", "latitude": 43.691132125194635, "longitude": -79.47085906440064}, "800945008RR0001": {"name": "Eglinton Sickle Cell Foundation", "designationCode": "A", "categoryCode": "03", "address": "1828 EGLINTON AVENUE WEST", "city": "TORONTO", "province": "ON", "country": "CA", "postalCode": "M6E2H6", "twitter": "None", "instagram": "None", "facebook": "None", "youtube": "None", "website": "None", "summary": "None", "logo": "None", "latitude": 43.695730150729844, "longitude": -79.45014900611683}, "871430542RR0001": {"name": "Eglise de la Grace Church", "designationCode": "C", "categoryCode": "36", "address": "41 GIROUARDVILLE ROAD", "city": "BOUCTOUCHE", "province": "NB", "country": "CA", "postalCode": "E4S3G3", "twitter": "None", "instagram": "None", "facebook": "None", "youtube": "None", "website": "None", "summary": "None", "logo": "None", "latitude": 46.483685366697046, "longitude": -64.7322187174391}, "891779969RR0002": {"name": "Eglise v\u00e9rit\u00e9 et sagesse du Qu\u00e9bec", "designationCode": "C", "categoryCode": "39", "address": "1995 CHARLAND", "city": "MONTR\u00c9AL", "province": "QC", "country": "CA", "postalCode": "H1Z1A3", "twitter": "None", "instagram": "None", "facebook": "None", "youtube": "None", "website": "None", "summary": "None", "logo": "None", "latitude": 45.56619059645676, "longitude": -73.6435178519532}, "803144575RR0001": {"name": "Eglise Chr\u00e9tienne \u00e0 la Crois\u00e9e des Chemins de Montr\u00e9al", "designationCode": "C", "categoryCode": "39", "address": "8560 PASCAL-GAGNON", "city": "MONTR\u00c9AL", "province": "QC", "country": "CA", "postalCode": "H1P1Y9", "twitter": "None", "instagram": "None", "facebook": "None", "youtube": "None", "website": "None", "summary": "None", "logo": "None", "latitude": 45.60145795013585, "longitude": -73.58674679219126}, "800041121RR0001": {"name": "Eglise Des Rachetes de Jesus-Christ", "designationCode": "C", "categoryCode": "36", "address": "500 CENTRAL AVE", "city": "FORT ERIE", "province": "ON", "country": "CA", "postalCode": "L2A3V1", "twitter": "None", "instagram": "None", "facebook": "None", "youtube": "None", "website": "None", "summary": "None", "logo": "None", "latitude": 42.9260871498747, "longitude": -78.91870605559312}, "816993091RR0001": {"name": "Eglise Mont Sinai Canada", "designationCode": "B", "categoryCode": "39", "address": "390 MALONEY EST               C.P. 84 144", "city": "GATINEAU", "province": "QC", "country": "CA", "postalCode": "J8P7R8", "twitter": "None", "instagram": "None", "facebook": "None", "youtube": "None", "website": "None", "summary": "None", "logo": "None", "latitude": 45.48454650678067, "longitude": -75.64038044892955}, "107287732RR0001": {"name": "Eglise Unie St.-Paul de Namur", "designationCode": "C", "categoryCode": "44", "address": "1000, RUE DU CENTENAIRE", "city": "NAMUR", "province": "QC", "country": "CA", "postalCode": "J0V1N0", "twitter": "None", "instagram": "None", "facebook": "None", "youtube": "None", "website": "None", "summary": "None", "logo": "None", "latitude": 45.89529976934628, "longitude": -74.92792762406944}, "132004458RR0001": {"name": "Egmondville United Church", "designationCode": "C", "categoryCode": "44", "address": "105 KIPPEN RD", "city": "EGMONDVILLE", "province": "ON", "country": "CA", "postalCode": "N0K1G0", "twitter": "None", "instagram": "None", "facebook": "None", "youtube": "None", "website": "None", "summary": "None", "logo": "None", "latitude": 43.53676624505181, "longitude": -81.40747557516337}, "841059496RR0001": {"name": "Egon Baumann Music Foundation", "designationCode": "B", "categoryCode": "25", "address": "202 - 4430 CHATTERTON WAY", "city": "VICTORIA", "province": "BC", "country": "CA", "postalCode": "V8X5J2", "twitter": "None", "instagram": "None", "facebook": "None", "youtube": "None", "website": "None", "summary": "None", "logo": "None", "latitude": 48.488656474320535, "longitude": -123.38314741817153}, "839881174RR0001": {"name": "Egypt Cancer Network Canada", "designationCode": "C", "categoryCode": "11", "address": "3319 STALYBRIDGE DR", "city": "OAKVILLE", "province": "ON", "country": "CA", "postalCode": "L6M0L1", "twitter": "None", "instagram": "None", "facebook": "None", "youtube": "None", "website": "None", "summary": "None", "logo": "None", "latitude": 43.426329338334554, "longitude": -79.78354002943036}, "840139604RR0001": {"name": "Egyptian Community Centre of Ontario", "designationCode": "C", "categoryCode": "60", "address": "50 HEATHCOTE AVENUE", "city": "NORTH YORK", "province": "ON", "country": "CA", "postalCode": "M2L1Z1", "twitter": "None", "instagram": "None", "facebook": "None", "youtube": "None", "website": "None", "summary": "None", "logo": "None", "latitude": 43.753805840988946, "longitude": -79.37875848072584}, "837571918RR0001": {"name": "Ehatare Foundation", "designationCode": "A", "categoryCode": "03", "address": "40 OLD KINGSTON ROAD", "city": "TORONTO", "province": "ON", "country": "CA", "postalCode": "M1E3J5", "twitter": "None", "instagram": "None", "facebook": "None", "youtube": "None", "website": "None", "summary": "None", "logo": "None", "latitude": 43.7752538884527, "longitude": -79.18250659913978}, "856366463RR0001": {"name": "Eikon", "designationCode": "C", "categoryCode": "22", "address": "1250-1500 WEST GEORGIA ST,    BOX 62", "city": "VANCOUVER", "province": "BC", "country": "CA", "postalCode": "V6G2Z6", "twitter": "None", "instagram": "None", "facebook": "None", "youtube": "None", "website": "None", "summary": "None", "logo": "None", "latitude": 49.290187500000016, "longitude": -123.130035}, "832676050RR0001": {"name": "Eitz Chaim Messianic Fellowship", "designationCode": "C", "categoryCode": "39", "address": "656 NELSON ST", "city": "LONDON", "province": "ON", "country": "CA", "postalCode": "N5Z1J5", "twitter": "None", "instagram": "None", "facebook": "None", "youtube": "None", "website": "None", "summary": "None", "logo": "None", "latitude": 42.978298964769934, "longitude": -81.22509990550515}, "734030125RR0001": {"name": "Eizer Meshilem Feish Association Association Eizer Meshilem Feish", "designationCode": "B", "categoryCode": "09", "address": "11 RUE BETH-HALEVY", "city": "BOISBRIAND", "province": "QC", "country": "CA", "postalCode": "J7E4H4", "twitter": "None", "instagram": "None", "facebook": "None", "youtube": "None", "website": "None", "summary": "None", "logo": "None", "latitude": 45.61404744240869, "longitude": -73.87133537246811}, "856859848RR0001": {"name": "Ekiti Kete Canada Inc. (Relief Services)", "designationCode": "C", "categoryCode": "09", "address": "2036 WESTON ROAD", "city": "WESTON", "province": "ON", "country": "CA", "postalCode": "M9N1X4", "twitter": "None", "instagram": "None", "facebook": "None", "youtube": "None", "website": "None", "summary": "None", "logo": "None", "latitude": 43.70146893698433, "longitude": -79.5211167932367}, "849290937RR0001": {"name": "Ekklesia Kingdom Ministries", "designationCode": "B", "categoryCode": "39", "address": "7 - 3745 FONDA WAY SE", "city": "CALGARY", "province": "AB", "country": "CA", "postalCode": "T2A5W7", "twitter": "None", "instagram": "None", "facebook": "None", "youtube": "None", "website": "None", "summary": "None", "logo": "None", "latitude": 51.05106507022902, "longitude": -113.97845093825374}, "852634450RR0001": {"name": "Ekklesia Millennium Society", "designationCode": "C", "categoryCode": "39", "address": "4-2220 2ND ST S", "city": "CRANBROOK", "province": "BC", "country": "CA", "postalCode": "V1C1E1", "twitter": "None", "instagram": "None", "facebook": "None", "youtube": "None", "website": "None", "summary": "None", "logo": "None", "latitude": 49.50850546826102, "longitude": -115.75024035498296}, "894891811RR0001": {"name": "El Bethel Ministries in Christ", "designationCode": "C", "categoryCode": "39", "address": "19 DAVOS ROAD", "city": "VAUGHAN", "province": "ON", "country": "CA", "postalCode": "L4H0P4", "twitter": "None", "instagram": "None", "facebook": "None", "youtube": "None", "website": "None", "summary": "None", "logo": "None", "latitude": 43.834191853165294, "longitude": -79.55926639563741}, "836193227RR0001": {"name": "El Bethel Miracle Gospel Church", "designationCode": "C", "categoryCode": "36", "address": "312 CORONATION DR", "city": "SCARBOROUGH", "province": "ON", "country": "CA", "postalCode": "M1E2J8", "twitter": "None", "instagram": "None", "facebook": "None", "youtube": "None", "website": "None", "summary": "None", "logo": "None", "latitude": 43.76381110687275, "longitude": -79.17666812268445}, "829121110RR0001": {"name": "El Hogar Projects (Canada)", "designationCode": "C", "categoryCode": "01", "address": "454 HEATH ST E", "city": "TORONTO", "province": "ON", "country": "CA", "postalCode": "M4G1B7", "twitter": "None", "instagram": "None", "facebook": "None", "youtube": "None", "website": "None", "summary": "None", "logo": "None", "latitude": 43.69548545599869, "longitude": -79.36998320249278}, "855021911RR0001": {"name": "El Renacer Pentecostal Church", "designationCode": "C", "categoryCode": "36", "address": "6-104 58 AVE SE", "city": "CALGARY", "province": "AB", "country": "CA", "postalCode": "T2H0N7", "twitter": "None", "instagram": "None", "facebook": "None", "youtube": "None", "website": "None", "summary": "None", "logo": "None", "latitude": 51.001377525967925, "longitude": -114.06383232514858}, "831641097RR0001": {"name": "El Roee Full Gospel Church", "designationCode": "C", "categoryCode": "39", "address": "205 - 1450 MIDLAND AVE", "city": "SCARBOROUGH", "province": "ON", "country": "CA", "postalCode": "M1P4Z8", "twitter": "None", "instagram": "None", "facebook": "None", "youtube": "None", "website": "None", "summary": "None", "logo": "None", "latitude": 43.75232271856428, "longitude": -79.2653440422123}, "826970196RR0001": {"name": "El Sistema South London", "designationCode": "C", "categoryCode": "22", "address": "UNIT 5  455 HYDE PARK ROAD", "city": "LONDON", "province": "ON", "country": "CA", "postalCode": "N6H3R9", "twitter": "None", "instagram": "None", "facebook": "None", "youtube": "None", "website": "None", "summary": "None", "logo": "None", "latitude": 42.96626238273989, "longitude": -81.31567289534895}, "818565285RR0001": {"name": "Eldee Community Church", "designationCode": "C", "categoryCode": "39", "address": "299 HIGHWAY 63,", "city": "ELDEE", "province": "ON", "country": "CA", "postalCode": "P0H2J0", "twitter": "None", "instagram": "None", "facebook": "None", "youtube": "None", "website": "None", "summary": "None", "logo": "None", "latitude": 46.4044294345908, "longitude": -79.2304058481138}, "889000790RR0001": {"name": "Elder Abuse Ontario", "designationCode": "C", "categoryCode": "09", "address": "306 - 2 BILLINGHAM RD", "city": "ETOBICOKE", "province": "ON", "country": "CA", "postalCode": "M9B6E1", "twitter": "None", "instagram": "None", "facebook": "None", "youtube": "None", "website": "None", "summary": "None", "logo": "None", "latitude": 43.630912100467455, "longitude": -79.54937378492683}, "871074464RR0001": {"name": "Elder Abuse Prevention Muskoka", "designationCode": "C", "categoryCode": "09", "address": "P.O. BOX 156", "city": "BRACEBRIDGE", "province": "ON", "country": "CA", "postalCode": "P1L1T6", "twitter": "None", "instagram": "None", "facebook": "None", "youtube": "None", "website": "None", "summary": "None", "logo": "None", "latitude": 45.055572000000055, "longitude": -79.28863099999994}, "807124813RR0001": {"name": "Elder Technology Assistance Group", "designationCode": "C", "categoryCode": "20", "address": "16 WILBUR ST N", "city": "ACTON", "province": "ON", "country": "CA", "postalCode": "L7J2C4", "twitter": "None", "instagram": "None", "facebook": "None", "youtube": "None", "website": "None", "summary": "None", "logo": "None", "latitude": 43.63337458061639, "longitude": -80.03831707397994}, "834477184RR0001": {"name": "Eldercare Foundation of Canada", "designationCode": "A", "categoryCode": "03", "address": "203 - 1327A WELLINGTON ST W", "city": "OTTAWA", "province": "ON", "country": "CA", "postalCode": "K1Y3B6", "twitter": "None", "instagram": "None", "facebook": "None", "youtube": "None", "website": "None", "summary": "None", "logo": "None", "latitude": 45.398753005867135, "longitude": -75.7368118087277}, "801315474RR0001": {"name": "Elders in Community Foundation", "designationCode": "C", "categoryCode": "09", "address": "BOX 62, 1250-1500 W GEORGIA STREET", "city": "VANCOUVER", "province": "BC", "country": "CA", "postalCode": "V6G2Z6", "twitter": "None", "instagram": "None", "facebook": "None", "youtube": "None", "website": "None", "summary": "None", "logo": "None", "latitude": 49.29013479542975, "longitude": -123.1300069287031}, "863788972RR0001": {"name": "Elders Council for Parks in British Columbia", "designationCode": "C", "categoryCode": "52", "address": "1620 MOUNT SEYMOUR ROAD", "city": "NORTH VANCOUVER", "province": "BC", "country": "CA", "postalCode": "V7G2R9", "twitter": "None", "instagram": "None", "facebook": "None", "youtube": "None", "website": "None", "summary": "None", "logo": "None", "latitude": 49.321756384787285, "longitude": -122.96915443562372}, "832404057RR0001": {"name": "ElderDog Canada Inc.", "designationCode": "C", "categoryCode": "01", "address": "907 FELTZEN SOUTH ROAD        RURAL ROUTE 1", "city": "ROSE BAY", "province": "NS", "country": "CA", "postalCode": "B0J2X0", "twitter": "None", "instagram": "None", "facebook": "None", "youtube": "None", "website": "None", "summary": "None", "logo": "None"}, "854875994RR0001": {"name": "Eleanor Pickup Arts Centre", "designationCode": "C", "categoryCode": "22", "address": "POST OFFICE BOX 7673", "city": "DRAYTON VALLEY", "province": "AB", "country": "CA", "postalCode": "T7A1B4", "twitter": "None", "instagram": "None", "facebook": "None", "youtube": "None", "website": "None", "summary": "None", "logo": "None", "latitude": 53.22531300000006, "longitude": -114.96558949999994}, "804057461RR0001": {"name": "Elect of God Ministries Inc.", "designationCode": "C", "categoryCode": "39", "address": "409 - 245 FAIRVIEW MALL DR", "city": "NORTH YORK", "province": "ON", "country": "CA", "postalCode": "M2J4T1", "twitter": "None", "instagram": "None", "facebook": "None", "youtube": "None", "website": "None", "summary": "None", "logo": "None", "latitude": 43.77982810225637, "longitude": -79.34300738857422}, "813778826RR0001": {"name": "Elementary Literacy Inc./L'Alphab\u00e9tisation au Primaire Inc.", "designationCode": "C", "categoryCode": "21", "address": "210 CROWN STREET              POST OFFICE BOX 2350", "city": "SAINT JOHN", "province": "NB", "country": "CA", "postalCode": "E2L3V8", "twitter": "None", "instagram": "None", "facebook": "None", "youtube": "None", "website": "None", "summary": "None", "logo": "None", "latitude": 45.27686493533955, "longitude": -66.05086121951658}, "106830078RR0001": {"name": "Elements Calgary Mental Health Centre", "designationCode": "C", "categoryCode": "59", "address": "1019 7 AVE SW", "city": "CALGARY", "province": "AB", "country": "CA", "postalCode": "T2P1A8", "twitter": "None", "instagram": "None", "facebook": "None", "youtube": "None", "website": "None", "summary": "None", "logo": "None", "latitude": 51.047097477350306, "longitude": -114.08467436081135}, "876343708RR0001": {"name": "Elements Society for Environmental Education and Leadership (ELEMENTS)", "designationCode": "C", "categoryCode": "29", "address": "220 - 145 CHADWICK CRT", "city": "NORTH VANCOUVER", "province": "BC", "country": "CA", "postalCode": "V7M3K2", "twitter": "None", "instagram": "None", "facebook": "None", "youtube": "None", "website": "None", "summary": "None", "logo": "None", "latitude": 49.3107484486418, "longitude": -123.08373079299793}, "856380159RR0001": {"name": "Eleos Centre Ministries", "designationCode": "C", "categoryCode": "39", "address": "810 TENTH ST", "city": "NELSON", "province": "BC", "country": "CA", "postalCode": "V1L3C7", "twitter": "None", "instagram": "None", "facebook": "None", "youtube": "None", "website": "None", "summary": "None", "logo": "None", "latitude": 49.505892225878206, "longitude": -117.26885245896746}, "770668523RR0001": {"name": "Elevate Church Edmonton", "designationCode": "C", "categoryCode": "39", "address": "38 CAVAN RD", "city": "SHERWOOD PARK", "province": "AB", "country": "CA", "postalCode": "T8H2K7", "twitter": "None", "instagram": "None", "facebook": "None", "youtube": "None", "website": "None", "summary": "None", "logo": "None", "latitude": 53.54354641326677, "longitude": -113.27042975815085}, "825509482RR0001": {"name": "Elevation Church Canada (Est 2012)", "designationCode": "C", "categoryCode": "39", "address": "E - 1980 MATHESON BLVD E", "city": "MISSISSAUGA", "province": "ON", "country": "CA", "postalCode": "L4W5N3", "twitter": "None", "instagram": "None", "facebook": "None", "youtube": "None", "website": "None", "summary": "None", "logo": "None", "latitude": 43.65038922681591, "longitude": -79.61920135258744}, "830625018RR0001": {"name": "Elevation Outdoor Experiential Programs Association", "designationCode": "C", "categoryCode": "09", "address": "PO BOX 20071 RPO TOWNE CENTRE", "city": "KELOWNA", "province": "BC", "country": "CA", "postalCode": "V1Y9H2", "twitter": "None", "instagram": "None", "facebook": "None", "youtube": "None", "website": "None", "summary": "None", "logo": "None", "latitude": 49.886279922817444, "longitude": -119.49080999999995}, "827845389RR0001": {"name": "Elgin Community Mental Health Foundation", "designationCode": "A", "categoryCode": "13", "address": "110 CENTRE ST", "city": "ST THOMAS", "province": "ON", "country": "CA", "postalCode": "N5R2Z9", "twitter": "None", "instagram": "None", "facebook": "None", "youtube": "None", "website": "None", "summary": "None", "logo": "None", "latitude": 42.777900546742615, "longitude": -81.20013277990651}, "831990031RR0001": {"name": "Eli's Place Residential Treatment and Transition Centre", "designationCode": "C", "categoryCode": "11", "address": "2 EDITH DRIVE                 SUITE 703", "city": "TORONTO", "province": "ON", "country": "CA", "postalCode": "M4R2H7", "twitter": "None", "instagram": "None", "facebook": "None", "youtube": "None", "website": "None", "summary": "None", "logo": "None", "latitude": 43.706098519562616, "longitude": -79.40288510188108}, "107293656RR0001": {"name": "Elim Church Saskatoon Inc.", "designationCode": "C", "categoryCode": "36", "address": "419 SLIMMON ROAD", "city": "SASKATOON", "province": "SK", "country": "CA", "postalCode": "S7V0E3", "twitter": "None", "instagram": "None", "facebook": "None", "youtube": "None", "website": "None", "summary": "None", "logo": "None", "latitude": 52.09938970725331, "longitude": -106.56066390931339}, "837687615RR0001": {"name": "Elim Pentecostal Church", "designationCode": "C", "categoryCode": "39", "address": "12 YUKON LANE", "city": "BRAMPTON", "province": "ON", "country": "CA", "postalCode": "L6P1L5", "twitter": "None", "instagram": "None", "facebook": "None", "youtube": "None", "website": "None", "summary": "None", "logo": "None", "latitude": 43.776102646402, "longitude": -79.73471674121396}, "811245588RR0001": {"name": "Elim Worship Tabernacle", "designationCode": "B", "categoryCode": "39", "address": "11490 141A ST", "city": "SURREY", "province": "BC", "country": "CA", "postalCode": "V3R3K2", "twitter": "None", "instagram": "None", "facebook": "None", "youtube": "None", "website": "None", "summary": "None", "logo": "None", "latitude": 49.21170950652087, "longitude": -122.82994420869652}, "828374314RR0001": {"name": "Elimu Development Projects", "designationCode": "C", "categoryCode": "09", "address": "P.O. BOX 4765", "city": "OTTAWA", "province": "ON", "country": "CA", "postalCode": "K1S5H9", "twitter": "None", "instagram": "None", "facebook": "None", "youtube": "None", "website": "None", "summary": "None", "logo": "None", "latitude": 45.42177300000006, "longitude": -75.69115999999994}, "816596431RR0001": {"name": "Elisha Prayer Healing House", "designationCode": "C", "categoryCode": "39", "address": "368 ELLERSLIE AVENUE", "city": "TORONTO", "province": "ON", "country": "CA", "postalCode": "M2R1B9", "twitter": "None", "instagram": "None", "facebook": "None", "youtube": "None", "website": "None", "summary": "None", "logo": "None", "latitude": 43.76728315794319, "longitude": -79.43269906440064}, "107294399RR0001": {"name": "Elizabeth Fry Society Southern Ontario Region", "designationCode": "C", "categoryCode": "59", "address": "203 - 987 KING ST E", "city": "HAMILTON", "province": "ON", "country": "CA", "postalCode": "L8M1C6", "twitter": "None", "instagram": "None", "facebook": "None", "youtube": "None", "website": "None", "summary": "None", "logo": "None", "latitude": 43.25104493923469, "longitude": -79.83464628475394}, "807354907RR0001": {"name": "Elk Point and Area Victim Services Society", "designationCode": "C", "categoryCode": "09", "address": "PO BOX 218", "city": "ELK POINT", "province": "AB", "country": "CA", "postalCode": "T0A1A0", "twitter": "None", "instagram": "None", "facebook": "None", "youtube": "None", "website": "None", "summary": "None", "logo": "None", "latitude": 54.815265, "longitude": -111.92067675}, "822570479RR0001": {"name": "Elk Point Regional Allied Arts Society", "designationCode": "C", "categoryCode": "56", "address": "PO BOX 255", "city": "ELK POINT", "province": "AB", "country": "CA", "postalCode": "T0A1A0", "twitter": "None", "instagram": "None", "facebook": "None", "youtube": "None", "website": "None", "summary": "None", "logo": "None", "latitude": 54.815265, "longitude": -111.92067675}, "801564865RR0001": {"name": "Elk Ridge Community Church Inc.", "designationCode": "C", "categoryCode": "39", "address": "PO BOX 130", "city": "WASKESIU LAKE", "province": "SK", "country": "CA", "postalCode": "S0J2Y0", "twitter": "None", "instagram": "None", "facebook": "None", "youtube": "None", "website": "None", "summary": "None", "logo": "None", "latitude": 53.93053497028967, "longitude": -106.07601754372335}, "844181610RR0001": {"name": "Ellerington Education Foundation", "designationCode": "A", "categoryCode": "03", "address": "1165 - 5328 CALGARY TRAIL NW", "city": "EDMONTON", "province": "AB", "country": "CA", "postalCode": "T6H4J8", "twitter": "None", "instagram": "None", "facebook": "None", "youtube": "None", "website": "None", "summary": "None", "logo": "None", "latitude": 53.49051727661132, "longitude": -113.49512984681397}, "805579232RR0001": {"name": "Elliot Lake's Roundabout Exceptional Puppeteers", "designationCode": "C", "categoryCode": "59", "address": "6 MACFARLANE ROAD", "city": "ELLIOT LAKE", "province": "ON", "country": "CA", "postalCode": "P5A1L1", "twitter": "None", "instagram": "None", "facebook": "None", "youtube": "None", "website": "None", "summary": "None", "logo": "None", "latitude": 46.37491174909117, "longitude": -82.65497385126072}, "822624821RR0001": {"name": "Elliott House", "designationCode": "C", "categoryCode": "57", "address": "RR2-15455 MUIRKIRK LINE", "city": "MUIRKIRK", "province": "ON", "country": "CA", "postalCode": "N0L1X0", "twitter": "None", "instagram": "None", "facebook": "None", "youtube": "None", "website": "None", "summary": "None", "logo": "None", "latitude": 42.52118280379696, "longitude": -81.76560621429377}, "132192295RR0001": {"name": "Elm Creek Mennonite Brethren Church", "designationCode": "C", "categoryCode": "34", "address": "BOX 104", "city": "ELM CREEK", "province": "MB", "country": "CA", "postalCode": "R0G0N0", "twitter": "None", "instagram": "None", "facebook": "None", "youtube": "None", "website": "None", "summary": "None", "logo": "None", "latitude": 49.19148365941253, "longitude": -97.76211492346253}, "769756891RR0001": {"name": "Elmvale & District Food Bank", "designationCode": "C", "categoryCode": "09", "address": "35 QUEEN STREET WEST, UNIT B", "city": "ELMVALE", "province": "ON", "country": "CA", "postalCode": "L0L1P0", "twitter": "None", "instagram": "None", "facebook": "None", "youtube": "None", "website": "None", "summary": "None", "logo": "None", "latitude": 44.58290498439798, "longitude": -79.86758380440976}, "848266193RR0001": {"name": "Elmvale Foundation", "designationCode": "B", "categoryCode": "23", "address": "9844 85 AVENUE NW", "city": "EDMONTON", "province": "AB", "country": "CA", "postalCode": "T6E2J6", "twitter": "None", "instagram": "None", "facebook": "None", "youtube": "None", "website": "None", "summary": "None", "logo": "None", "latitude": 53.52095452596792, "longitude": -113.484942}, "826237059RR0001": {"name": "Elnora and District Museum", "designationCode": "C", "categoryCode": "50", "address": "PO BOX 573", "city": "ELNORA", "province": "AB", "country": "CA", "postalCode": "T0M0Y0", "twitter": "None", "instagram": "None", "facebook": "None", "youtube": "None", "website": "None", "summary": "None", "logo": "None", "latitude": 51.98342000000008, "longitude": -113.20191999999997}, "857396741RR0001": {"name": "Elnora Public Library", "designationCode": "C", "categoryCode": "50", "address": "PO BOX 750", "city": "ELNORA", "province": "AB", "country": "CA", "postalCode": "T0M0Y0", "twitter": "None", "instagram": "None", "facebook": "None", "youtube": "None", "website": "None", "summary": "None", "logo": "None", "latitude": 51.98342000000008, "longitude": -113.20191999999997}, "788634699RR0001": {"name": "Elpida Autism Foundation", "designationCode": "B", "categoryCode": "13", "address": "78 HEATHERWOOD CRESCENT", "city": "UNIONVILLE", "province": "ON", "country": "CA", "postalCode": "L3R8V5", "twitter": "None", "instagram": "None", "facebook": "None", "youtube": "None", "website": "None", "summary": "None", "logo": "None", "latitude": 43.874033249235396, "longitude": -79.30348827451081}, "811430487RR0001": {"name": "Elrose ABC Family Centre Inc.", "designationCode": "C", "categoryCode": "20", "address": "POST OFFICE BOX 123", "city": "ELROSE", "province": "SK", "country": "CA", "postalCode": "S0L0Z0", "twitter": "None", "instagram": "None", "facebook": "None", "youtube": "None", "website": "None", "summary": "None", "logo": "None", "latitude": 51.20151000000004, "longitude": -108.02729999999997}, "832050447RR0001": {"name": "Els For Autism Canada", "designationCode": "C", "categoryCode": "11", "address": "65 ROBINHOOD DR", "city": "DUNDAS", "province": "ON", "country": "CA", "postalCode": "L9H4G2", "twitter": "None", "instagram": "None", "facebook": "None", "youtube": "None", "website": "None", "summary": "None", "logo": "None", "latitude": 43.25505956116935, "longitude": -79.95546405412887}, "807712708RR0001": {"name": "Emajjin Children's Foundation", "designationCode": "A", "categoryCode": "03", "address": "372 DYSON RD", "city": "PICKERING", "province": "ON", "country": "CA", "postalCode": "L1W2M9", "twitter": "None", "instagram": "None", "facebook": "None", "youtube": "None", "website": "None", "summary": "None", "logo": "None", "latitude": 43.79845566082874, "longitude": -79.11880771859295}, "819024324RR0001": {"name": "Eman Spirit Association", "designationCode": "C", "categoryCode": "60", "address": "812 LEACOCK WAY", "city": "LONDON", "province": "ON", "country": "CA", "postalCode": "N6G5N4", "twitter": "None", "instagram": "None", "facebook": "None", "youtube": "None", "website": "None", "summary": "None", "logo": "None", "latitude": 43.004141946448065, "longitude": -81.32251818971083}, "852497205RR0001": {"name": "Emblaze Training Association", "designationCode": "C", "categoryCode": "47", "address": "3759 BRADNER RD", "city": "ABBOTSFORD", "province": "BC", "country": "CA", "postalCode": "V4X1M9", "twitter": "None", "instagram": "None", "facebook": "None", "youtube": "None", "website": "None", "summary": "None", "logo": "None", "latitude": 49.07078353717097, "longitude": -122.4257927874456}, "119288918RR1648": {"name": "Embleton Congregation of Jehovah's Witnesses, Brampton, Ontario", "designationCode": "C", "categoryCode": "61", "address": "1644 CASABLANCA CIR", "city": "MISSISSAUGA", "province": "ON", "country": "CA", "postalCode": "L5N8G2", "twitter": "None", "instagram": "None", "facebook": "None", "youtube": "None", "website": "None", "summary": "None", "logo": "None", "latitude": 43.620432611979986, "longitude": -79.75282340853491}, "842153686RR0001": {"name": "Embley Park Foundation", "designationCode": "B", "categoryCode": "03", "address": "2 BLOOR STREET EAST           SUITE 2102", "city": "TORONTO", "province": "ON", "country": "CA", "postalCode": "M4W1A8", "twitter": "None", "instagram": "None", "facebook": "None", "youtube": "None", "website": "None", "summary": "None", "logo": "None", "latitude": 43.670545165156554, "longitude": -79.38540856440065}, "843724105RR0001": {"name": "Embrace A Discarded Animal Society", "designationCode": "C", "categoryCode": "54", "address": "12340 57A AVENUE", "city": "SURREY", "province": "BC", "country": "CA", "postalCode": "V3X3H3", "twitter": "None", "instagram": "None", "facebook": "None", "youtube": "None", "website": "None", "summary": "None", "logo": "None", "latitude": 49.10733747071386, "longitude": -122.88202985789715}, "712638899RR0001": {"name": "Embrace International Foundation", "designationCode": "A", "categoryCode": "03", "address": "6 CANYON ROAD", "city": "CANMORE", "province": "AB", "country": "CA", "postalCode": "T1W1G3", "twitter": "None", "instagram": "None", "facebook": "None", "youtube": "None", "website": "None", "summary": "None", "logo": "None", "latitude": 51.08638000167344, "longitude": -115.32491536721665}}