{"830790630RR0001": {"name": "Audain Art Museum Foundation", "designationCode": "A", "categoryCode": "03", "address": "900 - 1333 BROADWAY W", "city": "VANCOUVER", "province": "BC", "country": "CA", "postalCode": "V6H4C2", "twitter": "None", "instagram": "None", "facebook": "None", "youtube": "None", "website": "None", "summary": "None", "logo": "None", "latitude": 49.2636048443685, "longitude": -123.13446441433003}, "118796465RR0001": {"name": "Audioth\u00e8que L'Oreille qui lit", "designationCode": "C", "categoryCode": "59", "address": "4765 1ERE AVENUE, SUITE 210", "city": "CHARLESBOURG", "province": "QC", "country": "CA", "postalCode": "G1H2T3", "twitter": "None", "instagram": "None", "facebook": "None", "youtube": "None", "website": "None", "summary": "None", "logo": "None", "latitude": 46.845665708004034, "longitude": -71.25221754584764}, "120052741RR0001": {"name": "Audition Qu\u00e9bec", "designationCode": "C", "categoryCode": "09", "address": "1-1951 BOUL DE MAISONNEUVE E", "city": "MONTREAL", "province": "QC", "country": "CA", "postalCode": "H2K2C9", "twitter": "None", "instagram": "None", "facebook": "None", "youtube": "None", "website": "None", "summary": "None", "logo": "None", "latitude": 45.527235768568914, "longitude": -73.55006511807181}, "845473453RR0001": {"name": "Audrey's Place Foundation", "designationCode": "C", "categoryCode": "03", "address": "130 KING ST. W. 20TH FLOOR    BOX 430,STN 1ST CANADIAN PLACE", "city": "TORONTO", "province": "ON", "country": "CA", "postalCode": "M5X1K1", "twitter": "None", "instagram": "None", "facebook": "None", "youtube": "None", "website": "None", "summary": "None", "logo": "None", "latitude": 43.64826932503962, "longitude": -79.38190945606182}, "858739816RR0001": {"name": "Augustfest Brandon Incorporated", "designationCode": "C", "categoryCode": "22", "address": "308 FIFTEENTH STREET", "city": "BRANDON", "province": "MB", "country": "CA", "postalCode": "R7A4V9", "twitter": "None", "instagram": "None", "facebook": "None", "youtube": "None", "website": "None", "summary": "None", "logo": "None", "latitude": 49.845068497085805, "longitude": -99.95830258454018}, "818163891RR0001": {"name": "Augustinian Contemplative Nuns Society", "designationCode": "C", "categoryCode": "46", "address": "940 MONASTERY ROAD", "city": "MONASTERY", "province": "NS", "country": "CA", "postalCode": "B0H1W0", "twitter": "None", "instagram": "None", "facebook": "None", "youtube": "None", "website": "None", "summary": "None", "logo": "None", "latitude": 45.603024339979335, "longitude": -61.63317575064996}, "841606155RR0001": {"name": "Aum\u00f4nerie communautaire des r\u00e9gions", "designationCode": "C", "categoryCode": "59", "address": "180 RUE PRINCIPALE            2I\u00c8ME \u00c9TAGE", "city": "GRANBY", "province": "QC", "country": "CA", "postalCode": "J2G2V6", "twitter": "None", "instagram": "None", "facebook": "None", "youtube": "None", "website": "None", "summary": "None", "logo": "None", "latitude": 45.39997364360338, "longitude": -72.7269422251138}, "896832946RR0001": {"name": "Aum\u00f4nerie Communautaire de Montr\u00e9al Inc.", "designationCode": "C", "categoryCode": "59", "address": "2745 AV CHARLEMAGNE", "city": "MONTREAL", "province": "QC", "country": "CA", "postalCode": "H1W3T1", "twitter": "None", "instagram": "None", "facebook": "None", "youtube": "None", "website": "None", "summary": "None", "logo": "None", "latitude": 45.55272385152052, "longitude": -73.55335343935026}, "845142173RR0001": {"name": "Aunt Leah's Foundation", "designationCode": "A", "categoryCode": "03", "address": "1250-1500 WEST GEORGIA STREET POST OFFICE BOX 62", "city": "VANCOUVER", "province": "BC", "country": "CA", "postalCode": "V6G2Z6", "twitter": "None", "instagram": "None", "facebook": "None", "youtube": "None", "website": "None", "summary": "None", "logo": "None", "latitude": 49.290187500000016, "longitude": -123.130035}, "803347731RR0001": {"name": "Aura Freedom International", "designationCode": "C", "categoryCode": "09", "address": "210 - 7 EDMUND AVE", "city": "TORONTO", "province": "ON", "country": "CA", "postalCode": "M4V1H2", "twitter": "None", "instagram": "None", "facebook": "None", "youtube": "None", "website": "None", "summary": "None", "logo": "None", "latitude": 43.68222475823776, "longitude": -79.40085479211153}, "845475177RR0001": {"name": "Aurora Foundation", "designationCode": "B", "categoryCode": "03", "address": "1250-1500 GEORGIA ST W        PO BOX 62", "city": "VANCOUVER", "province": "BC", "country": "CA", "postalCode": "V6G2Z6", "twitter": "None", "instagram": "None", "facebook": "None", "youtube": "None", "website": "None", "summary": "None", "logo": "None", "latitude": 49.29013479542975, "longitude": -123.1300069287031}, "119288918RR1663": {"name": "Aurora Park Tagalog Congregation of Jehovah's Witnesses, Calgary, Alberta", "designationCode": "C", "categoryCode": "61", "address": "4318-240 SKYVIEW RANCH RD", "city": "CALGARY", "province": "AB", "country": "CA", "postalCode": "T3N0P4", "twitter": "None", "instagram": "None", "facebook": "None", "youtube": "None", "website": "None", "summary": "None", "logo": "None", "latitude": 51.16295578519843, "longitude": -113.95520511566059}, "795720127RR0001": {"name": "Ausome Canada", "designationCode": "C", "categoryCode": "11", "address": "514 MELBOURNE AVENUE", "city": "OTTAWA", "province": "ON", "country": "CA", "postalCode": "K2A1W5", "twitter": "None", "instagram": "None", "facebook": "None", "youtube": "None", "website": "None", "summary": "None", "logo": "None", "latitude": 45.387554741877814, "longitude": -75.753379753419}, "119093599RR0001": {"name": "Austin Gospel Hall", "designationCode": "C", "categoryCode": "39", "address": "BOX 151", "city": "AUSTIN", "province": "MB", "country": "CA", "postalCode": "R0H0C0", "twitter": "None", "instagram": "None", "facebook": "None", "youtube": "None", "website": "None", "summary": "None", "logo": "None", "latitude": 49.95037000000008, "longitude": -98.93634999999995}, "765947726RR0001": {"name": "Ausum Charity for Autism", "designationCode": "C", "categoryCode": "09", "address": "76 BREMEN LANE", "city": "MISSISSAUGA", "province": "ON", "country": "CA", "postalCode": "L5M2N5", "twitter": "None", "instagram": "None", "facebook": "None", "youtube": "None", "website": "None", "summary": "None", "logo": "None", "latitude": 43.57425862057833, "longitude": -79.71045464337226}, "832386635RR0001": {"name": "Autism in Mind (AIM) Children's Charity", "designationCode": "C", "categoryCode": "09", "address": "3 - 475 COCHRANE DR", "city": "MARKHAM", "province": "ON", "country": "CA", "postalCode": "L3R9R5", "twitter": "None", "instagram": "None", "facebook": "None", "youtube": "None", "website": "None", "summary": "None", "logo": "None"}, "814482931RR0001": {"name": "Autism Community", "designationCode": "C", "categoryCode": "11", "address": "PO BOX 25022  PEN CENTRE      221 GLENDALE AVE", "city": "ST. CATHARINES", "province": "ON", "country": "CA", "postalCode": "L2N7P8", "twitter": "None", "instagram": "None", "facebook": "None", "youtube": "None", "website": "None", "summary": "None", "logo": "None", "latitude": 43.13345000000004, "longitude": -79.22460999999998}, "812364420RR0001": {"name": "Autism Connections Fredericton Inc.", "designationCode": "C", "categoryCode": "11", "address": "1666 LINCOLN ROAD", "city": "FREDERICTON", "province": "NB", "country": "CA", "postalCode": "E3B8J6", "twitter": "None", "instagram": "None", "facebook": "None", "youtube": "None", "website": "None", "summary": "None", "logo": "None", "latitude": 45.90941449319066, "longitude": -66.58547924704236}, "803605955RR0001": {"name": "Autism Dog Services Inc.", "designationCode": "C", "categoryCode": "11", "address": "102 NORTH PARK ST", "city": "BRANTFORD", "province": "ON", "country": "CA", "postalCode": "N3R4K1", "twitter": "None", "instagram": "None", "facebook": "None", "youtube": "None", "website": "None", "summary": "None", "logo": "None", "latitude": 43.15912314539476, "longitude": -80.2686920471952}, "764717898RR0001": {"name": "Autism LifePATH", "designationCode": "C", "categoryCode": "59", "address": "3077 NEW STREET,", "city": "BURLINGTON", "province": "ON", "country": "CA", "postalCode": "L7N1M6", "twitter": "None", "instagram": "None", "facebook": "None", "youtube": "None", "website": "None", "summary": "None", "logo": "None", "latitude": 43.34054784321066, "longitude": -79.78292347423363}, "860581370RR0001": {"name": "Autism Okanagan Association", "designationCode": "C", "categoryCode": "09", "address": "PO BOX 20226 RPO TOWNE CENTRE", "city": "KELOWNA", "province": "BC", "country": "CA", "postalCode": "V1Y9H2", "twitter": "None", "instagram": "None", "facebook": "None", "youtube": "None", "website": "None", "summary": "None", "logo": "None", "latitude": 49.886279922817444, "longitude": -119.49080999999995}, "852352079RR0001": {"name": "Autism Resource Centre Inc.", "designationCode": "C", "categoryCode": "11", "address": "PO BOX 1686", "city": "MONCTON", "province": "NB", "country": "CA", "postalCode": "E1C9X5", "twitter": "None", "instagram": "None", "facebook": "None", "youtube": "None", "website": "None", "summary": "None", "logo": "None", "latitude": 46.08834900000005, "longitude": -64.77824149999994}, "839520558RR0001": {"name": "Autism Resources Miramichi Inc.", "designationCode": "C", "categoryCode": "11", "address": "A - 1 ALLAN ST", "city": "MIRAMICHI", "province": "NB", "country": "CA", "postalCode": "E1V6A9", "twitter": "None", "instagram": "None", "facebook": "None", "youtube": "None", "website": "None", "summary": "None", "logo": "None", "latitude": 47.03083251099294, "longitude": -65.49520842815484}, "119141323RR0001": {"name": "Autism Services of Saskatoon Inc.", "designationCode": "C", "categoryCode": "11", "address": "209 FAIRMONT DR", "city": "SASKATOON", "province": "SK", "country": "CA", "postalCode": "S7M5B8", "twitter": "None", "instagram": "None", "facebook": "None", "youtube": "None", "website": "None", "summary": "None", "logo": "None", "latitude": 52.126160301142576, "longitude": -106.72270914954734}, "131607657RR0001": {"name": "Autism Society Canada / Soci\u00e9t\u00e9 canadienne de l'autisme", "designationCode": "C", "categoryCode": "11", "address": "217 CHERRY STREET EAST        PO BOX 366", "city": "BOTHWELL", "province": "ON", "country": "CA", "postalCode": "N0P1C0", "twitter": "None", "instagram": "None", "facebook": "None", "youtube": "None", "website": "None", "summary": "None", "logo": "None", "latitude": 42.63644098721807, "longitude": -81.87123384344179}, "118796911RR0001": {"name": "Autism Society Manitoba Inc.", "designationCode": "C", "categoryCode": "11", "address": "SUITE 204-825 SHERBROOK STREET", "city": "WINNIPEG", "province": "MB", "country": "CA", "postalCode": "R3A1M5", "twitter": "None", "instagram": "None", "facebook": "None", "youtube": "None", "website": "None", "summary": "None", "logo": "None", "latitude": 49.90293714680605, "longitude": -97.15654520699444}, "139019301RR0001": {"name": "Autism Society P.E.I. Inc.", "designationCode": "C", "categoryCode": "11", "address": "135 KENT STREET               BOX 3243", "city": "CHARLOTTETOWN", "province": "PE", "country": "CA", "postalCode": "C1A8W5", "twitter": "None", "instagram": "None", "facebook": "None", "youtube": "None", "website": "None", "summary": "None", "logo": "None", "latitude": 46.235851291707505, "longitude": -63.12821756148646}, "875916793RR0001": {"name": "Autism Support Network Society", "designationCode": "C", "categoryCode": "21", "address": "2135 129TH STREET", "city": "SURREY", "province": "BC", "country": "CA", "postalCode": "V4A8H6", "twitter": "None", "instagram": "None", "facebook": "None", "youtube": "None", "website": "None", "summary": "None", "logo": "None", "latitude": 49.04075917929484, "longitude": -122.86485374966809}, "891070773RR0001": {"name": "Autism'Aide Estrie", "designationCode": "C", "categoryCode": "09", "address": "2350 RUE DE ROUVILLE", "city": "SHERBROOKE", "province": "QC", "country": "CA", "postalCode": "J1J1X8", "twitter": "None", "instagram": "None", "facebook": "None", "youtube": "None", "website": "None", "summary": "None", "logo": "None", "latitude": 45.40198840631323, "longitude": -71.93054409550444}, "891704918RR0001": {"name": "Autisme de l'Est-du-Qu\u00e9bec", "designationCode": "C", "categoryCode": "11", "address": "C.P. 44 SUCC A", "city": "RIMOUSKI", "province": "QC", "country": "CA", "postalCode": "G5L7B7", "twitter": "None", "instagram": "None", "facebook": "None", "youtube": "None", "website": "None", "summary": "None", "logo": "None", "latitude": 48.44933700000006, "longitude": -68.52474349999993}, "860390921RR0001": {"name": "Autisme Mont\u00e9r\u00e9gie", "designationCode": "C", "categoryCode": "01", "address": "BUREAU 210                    755, BOULEVARD SAINTE-FOY", "city": "LONGUEUIL", "province": "QC", "country": "CA", "postalCode": "J4J1Z4", "twitter": "None", "instagram": "None", "facebook": "None", "youtube": "None", "website": "None", "summary": "None", "logo": "None", "latitude": 45.5237797146978, "longitude": -73.49644739621432}, "132913609RR0001": {"name": "Autisme Montr\u00e9al", "designationCode": "C", "categoryCode": "09", "address": "4450, RUE SAINT-HUBERT        LOCAL 320", "city": "MONTREAL", "province": "QC", "country": "CA", "postalCode": "H2J2W9", "twitter": "None", "instagram": "None", "facebook": "None", "youtube": "None", "website": "None", "summary": "None", "logo": "None", "latitude": 45.52513365803011, "longitude": -73.58025329450612}, "820237113RR0001": {"name": "Autoimmune Disease Foundation of Canada Inc.", "designationCode": "A", "categoryCode": "13", "address": "61 FLAX RD", "city": "MOOSE JAW", "province": "SK", "country": "CA", "postalCode": "S6J1L1", "twitter": "None", "instagram": "None", "facebook": "None", "youtube": "None", "website": "None", "summary": "None", "logo": "None", "latitude": 50.42126021068848, "longitude": -105.54474793663394}, "814536579RR0001": {"name": "Automotive Retailers Foundation Inc.", "designationCode": "B", "categoryCode": "21", "address": "1 - 8980 FRASERWOOD CRT", "city": "BURNABY", "province": "BC", "country": "CA", "postalCode": "V5J5H7", "twitter": "None", "instagram": "None", "facebook": "None", "youtube": "None", "website": "None", "summary": "None", "logo": "None", "latitude": 49.200537203051994, "longitude": -123.018143713854}, "119031672RR0001": {"name": "Auxiliary to the Southwest Integrated Healthcare Facility", "designationCode": "C", "categoryCode": "19", "address": "BOX 224", "city": "MAPLE CREEK", "province": "SK", "country": "CA", "postalCode": "S0N1N0", "twitter": "None", "instagram": "None", "facebook": "None", "youtube": "None", "website": "None", "summary": "None", "logo": "None", "latitude": 49.91416000000004, "longitude": -109.46959999999996}, "119214773RR0001": {"name": "Auxiliary to St. Joseph's Continuing Care Centre of Cornwall", "designationCode": "C", "categoryCode": "19", "address": "14 YORK STREET", "city": "CORNWALL", "province": "ON", "country": "CA", "postalCode": "K6J5T2", "twitter": "None", "instagram": "None", "facebook": "None", "youtube": "None", "website": "None", "summary": "None", "logo": "None", "latitude": 45.01518517011958, "longitude": -74.73180129606399}, "129176335RR0001": {"name": "Auxiliary to University Hospital of Northern British Columbia Society", "designationCode": "C", "categoryCode": "19", "address": "PO BOX 2346", "city": "PRINCE GEORGE", "province": "BC", "country": "CA", "postalCode": "V2N2J8", "twitter": "None", "instagram": "None", "facebook": "None", "youtube": "None", "website": "None", "summary": "None", "logo": "None", "latitude": 53.91241800000006, "longitude": -122.74463149999994}, "869000349RR0001": {"name": "Avalanche Canada Foundation / Fondation Avalanche Canada", "designationCode": "C", "categoryCode": "59", "address": "P.O. BOX 8800", "city": "CANMORE", "province": "AB", "country": "CA", "postalCode": "T1W0C1", "twitter": "None", "instagram": "None", "facebook": "None", "youtube": "None", "website": "None", "summary": "None", "logo": "None", "latitude": 51.08960400000005, "longitude": -115.36085149999994}, "814679429RR0001": {"name": "Avalokiteshvara Kadampa Buddhist Centre", "designationCode": "C", "categoryCode": "35", "address": "203 - 143 WYNDHAM ST N", "city": "GUELPH", "province": "ON", "country": "CA", "postalCode": "N1H4E9", "twitter": "None", "instagram": "None", "facebook": "None", "youtube": "None", "website": "None", "summary": "None", "logo": "None", "latitude": 43.54746158001357, "longitude": -80.25052720088125}, "857910558RR0001": {"name": "Avalon Dragon Boating Inc.", "designationCode": "C", "categoryCode": "11", "address": "PO BOX 50034 RPO TOPSAIL", "city": "PARADISE", "province": "NL", "country": "CA", "postalCode": "A1L0J2", "twitter": "None", "instagram": "None", "facebook": "None", "youtube": "None", "website": "None", "summary": "None", "logo": "None", "latitude": 47.52806660732008, "longitude": -52.87203713616633}, "826404477RR0001": {"name": "Avalon Historical Aircraft Recovery Association Inc.", "designationCode": "C", "categoryCode": "50", "address": "24 COXMARSH ROAD", "city": "ST JOHN'S", "province": "NL", "country": "CA", "postalCode": "A1K1A2", "twitter": "None", "instagram": "None", "facebook": "None", "youtube": "None", "website": "None", "summary": "None", "logo": "None", "latitude": 47.63135400000006, "longitude": -52.725895999999935}, "702275520RR0001": {"name": "Avanti Foundation", "designationCode": "B", "categoryCode": "03", "address": "439 KING ST W", "city": "TORONTO", "province": "ON", "country": "CA", "postalCode": "M5V1K4", "twitter": "None", "instagram": "None", "facebook": "None", "youtube": "None", "website": "None", "summary": "None", "logo": "None", "latitude": 43.64531080209486, "longitude": -79.39560665000869}, "108225061RR0001": {"name": "Avens - A Community for Seniors", "designationCode": "C", "categoryCode": "01", "address": "5710 50TH AVE                 SUITE 1", "city": "YELLOWKNIFE", "province": "NT", "country": "CA", "postalCode": "X1A1G1", "twitter": "None", "instagram": "None", "facebook": "None", "youtube": "None", "website": "None", "summary": "None", "logo": "None", "latitude": 62.44896454422208, "longitude": -114.381768694012}, "135335834RR0001": {"name": "Avenue B Harm Reduction Inc.", "designationCode": "C", "categoryCode": "11", "address": "62 WATERLOO STREET", "city": "SAINT JOHN", "province": "NB", "country": "CA", "postalCode": "E2L3P3", "twitter": "None", "instagram": "None", "facebook": "None", "youtube": "None", "website": "None", "summary": "None", "logo": "None", "latitude": 45.27672894087949, "longitude": -66.05675132555261}, "809284847RR0001": {"name": "Avenue Community Church", "designationCode": "C", "categoryCode": "39", "address": "80 ESNA PARK DRIVE            UNIT 15", "city": "MARKHAM", "province": "ON", "country": "CA", "postalCode": "L3R2R6", "twitter": "None", "instagram": "None", "facebook": "None", "youtube": "None", "website": "None", "summary": "None", "logo": "None", "latitude": 43.82736020904232, "longitude": -79.339668338133}, "101354322RR0001": {"name": "Avenues citoyennes Organisme de justice alternative", "designationCode": "C", "categoryCode": "59", "address": "690 RUE DE MONSEIGNEUR-PANET  BUREAU 109", "city": "NICOLET", "province": "QC", "country": "CA", "postalCode": "J3T1W1", "twitter": "None", "instagram": "None", "facebook": "None", "youtube": "None", "website": "None", "summary": "None", "logo": "None", "latitude": 46.22988447988997, "longitude": -72.61078254828931}, "786293696RR0001": {"name": "Avery Linton Legacy Foundation", "designationCode": "B", "categoryCode": "03", "address": "183 WOLF WILLOW CRES NW", "city": "EDMONTON", "province": "AB", "country": "CA", "postalCode": "T5T1T3", "twitter": "None", "instagram": "None", "facebook": "None", "youtube": "None", "website": "None", "summary": "None", "logo": "None", "latitude": 53.50187709683211, "longitude": -113.59351208479997}, "817471022RR0001": {"name": "Avery Seca Youth in Sports Foundation", "designationCode": "B", "categoryCode": "09", "address": "2 POPLAR ST                   R R #1", "city": "SOUTH RIVER", "province": "ON", "country": "CA", "postalCode": "P0A1X0", "twitter": "None", "instagram": "None", "facebook": "None", "youtube": "None", "website": "None", "summary": "None", "logo": "None", "latitude": 45.84597197198328, "longitude": -79.38851065696224}, "805615861RR0001": {"name": "Aviation Heritage Society (PEI) Inc.", "designationCode": "C", "categoryCode": "52", "address": "30A AEROSPACE BOULEVARD       PO BOX 90", "city": "SLEMON PARK", "province": "PE", "country": "CA", "postalCode": "C0B2A0", "twitter": "None", "instagram": "None", "facebook": "None", "youtube": "None", "website": "None", "summary": "None", "logo": "None", "latitude": 46.438305886909, "longitude": -63.83053796152548}, "837723493RR0001": {"name": "Avicenna Vision", "designationCode": "C", "categoryCode": "09", "address": "1250-1500 WEST GEORGIA ST     BOX 62", "city": "VANCOUVER", "province": "BC", "country": "CA", "postalCode": "V6G2Z6", "twitter": "None", "instagram": "None", "facebook": "None", "youtube": "None", "website": "None", "summary": "None", "logo": "None", "latitude": 49.290187500000016, "longitude": -123.130035}, "839959897RR0001": {"name": "Avila Music School", "designationCode": "C", "categoryCode": "22", "address": "440 BALMORAL STREET,", "city": "THUNDER BAY", "province": "ON", "country": "CA", "postalCode": "P7C5G8", "twitter": "None", "instagram": "None", "facebook": "None", "youtube": "None", "website": "None", "summary": "None", "logo": "None", "latitude": 48.391245, "longitude": -89.25816063941978}, "796529923RR0001": {"name": "Avonbank Community Church", "designationCode": "C", "categoryCode": "39", "address": "4741 LINE 15                  RR 7", "city": "ST MARYS", "province": "ON", "country": "CA", "postalCode": "N4X1C9", "twitter": "None", "instagram": "None", "facebook": "None", "youtube": "None", "website": "None", "summary": "None", "logo": "None", "latitude": 43.266633000000056, "longitude": -81.13828849999993}, "108040239RR0001": {"name": "Avondale United Church", "designationCode": "C", "categoryCode": "44", "address": "194 AVONDALE AVE", "city": "STRATFORD", "province": "ON", "country": "CA", "postalCode": "N5A6N4", "twitter": "None", "instagram": "None", "facebook": "None", "youtube": "None", "website": "None", "summary": "None", "logo": "None", "latitude": 43.37757703858331, "longitude": -80.99237437661407}, "806763991RR0001": {"name": "Avonlea Charitable Trust", "designationCode": "B", "categoryCode": "45", "address": "2500 - 201 PORTAGE AVE", "city": "WINNIPEG", "province": "MB", "country": "CA", "postalCode": "R3B3K6", "twitter": "None", "instagram": "None", "facebook": "None", "youtube": "None", "website": "None", "summary": "None", "logo": "None"}, "106740129RR0001": {"name": "Avonlea/Blue Hill Pastoral Charge", "designationCode": "C", "categoryCode": "44", "address": "BOX 2", "city": "BRIERCHEST", "province": "SK", "country": "CA", "postalCode": "S0H0C0", "twitter": "None", "instagram": "None", "facebook": "None", "youtube": "None", "website": "None", "summary": "None", "logo": "None", "latitude": 50.41317000000004, "longitude": -107.03868999999997}, "823419569RR0001": {"name": "Awake Vancouver Church", "designationCode": "C", "categoryCode": "39", "address": "15039 66A AVE", "city": "SURREY", "province": "BC", "country": "CA", "postalCode": "V3S2A4", "twitter": "None", "instagram": "None", "facebook": "None", "youtube": "None", "website": "None", "summary": "None", "logo": "None", "latitude": 49.12357246378898, "longitude": -122.8056106902591}, "895930808RR0001": {"name": "Awaken the Dream Ministries", "designationCode": "C", "categoryCode": "47", "address": "11119 29B AVE", "city": "EDMONTON", "province": "AB", "country": "CA", "postalCode": "T6J3Z1", "twitter": "None", "instagram": "None", "facebook": "None", "youtube": "None", "website": "None", "summary": "None", "logo": "None", "latitude": 53.462944499567314, "longitude": -113.5184715}, "801690868RR0001": {"name": "Awaken Baptist Christian Fellowship Society", "designationCode": "C", "categoryCode": "31", "address": "6508 BOWWOOD DRIVE NORTHWEST", "city": "CALGARY", "province": "AB", "country": "CA", "postalCode": "T3B2G8", "twitter": "None", "instagram": "None", "facebook": "None", "youtube": "None", "website": "None", "summary": "None", "logo": "None", "latitude": 51.085956509031035, "longitude": -114.1831799435052}, "859736605RR0002": {"name": "Awakening Church Canada Inc.", "designationCode": "C", "categoryCode": "39", "address": "BOX 1398", "city": "WARMAN", "province": "SK", "country": "CA", "postalCode": "S0K4S0", "twitter": "None", "instagram": "None", "facebook": "None", "youtube": "None", "website": "None", "summary": "None", "logo": "None", "latitude": 52.31985000000006, "longitude": -106.58322349999993}, "815562418RR0001": {"name": "Awakening Souls Association", "designationCode": "C", "categoryCode": "47", "address": "15380 HWY 16, RR#1", "city": "MONASTERY", "province": "NS", "country": "CA", "postalCode": "B0H1W0", "twitter": "None", "instagram": "None", "facebook": "None", "youtube": "None", "website": "None", "summary": "None", "logo": "None", "latitude": 45.56988334960492, "longitude": -61.57978964710718}, "841663628RR0001": {"name": "Awana International Canada", "designationCode": "C", "categoryCode": "49", "address": "101-2430-KING GEORGE BLVD", "city": "SURREY", "province": "BC", "country": "CA", "postalCode": "V4P1H5", "twitter": "None", "instagram": "None", "facebook": "None", "youtube": "None", "website": "None", "summary": "None", "logo": "None", "latitude": 49.04635429698763, "longitude": -122.79437042573159}, "830508354RR0001": {"name": "Awaso Canadian Academy Foundation", "designationCode": "C", "categoryCode": "20", "address": "4308 - 43 AVENUE", "city": "DRAYTON VALLEY", "province": "AB", "country": "CA", "postalCode": "T7A1G2", "twitter": "None", "instagram": "None", "facebook": "None", "youtube": "None", "website": "None", "summary": "None", "logo": "None", "latitude": 53.21424051875454, "longitude": -114.96587022300768}, "834543316RR0001": {"name": "Awesome Acres Therapeutic Riding Centre and Club", "designationCode": "B", "categoryCode": "56", "address": "5526 4RTH LINE                RR 2", "city": "TOTTENHAM", "province": "ON", "country": "CA", "postalCode": "L0G1W0", "twitter": "None", "instagram": "None", "facebook": "None", "youtube": "None", "website": "None", "summary": "None", "logo": "None", "latitude": 44.041423051211574, "longitude": -79.81108541239902}, "800906455RR0001": {"name": "Awkward Stage Productions Society", "designationCode": "C", "categoryCode": "22", "address": "2 - 2646 7TH AVE W", "city": "VANCOUVER", "province": "BC", "country": "CA", "postalCode": "V6K1Z1", "twitter": "None", "instagram": "None", "facebook": "None", "youtube": "None", "website": "None", "summary": "None", "logo": "None", "latitude": 49.26572851399405, "longitude": -123.16570136081135}, "100886993RR0001": {"name": "Axia Services", "designationCode": "C", "categoryCode": "09", "address": "13025 RUE JEAN-GROU", "city": "MONTREAL", "province": "QC", "country": "CA", "postalCode": "H1A3N6", "twitter": "None", "instagram": "None", "facebook": "None", "youtube": "None", "website": "None", "summary": "None", "logo": "None", "latitude": 45.65742031504968, "longitude": -73.51297877961805}, "804762979RR0001": {"name": "Axis Music Inc.", "designationCode": "C", "categoryCode": "20", "address": "201 - 783 BATHURST ST", "city": "TORONTO", "province": "ON", "country": "CA", "postalCode": "M5S0A8", "twitter": "None", "instagram": "None", "facebook": "None", "youtube": "None", "website": "None", "summary": "None", "logo": "None", "latitude": 43.664353061342226, "longitude": -79.41084659559137}, "813822970RR0001": {"name": "Aya Education Fund", "designationCode": "C", "categoryCode": "21", "address": "PO BOX 2387", "city": "GARIBALDI HIGHLANDS", "province": "BC", "country": "CA", "postalCode": "V0N1T0", "twitter": "None", "instagram": "None", "facebook": "None", "youtube": "None", "website": "None", "summary": "None", "logo": "None", "latitude": 49.742860000000064, "longitude": -123.11049999999994}, "831405592RR0001": {"name": "Ayam Civic Society", "designationCode": "C", "categoryCode": "21", "address": "407-205 10TH E AVE", "city": "VANCOUVER", "province": "BC", "country": "CA", "postalCode": "V5T4V6", "twitter": "None", "instagram": "None", "facebook": "None", "youtube": "None", "website": "None", "summary": "None", "logo": "None", "latitude": 49.261559020640675, "longitude": -123.09215594806781}, "125874008RR0001": {"name": "Aylmer Cemetery Board", "designationCode": "C", "categoryCode": "59", "address": "PO BOX 222", "city": "AYLMER", "province": "ON", "country": "CA", "postalCode": "N5H2R9", "twitter": "None", "instagram": "None", "facebook": "None", "youtube": "None", "website": "None", "summary": "None", "logo": "None", "latitude": 42.773010000000056, "longitude": -80.98362349999994}, "854978814RR0001": {"name": "Aynsley Family Charitable Foundation", "designationCode": "B", "categoryCode": "03", "address": "301-1665 ELLIS ST", "city": "KELOWNA", "province": "BC", "country": "CA", "postalCode": "V1Y2B3", "twitter": "None", "instagram": "None", "facebook": "None", "youtube": "None", "website": "None", "summary": "None", "logo": "None", "latitude": 49.88425407799065, "longitude": -119.49347090045616}, "864996871RR0001": {"name": "Aza-E-Hussain Association of BC", "designationCode": "C", "categoryCode": "60", "address": "220-12837 76 AVE", "city": "SURREY", "province": "BC", "country": "CA", "postalCode": "V3W2V3", "twitter": "None", "instagram": "None", "facebook": "None", "youtube": "None", "website": "None", "summary": "None", "logo": "None", "latitude": 49.141076489324185, "longitude": -122.86667208090483}, "807410683RR0001": {"name": "Azeez Foundation", "designationCode": "C", "categoryCode": "09", "address": "86 RIVALDA ROAD", "city": "TORONTO", "province": "ON", "country": "CA", "postalCode": "M9M2M8", "twitter": "None", "instagram": "None", "facebook": "None", "youtube": "None", "website": "None", "summary": "None", "logo": "None", "latitude": 43.74056365805877, "longitude": -79.53549776925935}, "839698701RR0001": {"name": "Azusa Apostolic Church", "designationCode": "C", "categoryCode": "39", "address": "198 HARLINGTON CRES", "city": "HALIFAX", "province": "NS", "country": "CA", "postalCode": "B3M3N1", "twitter": "None", "instagram": "None", "facebook": "None", "youtube": "None", "website": "None", "summary": "None", "logo": "None", "latitude": 44.65993153315262, "longitude": -63.6550066498358}, "819713298RR0001": {"name": "AAC Educational Foundation", "designationCode": "C", "categoryCode": "21", "address": "300 RANGE ROAD                P,O. BOX 39 STATION CSC", "city": "WHITEHORSE", "province": "YT", "country": "CA", "postalCode": "Y1A5X9", "twitter": "None", "instagram": "None", "facebook": "None", "youtube": "None", "website": "None", "summary": "None", "logo": "None", "latitude": 60.73401643335769, "longitude": -135.0904423597342}, "835595794RR0001": {"name": "AACR International - Canada", "designationCode": "C", "categoryCode": "59", "address": "9861 LESLIE ST", "city": "RICHMOND HILL", "province": "ON", "country": "CA", "postalCode": "L4B3Y4", "twitter": "None", "instagram": "None", "facebook": "None", "youtube": "None", "website": "None", "summary": "None", "logo": "None", "latitude": 43.87711608909915, "longitude": -79.39061506933498}, "131765174RR0001": {"name": "AAIA ALLERGY/ASTHMA INFORMATION ASSOCIATION", "designationCode": "C", "categoryCode": "13", "address": "200-17 FOUR SEASONS PL", "city": "ETOBICOKE", "province": "ON", "country": "CA", "postalCode": "M9B6E6", "twitter": "None", "instagram": "None", "facebook": "None", "youtube": "None", "website": "None", "summary": "None", "logo": "None", "latitude": 43.647630486899, "longitude": -79.56115485309482}, "141001586RR0001": {"name": "AAIDD Chapitre Qu\u00e9bec - AAIDD Quebec Chapter", "designationCode": "C", "categoryCode": "09", "address": "268 RUE FLORENCE", "city": "CHARLEMAGNE", "province": "QC", "country": "CA", "postalCode": "J5Z2P1", "twitter": "None", "instagram": "None", "facebook": "None", "youtube": "None", "website": "None", "summary": "None", "logo": "None", "latitude": 45.72633017594795, "longitude": -73.49177394437058}, "132199480RR0001": {"name": "AARC SOCIETY (ALBERTA ADOLESCENT RECOVERY CENTRE)", "designationCode": "C", "categoryCode": "57", "address": "303 FORGE ROAD S.E.", "city": "CALGARY", "province": "AB", "country": "CA", "postalCode": "T2H0S9", "twitter": "None", "instagram": "None", "facebook": "None", "youtube": "None", "website": "None", "summary": "None", "logo": "None", "latitude": 50.99357847792722, "longitude": -114.05820158381903}, "890424591RR0001": {"name": "AARON AND SUSAN LIEBERMAN FOUNDATION", "designationCode": "B", "categoryCode": "21", "address": "SUITE 200                     55 LOUVAIN STREET WEST", "city": "MONTREAL", "province": "QC", "country": "CA", "postalCode": "H2N1A4", "twitter": "None", "instagram": "None", "facebook": "None", "youtube": "None", "website": "None", "summary": "None", "logo": "None", "latitude": 45.54439966807077, "longitude": -73.65540406722792}, "839009123RR0001": {"name": "AARON BROCK FOUNDATION", "designationCode": "B", "categoryCode": "22", "address": "7464 TRANMERE DRIVE", "city": "MISSISSAUGA", "province": "ON", "country": "CA", "postalCode": "L5S1K4", "twitter": "None", "instagram": "None", "facebook": "None", "youtube": "None", "website": "None", "summary": "None", "logo": "None", "latitude": 43.68841402741116, "longitude": -79.67693497383054}, "866781552RR0001": {"name": "AARON HOUSE MINISTRIES", "designationCode": "C", "categoryCode": "39", "address": "2731 VIRGINIA DRIVE", "city": "COURTENAY", "province": "BC", "country": "CA", "postalCode": "V9N6B4", "twitter": "None", "instagram": "None", "facebook": "None", "youtube": "None", "website": "None", "summary": "None", "logo": "None", "latitude": 49.72192378632423, "longitude": -124.98989728439116}, "810396192RR0001": {"name": "AARON MINISTRIES NETWORK", "designationCode": "C", "categoryCode": "39", "address": "PO BOX 2008 RPO FALL RIVER", "city": "FALL RIVER", "province": "NS", "country": "CA", "postalCode": "B2T1K6", "twitter": "None", "instagram": "None", "facebook": "None", "youtube": "None", "website": "None", "summary": "None", "logo": "None", "latitude": 44.80671750494603, "longitude": -63.62406721949953}, "870482072RR0001": {"name": "AARON MOSER SPINAL CORD INJURY FOUNDATION", "designationCode": "C", "categoryCode": "09", "address": "324 HOLLICK KENYON RD", "city": "EDMONTON", "province": "AB", "country": "CA", "postalCode": "T5Y2T4", "twitter": "None", "instagram": "None", "facebook": "None", "youtube": "None", "website": "None", "summary": "None", "logo": "None", "latitude": 53.61922063364873, "longitude": -113.42450930749054}, "855762522RR0001": {"name": "ABANDONED CATS RESCUE", "designationCode": "C", "categoryCode": "54", "address": "PO BOX 93013                  1450 HEADON ROAD", "city": "BURLINTON", "province": "ON", "country": "CA", "postalCode": "L7M4A3", "twitter": "None", "instagram": "None", "facebook": "None", "youtube": "None", "website": "None", "summary": "None", "logo": "None", "latitude": 43.373694794593035, "longitude": -79.8093847315191}, "865985980RR0001": {"name": "ABARBANEL EIGER CHARITABLE FOUNDATION", "designationCode": "B", "categoryCode": "03", "address": "85 MARTIN ROSS AVENUE", "city": "TORONTO", "province": "ON", "country": "CA", "postalCode": "M3J2L5", "twitter": "None", "instagram": "None", "facebook": "None", "youtube": "None", "website": "None", "summary": "None", "logo": "None", "latitude": 43.7736488559066, "longitude": -79.47593684788517}, "801509340RR0001": {"name": "ABASARUZI MISSIONARY CHURCH", "designationCode": "C", "categoryCode": "39", "address": "120-135 BLEECKER ST", "city": "TORONTO", "province": "ON", "country": "CA", "postalCode": "M4X1X2", "twitter": "None", "instagram": "None", "facebook": "None", "youtube": "None", "website": "None", "summary": "None", "logo": "None", "latitude": 43.665809615326864, "longitude": -79.37311700357802}, "834653073RR0001": {"name": "ABBA CANADA FOUNDATION", "designationCode": "A", "categoryCode": "03", "address": "120-5501 204 STREET", "city": "LANGLEY", "province": "BC", "country": "CA", "postalCode": "V3A5N8", "twitter": "None", "instagram": "None", "facebook": "None", "youtube": "None", "website": "None", "summary": "None", "logo": "None", "latitude": 49.10259361176187, "longitude": -122.65667537712167}, "861983393RR0001": {"name": "ABBA COMMUNITY FELLOWSHIP", "designationCode": "C", "categoryCode": "39", "address": "393-454 MISSISSAUGA ST        BOX 1090", "city": "NIAGARA ON THE LAKE", "province": "ON", "country": "CA", "postalCode": "L0S1J0", "twitter": "None", "instagram": "None", "facebook": "None", "youtube": "None", "website": "None", "summary": "None", "logo": "None", "latitude": 43.25280689936872, "longitude": -79.08392723287878}, "888984507RR0001": {"name": "ABBA FATHER INTERNATIONAL", "designationCode": "C", "categoryCode": "47", "address": "PO BOX 331 STN MAIN", "city": "WASAGA BEACH", "province": "ON", "country": "CA", "postalCode": "L9Z1A4", "twitter": "None", "instagram": "None", "facebook": "None", "youtube": "None", "website": "None", "summary": "None", "logo": "None", "latitude": 44.52283012747356, "longitude": -80.01231513995603}, "886058627RR0001": {"name": "ABBA MINISTRIES OF CANADA - MINIST\u00c8RE ABBA DU CANADA", "designationCode": "C", "categoryCode": "49", "address": "2 AUBURN AVENUE", "city": "HALIFAX", "province": "NS", "country": "CA", "postalCode": "B3R1K4", "twitter": "None", "instagram": "None", "facebook": "None", "youtube": "None", "website": "None", "summary": "None", "logo": "None", "latitude": 44.60377265197058, "longitude": -63.61348265087406}, "873483978RR0001": {"name": "ABBA MISSIONS AND MEDICAL FOUNDATION", "designationCode": "B", "categoryCode": "43", "address": "33 ROSEMARY LANE", "city": "TORONTO", "province": "ON", "country": "CA", "postalCode": "M5P3E7", "twitter": "None", "instagram": "None", "facebook": "None", "youtube": "None", "website": "None", "summary": "None", "logo": "None", "latitude": 43.700345139621355, "longitude": -79.42478632015691}, "107619603RR0001": {"name": "ABBAYE CISTERCIENNE DE ROUGEMONT", "designationCode": "C", "categoryCode": "46", "address": "471 RUE PRINCIPALE", "city": "ROUGEMONT", "province": "QC", "country": "CA", "postalCode": "J0L1M0", "twitter": "None", "instagram": "None", "facebook": "None", "youtube": "None", "website": "None", "summary": "None", "logo": "None", "latitude": 45.443849415066, "longitude": -73.06435667177627}, "106679046RR0001": {"name": "ABBAYE CISTERCIENNE NOTRE-DAME DU BON CONSEIL", "designationCode": "C", "categoryCode": "46", "address": "670, RANG SAINTE-EVELYNE", "city": "ST-BENOIT-LABRE", "province": "QC", "country": "CA", "postalCode": "G0M1P0", "twitter": "None", "instagram": "None", "facebook": "None", "youtube": "None", "website": "None", "summary": "None", "logo": "None", "latitude": 46.05356296422166, "longitude": -70.73856819556788}, "130637036RR0001": {"name": "ABBAYE SAINTE-MARIE DES DEUX- MONTAGNES", "designationCode": "C", "categoryCode": "46", "address": "2803 CHEMIN D'OKA", "city": "SAINTE-MARTHE-SUR-LE-LAC", "province": "QC", "country": "CA", "postalCode": "J0N1P0", "twitter": "None", "instagram": "None", "facebook": "None", "youtube": "None", "website": "None", "summary": "None", "logo": "None", "latitude": 45.53223546047074, "longitude": -73.91299132791853}, "118775923RR0001": {"name": "ABBEY AND DISTRICT COMBINED APPEAL", "designationCode": "A", "categoryCode": "05", "address": "BOX 218", "city": "ABBEY", "province": "SK", "country": "CA", "postalCode": "S0N0A0", "twitter": "None", "instagram": "None", "facebook": "None", "youtube": "None", "website": "None", "summary": "None", "logo": "None", "latitude": 50.85527406382951, "longitude": -109.40240186489247}, "881900401RR0001": {"name": "ABBEY CAT ADOPTIONS", "designationCode": "C", "categoryCode": "54", "address": "PO BOX 20026                  1077 NORTH SERVICE ROAD #39", "city": "MISSISSAUGA", "province": "ON", "country": "CA", "postalCode": "L4Y1A6", "twitter": "None", "instagram": "None", "facebook": "None", "youtube": "None", "website": "None", "summary": "None", "logo": "None", "latitude": 43.591092765838134, "longitude": -79.57536359670613}, "139024855RR0001": {"name": "ABBEY CHARITABLE TRUST", "designationCode": "B", "categoryCode": "39", "address": "50-1ST AVE NE", "city": "SWIFT CURRENT", "province": "SK", "country": "CA", "postalCode": "S9H4W4", "twitter": "None", "instagram": "None", "facebook": "None", "youtube": "None", "website": "None", "summary": "None", "logo": "None", "latitude": 50.282664378132, "longitude": -107.79863205289816}, "889939575RR0001": {"name": "ABBEY COMMUNITY CEMETERY FUND", "designationCode": "C", "categoryCode": "59", "address": "BOX 184", "city": "ABBEY", "province": "SK", "country": "CA", "postalCode": "S0N0A0", "twitter": "None", "instagram": "None", "facebook": "None", "youtube": "None", "website": "None", "summary": "None", "logo": "None", "latitude": 50.85527406382951, "longitude": -109.40240186489247}, "889673240RR0001": {"name": "ABBEY UNITED CHURCH", "designationCode": "C", "categoryCode": "44", "address": "BOX 246", "city": "ABBEY", "province": "SK", "country": "CA", "postalCode": "S0N0A0", "twitter": "None", "instagram": "None", "facebook": "None", "youtube": "None", "website": "None", "summary": "None", "logo": "None", "latitude": 50.85527406382951, "longitude": -109.40240186489247}, "106679178RR0001": {"name": "ABBEY-LANCER/PORTREEVE PASTORAL CHARGE", "designationCode": "C", "categoryCode": "44", "address": "BOX 217", "city": "ABBEY", "province": "SK", "country": "CA", "postalCode": "S0N0A0", "twitter": "None", "instagram": "None", "facebook": "None", "youtube": "None", "website": "None", "summary": "None", "logo": "None", "latitude": 50.85527406382951, "longitude": -109.40240186489247}}