{"836244210RR0001": {"name": "Guizhou Rose Charitable Society", "designationCode": "C", "categoryCode": "09", "address": "207 - 11010 101 ST NW", "city": "EDMONTON", "province": "AB", "country": "CA", "postalCode": "T5H4B9", "twitter": "None", "instagram": "None", "facebook": "None", "youtube": "None", "website": "None", "summary": "None", "logo": "None", "latitude": 53.55741501526345, "longitude": -113.49377750452938}, "823694815RR0001": {"name": "Gujarati Church of Canada", "designationCode": "C", "categoryCode": "39", "address": "363 HOWDEN BLVD.", "city": "BRAMPTON", "province": "ON", "country": "CA", "postalCode": "L6S4L6", "twitter": "None", "instagram": "None", "facebook": "None", "youtube": "None", "website": "None", "summary": "None", "logo": "None", "latitude": 43.71710139886872, "longitude": -79.74224641742171}, "828751156RR0001": {"name": "Gulf Aquarium and Marine station Cooperative Ltd. / Coop\u00e9ra tive de recherche marine et aquarium du golfe lt\u00e9e", "designationCode": "C", "categoryCode": "50", "address": "PO BOX 697", "city": "CHETICAMP", "province": "NS", "country": "CA", "postalCode": "B0E1H0", "twitter": "None", "instagram": "None", "facebook": "None", "youtube": "None", "website": "None", "summary": "None", "logo": "None", "latitude": 46.60719600312706, "longitude": -61.03849596133188}, "107951238RR0001": {"name": "Gulf Islands Early Learning Society", "designationCode": "C", "categoryCode": "20", "address": "115 DRAKE ROAD", "city": "SALT SPRING ISLAND", "province": "BC", "country": "CA", "postalCode": "V8K2K8", "twitter": "None", "instagram": "None", "facebook": "None", "youtube": "None", "website": "None", "summary": "None", "logo": "None", "latitude": 48.85071677966362, "longitude": -123.50250155217478}, "833909294RR0001": {"name": "Gurdwara Baba Banda Singh Bahadar Sikh Society", "designationCode": "C", "categoryCode": "62", "address": "31631 SOUTH FRASER WAY", "city": "ABBOTSFORD", "province": "BC", "country": "CA", "postalCode": "V2T1T8", "twitter": "None", "instagram": "None", "facebook": "None", "youtube": "None", "website": "None", "summary": "None", "logo": "None", "latitude": 49.04619429672781, "longitude": -122.34746451569613}, "836591040RR0001": {"name": "Gurdwara Raja Sahib Nabh Kanwal Sikh Society of BC", "designationCode": "C", "categoryCode": "62", "address": "2371 BEDFORD PLACE", "city": "ABBOTSFORD", "province": "BC", "country": "CA", "postalCode": "V2T4A4", "twitter": "None", "instagram": "None", "facebook": "None", "youtube": "None", "website": "None", "summary": "None", "logo": "None", "latitude": 49.04420447006592, "longitude": -122.32485524263012}, "833444268RR0001": {"name": "Gurdwara Sach Khand Isher Darbar Society", "designationCode": "C", "categoryCode": "62", "address": "32839 DOWNES ROAD", "city": "ABBOTSFORD", "province": "BC", "country": "CA", "postalCode": "V2S7V6", "twitter": "None", "instagram": "None", "facebook": "None", "youtube": "None", "website": "None", "summary": "None", "logo": "None", "latitude": 49.0746344616246, "longitude": -122.3150625}, "833774755RR0001": {"name": "Gurfateh Sewa Centre", "designationCode": "C", "categoryCode": "62", "address": "7875 TRANMERE DRIVE           UNIT 17", "city": "MISSISSAUGA", "province": "ON", "country": "CA", "postalCode": "L5S1T8", "twitter": "None", "instagram": "None", "facebook": "None", "youtube": "None", "website": "None", "summary": "None", "logo": "None", "latitude": 43.68040723307792, "longitude": -79.67285675235112}, "825916505RR0001": {"name": "Gurmat Bibek Parchaar Society", "designationCode": "C", "categoryCode": "62", "address": "6-139 DEVON RD", "city": "BRAMPTON", "province": "ON", "country": "CA", "postalCode": "L6T5L8", "twitter": "None", "instagram": "None", "facebook": "None", "youtube": "None", "website": "None", "summary": "None", "logo": "None", "latitude": 43.73661620653214, "longitude": -79.68402595553734}, "820631356RR0001": {"name": "Gurmat Sikh Society of Alberta, Canada", "designationCode": "C", "categoryCode": "62", "address": "16523 57TH ST", "city": "EDMONTON", "province": "AB", "country": "CA", "postalCode": "T5Y0A2", "twitter": "None", "instagram": "None", "facebook": "None", "youtube": "None", "website": "None", "summary": "None", "logo": "None", "latitude": 53.628164243435684, "longitude": -113.42453379017829}, "741784326RR0001": {"name": "Guru Amar Das Niwas Nursing Home Association", "designationCode": "C", "categoryCode": "10", "address": "1700 - 421 7 AVE SW", "city": "CALGARY", "province": "AB", "country": "CA", "postalCode": "T2P4K9", "twitter": "None", "instagram": "None", "facebook": "None", "youtube": "None", "website": "None", "summary": "None", "logo": "None", "latitude": 51.04682342625144, "longitude": -114.07570373231476}, "802266403RR0001": {"name": "Guru Garib Niwaj Welfare Society", "designationCode": "C", "categoryCode": "09", "address": "8-250 KING GEORGE ROAD", "city": "BRANTFORD", "province": "ON", "country": "CA", "postalCode": "N3R5L5", "twitter": "None", "instagram": "None", "facebook": "None", "youtube": "None", "website": "None", "summary": "None", "logo": "None", "latitude": 43.177708025275436, "longitude": -80.27959878761081}, "823189634RR0001": {"name": "Guru Hargobind Sikh Temple and Cultural Society of Keremeos/Cawston B.C.", "designationCode": "C", "categoryCode": "62", "address": "474 MAIN STREET", "city": "PENTICTON", "province": "BC", "country": "CA", "postalCode": "V2A5C5", "twitter": "None", "instagram": "None", "facebook": "None", "youtube": "None", "website": "None", "summary": "None", "logo": "None", "latitude": 49.496702259507174, "longitude": -119.5913790113683}, "797726528RR0001": {"name": "Guru Kashi Society", "designationCode": "C", "categoryCode": "21", "address": "263 WHITEHILL PL NE", "city": "CALGARY", "province": "AB", "country": "CA", "postalCode": "T1Y3G5", "twitter": "None", "instagram": "None", "facebook": "None", "youtube": "None", "website": "None", "summary": "None", "logo": "None", "latitude": 51.0936156880374, "longitude": -113.96814460228512}, "842433625RR0001": {"name": "Guru Nanak Education Society of B.C.", "designationCode": "C", "categoryCode": "20", "address": "12895 85 AVE", "city": "SURREY", "province": "BC", "country": "CA", "postalCode": "V3W0K8", "twitter": "None", "instagram": "None", "facebook": "None", "youtube": "None", "website": "None", "summary": "None", "logo": "None", "latitude": 49.157591427145235, "longitude": -122.86547409432197}, "812737989RR0001": {"name": "Guru Nanak Foundation for Humanity", "designationCode": "C", "categoryCode": "09", "address": "17552 107 AVE NW", "city": "EDMONTON", "province": "AB", "country": "CA", "postalCode": "T5S1E9", "twitter": "None", "instagram": "None", "facebook": "None", "youtube": "None", "website": "None", "summary": "None", "logo": "None", "latitude": 53.5533035115412, "longitude": -113.62394152553523}, "801429556RR0001": {"name": "Guru Nanak Mission Centre (Brampton)", "designationCode": "C", "categoryCode": "62", "address": "585 PETER ROBERTSON BOULEVARD", "city": "BRAMPTON", "province": "ON", "country": "CA", "postalCode": "L6R2H7", "twitter": "None", "instagram": "None", "facebook": "None", "youtube": "None", "website": "None", "summary": "None", "logo": "None", "latitude": 43.737873655808414, "longitude": -79.76116837725822}, "819712860RR0001": {"name": "Guru Nanak Sikh Association/Association du Guru Nanak de Sikh", "designationCode": "C", "categoryCode": "62", "address": "7325 OUIMET", "city": "VERDUN", "province": "QC", "country": "CA", "postalCode": "H4H2J6", "twitter": "None", "instagram": "None", "facebook": "None", "youtube": "None", "website": "None", "summary": "None", "logo": "None", "latitude": 45.43759666916727, "longitude": -73.59030644160062}, "800063521RR0001": {"name": "Guru Nanak Sikh Centre Calgary North", "designationCode": "C", "categoryCode": "62", "address": "2440 KENSINGTON RD NW", "city": "CALGARY", "province": "AB", "country": "CA", "postalCode": "T2N3S1", "twitter": "None", "instagram": "None", "facebook": "None", "youtube": "None", "website": "None", "summary": "None", "logo": "None", "latitude": 51.05250646378898, "longitude": -114.11755244018697}, "705441327RR0001": {"name": "Guru Ram Das Darbar Society of Alberta", "designationCode": "C", "categoryCode": "62", "address": "341 - 2116 27 AVE NE", "city": "CALGARY", "province": "AB", "country": "CA", "postalCode": "T2E7A6", "twitter": "None", "instagram": "None", "facebook": "None", "youtube": "None", "website": "None", "summary": "None", "logo": "None", "latitude": 51.076930471579246, "longitude": -114.010263}, "882047731RR0001": {"name": "Guru Ravidass Society of Calgary", "designationCode": "C", "categoryCode": "62", "address": "P.O. BOX 55254 TEMPLE RPO", "city": "CALGARY", "province": "AB", "country": "CA", "postalCode": "T1Y6R6", "twitter": "None", "instagram": "None", "facebook": "None", "youtube": "None", "website": "None", "summary": "None", "logo": "None", "latitude": 51.084342470150396, "longitude": -113.9576636413471}, "802374777RR0001": {"name": "Guruduwara Sahib Durham Region", "designationCode": "C", "categoryCode": "62", "address": "71 SILVERBIRCH PLACE,", "city": "WHITBY", "province": "ON", "country": "CA", "postalCode": "L1R1X5", "twitter": "None", "instagram": "None", "facebook": "None", "youtube": "None", "website": "None", "summary": "None", "logo": "None", "latitude": 43.91318046047076, "longitude": -78.94904614224707}, "721443927RR0001": {"name": "Guts & Roses Inc.", "designationCode": "C", "categoryCode": "11", "address": "400 OAK POINT HWY", "city": "WINNIPEG", "province": "MB", "country": "CA", "postalCode": "R2R1V1", "twitter": "None", "instagram": "None", "facebook": "None", "youtube": "None", "website": "None", "summary": "None", "logo": "None", "latitude": 49.93664294555401, "longitude": -97.22311367144628}, "805814316RR0001": {"name": "Guyana Help the Kids Organization", "designationCode": "C", "categoryCode": "10", "address": "2365 FINCH AVENUE WEST        SUITE 203", "city": "TORONTO", "province": "ON", "country": "CA", "postalCode": "M9M2W8", "twitter": "None", "instagram": "None", "facebook": "None", "youtube": "None", "website": "None", "summary": "None", "logo": "None", "latitude": 43.75184175044749, "longitude": -79.54327514611356}, "778430124RR0001": {"name": "Guzun Ch'ah \"Good Way\"", "designationCode": "C", "categoryCode": "21", "address": "PO BOX 168 HWY 20", "city": "ALEXIS CREEK", "province": "BC", "country": "CA", "postalCode": "V0L1A0", "twitter": "None", "instagram": "None", "facebook": "None", "youtube": "None", "website": "None", "summary": "None", "logo": "None"}, "136518578RR0001": {"name": "GymnO Lanaudi\u00e8re", "designationCode": "C", "categoryCode": "56", "address": "130, RUE VALMONT", "city": "REPENTIGNY", "province": "QC", "country": "CA", "postalCode": "J5Y1N9", "twitter": "None", "instagram": "None", "facebook": "None", "youtube": "None", "website": "None", "summary": "None", "logo": "None", "latitude": 45.765119654134985, "longitude": -73.43549179840126}, "834188831RR0001": {"name": "GymnO Laurentides", "designationCode": "C", "categoryCode": "56", "address": "1155 AV DU PARC", "city": "SAINT-JEROME", "province": "QC", "country": "CA", "postalCode": "J7Z6X6", "twitter": "None", "instagram": "None", "facebook": "None", "youtube": "None", "website": "None", "summary": "None", "logo": "None", "latitude": 45.77150327479326, "longitude": -73.97685098493409}, "133924415RR0001": {"name": "GymnO Laval", "designationCode": "C", "categoryCode": "09", "address": "2465, RUE HONORE-MERCIER", "city": "LAVAL", "province": "QC", "country": "CA", "postalCode": "H7L2S9", "twitter": "None", "instagram": "None", "facebook": "None", "youtube": "None", "website": "None", "summary": "None", "logo": "None", "latitude": 45.60411285815697, "longitude": -73.78189520347372}, "891181919RR0001": {"name": "GymnO Montr\u00e9al", "designationCode": "C", "categoryCode": "56", "address": "660 VILLERAY                  LOCAL 2.109", "city": "MONTR\u00c9AL", "province": "QC", "country": "CA", "postalCode": "H2R1J1", "twitter": "None", "instagram": "None", "facebook": "None", "youtube": "None", "website": "None", "summary": "None", "logo": "None", "latitude": 45.54332852316931, "longitude": -73.62167189589721}, "819550245RR0001": {"name": "Gymtastics Play-It-Forward Projects", "designationCode": "C", "categoryCode": "09", "address": "160-7260 12 STREET SOUTHEAST", "city": "CALGARY", "province": "AB", "country": "CA", "postalCode": "T2H2S5", "twitter": "None", "instagram": "None", "facebook": "None", "youtube": "None", "website": "None", "summary": "None", "logo": "None", "latitude": 50.98944574854292, "longitude": -114.03688832523548}, "886868488RR0001": {"name": "GABARUS CEMETERIES ASSOCIATION", "designationCode": "C", "categoryCode": "59", "address": "8819 GABARUS HWY", "city": "GABARUS", "province": "NS", "country": "CA", "postalCode": "B1K3S4", "twitter": "None", "instagram": "None", "facebook": "None", "youtube": "None", "website": "None", "summary": "None", "logo": "None", "latitude": 45.83774387705575, "longitude": -60.14021374909116}, "118934454RR0001": {"name": "GABRIEL DUMONT INSTITUTE OF NATIVE STUDIES AND APPLIED RESEARCH, Inc.", "designationCode": "C", "categoryCode": "20", "address": "917-22ND STREET WEST", "city": "SASKATOON", "province": "SK", "country": "CA", "postalCode": "S7M0R9", "twitter": "None", "instagram": "None", "facebook": "None", "youtube": "None", "website": "None", "summary": "None", "logo": "None", "latitude": 52.129157481245464, "longitude": -106.6840335}, "131950826RR0001": {"name": "GABRIEL DUMONT NON-PROFIT HOMES (METRO TORONTO) INC", "designationCode": "C", "categoryCode": "09", "address": "114A-4201 KINGSTON RD.", "city": "SCARBOROUGH", "province": "ON", "country": "CA", "postalCode": "M1E5B3", "twitter": "None", "instagram": "None", "facebook": "None", "youtube": "None", "website": "None", "summary": "None", "logo": "None", "latitude": 43.76023828697566, "longitude": -79.19624713223509}, "890088941RR0001": {"name": "GABRIELA MISTRAL LATIN AMERICAN SCHOOL SOCIETY", "designationCode": "C", "categoryCode": "20", "address": "PO BOX 1592  STN MAIN", "city": "EDMONTON", "province": "AB", "country": "CA", "postalCode": "T5J2N9", "twitter": "None", "instagram": "None", "facebook": "None", "youtube": "None", "website": "None", "summary": "None", "logo": "None", "latitude": 53.54623500000005, "longitude": -113.49037249999994}, "874361892RR0001": {"name": "GABRIOLA ARTS COUNCIL", "designationCode": "C", "categoryCode": "22", "address": "PO BOX 387", "city": "GABRIOLA", "province": "BC", "country": "CA", "postalCode": "V0R1X0", "twitter": "None", "instagram": "None", "facebook": "None", "youtube": "None", "website": "None", "summary": "None", "logo": "None", "latitude": 49.18637400000006, "longitude": -123.82815049999994}, "118934462RR0001": {"name": "GABRIOLA FELLOWSHIP CHURCH", "designationCode": "C", "categoryCode": "39", "address": "PO BOX 268", "city": "GABRIOLA", "province": "BC", "country": "CA", "postalCode": "V0R1X0", "twitter": "None", "instagram": "None", "facebook": "None", "youtube": "None", "website": "None", "summary": "None", "logo": "None", "latitude": 49.18637400000006, "longitude": -123.82815049999994}, "851930586RR0001": {"name": "GABRIOLA HEALTH CARE FOUNDATION", "designationCode": "C", "categoryCode": "11", "address": "PO BOX 295", "city": "GABRIOLA", "province": "BC", "country": "CA", "postalCode": "V0R1X0", "twitter": "None", "instagram": "None", "facebook": "None", "youtube": "None", "website": "None", "summary": "None", "logo": "None", "latitude": 49.18637400000006, "longitude": -123.82815049999994}, "118934470RR0001": {"name": "GABRIOLA HISTORICAL AND MUSEUM SOCIETY", "designationCode": "C", "categoryCode": "52", "address": "BOX 213", "city": "GABRIOLA ISLAND", "province": "BC", "country": "CA", "postalCode": "V0R1X0", "twitter": "None", "instagram": "None", "facebook": "None", "youtube": "None", "website": "None", "summary": "None", "logo": "None", "latitude": 49.196676369791234, "longitude": -123.86085767440564}, "118934488RR0001": {"name": "GABRIOLA ISLAND COMMUNITY HALL ASSOCIATION", "designationCode": "C", "categoryCode": "56", "address": "PO BOX 205", "city": "GABRIOLA ISLAND", "province": "BC", "country": "CA", "postalCode": "V0R1X0", "twitter": "None", "instagram": "None", "facebook": "None", "youtube": "None", "website": "None", "summary": "None", "logo": "None", "latitude": 49.196676369791234, "longitude": -123.86085767440564}, "131816282RR0001": {"name": "GABRIOLA ISLAND RECYCLING ORGANIZATION", "designationCode": "C", "categoryCode": "09", "address": "700 TIN CAN ALLEY", "city": "GABRIOLA", "province": "BC", "country": "CA", "postalCode": "V0R1X3", "twitter": "None", "instagram": "None", "facebook": "None", "youtube": "None", "website": "None", "summary": "None", "logo": "None", "latitude": 49.176523694723656, "longitude": -123.83193782548895}, "846205342RR0001": {"name": "GABRIOLA LAND AND TRAILS TRUST", "designationCode": "C", "categoryCode": "52", "address": "2235 NORTH ROAD", "city": "GABRIOLA", "province": "BC", "country": "CA", "postalCode": "V0R1X7", "twitter": "None", "instagram": "None", "facebook": "None", "youtube": "None", "website": "None", "summary": "None", "logo": "None", "latitude": 49.15567109339855, "longitude": -123.75782834812667}, "107410615RR0001": {"name": "GABRIOLA NURSERY SCHOOL SOCIETY", "designationCode": "C", "categoryCode": "20", "address": "BOX 18", "city": "GABRIOLA ISLAND", "province": "BC", "country": "CA", "postalCode": "V0R1X0", "twitter": "None", "instagram": "None", "facebook": "None", "youtube": "None", "website": "None", "summary": "None", "logo": "None", "latitude": 49.196676369791234, "longitude": -123.86085767440564}, "866657935RR0001": {"name": "GABRIOLA RESCUE OF WILDLIFE SOCIETY (GROWLS)", "designationCode": "C", "categoryCode": "54", "address": "P.O.BOX 334", "city": "GABRIOLA ISLAND", "province": "BC", "country": "CA", "postalCode": "V0R1X0", "twitter": "None", "instagram": "None", "facebook": "None", "youtube": "None", "website": "None", "summary": "None", "logo": "None", "latitude": 49.196676369791234, "longitude": -123.86085767440564}, "118934504RR0001": {"name": "GABRIOLA UNITED CHURCH", "designationCode": "C", "categoryCode": "44", "address": "2600 SOUTH ROAD", "city": "GABRIOLA", "province": "BC", "country": "CA", "postalCode": "V0R1X7", "twitter": "None", "instagram": "None", "facebook": "None", "youtube": "None", "website": "None", "summary": "None", "logo": "None", "latitude": 49.135235742915235, "longitude": -123.72779044636589}, "118934512RR0001": {"name": "GADEN CHOLING MAHAYANA BUDDHIST MEDITATION CENTRE", "designationCode": "C", "categoryCode": "35", "address": "637 CHRISTIE ST", "city": "TORONTO", "province": "ON", "country": "CA", "postalCode": "M6G3E6", "twitter": "None", "instagram": "None", "facebook": "None", "youtube": "None", "website": "None", "summary": "None", "logo": "None", "latitude": 43.68077962254022, "longitude": -79.42528697472457}, "896260718RR0001": {"name": "GADEN FOR THE WEST INTERPRETING AND INTEGRATING GELUGPA TIBETAN BUDDHISM", "designationCode": "C", "categoryCode": "35", "address": "131 WEST 15TH AVENUE", "city": "VANCOUVER", "province": "BC", "country": "CA", "postalCode": "V5Y1X8", "twitter": "None", "instagram": "None", "facebook": "None", "youtube": "None", "website": "None", "summary": "None", "logo": "None", "latitude": 49.2576125115412, "longitude": -123.1081737485429}, "855854972RR0001": {"name": "GADEN RELIEF PROJECTS", "designationCode": "C", "categoryCode": "09", "address": "637 CHRISTIE STREET", "city": "TORONTO", "province": "ON", "country": "CA", "postalCode": "M6G3E6", "twitter": "None", "instagram": "None", "facebook": "None", "youtube": "None", "website": "None", "summary": "None", "logo": "None", "latitude": 43.68077962254022, "longitude": -79.42528697472457}, "131021198RR0001": {"name": "GADEN SAMTEN LING TIBETAN BUDDHIST MEDITATION SOCIETY", "designationCode": "C", "categoryCode": "35", "address": "11403 101 ST NW", "city": "EDMONTON", "province": "AB", "country": "CA", "postalCode": "T5G2A9", "twitter": "None", "instagram": "None", "facebook": "None", "youtube": "None", "website": "None", "summary": "None", "logo": "None", "latitude": 53.56446274854292, "longitude": -113.49366422352728}, "141049783RR0001": {"name": "GADSBY CHARITABLE TRUST", "designationCode": "B", "categoryCode": "39", "address": "3425 2 AVENUE SOUTH", "city": "LETHBRIDGE", "province": "AB", "country": "CA", "postalCode": "T1J4V1", "twitter": "None", "instagram": "None", "facebook": "None", "youtube": "None", "website": "None", "summary": "None", "logo": "None", "latitude": 49.696839530439966, "longitude": -112.78914308381903}, "863849212RR0001": {"name": "GAEL FORCE FOUNDATION", "designationCode": "A", "categoryCode": "23", "address": "2001 CARLING AVE LEVEL P2", "city": "OTTAWA", "province": "ON", "country": "CA", "postalCode": "K2A3W5", "twitter": "None", "instagram": "None", "facebook": "None", "youtube": "None", "website": "None", "summary": "None", "logo": "None", "latitude": 45.37345927257757, "longitude": -75.76333336000329}, "118934538RR0001": {"name": "GAELIC COLLEGE FOUNDATION", "designationCode": "A", "categoryCode": "20", "address": "PO BOX 80", "city": "ENGLISHTOWN", "province": "NS", "country": "CA", "postalCode": "B0C1H0", "twitter": "None", "instagram": "None", "facebook": "None", "youtube": "None", "website": "None", "summary": "None", "logo": "None", "latitude": 46.28038000000004, "longitude": -60.54481999999996}, "890819808RR0001": {"name": "GAGETOWN AND AREA HEALTH SERVICES ASSOCIATION INC.", "designationCode": "C", "categoryCode": "19", "address": "35 TILLEY RD", "city": "GAGETOWN", "province": "NB", "country": "CA", "postalCode": "E5M1A7", "twitter": "None", "instagram": "None", "facebook": "None", "youtube": "None", "website": "None", "summary": "None", "logo": "None", "latitude": 45.7809306397369, "longitude": -66.14580055655212}, "107410896RR0001": {"name": "GAGETOWN GRAND LAKE PASTORAL CHARGE", "designationCode": "C", "categoryCode": "44", "address": "13 GUNTER SHORES LANE", "city": "JEMSEG", "province": "NB", "country": "CA", "postalCode": "E4C3Y1", "twitter": "None", "instagram": "None", "facebook": "None", "youtube": "None", "website": "None", "summary": "None", "logo": "None", "latitude": 45.85275300010222, "longitude": -66.12216995538402}, "118934603RR0001": {"name": "GAINSBOROUGH AND DISTRICT DONOR'S CHOICE", "designationCode": "A", "categoryCode": "05", "address": "PO BOX 275", "city": "GAINSBOROUGH", "province": "SK", "country": "CA", "postalCode": "S0C0Z0", "twitter": "None", "instagram": "None", "facebook": "None", "youtube": "None", "website": "None", "summary": "None", "logo": "None", "latitude": 49.16673000000003, "longitude": -101.45088999999996}, "118934629RR0001": {"name": "GAINSBOROUGH COOPERATIVE COMMUNITY CLUB INC.", "designationCode": "C", "categoryCode": "56", "address": "RR 3 COMP 34 SITE 60", "city": "PORTAGE LA PRAIRIE", "province": "MB", "country": "CA", "postalCode": "R1N3A3", "twitter": "None", "instagram": "None", "facebook": "None", "youtube": "None", "website": "None", "summary": "None", "logo": "None", "latitude": 49.97301900000005, "longitude": -98.29058299999993}, "888626264RR0001": {"name": "GAINSBOROUGH HEALTH AUXILIARY", "designationCode": "C", "categoryCode": "19", "address": "", "city": "GAINSBOROUGH", "province": "SK", "country": "CA", "postalCode": "S0C0Z0", "twitter": "None", "instagram": "None", "facebook": "None", "youtube": "None", "website": "None", "summary": "None", "logo": "None", "latitude": 49.16673000000003, "longitude": -101.45088999999996}, "892114760RR0001": {"name": "GAITWAY TO EQUINE EXPERIENCES FOUNDATION CENTRAL ALBERTA", "designationCode": "C", "categoryCode": "56", "address": "202 POPLAR CRES", "city": "SPRINGBROOK", "province": "AB", "country": "CA", "postalCode": "T4S1V4", "twitter": "None", "instagram": "None", "facebook": "None", "youtube": "None", "website": "None", "summary": "None", "logo": "None", "latitude": 52.17814553371332, "longitude": -113.87225401098506}, "833907892RR0001": {"name": "GAL SANGJA PRESBYTERIAN CHURCH", "designationCode": "C", "categoryCode": "39", "address": "11511 WILSON ST", "city": "MISSION", "province": "BC", "country": "CA", "postalCode": "V4S1B6", "twitter": "None", "instagram": "None", "facebook": "None", "youtube": "None", "website": "None", "summary": "None", "logo": "None", "latitude": 49.210940173931064, "longitude": -122.40369450870291}, "118934686RR0001": {"name": "GALAHAD AND DISTRICT AGRICULTURAL SOCIETY", "designationCode": "C", "categoryCode": "56", "address": "BOX 143", "city": "GALAHAD", "province": "AB", "country": "CA", "postalCode": "T0B1R0", "twitter": "None", "instagram": "None", "facebook": "None", "youtube": "None", "website": "None", "summary": "None", "logo": "None", "latitude": 52.51282000000003, "longitude": -111.92827999999997}, "118934702RR0001": {"name": "GALAHAD HEALTH CARE CENTRE AUXILIARY SOCIETY", "designationCode": "C", "categoryCode": "19", "address": "BOX 67", "city": "GALAHAD", "province": "AB", "country": "CA", "postalCode": "T0B1R0", "twitter": "None", "instagram": "None", "facebook": "None", "youtube": "None", "website": "None", "summary": "None", "logo": "None", "latitude": 52.51282000000003, "longitude": -111.92827999999997}, "118934728RR0001": {"name": "GALAHAD SENIOR CITIZENS FRIENDSHIP CLUB", "designationCode": "C", "categoryCode": "56", "address": "GD", "city": "GALAHAD", "province": "AB", "country": "CA", "postalCode": "T0B1R0", "twitter": "None", "instagram": "None", "facebook": "None", "youtube": "None", "website": "None", "summary": "None", "logo": "None", "latitude": 52.514044788798394, "longitude": -111.92645369345244}, "118934744RR0001": {"name": "GALE PRESBYTERIAN CHURCH", "designationCode": "C", "categoryCode": "37", "address": "10 BARNSWALLOW DRIVE", "city": "ELMIRA", "province": "ON", "country": "CA", "postalCode": "N3B0A8", "twitter": "None", "instagram": "None", "facebook": "None", "youtube": "None", "website": "None", "summary": "None", "logo": "None", "latitude": 43.60107285593043, "longitude": -80.57576437073675}, "119097673RR0001": {"name": "GALERIE & ATELIER LA CENTRALE ELECTRIQUE / POWERHOUSE GALLERY", "designationCode": "C", "categoryCode": "50", "address": "4296 BOUL. SAINT-LAURENT", "city": "MONTREAL", "province": "QC", "country": "CA", "postalCode": "H2W1Z3", "twitter": "None", "instagram": "None", "facebook": "None", "youtube": "None", "website": "None", "summary": "None", "logo": "None", "latitude": 45.518760724104204, "longitude": -73.58344222413287}, "134756212RR0001": {"name": "GALERIE B-312", "designationCode": "C", "categoryCode": "50", "address": "403-372 RUE SAINTE-CATHERINE O", "city": "MONTREAL", "province": "QC", "country": "CA", "postalCode": "H3B1A2", "twitter": "None", "instagram": "None", "facebook": "None", "youtube": "None", "website": "None", "summary": "None", "logo": "None", "latitude": 45.502655033330136, "longitude": -73.57032347325419}, "118934751RR0001": {"name": "GALERIE D'ART DU PARC INC.", "designationCode": "C", "categoryCode": "22", "address": "CP 871                        864 DES URSULINES", "city": "TROIS-RIVIERES", "province": "QC", "country": "CA", "postalCode": "G9A5J9", "twitter": "None", "instagram": "None", "facebook": "None", "youtube": "None", "website": "None", "summary": "None", "logo": "None", "latitude": 46.34289436831319, "longitude": -72.53849738663503}, "118934769RR0001": {"name": "GALERIE RESTIGOUCHE GALLERY", "designationCode": "C", "categoryCode": "50", "address": "39 ANDREW STREET              CP 674", "city": "CAMPBELLTON", "province": "NB", "country": "CA", "postalCode": "E3N3H1", "twitter": "None", "instagram": "None", "facebook": "None", "youtube": "None", "website": "None", "summary": "None", "logo": "None", "latitude": 48.00348379349651, "longitude": -66.67158667185032}, "128793205RR0001": {"name": "GALERIE SANS NOM COOP LTEE", "designationCode": "C", "categoryCode": "22", "address": "140 RUE BOTSFORD              LOCAL 13 & 16", "city": "MONCTON", "province": "NB", "country": "CA", "postalCode": "E1C4X5", "twitter": "None", "instagram": "None", "facebook": "None", "youtube": "None", "website": "None", "summary": "None", "logo": "None", "latitude": 46.093260520947595, "longitude": -64.77775672193982}, "118934777RR0001": {"name": "GALIANO ACTIVITY CENTRE SOCIETY", "designationCode": "C", "categoryCode": "56", "address": "S12 C20", "city": "GALIANO ISLAND", "province": "BC", "country": "CA", "postalCode": "V0N1P0", "twitter": "None", "instagram": "None", "facebook": "None", "youtube": "None", "website": "None", "summary": "None", "logo": "None", "latitude": 48.90217438271622, "longitude": -123.36977755047218}, "886092998RR0001": {"name": "GALIANO CONSERVANCY ASSOCIATION", "designationCode": "C", "categoryCode": "52", "address": "BOX 1", "city": "GALIANO", "province": "BC", "country": "CA", "postalCode": "V0N1P0", "twitter": "None", "instagram": "None", "facebook": "None", "youtube": "None", "website": "None", "summary": "None", "logo": "None", "latitude": 48.90217438271622, "longitude": -123.36977755047218}, "878089929RR0001": {"name": "GALIANO ENSEMBLE SOCIETY", "designationCode": "C", "categoryCode": "22", "address": "PO BOX 50007                  15-1594 FAIRFIELD RD", "city": "VICTORIA", "province": "BC", "country": "CA", "postalCode": "V8S5L8", "twitter": "None", "instagram": "None", "facebook": "None", "youtube": "None", "website": "None", "summary": "None", "logo": "None", "latitude": 48.41235038444201, "longitude": -123.33847692893424}, "118934785RR0001": {"name": "GALIANO HEALTH CARE SOCIETY", "designationCode": "C", "categoryCode": "19", "address": "SITE 25 C30", "city": "GALIANO", "province": "BC", "country": "CA", "postalCode": "V0N1P0", "twitter": "None", "instagram": "None", "facebook": "None", "youtube": "None", "website": "None", "summary": "None", "logo": "None", "latitude": 48.90217438271622, "longitude": -123.36977755047218}, "890622046RR0001": {"name": "GALIANO ISLAND RECYCLING RESOURCES SOCIETY", "designationCode": "C", "categoryCode": "59", "address": "SUITE 103-9710 SECOND ST", "city": "SIDNEY", "province": "BC", "country": "CA", "postalCode": "V8L3C4", "twitter": "None", "instagram": "None", "facebook": "None", "youtube": "None", "website": "None", "summary": "None", "logo": "None", "latitude": 48.646961884984805, "longitude": -123.39663857080666}, "857540520RR0001": {"name": "GALIANO LIBRARY SOCIETY", "designationCode": "C", "categoryCode": "50", "address": "#2 - 1290 STURDIES BAY RD.", "city": "GALIANO ISLAND", "province": "BC", "country": "CA", "postalCode": "V0N1P0", "twitter": "None", "instagram": "None", "facebook": "None", "youtube": "None", "website": "None", "summary": "None", "logo": "None", "latitude": 48.88428543964584, "longitude": -123.3307821685741}, "890919186RR0001": {"name": "GALIANO LIONS PARK SOCIETY", "designationCode": "C", "categoryCode": "56", "address": "992, BURRILL ROAD", "city": "GALIANO ISLAND", "province": "BC", "country": "CA", "postalCode": "V0N1P0", "twitter": "None", "instagram": "None", "facebook": "None", "youtube": "None", "website": "None", "summary": "None", "logo": "None", "latitude": 48.87131143559907, "longitude": -123.31921825130262}, "878430164RR0001": {"name": "GALIANO MUSEUM SOCIETY", "designationCode": "C", "categoryCode": "50", "address": "S16 C16", "city": "GALIANO ISLAND", "province": "BC", "country": "CA", "postalCode": "V0N1P0", "twitter": "None", "instagram": "None", "facebook": "None", "youtube": "None", "website": "None", "summary": "None", "logo": "None", "latitude": 48.90217438271622, "longitude": -123.36977755047218}, "118934801RR0001": {"name": "GALILEE BIBLE CAMP (ONTARIO)", "designationCode": "C", "categoryCode": "56", "address": "203 CAMP GALILEE LANE         RR 1", "city": "HALEY STATION", "province": "ON", "country": "CA", "postalCode": "K0J1Y0", "twitter": "None", "instagram": "None", "facebook": "None", "youtube": "None", "website": "None", "summary": "None", "logo": "None", "latitude": 45.566306882372075, "longitude": -76.7532578654095}, "888047479RR0001": {"name": "GALILEE KOREAN PRESBYTERIAN CHURCH", "designationCode": "C", "categoryCode": "37", "address": "200 - 761 CARDERO ST", "city": "VANCOUVER", "province": "BC", "country": "CA", "postalCode": "V6G2G3", "twitter": "None", "instagram": "None", "facebook": "None", "youtube": "None", "website": "None", "summary": "None", "logo": "None", "latitude": 49.289908368313185, "longitude": -123.13170993632049}, "865127120RR0001": {"name": "GALILEE METHODIST CHURCH", "designationCode": "C", "categoryCode": "39", "address": "670 EGLINTON AVENUE EAST", "city": "TORONTO", "province": "ON", "country": "CA", "postalCode": "M4G2K4", "twitter": "None", "instagram": "None", "facebook": "None", "youtube": "None", "website": "None", "summary": "None", "logo": "None", "latitude": 43.71203018737357, "longitude": -79.37254944491885}, "130754153RR0001": {"name": "GALILEE MISSION CENTRE OF ARNPRIOR", "designationCode": "C", "categoryCode": "20", "address": "398 JOHN ST NORTH", "city": "ARNPRIOR", "province": "ON", "country": "CA", "postalCode": "K7S2P6", "twitter": "None", "instagram": "None", "facebook": "None", "youtube": "None", "website": "None", "summary": "None", "logo": "None", "latitude": 45.442991237635944, "longitude": -76.35207153081535}, "108088576RR0001": {"name": "GALILEE PRESBYTERIAN CHURCH", "designationCode": "C", "categoryCode": "37", "address": "1183 DAVENPORT RD", "city": "TORONTO", "province": "ON", "country": "CA", "postalCode": "M6H2G7", "twitter": "None", "instagram": "None", "facebook": "None", "youtube": "None", "website": "None", "summary": "None", "logo": "None", "latitude": 43.67437764888353, "longitude": -79.43365982347514}, "891780975RR0001": {"name": "GALIN FOUNDATION", "designationCode": "B", "categoryCode": "03", "address": "9 AVA RD", "city": "TORONTO", "province": "ON", "country": "CA", "postalCode": "M5P1X8", "twitter": "None", "instagram": "None", "facebook": "None", "youtube": "None", "website": "None", "summary": "None", "logo": "None", "latitude": 43.69793884205679, "longitude": -79.41770407048882}, "869350355RR0001": {"name": "GALLANOUGH RESOURCE CENTRE", "designationCode": "C", "categoryCode": "55", "address": "1 BROOKE ST", "city": "THORNHILL", "province": "ON", "country": "CA", "postalCode": "L4J2K7", "twitter": "None", "instagram": "None", "facebook": "None", "youtube": "None", "website": "None", "summary": "None", "logo": "None", "latitude": 43.81030227287659, "longitude": -79.42611621453408}, "880653902RR0001": {"name": "GALLERY OF HUMAN MIGRATION - GALERIE DE MIGRATION HUMAINE", "designationCode": "C", "categoryCode": "50", "address": "200 YORKLAND BLVD             SUITE 710", "city": "TORONTO", "province": "ON", "country": "CA", "postalCode": "M2J5C1", "twitter": "None", "instagram": "None", "facebook": "None", "youtube": "None", "website": "None", "summary": "None", "logo": "None", "latitude": 43.772632784349916, "longitude": -79.33606675310187}, "118934835RR0001": {"name": "GALLERY SINGERS", "designationCode": "C", "categoryCode": "22", "address": "1238 YARMOUTH ST", "city": "PORT COQUITLAM", "province": "BC", "country": "CA", "postalCode": "V3C5H7", "twitter": "None", "instagram": "None", "facebook": "None", "youtube": "None", "website": "None", "summary": "None", "logo": "None", "latitude": 49.235793097697496, "longitude": -122.77321274464776}, "119199933RR0001": {"name": "GALLERY STRATFORD", "designationCode": "C", "categoryCode": "22", "address": "54 ROMEO STREET", "city": "STRATFORD", "province": "ON", "country": "CA", "postalCode": "N5A4S9", "twitter": "None", "instagram": "None", "facebook": "None", "youtube": "None", "website": "None", "summary": "None", "logo": "None", "latitude": 43.377093, "longitude": -80.96317882070517}, "119247310RR0001": {"name": "GALLERY 44 CENTRE FOR CONTEMPORARY PHOTOGRAPHY", "designationCode": "C", "categoryCode": "22", "address": "120-401 RICHMOND ST W", "city": "TORONTO", "province": "ON", "country": "CA", "postalCode": "M5V3A8", "twitter": "None", "instagram": "None", "facebook": "None", "youtube": "None", "website": "None", "summary": "None", "logo": "None", "latitude": 43.64792255983254, "longitude": -79.39538964100468}, "853178176RR0001": {"name": "GALLERY 7 THEATRE AND PERFORMING ARTS SOCIETY", "designationCode": "C", "categoryCode": "22", "address": "PO BOX 825", "city": "ABBOTSFORD", "province": "BC", "country": "CA", "postalCode": "V2T7A2", "twitter": "None", "instagram": "None", "facebook": "None", "youtube": "None", "website": "None", "summary": "None", "logo": "None", "latitude": 49.05161700000005, "longitude": -122.32930399999994}, "894090661RR0001": {"name": "GALLOWAY CEMETERY COMMITTEE", "designationCode": "C", "categoryCode": "59", "address": "23 SUNDANE WAY", "city": "REXTON", "province": "NB", "country": "CA", "postalCode": "E4W0B3", "twitter": "None", "instagram": "None", "facebook": "None", "youtube": "None", "website": "None", "summary": "None", "logo": "None", "latitude": 46.63795864204161, "longitude": -64.87659468105815}, "830867925RR0001": {"name": "GALLOWAY FOUNDATION", "designationCode": "B", "categoryCode": "03", "address": "PO BOX 20059 RPO BRUNSWICK SQ", "city": "SAINT JOHN", "province": "NB", "country": "CA", "postalCode": "E2L5B2", "twitter": "None", "instagram": "None", "facebook": "None", "youtube": "None", "website": "None", "summary": "None", "logo": "None", "latitude": 45.28015277223757, "longitude": -66.05321408822462}, "883786782RR0001": {"name": "GALMELSAN CHURCH", "designationCode": "C", "categoryCode": "37", "address": "19716 16 AVE", "city": "LANGLEY", "province": "BC", "country": "CA", "postalCode": "V2Z1K1", "twitter": "None", "instagram": "None", "facebook": "None", "youtube": "None", "website": "None", "summary": "None", "logo": "None", "latitude": 49.031030876641665, "longitude": -122.67712600983572}, "893342865RR0001": {"name": "GALT #8 MINE HISTORIC SITE SOCIETY", "designationCode": "C", "categoryCode": "52", "address": "P.O. BOX 30034", "city": "LETHBRIDGE", "province": "AB", "country": "CA", "postalCode": "T1J4X3", "twitter": "None", "instagram": "None", "facebook": "None", "youtube": "None", "website": "None", "summary": "None", "logo": "None", "latitude": 49.69383000000006, "longitude": -112.83373249999994}, "119288918RR0349": {"name": "GALT CONGREGATION OF JEHOVAH'S WITNESSES CAMBRIDGE ONTARIO", "designationCode": "C", "categoryCode": "61", "address": "36 TAYLOR AVENUE", "city": "CAMBRIDGE", "province": "ON", "country": "CA", "postalCode": "N1R5M4", "twitter": "None", "instagram": "None", "facebook": "None", "youtube": "None", "website": "None", "summary": "None", "logo": "None", "latitude": 43.35455991312254, "longitude": -80.29177325509242}, "118934876RR0001": {"name": "GALT HORTICULTURAL SOCIETY", "designationCode": "C", "categoryCode": "56", "address": "1777 SEATON RD", "city": "CAMBRIDGE", "province": "ON", "country": "CA", "postalCode": "N1R5S2", "twitter": "None", "instagram": "None", "facebook": "None", "youtube": "None", "website": "None", "summary": "None", "logo": "None", "latitude": 43.34685900000005, "longitude": -80.27280349999994}, "118934884RR0001": {"name": "GALT KILTIE BAND", "designationCode": "C", "categoryCode": "22", "address": "124 FOREST RD.", "city": "CAMBRIDGE", "province": "ON", "country": "CA", "postalCode": "N1S3B7", "twitter": "None", "instagram": "None", "facebook": "None", "youtube": "None", "website": "None", "summary": "None", "logo": "None", "latitude": 43.3533324970858, "longitude": -80.32643827410679}, "897380960RR0001": {"name": "GALT LITTLE THEATRE INCORPORATED", "designationCode": "C", "categoryCode": "22", "address": "47 WATER ST S", "city": "CAMBRIDGE", "province": "ON", "country": "CA", "postalCode": "N1R3C8", "twitter": "None", "instagram": "None", "facebook": "None", "youtube": "None", "website": "None", "summary": "None", "logo": "None", "latitude": 43.35685996280802, "longitude": -80.31538479139039}, "118934892RR0001": {"name": "GALT MEETING ROOMS CORPORATION", "designationCode": "C", "categoryCode": "39", "address": "11 WOOLLEY ST", "city": "CAMBRIDGE", "province": "ON", "country": "CA", "postalCode": "N1R5J6", "twitter": "None", "instagram": "None", "facebook": "None", "youtube": "None", "website": "None", "summary": "None", "logo": "None", "latitude": 43.35418227866575, "longitude": -80.29427818855699}, "867992323RR0001": {"name": "GAM GROUPE D'ACCES A LA MONTMORENCY", "designationCode": "C", "categoryCode": "59", "address": "2 RUE DU BOULEAU", "city": "STE-BRIGITTE-DE-LAVAL", "province": "QC", "country": "CA", "postalCode": "G0A3K0", "twitter": "None", "instagram": "None", "facebook": "None", "youtube": "None", "website": "None", "summary": "None", "logo": "None", "latitude": 46.94680496032651, "longitude": -71.46706613347584}, "842709230RR0001": {"name": "GAMA Life Canada, Inc.", "designationCode": "B", "categoryCode": "13", "address": "3020 BROCK STREET NORTH", "city": "WHITBY", "province": "ON", "country": "CA", "postalCode": "L1R3J7", "twitter": "None", "instagram": "None", "facebook": "None", "youtube": "None", "website": "None", "summary": "None", "logo": "None", "latitude": 43.89795256270478, "longitude": -78.95013642676008}, "133062158RR0001": {"name": "GAMBIER COMMUNITY CENTRE SOCIETY", "designationCode": "C", "categoryCode": "55", "address": "721 ANDY'S BAY RD", "city": "GAMBIER ISLAND", "province": "BC", "country": "CA", "postalCode": "V0N1V0", "twitter": "None", "instagram": "None", "facebook": "None", "youtube": "None", "website": "None", "summary": "None", "logo": "None", "latitude": 49.46014999939053, "longitude": -123.43769986130928}, "889252862RR0001": {"name": "GAMBIER ISLAND CONSERVANCY", "designationCode": "C", "categoryCode": "52", "address": "1005 WEST BAY RD", "city": "GAMBIER ISLAND", "province": "BC", "country": "CA", "postalCode": "V0N1V0", "twitter": "None", "instagram": "None", "facebook": "None", "youtube": "None", "website": "None", "summary": "None", "logo": "None", "latitude": 49.451398865731846, "longitude": -123.43418704103165}}