{"118903632RR0001": {"name": "EVANGELICAL LUTHERAN EMMANUEL CHURCH", "designationCode": "C", "categoryCode": "32", "address": "BOX 88", "city": "VIBANK", "province": "SK", "country": "CA", "postalCode": "S0G4Y0", "twitter": "None", "instagram": "None", "facebook": "None", "youtube": "None", "website": "None", "summary": "None", "logo": "None", "latitude": 50.33337000000006, "longitude": -103.93436999999994}, "890007263RR0001": {"name": "EVANGELICAL LUTHERAN EMMAUS CHURCH", "designationCode": "C", "categoryCode": "32", "address": "BOX 43", "city": "DAVIN", "province": "SK", "country": "CA", "postalCode": "S0G1B0", "twitter": "None", "instagram": "None", "facebook": "None", "youtube": "None", "website": "None", "summary": "None", "logo": "None", "latitude": 50.38299000000006, "longitude": -104.11103999999995}, "132003641RR0001": {"name": "EVANGELICAL LUTHERAN IMMANUEL CHURCH", "designationCode": "C", "categoryCode": "32", "address": "7170 WELLINGTON ROAD 30, RR1", "city": "ARISS", "province": "ON", "country": "CA", "postalCode": "N0B1B0", "twitter": "None", "instagram": "None", "facebook": "None", "youtube": "None", "website": "None", "summary": "None", "logo": "None", "latitude": 43.56499200000006, "longitude": -80.37922399999994}, "118903681RR0001": {"name": "EVANGELICAL MENNONITE BRETHREN CHURCH", "designationCode": "C", "categoryCode": "34", "address": "BOX 236", "city": "GRUNTHAL", "province": "MB", "country": "CA", "postalCode": "R0A0R0", "twitter": "None", "instagram": "None", "facebook": "None", "youtube": "None", "website": "None", "summary": "None", "logo": "None", "latitude": 49.40668000000005, "longitude": -96.85131999999999}, "107354466RR0001": {"name": "EVANGELICAL MENNONITE CHURCH", "designationCode": "C", "categoryCode": "34", "address": "BOX 40", "city": "KOLA", "province": "MB", "country": "CA", "postalCode": "R0M1B0", "twitter": "None", "instagram": "None", "facebook": "None", "youtube": "None", "website": "None", "summary": "None", "logo": "None", "latitude": 49.84236000000004, "longitude": -101.36586999999997}, "118903707RR0001": {"name": "EVANGELICAL MENNONITE CHURCH", "designationCode": "C", "categoryCode": "34", "address": "422 MAIN ST", "city": "STEINBACH", "province": "MB", "country": "CA", "postalCode": "R5G1Z5", "twitter": "None", "instagram": "None", "facebook": "None", "youtube": "None", "website": "None", "summary": "None", "logo": "None", "latitude": 49.52330146412251, "longitude": -96.68015736934875}, "118903756RR0001": {"name": "EVANGELICAL MENNONITE CHURCH", "designationCode": "C", "categoryCode": "34", "address": "BOX 125", "city": "WYMARK", "province": "SK", "country": "CA", "postalCode": "S0N2Y0", "twitter": "None", "instagram": "None", "facebook": "None", "youtube": "None", "website": "None", "summary": "None", "logo": "None", "latitude": 50.10697000000005, "longitude": -107.73681999999997}, "107354417RR0001": {"name": "EVANGELICAL MENNONITE CHURCH OF BLUMENORT", "designationCode": "C", "categoryCode": "34", "address": "BOX 114", "city": "BLUMENORT", "province": "MB", "country": "CA", "postalCode": "R0A0C0", "twitter": "None", "instagram": "None", "facebook": "None", "youtube": "None", "website": "None", "summary": "None", "logo": "None", "latitude": 49.604250000000036, "longitude": -96.69016999999997}, "118903780RR0001": {"name": "EVANGELICAL MENNONITE CHURCH OF PLEASANT VALLEY", "designationCode": "C", "categoryCode": "34", "address": "BOX 328", "city": "ROSENORT", "province": "MB", "country": "CA", "postalCode": "R0G1W0", "twitter": "None", "instagram": "None", "facebook": "None", "youtube": "None", "website": "None", "summary": "None", "logo": "None", "latitude": 49.45817000000005, "longitude": -97.43545999999998}, "131633984RR0001": {"name": "EVANGELICAL MENNONITE CHURCH,", "designationCode": "C", "categoryCode": "34", "address": "1011 MUNROE AVE", "city": "WINNIPEG", "province": "MB", "country": "CA", "postalCode": "R2K1J7", "twitter": "None", "instagram": "None", "facebook": "None", "youtube": "None", "website": "None", "summary": "None", "logo": "None", "latitude": 49.90937288816425, "longitude": -97.07265229043809}, "107354540RR0001": {"name": "EVANGELICAL MENNONITE MISSION CHURCH OF MORDEN", "designationCode": "C", "categoryCode": "34", "address": "601-1ST STREET", "city": "MORDEN", "province": "MB", "country": "CA", "postalCode": "R6M1V7", "twitter": "None", "instagram": "None", "facebook": "None", "youtube": "None", "website": "None", "summary": "None", "logo": "None", "latitude": 49.200132438186365, "longitude": -98.09163586612189}, "130566151RR0001": {"name": "EVANGELICAL MENNONITE MISSION CHURCH OF WINKLER INC", "designationCode": "C", "categoryCode": "34", "address": "600 SOUTHVIEW DR", "city": "WINKLER", "province": "MB", "country": "CA", "postalCode": "R6W2P7", "twitter": "None", "instagram": "None", "facebook": "None", "youtube": "None", "website": "None", "summary": "None", "logo": "None", "latitude": 49.17023154948393, "longitude": -97.94013316763807}, "106738727RR0001": {"name": "EVANGELICAL MENNONITE MISSION CONFERENCE", "designationCode": "C", "categoryCode": "34", "address": "BOX 189", "city": "AUSTIN", "province": "MB", "country": "CA", "postalCode": "R0H0C0", "twitter": "None", "instagram": "None", "facebook": "None", "youtube": "None", "website": "None", "summary": "None", "logo": "None", "latitude": 49.95037000000008, "longitude": -98.93634999999995}, "107354557RR0001": {"name": "EVANGELICAL MENNONITE MISSION CONFERENCE OF CANADA", "designationCode": "C", "categoryCode": "34", "address": "757 ST ANNE'S RD", "city": "WINNIPEG", "province": "MB", "country": "CA", "postalCode": "R2N4G6", "twitter": "None", "instagram": "None", "facebook": "None", "youtube": "None", "website": "None", "summary": "None", "logo": "None", "latitude": 49.82099745657561, "longitude": -97.08168806849828}, "107354573RR0001": {"name": "EVANGELICAL MISSION CHURCH", "designationCode": "C", "categoryCode": "39", "address": "BOX 381", "city": "VERMILION BAY", "province": "ON", "country": "CA", "postalCode": "P0V2V0", "twitter": "None", "instagram": "None", "facebook": "None", "youtube": "None", "website": "None", "summary": "None", "logo": "None", "latitude": 49.86185100000006, "longitude": -93.39024049999993}, "891607061RR0001": {"name": "EVANGELICAL MISSION TO UKRAINE", "designationCode": "C", "categoryCode": "47", "address": "14 COULAS CRES", "city": "WATERFORD", "province": "ON", "country": "CA", "postalCode": "N0E1Y0", "twitter": "None", "instagram": "None", "facebook": "None", "youtube": "None", "website": "None", "summary": "None", "logo": "None", "latitude": 42.92320171106246, "longitude": -80.28447623244273}, "893511436RR0001": {"name": "EVANGELICAL MISSIONARY CHURCH", "designationCode": "C", "categoryCode": "39", "address": "100 REDAN ST", "city": "ST THOMAS", "province": "ON", "country": "CA", "postalCode": "N5P1V3", "twitter": "None", "instagram": "None", "facebook": "None", "youtube": "None", "website": "None", "summary": "None", "logo": "None", "latitude": 42.7823529095892, "longitude": -81.17951762009021}, "107706525RR0001": {"name": "EVANGELICAL MISSIONARY CHURCH OF CANADA", "designationCode": "C", "categoryCode": "39", "address": "214 HIGHLAND RD. E.", "city": "KITCHENER", "province": "ON", "country": "CA", "postalCode": "N2M3W2", "twitter": "None", "instagram": "None", "facebook": "None", "youtube": "None", "website": "None", "summary": "None", "logo": "None", "latitude": 43.43754667000401, "longitude": -80.49195373700171}, "118903863RR0001": {"name": "EVANGELICAL NEW TESTAMENT ASSEMBLY", "designationCode": "C", "categoryCode": "39", "address": "12 BENTON ROAD", "city": "TORONTO", "province": "ON", "country": "CA", "postalCode": "M6M3G4", "twitter": "None", "instagram": "None", "facebook": "None", "youtube": "None", "website": "None", "summary": "None", "logo": "None", "latitude": 43.709300151537896, "longitude": -79.47152389038594}, "131789208RR0001": {"name": "EVANGELICAL PEACE LUTHERAN CHURCH,", "designationCode": "C", "categoryCode": "32", "address": "4606 48TH ST", "city": "LEDUC", "province": "AB", "country": "CA", "postalCode": "T9E5X4", "twitter": "None", "instagram": "None", "facebook": "None", "youtube": "None", "website": "None", "summary": "None", "logo": "None", "latitude": 53.261643185671474, "longitude": -113.54740021891006}, "118903897RR0002": {"name": "EVANGELICAL PENTECOSTAL CHURCH", "designationCode": "C", "categoryCode": "36", "address": "5116 RUE SAINT-URBAIN", "city": "MONTREAL", "province": "QC", "country": "CA", "postalCode": "H2T2W5", "twitter": "None", "instagram": "None", "facebook": "None", "youtube": "None", "website": "None", "summary": "None", "logo": "None", "latitude": 45.522089917277505, "longitude": -73.59439483640129}, "130522659RR0001": {"name": "EVANGELICAL TRACT DISTRIBUTORS,", "designationCode": "C", "categoryCode": "47", "address": "PO BOX 146", "city": "EDMONTON", "province": "AB", "country": "CA", "postalCode": "T5J2G9", "twitter": "None", "instagram": "None", "facebook": "None", "youtube": "None", "website": "None", "summary": "None", "logo": "None", "latitude": 53.54623500000005, "longitude": -113.49037249999994}, "889724761RR0001": {"name": "EVANGELICAL WORLD OUTREACH OF CANADA, INC.", "designationCode": "C", "categoryCode": "47", "address": "PO BOX 172                    LAMBETH STN", "city": "LONDON", "province": "ON", "country": "CA", "postalCode": "N6P1R1", "twitter": "None", "instagram": "None", "facebook": "None", "youtube": "None", "website": "None", "summary": "None", "logo": "None", "latitude": 42.91244761023706, "longitude": -81.30148110402438}, "871610341RR0001": {"name": "EVANGELINE PENTECOSTAL CAMP", "designationCode": "C", "categoryCode": "56", "address": "P.O. BOX 1291", "city": "TRURO", "province": "NS", "country": "CA", "postalCode": "B2N5H2", "twitter": "None", "instagram": "None", "facebook": "None", "youtube": "None", "website": "None", "summary": "None", "logo": "None", "latitude": 45.33651600000006, "longitude": -63.29351599999994}, "856218730RR0001": {"name": "EVANGELISCHE CHRISTENGEMEINDE INC.", "designationCode": "C", "categoryCode": "39", "address": "BOX 1612", "city": "STEINBACH", "province": "MB", "country": "CA", "postalCode": "R5G1N3", "twitter": "None", "instagram": "None", "facebook": "None", "youtube": "None", "website": "None", "summary": "None", "logo": "None", "latitude": 49.52572800000006, "longitude": -96.68393449999994}, "879999001RR0001": {"name": "EVANGELISM CANADA (A CHRIST CENTRED MINISTRY)", "designationCode": "C", "categoryCode": "39", "address": "P.O. BOX 151", "city": "FORT ASSINIBOINE", "province": "AB", "country": "CA", "postalCode": "T0G1A0", "twitter": "None", "instagram": "None", "facebook": "None", "youtube": "None", "website": "None", "summary": "None", "logo": "None", "latitude": 54.33400000000006, "longitude": -114.77396999999996}, "107354680RR0001": {"name": "EVANGELISM EXPLOSION CANADA", "designationCode": "C", "categoryCode": "47", "address": "P.O. BOX 64593-4630 UNIONVILLEHIGHWAY 7 EAST", "city": "MARKHAM", "province": "ON", "country": "CA", "postalCode": "L3R0M9", "twitter": "None", "instagram": "None", "facebook": "None", "youtube": "None", "website": "None", "summary": "None", "logo": "None", "latitude": 43.85650200000005, "longitude": -79.33982299999994}, "889803375RR0001": {"name": "EVANGELIST R D DAVIES, LIVING IN THE POWER OF THE WORD OUTREACH INC", "designationCode": "C", "categoryCode": "39", "address": "1825 SUZANNE ST", "city": "WINDSOR", "province": "ON", "country": "CA", "postalCode": "N9H1R6", "twitter": "None", "instagram": "None", "facebook": "None", "youtube": "None", "website": "None", "summary": "None", "logo": "None", "latitude": 42.23891462863881, "longitude": -83.06059715911668}, "888395993RR0001": {"name": "EVANS LAKE FOREST EDUCATION SOCIETY", "designationCode": "C", "categoryCode": "56", "address": "5 - 169 12TH AVE E", "city": "VANCOUVER", "province": "BC", "country": "CA", "postalCode": "V5T2G8", "twitter": "None", "instagram": "None", "facebook": "None", "youtube": "None", "website": "None", "summary": "None", "logo": "None", "latitude": 49.26028780978753, "longitude": -123.10145315903078}, "138434493RR0001": {"name": "EVANSBURG BAPTIST CHURCH", "designationCode": "C", "categoryCode": "31", "address": "BOX 459", "city": "EVANSBURG", "province": "AB", "country": "CA", "postalCode": "T0E0T0", "twitter": "None", "instagram": "None", "facebook": "None", "youtube": "None", "website": "None", "summary": "None", "logo": "None", "latitude": 53.59391000000005, "longitude": -115.02120999999994}, "118904317RR0001": {"name": "EVANSBURG, ALBERTA, CONGREGATION OF JEHOVAH'S WITNESSES", "designationCode": "C", "categoryCode": "61", "address": "P.O. BOX 959", "city": "EVANSBURG", "province": "AB", "country": "CA", "postalCode": "T0E0T0", "twitter": "None", "instagram": "None", "facebook": "None", "youtube": "None", "website": "None", "summary": "None", "logo": "None"}, "891715930RR0001": {"name": "EVELYN STEINBERG ALEXANDER FAMILY FOUNDATION/FONDATION DE LA FAMILLE EVELYN STEINBERG ALEXANDER", "designationCode": "B", "categoryCode": "03", "address": "1200 MCGILL COLLEGE           SUITE 1900", "city": "MONTREAL", "province": "QC", "country": "CA", "postalCode": "H3B4G7", "twitter": "None", "instagram": "None", "facebook": "None", "youtube": "None", "website": "None", "summary": "None", "logo": "None", "latitude": 45.501577964452785, "longitude": -73.57059570832115}, "887636132RR0001": {"name": "EVEN START FOR CHILDREN SOCIETY OF CALGARY", "designationCode": "C", "categoryCode": "21", "address": "BOX 73, 153 WOODBINE PO", "city": "CALGARY", "province": "AB", "country": "CA", "postalCode": "T2W6E4", "twitter": "None", "instagram": "None", "facebook": "None", "youtube": "None", "website": "None", "summary": "None", "logo": "None", "latitude": 50.93994378525265, "longitude": -114.12592773110296}, "123410011RR0001": {"name": "EVENING AUXILIARY TO THE ROYAL INLAND HOSPITAL", "designationCode": "C", "categoryCode": "19", "address": "201-1967 E. TRANS CDA HWY.", "city": "KAMLOOPS", "province": "BC", "country": "CA", "postalCode": "V2C4A4", "twitter": "None", "instagram": "None", "facebook": "None", "youtube": "None", "website": "None", "summary": "None", "logo": "None", "latitude": 50.67991500000005, "longitude": -120.27495949999994}, "892301169RR0001": {"name": "EVENING GROUP, WOMEN'S MISSIONARY SOCIETY, WESTERN DIVISION,FIRST PRESBYTERIAN CHURCH", "designationCode": "C", "categoryCode": "47", "address": "10025 105 ST NW", "city": "EDMONTON", "province": "AB", "country": "CA", "postalCode": "T5J1C8", "twitter": "None", "instagram": "None", "facebook": "None", "youtube": "None", "website": "None", "summary": "None", "logo": "None", "latitude": 53.53966845045878, "longitude": -113.50107528902446}, "131515025RR0001": {"name": "EVENING LIGHT TABERNACLE", "designationCode": "C", "categoryCode": "39", "address": "205 - 26 AZURE RD", "city": "WHITEHORSE", "province": "YT", "country": "CA", "postalCode": "Y1A6E1", "twitter": "None", "instagram": "None", "facebook": "None", "youtube": "None", "website": "None", "summary": "None", "logo": "None", "latitude": 60.777489258642184, "longitude": -135.164434223382}, "118904408RR0001": {"name": "EVENING LIGHT TABERNACLE (OF CALGARY)", "designationCode": "C", "categoryCode": "39", "address": "BOX 1239", "city": "TURNER VALLEY", "province": "AB", "country": "CA", "postalCode": "T0L2A0", "twitter": "None", "instagram": "None", "facebook": "None", "youtube": "None", "website": "None", "summary": "None", "logo": "None", "latitude": 50.663565, "longitude": -114.28559999999999}, "879963411RR0001": {"name": "EVENING MESSAGE TABERNACLE ASSOCIATION INC.", "designationCode": "C", "categoryCode": "39", "address": "BOX 704", "city": "PRINCE ALBERT", "province": "SK", "country": "CA", "postalCode": "S6V5S2", "twitter": "None", "instagram": "None", "facebook": "None", "youtube": "None", "website": "None", "summary": "None", "logo": "None", "latitude": 53.199456000000055, "longitude": -105.74863099999993}, "850858382RR0001": {"name": "EVENSTART FOR CHILDREN FOUNDATION OF CALGARY", "designationCode": "C", "categoryCode": "09", "address": "BOX 73153 WOODBINE POSTAL OUTL", "city": "CALGARY", "province": "AB", "country": "CA", "postalCode": "T2W6E4", "twitter": "None", "instagram": "None", "facebook": "None", "youtube": "None", "website": "None", "summary": "None", "logo": "None", "latitude": 50.93837811800179, "longitude": -114.13073252756176}, "840070635RR0001": {"name": "EVENTIDE FOUNDATION", "designationCode": "B", "categoryCode": "03", "address": "1250-1500 WEST GEORGIA STREET POST OFFICE BOX 62", "city": "VANCOUVER", "province": "BC", "country": "CA", "postalCode": "V6G2Z6", "twitter": "None", "instagram": "None", "facebook": "None", "youtube": "None", "website": "None", "summary": "None", "logo": "None", "latitude": 49.290187500000016, "longitude": -123.130035}, "101577294RR0001": {"name": "EVENTS EDMONTON", "designationCode": "C", "categoryCode": "56", "address": "10178-106 ST", "city": "EDMONTON", "province": "AB", "country": "CA", "postalCode": "T5J1H4", "twitter": "None", "instagram": "None", "facebook": "None", "youtube": "None", "website": "None", "summary": "None", "logo": "None", "latitude": 53.542492007790294, "longitude": -113.50292621818892}, "895154946RR0001": {"name": "EVER GREEN ENVIRONMENTAL CORPORATION", "designationCode": "A", "categoryCode": "13", "address": "P.O. BOX 26091                RPO LEMARCHANT", "city": "ST. JOHN'S", "province": "NL", "country": "CA", "postalCode": "A1E0A5", "twitter": "None", "instagram": "None", "facebook": "None", "youtube": "None", "website": "None", "summary": "None", "logo": "None", "latitude": 47.552361586092914, "longitude": -52.72492533865125}, "890681208RR0001": {"name": "EVER INCREASING MINISTRIES", "designationCode": "C", "categoryCode": "39", "address": "232 PRESTWICK POINT SE", "city": "CALGARY", "province": "AB", "country": "CA", "postalCode": "T2Z4Y8", "twitter": "None", "instagram": "None", "facebook": "None", "youtube": "None", "website": "None", "summary": "None", "logo": "None", "latitude": 50.92496067773697, "longitude": -113.96213642933829}, "861517126RR0001": {"name": "EVERDALE ENVIRONMENTAL LEARNING CENTRE", "designationCode": "C", "categoryCode": "29", "address": "5812 6TH LINE                 PO BOX 29", "city": "HILLSBURGH", "province": "ON", "country": "CA", "postalCode": "N0B1Z0", "twitter": "None", "instagram": "None", "facebook": "None", "youtube": "None", "website": "None", "summary": "None", "logo": "None", "latitude": 43.774756811914216, "longitude": -80.14670887327604}, "131815763RR0001": {"name": "EVERGREEN", "designationCode": "C", "categoryCode": "59", "address": "550 BAYVIEW AVE               SUITE 300", "city": "TORONTO", "province": "ON", "country": "CA", "postalCode": "M4W3X8", "twitter": "None", "instagram": "None", "facebook": "None", "youtube": "None", "website": "None", "summary": "None", "logo": "None", "latitude": 43.68336293398322, "longitude": -79.3651935301515}, "118904465RR0001": {"name": "EVERGREEN ACRES SENIOR CITIZENS HOME SOCIETY", "designationCode": "C", "categoryCode": "01", "address": "9 - 144 EVERGREEN PL", "city": "CLEARWATER", "province": "BC", "country": "CA", "postalCode": "V0E1N1", "twitter": "None", "instagram": "None", "facebook": "None", "youtube": "None", "website": "None", "summary": "None", "logo": "None", "latitude": 51.64611086563011, "longitude": -120.02091488510581}, "118904481RR0001": {"name": "EVERGREEN BAPTIST HOME", "designationCode": "C", "categoryCode": "01", "address": "1550 OXFORD ST", "city": "WHITE ROCK", "province": "BC", "country": "CA", "postalCode": "V4B3R5", "twitter": "None", "instagram": "None", "facebook": "None", "youtube": "None", "website": "None", "summary": "None", "logo": "None", "latitude": 49.03019301765525, "longitude": -122.81212851269204}, "892473455RR0001": {"name": "EVERGREEN BASIC NEEDS COMMITTEE INC.", "designationCode": "C", "categoryCode": "09", "address": "PO BOX 89", "city": "GIMLI", "province": "MB", "country": "CA", "postalCode": "R0C1B0", "twitter": "None", "instagram": "None", "facebook": "None", "youtube": "None", "website": "None", "summary": "None", "logo": "None", "latitude": 50.30677349294383, "longitude": -96.92898988377391}, "138936935RR0001": {"name": "EVERGREEN CATHOLIC SEPARATE REGIONAL DIV #2", "designationCode": "C", "categoryCode": "20", "address": "110-381 GROVE DR", "city": "SPRUCE GROVE", "province": "AB", "country": "CA", "postalCode": "T7X2Y9", "twitter": "None", "instagram": "None", "facebook": "None", "youtube": "None", "website": "None", "summary": "None", "logo": "None", "latitude": 53.55764555280214, "longitude": -113.88912083097696}, "888166667RR0001": {"name": "EVERGREEN CEMETERY TRUSTEES", "designationCode": "C", "categoryCode": "59", "address": "402 HAWK POINT RD  RR1", "city": "CLARKS HARBOUR", "province": "NS", "country": "CA", "postalCode": "B0W1P0", "twitter": "None", "instagram": "None", "facebook": "None", "youtube": "None", "website": "None", "summary": "None", "logo": "None", "latitude": 43.41522277269316, "longitude": -65.62186679658359}, "853524080RR0001": {"name": "EVERGREEN CHARITABLE TRUST", "designationCode": "B", "categoryCode": "39", "address": "1401 PRINCESS AVE             MEYERS NORRIS PENNY LLP", "city": "BRANDON", "province": "MB", "country": "CA", "postalCode": "R7A7L7", "twitter": "None", "instagram": "None", "facebook": "None", "youtube": "None", "website": "None", "summary": "None", "logo": "None", "latitude": 49.84694947489748, "longitude": -99.957294}, "885294009RR0001": {"name": "EVERGREEN CHRISTIAN MINISTRIES", "designationCode": "C", "categoryCode": "49", "address": "P.O. BOX 400", "city": "STAYNER", "province": "ON", "country": "CA", "postalCode": "L0M1S0", "twitter": "None", "instagram": "None", "facebook": "None", "youtube": "None", "website": "None", "summary": "None", "logo": "None", "latitude": 44.42021839038064, "longitude": -80.10092542779911}, "118904499RR0001": {"name": "EVERGREEN CHRISTIAN REFORMED CHURCH", "designationCode": "C", "categoryCode": "39", "address": "101, TUNDRA DRIVE", "city": "FORT MCMURRAY", "province": "AB", "country": "CA", "postalCode": "T9H5A4", "twitter": "None", "instagram": "None", "facebook": "None", "youtube": "None", "website": "None", "summary": "None", "logo": "None", "latitude": 56.73227768694087, "longitude": -111.4584865347678}, "893668491RR0001": {"name": "EVERGREEN CULTURAL CENTRE SOCIETY", "designationCode": "C", "categoryCode": "22", "address": "1205 PINETREE WAY", "city": "COQUITLAM", "province": "BC", "country": "CA", "postalCode": "V3B7Y3", "twitter": "None", "instagram": "None", "facebook": "None", "youtube": "None", "website": "None", "summary": "None", "logo": "None", "latitude": 49.285289734664445, "longitude": -122.7920700128975}, "134805100RR0001": {"name": "EVERGREEN FIREARMS MUSEUM INC", "designationCode": "B", "categoryCode": "50", "address": "BOX 57", "city": "BELMONT", "province": "MB", "country": "CA", "postalCode": "R0K0C0", "twitter": "None", "instagram": "None", "facebook": "None", "youtube": "None", "website": "None", "summary": "None", "logo": "None", "latitude": 49.41124000000008, "longitude": -99.45502999999997}, "118904515RR0001": {"name": "EVERGREEN HEIGHTS CHRISTIAN FELLOWSHIP", "designationCode": "C", "categoryCode": "34", "address": "140 OAK ST", "city": "SIMCOE", "province": "ON", "country": "CA", "postalCode": "N3Y5M5", "twitter": "None", "instagram": "None", "facebook": "None", "youtube": "None", "website": "None", "summary": "None", "logo": "None", "latitude": 42.82346769164409, "longitude": -80.31357414767142}, "854836178RR0001": {"name": "EVERGREEN HOME RESIDENTS SOCIETY", "designationCode": "C", "categoryCode": "09", "address": "655 PARK STREET", "city": "KENTVILLE", "province": "NS", "country": "CA", "postalCode": "B4N3V7", "twitter": "None", "instagram": "None", "facebook": "None", "youtube": "None", "website": "None", "summary": "None", "logo": "None", "latitude": 45.07559056515047, "longitude": -64.53953095397853}, "128026143RR0001": {"name": "EVERGREEN HOSPICE", "designationCode": "C", "categoryCode": "01", "address": "201 - 5762 HIGHWAY 7", "city": "MARKHAM", "province": "ON", "country": "CA", "postalCode": "L3P1A8", "twitter": "None", "instagram": "None", "facebook": "None", "youtube": "None", "website": "None", "summary": "None", "logo": "None", "latitude": 43.87165419358286, "longitude": -79.26653107417114}, "107355901RR0001": {"name": "EVERGREEN INDEPENDENT SCHOOL SOCIETY", "designationCode": "C", "categoryCode": "20", "address": "PO BOX 166", "city": "COBBLE HILL", "province": "BC", "country": "CA", "postalCode": "V0R1L0", "twitter": "None", "instagram": "None", "facebook": "None", "youtube": "None", "website": "None", "summary": "None", "logo": "None", "latitude": 48.67040081812132, "longitude": -123.56645604658561}, "895938066RR0001": {"name": "EVERGREEN THEATRE SOCIETY", "designationCode": "C", "categoryCode": "22", "address": "2 - 1709 8 AVE NE", "city": "CALGARY", "province": "AB", "country": "CA", "postalCode": "T2E0S9", "twitter": "None", "instagram": "None", "facebook": "None", "youtube": "None", "website": "None", "summary": "None", "logo": "None", "latitude": 51.05946880930823, "longitude": -114.019696074788}, "118904572RR0001": {"name": "EVERJOY MINISTRIES, ALBERTA", "designationCode": "C", "categoryCode": "39", "address": "3258 32A AVENUE S.E.", "city": "CALGARY", "province": "AB", "country": "CA", "postalCode": "T2B0J5", "twitter": "None", "instagram": "None", "facebook": "None", "youtube": "None", "website": "None", "summary": "None", "logo": "None", "latitude": 51.02756032810877, "longitude": -113.986113552165}, "122824758RR0001": {"name": "EVERLASTING LIFE EVANGELIC MINISTERIAL ASSOCIATION", "designationCode": "C", "categoryCode": "39", "address": "64 BURNHAM AVENUE", "city": "ST. ALBERT", "province": "AB", "country": "CA", "postalCode": "T8N0A7", "twitter": "None", "instagram": "None", "facebook": "None", "youtube": "None", "website": "None", "summary": "None", "logo": "None", "latitude": 53.641787344970986, "longitude": -113.61464227618426}, "825859960RR0001": {"name": "EVERSAFE ranch", "designationCode": "C", "categoryCode": "09", "address": "741 SPITFIRE ST", "city": "WOODSTOCK", "province": "ON", "country": "CA", "postalCode": "N4T0B1", "twitter": "None", "instagram": "None", "facebook": "None", "youtube": "None", "website": "None", "summary": "None", "logo": "None", "latitude": 43.155342975561304, "longitude": -80.72474472704705}, "107356073RR0001": {"name": "EVERTON COMMUNITY CHURCH", "designationCode": "C", "categoryCode": "39", "address": "5387 WELLINGTON RD 49", "city": "ROCKWOOD", "province": "ON", "country": "CA", "postalCode": "N0B2K0", "twitter": "None", "instagram": "None", "facebook": "None", "youtube": "None", "website": "None", "summary": "None", "logo": "None", "latitude": 43.66738488794168, "longitude": -80.16516704193452}, "897594230RR0001": {"name": "EVERY CITY FOR CHRIST MINISTRIES", "designationCode": "C", "categoryCode": "49", "address": "22 BELLSTONE LANE", "city": "MOUNT HOPE", "province": "ON", "country": "CA", "postalCode": "L0R1W0", "twitter": "None", "instagram": "None", "facebook": "None", "youtube": "None", "website": "None", "summary": "None", "logo": "None", "latitude": 43.20098146127879, "longitude": -79.92926710961406}, "129797437RR0001": {"name": "EVERY HOME FOR CHRIST INTERNATIONAL/CANADA", "designationCode": "C", "categoryCode": "47", "address": "PO BOX 3636  STN MAIN", "city": "GUELPH", "province": "ON", "country": "CA", "postalCode": "N1H7S2", "twitter": "None", "instagram": "None", "facebook": "None", "youtube": "None", "website": "None", "summary": "None", "logo": "None", "latitude": 43.54455300000005, "longitude": -80.24788249999993}, "891405813RR0001": {"name": "EVERY NATION CHURCH VANCOUVER SOCIETY", "designationCode": "C", "categoryCode": "39", "address": "447-6362 FRASER ST", "city": "VANCOUVER", "province": "BC", "country": "CA", "postalCode": "V5W0A1", "twitter": "None", "instagram": "None", "facebook": "None", "youtube": "None", "website": "None", "summary": "None", "logo": "None", "latitude": 49.226767239800324, "longitude": -123.09070052383312}, "870718566RR0001": {"name": "EVERY WOMAN'S FUNDRAISING SOCIETY", "designationCode": "C", "categoryCode": "01", "address": "228 BENTINCK STREET", "city": "SYDNEY", "province": "NS", "country": "CA", "postalCode": "B1P1G9", "twitter": "None", "instagram": "None", "facebook": "None", "youtube": "None", "website": "None", "summary": "None", "logo": "None", "latitude": 46.134638214265124, "longitude": -60.192617305730195}, "892601048RR0001": {"name": "EVERYCHILD", "designationCode": "C", "categoryCode": "09", "address": "309-549 COLUMBIA ST", "city": "NEW WESTMINSTER", "province": "BC", "country": "CA", "postalCode": "V3L1B3", "twitter": "None", "instagram": "None", "facebook": "None", "youtube": "None", "website": "None", "summary": "None", "logo": "None", "latitude": 49.20346799890347, "longitude": -122.90742627964671}, "875152605RR0001": {"name": "EVERYDAY MIRACLES INTERNATIONAL", "designationCode": "C", "categoryCode": "11", "address": "501 - 1272 ONTARIO ST", "city": "BURLINGTON", "province": "ON", "country": "CA", "postalCode": "L7S2L8", "twitter": "None", "instagram": "None", "facebook": "None", "youtube": "None", "website": "None", "summary": "None", "logo": "None", "latitude": 43.32125215096099, "longitude": -79.8052946834211}, "118904598RR0001": {"name": "EVERYDAY PUBLICATIONS INC.", "designationCode": "C", "categoryCode": "43", "address": "310 KILLALY ST WEST", "city": "PORT COLBORNE", "province": "ON", "country": "CA", "postalCode": "L3K6A6", "twitter": "None", "instagram": "None", "facebook": "None", "youtube": "None", "website": "None", "summary": "None", "logo": "None", "latitude": 42.89153847382737, "longitude": -79.2640308141541}, "131849895RR0001": {"name": "EVERYWOMAN'S HEALTH CENTRE SOCIETY (1988)", "designationCode": "C", "categoryCode": "11", "address": "210-2525 COMMERCIAL DRIVE", "city": "VANCOUVER", "province": "BC", "country": "CA", "postalCode": "V5N4C1", "twitter": "None", "instagram": "None", "facebook": "None", "youtube": "None", "website": "None", "summary": "None", "logo": "None", "latitude": 49.262052652067744, "longitude": -123.0698467511828}, "118904614RR0001": {"name": "EVESHAM COMMUNITY CHURCH", "designationCode": "C", "categoryCode": "39", "address": "BOX 206", "city": "MACKLIN", "province": "SK", "country": "CA", "postalCode": "S0L2C0", "twitter": "None", "instagram": "None", "facebook": "None", "youtube": "None", "website": "None", "summary": "None", "logo": "None", "latitude": 52.33280000000008, "longitude": -109.93590999999998}, "888909264RR0001": {"name": "EVIG FOUNDATION", "designationCode": "B", "categoryCode": "03", "address": "183 WELLINGTON ST.WEST        SUITE 4005", "city": "TORONTO", "province": "ON", "country": "CA", "postalCode": "M5V0A1", "twitter": "None", "instagram": "None", "facebook": "None", "youtube": "None", "website": "None", "summary": "None", "logo": "None", "latitude": 43.6456128420568, "longitude": -79.38739567984308}, "892610445RR0001": {"name": "EWART ANGUS HOMES INCORPORATED", "designationCode": "C", "categoryCode": "01", "address": "2601 BAYVIEW AVE.", "city": "TORONTO", "province": "ON", "country": "CA", "postalCode": "M2L1B5", "twitter": "None", "instagram": "None", "facebook": "None", "youtube": "None", "website": "None", "summary": "None", "logo": "None", "latitude": 43.7513740191586, "longitude": -79.38477621945925}, "871812491RR0001": {"name": "EWELME CHARITABLE TRUST", "designationCode": "B", "categoryCode": "39", "address": "3425 2 AVENUE SOUTH", "city": "LETHBRIDGE", "province": "AB", "country": "CA", "postalCode": "T1J4V1", "twitter": "None", "instagram": "None", "facebook": "None", "youtube": "None", "website": "None", "summary": "None", "logo": "None", "latitude": 49.696839530439966, "longitude": -112.78914308381903}, "119063188RR0001": {"name": "EX AEQUO", "designationCode": "C", "categoryCode": "09", "address": "328-3680 JEANNE-MANCE", "city": "MONTREAL", "province": "QC", "country": "CA", "postalCode": "H2X2K5", "twitter": "None", "instagram": "None", "facebook": "None", "youtube": "None", "website": "None", "summary": "None", "logo": "None", "latitude": 45.51161383345846, "longitude": -73.57612466876323}, "897579868RR0001": {"name": "EX ANIMO SUPPORT SERVICES INC.", "designationCode": "C", "categoryCode": "01", "address": "1492 WINDERMERE AVE", "city": "PETERBOROUGH", "province": "ON", "country": "CA", "postalCode": "K9J6T2", "twitter": "None", "instagram": "None", "facebook": "None", "youtube": "None", "website": "None", "summary": "None", "logo": "None", "latitude": 44.303569626983645, "longitude": -78.35011938853961}, "890192792RR0001": {"name": "EX LIBRIS ASSOCIATION", "designationCode": "C", "categoryCode": "50", "address": "140 ST GEORGE ST", "city": "TORONTO", "province": "ON", "country": "CA", "postalCode": "M5S3G6", "twitter": "None", "instagram": "None", "facebook": "None", "youtube": "None", "website": "None", "summary": "None", "logo": "None", "latitude": 43.66513416596464, "longitude": -79.39889339096285}, "889462321RR0001": {"name": "EXALTATION OF THE HOLY CROSS UKRAINIAN CATHOLIC CHURCH", "designationCode": "C", "categoryCode": "39", "address": "19 PARKSIDE DRIVE", "city": "BARRIE", "province": "ON", "country": "CA", "postalCode": "L4N1W7", "twitter": "None", "instagram": "None", "facebook": "None", "youtube": "None", "website": "None", "summary": "None", "logo": "None", "latitude": 44.38764585651219, "longitude": -79.6962073576087}, "892196965RR0001": {"name": "EXALTATION OF THE HOLY CROSS UKRAINIAN CATHOLIC PARISH - SKARO", "designationCode": "C", "categoryCode": "38", "address": "PO BOX 327", "city": "BRUDERHEIM", "province": "AB", "country": "CA", "postalCode": "T0B0S0", "twitter": "None", "instagram": "None", "facebook": "None", "youtube": "None", "website": "None", "summary": "None", "logo": "None", "latitude": 53.803450000000055, "longitude": -112.92708999999996}, "886586270RR0001": {"name": "EXCEEDINGLY GROWING FAITH MINISTRIES OF CANADA/MINISTERES FOI CROISSANTE ET SURABONDANTE DU CANADA", "designationCode": "C", "categoryCode": "39", "address": "1500 ATWATER                  BOX 56029", "city": "MONTREAL", "province": "QC", "country": "CA", "postalCode": "H3Z1X0", "twitter": "None", "instagram": "None", "facebook": "None", "youtube": "None", "website": "None", "summary": "None", "logo": "None", "latitude": 45.489708504010714, "longitude": -73.58521515058561}, "119148435RR0001": {"name": "EXCEL RESOURCES SOCIETY", "designationCode": "C", "categoryCode": "11", "address": "500 - 9707 110 ST NW", "city": "EDMONTON", "province": "AB", "country": "CA", "postalCode": "T5K2L9", "twitter": "None", "instagram": "None", "facebook": "None", "youtube": "None", "website": "None", "summary": "None", "logo": "None", "latitude": 53.5454054923584, "longitude": -113.51022256906765}, "864511183RR0001": {"name": "EXCELLENCE IN AFRICA NEUROSCIENCE AND HEALTH - CANADA", "designationCode": "C", "categoryCode": "19", "address": "1500 WEST GEORGIA STREET      SUITE 1250 BOX 62", "city": "VANCOUVER", "province": "BC", "country": "CA", "postalCode": "V6G2Z6", "twitter": "None", "instagram": "None", "facebook": "None", "youtube": "None", "website": "None", "summary": "None", "logo": "None", "latitude": 49.2900638104334, "longitude": -123.12989899362336}, "134096627RR0001": {"name": "EXETER BIBLE FELLOWSHIP", "designationCode": "C", "categoryCode": "47", "address": "187 HURON STREET WEST", "city": "EXETER", "province": "ON", "country": "CA", "postalCode": "N0M1S2", "twitter": "None", "instagram": "None", "facebook": "None", "youtube": "None", "website": "None", "summary": "None", "logo": "None", "latitude": 43.34281456059243, "longitude": -81.48647692754926}, "860023050RR0001": {"name": "EXETER CHRISTIAN REFORMED CHURCH", "designationCode": "C", "categoryCode": "39", "address": "332 HURON ST W", "city": "EXETER", "province": "ON", "country": "CA", "postalCode": "N0M1S2", "twitter": "None", "instagram": "None", "facebook": "None", "youtube": "None", "website": "None", "summary": "None", "logo": "None", "latitude": 43.342369092415936, "longitude": -81.49138970155964}, "119288918RR0258": {"name": "EXETER CONGREGATION OF JEHOVAH'S WITNESSES,", "designationCode": "C", "categoryCode": "61", "address": "R.R. #1", "city": "CENTRALIA", "province": "ON", "country": "CA", "postalCode": "N0M1K0", "twitter": "None", "instagram": "None", "facebook": "None", "youtube": "None", "website": "None", "summary": "None", "logo": "None", "latitude": 42.879861942410386, "longitude": -79.01932727328685}, "107356719RR0001": {"name": "EXETER PENTECOSTAL TABERNACLE", "designationCode": "C", "categoryCode": "36", "address": "670 MAIN ST SOUTH", "city": "EXETER", "province": "ON", "country": "CA", "postalCode": "N0M1S1", "twitter": "None", "instagram": "None", "facebook": "None", "youtube": "None", "website": "None", "summary": "None", "logo": "None", "latitude": 43.33867470204656, "longitude": -81.4788013531318}, "107356727RR0001": {"name": "EXETER UNITED CHURCH", "designationCode": "C", "categoryCode": "44", "address": "PO BOX 561", "city": "EXETER", "province": "ON", "country": "CA", "postalCode": "N0M1S6", "twitter": "None", "instagram": "None", "facebook": "None", "youtube": "None", "website": "None", "summary": "None", "logo": "None"}, "840934723RR0001": {"name": "EXIMIUS PLANNED GIVING FOUNDATION", "designationCode": "A", "categoryCode": "03", "address": "263 ASHTREE WAY", "city": "OAKVILLE", "province": "ON", "country": "CA", "postalCode": "L6J5J1", "twitter": "None", "instagram": "None", "facebook": "None", "youtube": "None", "website": "None", "summary": "None", "logo": "None", "latitude": 43.477609976138226, "longitude": -79.6439125120608}, "890622525RR0001": {"name": "EXODUS DELIVERANCE TEMPLE INC.", "designationCode": "C", "categoryCode": "39", "address": "1306 BRITANNIA RD E", "city": "MISSISSAUGA", "province": "ON", "country": "CA", "postalCode": "L4W1C8", "twitter": "None", "instagram": "None", "facebook": "None", "youtube": "None", "website": "None", "summary": "None", "logo": "None", "latitude": 43.65179209891803, "longitude": -79.65145589889607}, "873491849RR0001": {"name": "EXODUS GLOBAL ALLIANCE", "designationCode": "C", "categoryCode": "47", "address": "59 ANGUS DRIVE", "city": "AJAX", "province": "ON", "country": "CA", "postalCode": "L1S5C3", "twitter": "None", "instagram": "None", "facebook": "None", "youtube": "None", "website": "None", "summary": "None", "logo": "None", "latitude": 43.85490232045219, "longitude": -79.01814302563575}, "830043873RR0001": {"name": "EXPANDING HORIZONS - BOWDEN CULTURAL ENHANCEMENT SOCIETY", "designationCode": "A", "categoryCode": "03", "address": "BOX 342", "city": "BOWDEN", "province": "AB", "country": "CA", "postalCode": "T0M0K0", "twitter": "None", "instagram": "None", "facebook": "None", "youtube": "None", "website": "None", "summary": "None", "logo": "None", "latitude": 51.93861000000004, "longitude": -114.02976999999998}, "107356818RR0001": {"name": "EXPANDING YOUTH MINISTRIES", "designationCode": "C", "categoryCode": "49", "address": "505-43RD ST.E", "city": "SASKATOON", "province": "SK", "country": "CA", "postalCode": "S7K0V5", "twitter": "None", "instagram": "None", "facebook": "None", "youtube": "None", "website": "None", "summary": "None", "logo": "None", "latitude": 52.16028454284748, "longitude": -106.6629141931733}, "101717445RR0001": {"name": "EXPANSION-FEMMES DE QUEBEC", "designationCode": "C", "categoryCode": "09", "address": "1240 RUE DU CASTOR", "city": "QUEBEC", "province": "QC", "country": "CA", "postalCode": "G3K1E9", "twitter": "None", "instagram": "None", "facebook": "None", "youtube": "None", "website": "None", "summary": "None", "logo": "None", "latitude": 46.84143117903504, "longitude": -71.41880633677667}, "890954670RR0001": {"name": "EXPECT THEATRE INC", "designationCode": "C", "categoryCode": "22", "address": "THE DISTILLERY DISTRICT       15 CASE GOODS LANE--STUDIO 208", "city": "TORONTO", "province": "ON", "country": "CA", "postalCode": "M5A3C4", "twitter": "None", "instagram": "None", "facebook": "None", "youtube": "None", "website": "None", "summary": "None", "logo": "None", "latitude": 43.649968882595665, "longitude": -79.3585262463212}, "820654945RR0001": {"name": "EXPERIENCE JUIVE/JEWISH EXPERIENCE", "designationCode": "C", "categoryCode": "49", "address": "5465 QUEEN MARY ROAD          SUITE 200", "city": "MONTREAL", "province": "QC", "country": "CA", "postalCode": "H3X1V5", "twitter": "None", "instagram": "None", "facebook": "None", "youtube": "None", "website": "None", "summary": "None", "logo": "None", "latitude": 45.47974064117187, "longitude": -73.63282270597945}, "802440743RR0001": {"name": "EXPERIENCE LIFE COMMUNITY SERVICES", "designationCode": "C", "categoryCode": "29", "address": "60 GRATTAN STREET", "city": "TORONTO", "province": "ON", "country": "CA", "postalCode": "M9N3J5", "twitter": "None", "instagram": "None", "facebook": "None", "youtube": "None", "website": "None", "summary": "None", "logo": "None", "latitude": 43.70690541825844, "longitude": -79.52183031753118}, "107357048RR0001": {"name": "EXPLOIT'S VALLEY YOUNG MEN'S CHRISTIAN ASSOCIATION", "designationCode": "C", "categoryCode": "49", "address": "13 PRICE'S AVE", "city": "GRAND FALLS-WINDSOR", "province": "NL", "country": "CA", "postalCode": "A2B1C9", "twitter": "None", "instagram": "None", "facebook": "None", "youtube": "None", "website": "None", "summary": "None", "logo": "None", "latitude": 48.95657100784932, "longitude": -55.662154885177095}, "894204585RR0001": {"name": "EXPLOITS GROUND SEARCH AND RESCUE TEAM", "designationCode": "C", "categoryCode": "59", "address": "P.O. BOX 837", "city": "GRANDFALLS WINDSOR", "province": "NL", "country": "CA", "postalCode": "A2A2P7", "twitter": "None", "instagram": "None", "facebook": "None", "youtube": "None", "website": "None", "summary": "None", "logo": "None", "latitude": 48.95338000000004, "longitude": -55.67470999999995}}