{"878799865RR0001": {"name": "THE STATE HERMITAGE MUSEUM FOUNDATION OF CANADA", "designationCode": "C", "categoryCode": "23", "address": "2322 CENTURY RD W             RR 3", "city": "NORTH GOWER", "province": "ON", "country": "CA", "postalCode": "K0A2T0", "twitter": "None", "instagram": "None", "facebook": "None", "youtube": "None", "website": "None", "summary": "None", "logo": "None", "latitude": 45.1747655853196, "longitude": -75.7680792450518}, "891568248RR0001": {"name": "THE STAVE VALLEY SALMONIO ENHANCEMENT SOCIETY", "designationCode": "C", "categoryCode": "52", "address": "11744 STATIM STREET", "city": "MISSION", "province": "BC", "country": "CA", "postalCode": "V4S1C2", "twitter": "None", "instagram": "None", "facebook": "None", "youtube": "None", "website": "None", "summary": "None", "logo": "None", "latitude": 49.21565833066077, "longitude": -122.39103094607361}, "891409831RR0001": {"name": "THE STEELHEAD SOCIETY OF BRITISH COLUMBIA", "designationCode": "C", "categoryCode": "52", "address": "110-1140 AUSTIN AVENUE", "city": "COQUITLAM", "province": "BC", "country": "CA", "postalCode": "V3K3P5", "twitter": "None", "instagram": "None", "facebook": "None", "youtube": "None", "website": "None", "summary": "None", "logo": "None", "latitude": 49.24893752120739, "longitude": -122.85909404385708}, "105252340RR0001": {"name": "THE STEINBACH ARTS COUNCIL INCORPORATED", "designationCode": "C", "categoryCode": "22", "address": "304 SECOND ST", "city": "STEINBACH", "province": "MB", "country": "CA", "postalCode": "R5G0T7", "twitter": "None", "instagram": "None", "facebook": "None", "youtube": "None", "website": "None", "summary": "None", "logo": "None", "latitude": 49.5243057609064, "longitude": -96.68740358274808}, "894322825RR0001": {"name": "THE STEINBACH COMMUNITY FOUNDATION INC.", "designationCode": "A", "categoryCode": "03", "address": "BOX 2044", "city": "STEINBACH", "province": "MB", "country": "CA", "postalCode": "R5G1N6", "twitter": "None", "instagram": "None", "facebook": "None", "youtube": "None", "website": "None", "summary": "None", "logo": "None", "latitude": 49.52572800000006, "longitude": -96.68393449999994}, "889329371RR0001": {"name": "THE STELLABAR FOUNDATION/ LA FONDATION STELLABAR", "designationCode": "B", "categoryCode": "03", "address": "1170 PEEL STREET 8TH FLOOR", "city": "MONTREAL", "province": "QC", "country": "CA", "postalCode": "H3B4P2", "twitter": "None", "instagram": "None", "facebook": "None", "youtube": "None", "website": "None", "summary": "None", "logo": "None", "latitude": 45.49919599330624, "longitude": -73.57126662118391}, "892236167RR0001": {"name": "THE STEPHANIE GAETZ KEEPSAFE FOUNDATION", "designationCode": "B", "categoryCode": "03", "address": "1228 RAVINE DR", "city": "MISSISSAUGA", "province": "ON", "country": "CA", "postalCode": "L5J3E4", "twitter": "None", "instagram": "None", "facebook": "None", "youtube": "None", "website": "None", "summary": "None", "logo": "None", "latitude": 43.524054799296245, "longitude": -79.62651263139836}, "839230745RR0001": {"name": "THE STEPHEN AMES FOUNDATION", "designationCode": "B", "categoryCode": "03", "address": "1700 - 1140 PENDER ST W", "city": "VANCOUVER", "province": "BC", "country": "CA", "postalCode": "V6E4G1", "twitter": "None", "instagram": "None", "facebook": "None", "youtube": "None", "website": "None", "summary": "None", "logo": "None", "latitude": 49.28790194751592, "longitude": -123.12183137235255}, "119257616RR0001": {"name": "THE STEPHEN AND MICHELENE WOROBETZ FOUNDATION", "designationCode": "B", "categoryCode": "15", "address": "UNIT 101 308 4TH AVENUE NORTH", "city": "SASKATOON", "province": "SK", "country": "CA", "postalCode": "S7K2L7", "twitter": "None", "instagram": "None", "facebook": "None", "youtube": "None", "website": "None", "summary": "None", "logo": "None", "latitude": 52.13170714126612, "longitude": -106.65864755782246}, "894504869RR0001": {"name": "THE STEPHEN KAPLAN FAMILY FOUNDATION / LA FONDATION FAMILIALE STEPHEN KAPLAN", "designationCode": "B", "categoryCode": "03", "address": "3285 J B DESCHAMPS", "city": "LACHINE", "province": "QC", "country": "CA", "postalCode": "H8T3E4", "twitter": "None", "instagram": "None", "facebook": "None", "youtube": "None", "website": "None", "summary": "None", "logo": "None", "latitude": 45.46283100000005, "longitude": -73.69942399999994}, "839147329RR0001": {"name": "THE STEPHEN ROSS AND MARY O'RIORDAN FAMILY FOUNDATION", "designationCode": "B", "categoryCode": "05", "address": "1-85 WEST WILMOT STREET", "city": "RICHMOND HILL", "province": "ON", "country": "CA", "postalCode": "L4B1K7", "twitter": "None", "instagram": "None", "facebook": "None", "youtube": "None", "website": "None", "summary": "None", "logo": "None", "latitude": 43.85260654752639, "longitude": -79.38866851750977}, "119257632RR0001": {"name": "THE STEPHEN RUSSELL MEMORIAL FUND", "designationCode": "C", "categoryCode": "11", "address": "2130 BLINK BONNIE TERR", "city": "HALIFAX", "province": "NS", "country": "CA", "postalCode": "B3L3E9", "twitter": "None", "instagram": "None", "facebook": "None", "youtube": "None", "website": "None", "summary": "None", "logo": "None", "latitude": 44.64241329946913, "longitude": -63.611152815165255}, "874213846RR0001": {"name": "THE STEPHEN WADE EVANGELISTIC ASSOCIATION", "designationCode": "C", "categoryCode": "39", "address": "722 BRINTON ROAD  RR 1", "city": "PARADISE", "province": "NS", "country": "CA", "postalCode": "B0S1R0", "twitter": "None", "instagram": "None", "facebook": "None", "youtube": "None", "website": "None", "summary": "None", "logo": "None", "latitude": 44.94484511400015, "longitude": -65.27409214969157}, "807261870RR0001": {"name": "THE STEPHEN WILLIAM HERMAN MEMORIAL FOUNDATION", "designationCode": "C", "categoryCode": "21", "address": "385 KING WILLIAM STREET", "city": "HAMILTON", "province": "ON", "country": "CA", "postalCode": "L8L1P6", "twitter": "None", "instagram": "None", "facebook": "None", "youtube": "None", "website": "None", "summary": "None", "logo": "None", "latitude": 43.25356008855089, "longitude": -79.85343725783373}, "886056191RR0001": {"name": "THE STEPPING STONE ASSOCIATION", "designationCode": "C", "categoryCode": "09", "address": "PO BOX 47032 RPO GOTTINGEN ST", "city": "HALIFAX", "province": "NS", "country": "CA", "postalCode": "B3K5Y2", "twitter": "None", "instagram": "None", "facebook": "None", "youtube": "None", "website": "None", "summary": "None", "logo": "None", "latitude": 44.65644536251654, "longitude": -63.58979363038157}, "119257657RR0001": {"name": "THE STERLING HALL SCHOOL", "designationCode": "C", "categoryCode": "20", "address": "99 CARTWRIGHT AVE", "city": "NORTH YORK", "province": "ON", "country": "CA", "postalCode": "M6A1V4", "twitter": "None", "instagram": "None", "facebook": "None", "youtube": "None", "website": "None", "summary": "None", "logo": "None", "latitude": 43.72252983037137, "longitude": -79.46379682234996}, "823447271RR0001": {"name": "THE STERLING HALL SCHOOL FOUNDATION", "designationCode": "A", "categoryCode": "23", "address": "99 CARTRIGHT AVENUE", "city": "TORONTO", "province": "ON", "country": "CA", "postalCode": "M6A1V4", "twitter": "None", "instagram": "None", "facebook": "None", "youtube": "None", "website": "None", "summary": "None", "logo": "None", "latitude": 43.72252983037137, "longitude": -79.46379682234996}, "108016239RR0001": {"name": "THE STETTLER DISTRICT AGRICULTURAL SOCIETY", "designationCode": "C", "categoryCode": "56", "address": "BOX 257", "city": "STETTLER", "province": "AB", "country": "CA", "postalCode": "T0C2L0", "twitter": "None", "instagram": "None", "facebook": "None", "youtube": "None", "website": "None", "summary": "None", "logo": "None", "latitude": 52.32597900000006, "longitude": -112.70698099999993}, "129118881RR0001": {"name": "THE STETTLER LIBRARY BOARD", "designationCode": "C", "categoryCode": "50", "address": "6202-44 AVE 2ND FLOOR", "city": "STETTLER", "province": "AB", "country": "CA", "postalCode": "T0C2L1", "twitter": "None", "instagram": "None", "facebook": "None", "youtube": "None", "website": "None", "summary": "None", "logo": "None", "latitude": 52.31775013647098, "longitude": -112.72755997902627}, "848154928RR0001": {"name": "THE STEVE NASH FOUNDATION", "designationCode": "B", "categoryCode": "09", "address": "1998 FERNDALE ROAD            NUMBER 4", "city": "VICTORIA", "province": "BC", "country": "CA", "postalCode": "V8N2Y6", "twitter": "None", "instagram": "None", "facebook": "None", "youtube": "None", "website": "None", "summary": "None", "logo": "None", "latitude": 48.48886198502501, "longitude": -123.30706107002747}, "865655625RR0001": {"name": "THE STEVEN AND SANDRA MINTZ FAMILY FOUNDATION", "designationCode": "B", "categoryCode": "03", "address": "6100 COTE DE LIESSE ROAD      SUITE 200", "city": "MONTREAL", "province": "QC", "country": "CA", "postalCode": "H4T1E3", "twitter": "None", "instagram": "None", "facebook": "None", "youtube": "None", "website": "None", "summary": "None", "logo": "None", "latitude": 45.48890393343258, "longitude": -73.68696312661214}, "896645728RR0001": {"name": "THE STEVEN YOUNG TRUST", "designationCode": "C", "categoryCode": "19", "address": "PO BOX 2206", "city": "CALEDONIA", "province": "ON", "country": "CA", "postalCode": "N3W2G6", "twitter": "None", "instagram": "None", "facebook": "None", "youtube": "None", "website": "None", "summary": "None", "logo": "None", "latitude": 43.07354700000006, "longitude": -79.95071149999994}, "821772811RR0001": {"name": "THE STEVENS FAMILY FOUNDATION", "designationCode": "B", "categoryCode": "05", "address": "20 MACDONALD AVENUE", "city": "DARTMOUTH", "province": "NS", "country": "CA", "postalCode": "B3B1C5", "twitter": "None", "instagram": "None", "facebook": "None", "youtube": "None", "website": "None", "summary": "None", "logo": "None", "latitude": 44.70048959481197, "longitude": -63.59813933732493}, "108016957RR0001": {"name": "THE STEVENSON MEMORIAL HOSPITAL", "designationCode": "C", "categoryCode": "10", "address": "BOX 4000", "city": "ALLISTON", "province": "ON", "country": "CA", "postalCode": "L9R1W7", "twitter": "None", "instagram": "None", "facebook": "None", "youtube": "None", "website": "None", "summary": "None", "logo": "None", "latitude": 44.15432100000005, "longitude": -79.86752449999993}, "890084171RR0001": {"name": "THE STILLMAN CEMETERY COMPANY", "designationCode": "C", "categoryCode": "59", "address": "RR#1                          131 SIX MILE BROOK RD.", "city": "SALTSPRINGS", "province": "NS", "country": "CA", "postalCode": "B0K1P0", "twitter": "None", "instagram": "None", "facebook": "None", "youtube": "None", "website": "None", "summary": "None", "logo": "None", "latitude": 45.561374244161435, "longitude": -62.88135912458988}, "119257723RR0001": {"name": "THE STIRLING FESTIVAL OF SACRED PRAISE", "designationCode": "C", "categoryCode": "22", "address": "141 HENRY ST", "city": "STIRLING", "province": "ON", "country": "CA", "postalCode": "K0K3E0", "twitter": "None", "instagram": "None", "facebook": "None", "youtube": "None", "website": "None", "summary": "None", "logo": "None", "latitude": 44.292004543164595, "longitude": -77.54594081193395}, "804561090RR0001": {"name": "THE STOCKFISH FAMILY FOUNDATION", "designationCode": "B", "categoryCode": "03", "address": "30 VERMONT CRES", "city": "NORTH BAY", "province": "ON", "country": "CA", "postalCode": "P1C1L5", "twitter": "None", "instagram": "None", "facebook": "None", "youtube": "None", "website": "None", "summary": "None", "logo": "None", "latitude": 46.33952751875456, "longitude": -79.43009302553523}, "888295664RR0001": {"name": "THE STOLLERY CHARITABLE FOUNDATION", "designationCode": "B", "categoryCode": "23", "address": "9910 103 STREET NW", "city": "EDMONTON", "province": "AB", "country": "CA", "postalCode": "T5K2V7", "twitter": "None", "instagram": "None", "facebook": "None", "youtube": "None", "website": "None", "summary": "None", "logo": "None", "latitude": 53.53760604662705, "longitude": -113.49741713826502}, "119257855RR0001": {"name": "THE STONE CHURCH PENTECOSTAL ASSEMBLY", "designationCode": "C", "categoryCode": "36", "address": "45 DAVENPORT RD", "city": "TORONTO", "province": "ON", "country": "CA", "postalCode": "M5R1H2", "twitter": "None", "instagram": "None", "facebook": "None", "youtube": "None", "website": "None", "summary": "None", "logo": "None", "latitude": 43.67291850678068, "longitude": -79.38975411379765}, "855303830RR0001": {"name": "THE STONE CREEK CHARITABLE FOUNDATION", "designationCode": "B", "categoryCode": "03", "address": "1100 - 1ST STREET SE          SUITE 201", "city": "CALGARY", "province": "AB", "country": "CA", "postalCode": "T2G1B1", "twitter": "None", "instagram": "None", "facebook": "None", "youtube": "None", "website": "None", "summary": "None", "logo": "None", "latitude": 51.04198444823706, "longitude": -114.06078092365414}, "888388832RR0001": {"name": "THE STONE CRESCENT CHARITABLE FOUNDATION", "designationCode": "B", "categoryCode": "03", "address": "4470 STONE CRESCENT", "city": "WEST VANCOUVER", "province": "BC", "country": "CA", "postalCode": "V7W1B7", "twitter": "None", "instagram": "None", "facebook": "None", "youtube": "None", "website": "None", "summary": "None", "logo": "None", "latitude": 49.3421057726645, "longitude": -123.24434913809213}, "898956503RR0001": {"name": "THE STONE FENCE THEATRE", "designationCode": "C", "categoryCode": "22", "address": "PO BOX 184", "city": "KILLALOE", "province": "ON", "country": "CA", "postalCode": "K0J2A0", "twitter": "None", "instagram": "None", "facebook": "None", "youtube": "None", "website": "None", "summary": "None", "logo": "None"}, "890852007RR0001": {"name": "THE STONEWALL GOSPEL TRUST", "designationCode": "C", "categoryCode": "39", "address": "76 TUCKS ROAD                 P.O.BOX 883", "city": "STONEWALL", "province": "MB", "country": "CA", "postalCode": "R0C2Z0", "twitter": "None", "instagram": "None", "facebook": "None", "youtube": "None", "website": "None", "summary": "None", "logo": "None", "latitude": 50.11320507076893, "longitude": -97.26602252211148}, "828322180RR0001": {"name": "THE STONEY CREEK BAPTIST CHURCH OF LONDON INC.", "designationCode": "C", "categoryCode": "31", "address": "2225 HIGHBURY AVENUE NORTH", "city": "LONDON", "province": "ON", "country": "CA", "postalCode": "N5X4A4", "twitter": "None", "instagram": "None", "facebook": "None", "youtube": "None", "website": "None", "summary": "None", "logo": "None", "latitude": 43.052283627031976, "longitude": -81.23148987102395}, "888597283RR0001": {"name": "THE STONY LAKE HERITAGE FOUNDATION", "designationCode": "C", "categoryCode": "59", "address": "#1107 225 MERTON ST", "city": "TORONTO", "province": "ON", "country": "CA", "postalCode": "M4S3H1", "twitter": "None", "instagram": "None", "facebook": "None", "youtube": "None", "website": "None", "summary": "None", "logo": "None", "latitude": 43.697430776559635, "longitude": -79.38964478919733}, "119192763RR0001": {"name": "THE STOP COMMUNITY FOOD CENTRE", "designationCode": "C", "categoryCode": "01", "address": "PO BOX 69, STN E", "city": "TORONTO", "province": "ON", "country": "CA", "postalCode": "M6H4E1", "twitter": "None", "instagram": "None", "facebook": "None", "youtube": "None", "website": "None", "summary": "None", "logo": "None", "latitude": 43.66506300000006, "longitude": -79.43870599999994}, "827878729RR0001": {"name": "THE STORK CLUB BIG BAND MUSEUM & HALL OF FAME", "designationCode": "C", "categoryCode": "50", "address": "P.O. BOX 8", "city": "PORT STANLEY", "province": "ON", "country": "CA", "postalCode": "N5L1J4", "twitter": "None", "instagram": "None", "facebook": "None", "youtube": "None", "website": "None", "summary": "None", "logo": "None", "latitude": 42.66579300000005, "longitude": -81.21260149999993}, "894328996RR0001": {"name": "THE STORMONT DUNDAS GLENGARRY/AHKWESAHSNE CHILDRENS' TREATME", "designationCode": "C", "categoryCode": "09", "address": "305A SECOND STREET EAST", "city": "CORNWALL", "province": "ON", "country": "CA", "postalCode": "K6H1Y8", "twitter": "None", "instagram": "None", "facebook": "None", "youtube": "None", "website": "None", "summary": "None", "logo": "None", "latitude": 45.02019711560381, "longitude": -74.72222104305209}, "898928296RR0001": {"name": "THE STORY THEATRE PRODUCTIONS SOCIETY", "designationCode": "C", "categoryCode": "22", "address": "1291 GLADSTONE AVE", "city": "VICTORIA", "province": "BC", "country": "CA", "postalCode": "V8T1G5", "twitter": "None", "instagram": "None", "facebook": "None", "youtube": "None", "website": "None", "summary": "None", "logo": "None", "latitude": 48.43044450678067, "longitude": -123.34545275007213}, "108099466RR0001": {"name": "THE STORYTELLERS SCHOOL OF TORONTO", "designationCode": "C", "categoryCode": "22", "address": "173-601 CHRISTIE ST", "city": "TORONTO", "province": "ON", "country": "CA", "postalCode": "M6G4C7", "twitter": "None", "instagram": "None", "facebook": "None", "youtube": "None", "website": "None", "summary": "None", "logo": "None", "latitude": 43.67978587067912, "longitude": -79.42488115174038}, "119257913RR0001": {"name": "THE STOUFFVILLE CHRISTIAN FELLOWSHIP", "designationCode": "C", "categoryCode": "39", "address": "RR 5                          860 CONCESSION 8", "city": "PICKERING", "province": "ON", "country": "CA", "postalCode": "L1Y1A2", "twitter": "None", "instagram": "None", "facebook": "None", "youtube": "None", "website": "None", "summary": "None", "logo": "None", "latitude": 43.94595872715776, "longitude": -79.16459194858093}, "878197417RR0001": {"name": "THE STRATFORD ARTS FOUNDATION", "designationCode": "C", "categoryCode": "22", "address": "P.O. BOX #1013", "city": "STRATFORD", "province": "ON", "country": "CA", "postalCode": "N5A6W4", "twitter": "None", "instagram": "None", "facebook": "None", "youtube": "None", "website": "None", "summary": "None", "logo": "None", "latitude": 43.37013300000005, "longitude": -80.98191349999993}, "872459334RR0001": {"name": "THE STRATFORD PUBLIC LIBRARY FOUNDATION", "designationCode": "A", "categoryCode": "53", "address": "19 ST. ANDREW STREET", "city": "STRATFORD", "province": "ON", "country": "CA", "postalCode": "N5A1A2", "twitter": "None", "instagram": "None", "facebook": "None", "youtube": "None", "website": "None", "summary": "None", "logo": "None", "latitude": 43.37109969274059, "longitude": -80.98512915583707}, "119200103RR0002": {"name": "THE STRATFORD SHAKESPEAREAN FESTIVAL OF CANADA", "designationCode": "C", "categoryCode": "22", "address": "55 QUEEN ST                   PO BOX 520", "city": "STRATFORD", "province": "ON", "country": "CA", "postalCode": "N5A6V2", "twitter": "None", "instagram": "None", "facebook": "None", "youtube": "None", "website": "None", "summary": "None", "logo": "None", "latitude": 43.374483, "longitude": -80.96981573137582}, "893525840RR0001": {"name": "THE STRATHCONA COUNTY HERITAGE FOUNDATION", "designationCode": "C", "categoryCode": "50", "address": "913 ASH STREET", "city": "SHERWOOD PARK", "province": "AB", "country": "CA", "postalCode": "T8A2G3", "twitter": "None", "instagram": "None", "facebook": "None", "youtube": "None", "website": "None", "summary": "None", "logo": "None", "latitude": 53.513108077990665, "longitude": -113.31497386952526}, "889374062RR0001": {"name": "THE STRATHVIEW TRUST", "designationCode": "C", "categoryCode": "49", "address": "15 WESTLUND WAY", "city": "WINNIPEG", "province": "MB", "country": "CA", "postalCode": "R3R2K9", "twitter": "None", "instagram": "None", "facebook": "None", "youtube": "None", "website": "None", "summary": "None", "logo": "None", "latitude": 49.8484805115412, "longitude": -97.27060169455827}, "129535175RR0001": {"name": "THE STREET HAVEN AT THE CROSSROADS", "designationCode": "C", "categoryCode": "59", "address": "87 PEMBROKE STREET", "city": "TORONTO", "province": "ON", "country": "CA", "postalCode": "M5A2N9", "twitter": "None", "instagram": "None", "facebook": "None", "youtube": "None", "website": "None", "summary": "None", "logo": "None", "latitude": 43.659158866783955, "longitude": -79.37273767842944}, "890325574RR0001": {"name": "THE STREETSVILLE HISTORICAL SOCIETY", "designationCode": "C", "categoryCode": "50", "address": "4415 MISSISSAUGA RD", "city": "MISSISSAUGA", "province": "ON", "country": "CA", "postalCode": "L5M7C6", "twitter": "None", "instagram": "None", "facebook": "None", "youtube": "None", "website": "None", "summary": "None", "logo": "None", "latitude": 43.56279033363135, "longitude": -79.68802477696366}, "889067146RR0001": {"name": "THE STROKE RECOVERY ASSOCIATION, BARRIE & DISTRICT CHAPTER", "designationCode": "C", "categoryCode": "11", "address": "111 - 80 BRADFORD ST", "city": "BARRIE", "province": "ON", "country": "CA", "postalCode": "L4N6S7", "twitter": "None", "instagram": "None", "facebook": "None", "youtube": "None", "website": "None", "summary": "None", "logo": "None", "latitude": 44.38314673688615, "longitude": -79.69383931308778}, "119258069RR0001": {"name": "THE STROME & DISTRICT AGRICULTURAL SOCIETY", "designationCode": "C", "categoryCode": "56", "address": "BOX 171", "city": "STROME", "province": "AB", "country": "CA", "postalCode": "T0B4H0", "twitter": "None", "instagram": "None", "facebook": "None", "youtube": "None", "website": "None", "summary": "None", "logo": "None", "latitude": 52.808710000000076, "longitude": -112.06817999999998}, "132371386RR0001": {"name": "THE STROME SENIOR CITIZENS' CLUB (STROME)", "designationCode": "C", "categoryCode": "01", "address": "BOX 185", "city": "STROME", "province": "AB", "country": "CA", "postalCode": "T0B4H0", "twitter": "None", "instagram": "None", "facebook": "None", "youtube": "None", "website": "None", "summary": "None", "logo": "None", "latitude": 52.808710000000076, "longitude": -112.06817999999998}, "886333947RR0001": {"name": "THE STUDENTS COMMISSION OF CANADA/LA COMMISSION DES ETUDIANTS DU CANADA", "designationCode": "C", "categoryCode": "29", "address": "23 ISABELLA ST", "city": "TORONTO", "province": "ON", "country": "CA", "postalCode": "M4Y1M7", "twitter": "None", "instagram": "None", "facebook": "None", "youtube": "None", "website": "None", "summary": "None", "logo": "None", "latitude": 43.667820860378676, "longitude": -79.38420403774025}, "868255928RR0001": {"name": "THE STUDIO SINGERS OF REGINA INC.", "designationCode": "C", "categoryCode": "22", "address": "154 MAGEE CRES", "city": "REGINA", "province": "SK", "country": "CA", "postalCode": "S4R6K7", "twitter": "None", "instagram": "None", "facebook": "None", "youtube": "None", "website": "None", "summary": "None", "logo": "None", "latitude": 50.48592987480537, "longitude": -104.63815769499095}, "130638604RR0001": {"name": "THE STUDY CORPORATION", "designationCode": "C", "categoryCode": "20", "address": "3233 THE BOULEVARD", "city": "WESTMOUNT", "province": "QC", "country": "CA", "postalCode": "H3Y1S4", "twitter": "None", "instagram": "None", "facebook": "None", "youtube": "None", "website": "None", "summary": "None", "logo": "None", "latitude": 45.49046399999999, "longitude": -73.60013627446473}, "888144664RR0001": {"name": "THE STURGE-WEBER FOUNDATION (CANADA) INC", "designationCode": "C", "categoryCode": "11", "address": "1960 PRAIRIE AVENUE", "city": "PORT COQUITLAM", "province": "BC", "country": "CA", "postalCode": "V3B1V4", "twitter": "None", "instagram": "None", "facebook": "None", "youtube": "None", "website": "None", "summary": "None", "logo": "None", "latitude": 49.27113550288554, "longitude": -122.768901}, "119258150RR0001": {"name": "THE STURGEON FALLS VOLUNTEER FIRE BRIGADE- CHRISTMAS TOY & FOOD DRIVE", "designationCode": "C", "categoryCode": "09", "address": "225 HOLDITCH ST SUITE 104", "city": "STURGEON FALLS", "province": "ON", "country": "CA", "postalCode": "P2B1T1", "twitter": "None", "instagram": "None", "facebook": "None", "youtube": "None", "website": "None", "summary": "None", "logo": "None", "latitude": 46.36641566472389, "longitude": -79.93091029687206}, "108044728RR0001": {"name": "THE STURGEON RIVER AGRICULTURAL SOCIETY", "designationCode": "C", "categoryCode": "56", "address": "PO BOX 392", "city": "GIBBONS", "province": "AB", "country": "CA", "postalCode": "T0A1N0", "twitter": "None", "instagram": "None", "facebook": "None", "youtube": "None", "website": "None", "summary": "None", "logo": "None", "latitude": 53.82811000000004, "longitude": -113.32767999999999}, "119258176RR0001": {"name": "THE STURGIS STATION HOUSE MUSEUM", "designationCode": "C", "categoryCode": "50", "address": "BOX 255", "city": "STURGIS", "province": "SK", "country": "CA", "postalCode": "S0A4A0", "twitter": "None", "instagram": "None", "facebook": "None", "youtube": "None", "website": "None", "summary": "None", "logo": "None", "latitude": 51.940030000000036, "longitude": -102.54296999999997}, "119258184RR0001": {"name": "THE STURM FAMILY FOUNDATION", "designationCode": "B", "categoryCode": "03", "address": "3625 DUFFERIN STREET,SUITE 400", "city": "NORTH YORK", "province": "ON", "country": "CA", "postalCode": "M3K1Z2", "twitter": "None", "instagram": "None", "facebook": "None", "youtube": "None", "website": "None", "summary": "None", "logo": "None", "latitude": 43.73098330919264, "longitude": -79.45857671963213}, "889938544RR0001": {"name": "THE SUDBURY KINSMEN FAMILY CENTRE FOUNDATION", "designationCode": "C", "categoryCode": "13", "address": "1889 REGENT ST S", "city": "SUDBURY", "province": "ON", "country": "CA", "postalCode": "P3E3Z7", "twitter": "None", "instagram": "None", "facebook": "None", "youtube": "None", "website": "None", "summary": "None", "logo": "None", "latitude": 46.45196805462124, "longitude": -81.00390766001112}, "886843598RR0002": {"name": "THE SUFI MOVEMENT IN CANADA", "designationCode": "C", "categoryCode": "39", "address": "455 E 17TH AVE", "city": "VANCOUVER", "province": "BC", "country": "CA", "postalCode": "V5V1B2", "twitter": "None", "instagram": "None", "facebook": "None", "youtube": "None", "website": "None", "summary": "None", "logo": "None", "latitude": 49.25564451875454, "longitude": -123.09511097155058}, "889494399RR0001": {"name": "THE SULLIVAN UROLOGY FOUNDATION", "designationCode": "C", "categoryCode": "11", "address": "2775 LAUREL STREET, 6TH FLOOR", "city": "VANCOUVER", "province": "BC", "country": "CA", "postalCode": "V5Z1M9", "twitter": "None", "instagram": "None", "facebook": "None", "youtube": "None", "website": "None", "summary": "None", "logo": "None", "latitude": 49.26080193860277, "longitude": -123.12552569075034}, "889971578RR0001": {"name": "THE SUMERLAND HEALTH-CARE AUXILIARY", "designationCode": "C", "categoryCode": "19", "address": "P.O. BOX 1377,", "city": "SUMMERLAND", "province": "BC", "country": "CA", "postalCode": "V0H1Z0", "twitter": "None", "instagram": "None", "facebook": "None", "youtube": "None", "website": "None", "summary": "None", "logo": "None", "latitude": 49.60131900000006, "longitude": -119.67899299999993}, "890641541RR0001": {"name": "THE SUMMER INSTITUTE OF CHURCH MUSIC", "designationCode": "C", "categoryCode": "22", "address": "PO BOX 373", "city": "UXBRIDGE", "province": "ON", "country": "CA", "postalCode": "L9P1M8", "twitter": "None", "instagram": "None", "facebook": "None", "youtube": "None", "website": "None", "summary": "None", "logo": "None", "latitude": 44.10619800000005, "longitude": -79.12382299999993}, "893080770RR0001": {"name": "THE SUMMERLAND CAT SANCTUARY SOCIETY", "designationCode": "C", "categoryCode": "54", "address": "113-437 MARTIN ST             BOX 235", "city": "PENTICTON", "province": "BC", "country": "CA", "postalCode": "V2A5L1", "twitter": "None", "instagram": "None", "facebook": "None", "youtube": "None", "website": "None", "summary": "None", "logo": "None", "latitude": 49.496193, "longitude": -119.59238475}, "854620838RR0001": {"name": "THE SUMMERSIDE COMMUNITY CHOIR", "designationCode": "C", "categoryCode": "22", "address": "BOX 2", "city": "TYNE VALLEY", "province": "PE", "country": "CA", "postalCode": "C0B2C0", "twitter": "None", "instagram": "None", "facebook": "None", "youtube": "None", "website": "None", "summary": "None", "logo": "None", "latitude": 46.58344000000005, "longitude": -63.93202999999994}, "834289746RR0001": {"name": "THE SUMMIT", "designationCode": "C", "categoryCode": "39", "address": "424 SECOND LINE E", "city": "SAULT STE. MARIE", "province": "ON", "country": "CA", "postalCode": "P6B4K1", "twitter": "None", "instagram": "None", "facebook": "None", "youtube": "None", "website": "None", "summary": "None", "logo": "None", "latitude": 46.53825707484795, "longitude": -84.32932957514463}, "891602781RR0001": {"name": "THE SUMMIT CENTRE FOR PRESCHOOL CHILDREN WITH AUTISM", "designationCode": "B", "categoryCode": "09", "address": "940 PRINCE ROAD", "city": "WINDSOR", "province": "ON", "country": "CA", "postalCode": "N9C2Z5", "twitter": "None", "instagram": "None", "facebook": "None", "youtube": "None", "website": "None", "summary": "None", "logo": "None", "latitude": 42.289498682100906, "longitude": -83.07400545079088}, "890470164RR0001": {"name": "THE SUMMIT FOUNDATION", "designationCode": "B", "categoryCode": "03", "address": "10218 111 ST NW", "city": "EDMONTON", "province": "AB", "country": "CA", "postalCode": "T5K1K9", "twitter": "None", "instagram": "None", "facebook": "None", "youtube": "None", "website": "None", "summary": "None", "logo": "None", "latitude": 53.54402316180969, "longitude": -113.51216824372412}, "119258317RR0001": {"name": "THE SUNATUL JAMAAT OF ONTARIO CANADA", "designationCode": "C", "categoryCode": "60", "address": "347 DANFORTH ROAD", "city": "SCARBOROUGH", "province": "ON", "country": "CA", "postalCode": "M1L3X8", "twitter": "None", "instagram": "None", "facebook": "None", "youtube": "None", "website": "None", "summary": "None", "logo": "None", "latitude": 43.7033231473543, "longitude": -79.2704048307754}, "108050972RR0001": {"name": "THE SUNBURY WEST HISTORICAL SOCIETY, INC.", "designationCode": "C", "categoryCode": "50", "address": "110 CURRIE LANE", "city": "FREDERICTON JUNCTION", "province": "NB", "country": "CA", "postalCode": "E5L1X7", "twitter": "None", "instagram": "None", "facebook": "None", "youtube": "None", "website": "None", "summary": "None", "logo": "None", "latitude": 45.658021604418984, "longitude": -66.61004404183694}, "871967378RR0001": {"name": "THE SUNESIS FOUNDATION", "designationCode": "B", "categoryCode": "25", "address": "PO BOX 1428                   STN MAIN", "city": "SASKATOON", "province": "SK", "country": "CA", "postalCode": "S7K3P7", "twitter": "None", "instagram": "None", "facebook": "None", "youtube": "None", "website": "None", "summary": "None", "logo": "None", "latitude": 52.13049000000005, "longitude": -106.65926449999994}, "129242244RR0001": {"name": "THE SUNNYSIDE PENTECOSTAL CAMP", "designationCode": "C", "categoryCode": "56", "address": "202 BIRCHCLIFF ROAD", "city": "SYLVAN LAKE", "province": "AB", "country": "CA", "postalCode": "T4S2R6", "twitter": "None", "instagram": "None", "facebook": "None", "youtube": "None", "website": "None", "summary": "None", "logo": "None", "latitude": 52.364664844582485, "longitude": -114.12186453765425}, "119258408RR0001": {"name": "THE SUNSHINE COAST ARTS COUNCIL", "designationCode": "C", "categoryCode": "22", "address": "PO BOX 1565", "city": "SECHELT", "province": "BC", "country": "CA", "postalCode": "V0N3A0", "twitter": "None", "instagram": "None", "facebook": "None", "youtube": "None", "website": "None", "summary": "None", "logo": "None", "latitude": 49.473460000000046, "longitude": -123.75460999999996}, "895108249RR0001": {"name": "THE SUNSHINE COAST DANCE SOCIETY", "designationCode": "C", "categoryCode": "22", "address": "6443 GALE AVE. N.", "city": "SECHELT", "province": "BC", "country": "CA", "postalCode": "V0N3A5", "twitter": "None", "instagram": "None", "facebook": "None", "youtube": "None", "website": "None", "summary": "None", "logo": "None", "latitude": 49.50623729744968, "longitude": -123.784102702539}, "853465532RR0001": {"name": "THE SUNSHINE COAST FESTIVAL OF THE PERFORMING ARTS", "designationCode": "C", "categoryCode": "22", "address": "PO BOX 1043", "city": "SECHELT", "province": "BC", "country": "CA", "postalCode": "V0N3A0", "twitter": "None", "instagram": "None", "facebook": "None", "youtube": "None", "website": "None", "summary": "None", "logo": "None", "latitude": 49.473460000000046, "longitude": -123.75460999999996}, "861166726RR0001": {"name": "THE SUNSHINE DANCE CLUB", "designationCode": "C", "categoryCode": "09", "address": "5166 264TH STR.", "city": "ALDERGROVE", "province": "BC", "country": "CA", "postalCode": "V4W1N7", "twitter": "None", "instagram": "None", "facebook": "None", "youtube": "None", "website": "None", "summary": "None", "logo": "None", "latitude": 49.09581, "longitude": -122.49281855715863}, "129954822RR0001": {"name": "THE SUNSHINE FOUNDATION OF CANADA", "designationCode": "C", "categoryCode": "09", "address": "300 WELLINGTON ST             UNIT 100", "city": "LONDON", "province": "ON", "country": "CA", "postalCode": "N6B2L5", "twitter": "None", "instagram": "None", "facebook": "None", "youtube": "None", "website": "None", "summary": "None", "logo": "None", "latitude": 42.98147497305113, "longitude": -81.24264332763006}, "891888786RR0001": {"name": "THE SUPERINTENDENT DOUGLAS W AND LEORA I MCRAE MEMORIAL SCHOLARSHIP FOUNDATION", "designationCode": "B", "categoryCode": "21", "address": "19500 56 AVENUE", "city": "SURREY", "province": "BC", "country": "CA", "postalCode": "V3S6K4", "twitter": "None", "instagram": "None", "facebook": "None", "youtube": "None", "website": "None", "summary": "None", "logo": "None", "latitude": 49.10439652510252, "longitude": -122.68335086081134}, "888662590RR0001": {"name": "THE SUR-DEL CHINESE CHRISTIAN CHURCH", "designationCode": "C", "categoryCode": "39", "address": "11838-88 AVE", "city": "DELTA", "province": "BC", "country": "CA", "postalCode": "V4C3C5", "twitter": "None", "instagram": "None", "facebook": "None", "youtube": "None", "website": "None", "summary": "None", "logo": "None", "latitude": 49.163144834069975, "longitude": -122.89492684885431}, "125881060RR0001": {"name": "THE SUR-DEL EASY DOES IT CLUB SOCIETY", "designationCode": "C", "categoryCode": "57", "address": "7277 KING GEORGE BLVD", "city": "SURREY", "province": "BC", "country": "CA", "postalCode": "V3W5A7", "twitter": "None", "instagram": "None", "facebook": "None", "youtube": "None", "website": "None", "summary": "None", "logo": "None", "latitude": 49.13488799999999, "longitude": -122.8457449683766}, "892680166RR0001": {"name": "THE SURJIT VERMA FOUNDATION FOR CHILDREN'S EDUCATION", "designationCode": "B", "categoryCode": "25", "address": "52 BUGGEY LANE", "city": "AJAX", "province": "ON", "country": "CA", "postalCode": "L1Z1X5", "twitter": "None", "instagram": "None", "facebook": "None", "youtube": "None", "website": "None", "summary": "None", "logo": "None", "latitude": 43.91549030945245, "longitude": -79.02986426816284}, "119258481RR0001": {"name": "THE SUSSEX SHARING CLUB INC", "designationCode": "C", "categoryCode": "03", "address": "26 EVELEIGH STREET", "city": "SUSSEX", "province": "NB", "country": "CA", "postalCode": "E4E2N8", "twitter": "None", "instagram": "None", "facebook": "None", "youtube": "None", "website": "None", "summary": "None", "logo": "None", "latitude": 45.72644843115127, "longitude": -65.49810389008553}, "863746012RR0001": {"name": "THE SUSTAINABILITY INSTITUTE OF CANADA", "designationCode": "C", "categoryCode": "20", "address": "128-215 SPADINA AVE", "city": "TORONTO", "province": "ON", "country": "CA", "postalCode": "M5T2C7", "twitter": "None", "instagram": "None", "facebook": "None", "youtube": "None", "website": "None", "summary": "None", "logo": "None", "latitude": 43.65063316348313, "longitude": -79.39697013165816}, "119258499RR0001": {"name": "THE SWAN RIVER COMMUNITY CENTRE", "designationCode": "C", "categoryCode": "56", "address": "BOX 747", "city": "SWAN RIVER", "province": "MB", "country": "CA", "postalCode": "R0L1Z0", "twitter": "None", "instagram": "None", "facebook": "None", "youtube": "None", "website": "None", "summary": "None", "logo": "None", "latitude": 52.11672730414978, "longitude": -101.25989472758229}, "134236579RR0001": {"name": "THE SWEDISH LANGUAGE SCHOOL", "designationCode": "C", "categoryCode": "20", "address": "PO BOX 65056 RPO NORTHHILL", "city": "CALGARY", "province": "AB", "country": "CA", "postalCode": "T2N4T6", "twitter": "None", "instagram": "None", "facebook": "None", "youtube": "None", "website": "None", "summary": "None", "logo": "None", "latitude": 51.065150000000074, "longitude": -114.10340999999994}, "889641577RR0002": {"name": "THE SWEET CEMETERY COMPANY", "designationCode": "C", "categoryCode": "59", "address": "19 WELLS", "city": "WEST BROME", "province": "QC", "country": "CA", "postalCode": "J0E2P0", "twitter": "None", "instagram": "None", "facebook": "None", "youtube": "None", "website": "None", "summary": "None", "logo": "None", "latitude": 45.18429206771888, "longitude": -72.65166858012545}, "835900275RR0001": {"name": "THE SWIFT CURRENT CARE CENTER AUXILIARY", "designationCode": "C", "categoryCode": "19", "address": "1 HAYWARD PL", "city": "SWIFT CURRENT", "province": "SK", "country": "CA", "postalCode": "S9H3Z9", "twitter": "None", "instagram": "None", "facebook": "None", "youtube": "None", "website": "None", "summary": "None", "logo": "None", "latitude": 50.291133923930694, "longitude": -107.77092394692811}, "888995792RR0001": {"name": "THE SWIFT CURRENT ORATORIO CHOIR", "designationCode": "C", "categoryCode": "22", "address": "223-4TH AVE SE", "city": "SWIFT CURRENT", "province": "SK", "country": "CA", "postalCode": "S9H3L6", "twitter": "None", "instagram": "None", "facebook": "None", "youtube": "None", "website": "None", "summary": "None", "logo": "None", "latitude": 50.276618748542916, "longitude": -107.79498102911325}, "886360395RR0001": {"name": "THE SWOC-CIP EDUCATIONAL FOUNDATION", "designationCode": "C", "categoryCode": "21", "address": "5251 LINE 81                  RR#4", "city": "LISTOWEL", "province": "ON", "country": "CA", "postalCode": "N4N3G9", "twitter": "None", "instagram": "None", "facebook": "None", "youtube": "None", "website": "None", "summary": "None", "logo": "None", "latitude": 43.676777957038595, "longitude": -80.92290829658553}, "119207736RR0001": {"name": "THE SYDNEY AND FLORENCE COOPER CHARITABLE FOUNDATION", "designationCode": "B", "categoryCode": "03", "address": "1000-920 YONGE STREET", "city": "TORONTO", "province": "ON", "country": "CA", "postalCode": "M4W3C7", "twitter": "None", "instagram": "None", "facebook": "None", "youtube": "None", "website": "None", "summary": "None", "logo": "None", "latitude": 43.674218340816054, "longitude": -79.3884529969989}, "119258556RR0001": {"name": "THE SYLVA M GELBER MUSIC FOUNDATION", "designationCode": "B", "categoryCode": "23", "address": "87 MACKAY ST.", "city": "OTTAWA", "province": "ON", "country": "CA", "postalCode": "K1M2E4", "twitter": "None", "instagram": "None", "facebook": "None", "youtube": "None", "website": "None", "summary": "None", "logo": "None", "latitude": 45.44271913737098, "longitude": -75.68938876923069}, "889396040RR0001": {"name": "THE SYLVANIA SCHOOL SOCIETY", "designationCode": "C", "categoryCode": "50", "address": "2440 BENKO RD", "city": "MILL BAY", "province": "BC", "country": "CA", "postalCode": "V0R2P4", "twitter": "None", "instagram": "None", "facebook": "None", "youtube": "None", "website": "None", "summary": "None", "logo": "None", "latitude": 48.63964650874257, "longitude": -123.55409448378427}, "845870542RR0001": {"name": "THE SYNERGOS INSTITUTE CANADA", "designationCode": "C", "categoryCode": "09", "address": "390 BAY STREET                SUITE 1202", "city": "TORONTO", "province": "ON", "country": "CA", "postalCode": "M5H2Y2", "twitter": "None", "instagram": "None", "facebook": "None", "youtube": "None", "website": "None", "summary": "None", "logo": "None", "latitude": 43.65110410687275, "longitude": -79.38169965834723}, "875150823RR0001": {"name": "THE SYNOD OF MANITOBA AND NORTHWESTERN ONTARIO", "designationCode": "C", "categoryCode": "39", "address": "66-1ST ST S.W.", "city": "PORTAGE LA PRAIRIE", "province": "MB", "country": "CA", "postalCode": "R1N1Y6", "twitter": "None", "instagram": "None", "facebook": "None", "youtube": "None", "website": "None", "summary": "None", "logo": "None", "latitude": 49.97149712262864, "longitude": -98.29258081674665}, "890047194RR0001": {"name": "THE SYNOD OF THE ATLANTIC PROVINCES, THE PRESBYTERIAN CHURCHIN CANADA", "designationCode": "C", "categoryCode": "37", "address": "1061 MONTAGUE RD", "city": "MONTAGUE GOLD MINES", "province": "NS", "country": "CA", "postalCode": "B2R1V3", "twitter": "None", "instagram": "None", "facebook": "None", "youtube": "None", "website": "None", "summary": "None", "logo": "None", "latitude": 44.723155493219316, "longitude": -63.53093152553522}, "890107469RR0001": {"name": "THE SYNOD OF THE DIOCESE OF ATHABASCA", "designationCode": "C", "categoryCode": "30", "address": "POST OFFICE BOX 6868", "city": "PEACE RIVER", "province": "AB", "country": "CA", "postalCode": "T8S1S6", "twitter": "None", "instagram": "None", "facebook": "None", "youtube": "None", "website": "None", "summary": "None", "logo": "None", "latitude": 56.232969000000054, "longitude": -117.29043349999993}, "108061391RR0003": {"name": "THE SYNOD OF THE DIOCESE OF BRANDON", "designationCode": "C", "categoryCode": "30", "address": "403 13TH ST", "city": "BRANDON", "province": "MB", "country": "CA", "postalCode": "R7A4P9", "twitter": "None", "instagram": "None", "facebook": "None", "youtube": "None", "website": "None", "summary": "None", "logo": "None", "latitude": 49.84346636081136, "longitude": -99.95551788602945}, "119229938RR0004": {"name": "THE SYNOD OF THE DIOCESE OF CALGARY", "designationCode": "C", "categoryCode": "30", "address": "180 1209 59TH AVE SE", "city": "CALGARY", "province": "AB", "country": "CA", "postalCode": "T2H2P6", "twitter": "None", "instagram": "None", "facebook": "None", "youtube": "None", "website": "None", "summary": "None", "logo": "None", "latitude": 50.99960464673112, "longitude": -114.03582485883989}, "108061458RR0028": {"name": "THE SYNOD OF THE DIOCESE OF MONTREAL", "designationCode": "C", "categoryCode": "30", "address": "1444 UNION AVENUE", "city": "MONTREAL", "province": "QC", "country": "CA", "postalCode": "H3A2B8", "twitter": "None", "instagram": "None", "facebook": "None", "youtube": "None", "website": "None", "summary": "None", "logo": "None", "latitude": 45.50443994281272, "longitude": -73.57068662060699}}