{"118814656RR0001": {"name": "BOYS AND GIRLS CLUBS OF CANADA FOUNDATION/FONDATION DES CLUBS GARCONS ET FILLES DU CANADA", "designationCode": "A", "categoryCode": "09", "address": "2005 SHEPPARD AVE EAST        SUITE 400", "city": "TORONTO", "province": "ON", "country": "CA", "postalCode": "M2J5B4", "twitter": "None", "instagram": "None", "facebook": "None", "youtube": "None", "website": "None", "summary": "None", "logo": "None", "latitude": 43.77436849624909, "longitude": -79.33790961564398}, "106804016RR0001": {"name": "BOYS AND GIRLS CLUBS OF CENTRAL VANCOUVER ISLAND", "designationCode": "C", "categoryCode": "09", "address": "20 FIFTH ST", "city": "NANAIMO", "province": "BC", "country": "CA", "postalCode": "V9R1M7", "twitter": "None", "instagram": "None", "facebook": "None", "youtube": "None", "website": "None", "summary": "None", "logo": "None", "latitude": 49.15517134056096, "longitude": -123.93881300433657}, "892556846RR0001": {"name": "BOYS AND GIRLS CLUBS OF GREATER TORONTO FUND", "designationCode": "A", "categoryCode": "09", "address": "101 SPRUCE STREET", "city": "TORONTO", "province": "ON", "country": "CA", "postalCode": "M5A2J3", "twitter": "None", "instagram": "None", "facebook": "None", "youtube": "None", "website": "None", "summary": "None", "logo": "None", "latitude": 43.664316936984335, "longitude": -79.36224714418032}, "860381896RR0001": {"name": "BOYS AND GIRLS CLUBS OF NORTH SIMCOE", "designationCode": "C", "categoryCode": "09", "address": "527 LENSELF BLVD", "city": "MIDLAND", "province": "ON", "country": "CA", "postalCode": "L4R5N6", "twitter": "None", "instagram": "None", "facebook": "None", "youtube": "None", "website": "None", "summary": "None", "logo": "None", "latitude": 44.74459500000006, "longitude": -79.88171749999994}, "130636962RR0001": {"name": "BOYS AND GIRLS CLUBS OF WINNIPEG INC.", "designationCode": "C", "categoryCode": "56", "address": "300-61 JUNO ST", "city": "WINNIPEG", "province": "MB", "country": "CA", "postalCode": "R3A1T1", "twitter": "None", "instagram": "None", "facebook": "None", "youtube": "None", "website": "None", "summary": "None", "logo": "None", "latitude": 49.901006857414714, "longitude": -97.15180327756633}, "118815976RR0001": {"name": "BOYS JIM CLUB IN CANADA INC.", "designationCode": "C", "categoryCode": "49", "address": "1081 BEECHNUT ROAD", "city": "OAKVILLE", "province": "ON", "country": "CA", "postalCode": "L6J7P1", "twitter": "None", "instagram": "None", "facebook": "None", "youtube": "None", "website": "None", "summary": "None", "logo": "None", "latitude": 43.49378145712386, "longitude": -79.6537808370938}, "107690117RR0001": {"name": "BOYS' & GIRLS' CLUB OF LONDON", "designationCode": "C", "categoryCode": "09", "address": "184 HORTON ST", "city": "LONDON", "province": "ON", "country": "CA", "postalCode": "N6B1K8", "twitter": "None", "instagram": "None", "facebook": "None", "youtube": "None", "website": "None", "summary": "None", "logo": "None", "latitude": 42.97933497977357, "longitude": -81.24601130004604}, "119037638RR0001": {"name": "BOYS' & GIRLS' CLUB OF LONDON FOUNDATION", "designationCode": "A", "categoryCode": "09", "address": "184 HORTON ST", "city": "LONDON", "province": "ON", "country": "CA", "postalCode": "N6B1K8", "twitter": "None", "instagram": "None", "facebook": "None", "youtube": "None", "website": "None", "summary": "None", "logo": "None", "latitude": 42.97933497977357, "longitude": -81.24601130004604}, "890697618RR0001": {"name": "BOYS' & GIRLS' CLUB OF NIAGARA FOUNDATION", "designationCode": "A", "categoryCode": "03", "address": "8800 MCLEOD ROAD", "city": "NIAGARA FALLS", "province": "ON", "country": "CA", "postalCode": "L2E6S5", "twitter": "None", "instagram": "None", "facebook": "None", "youtube": "None", "website": "None", "summary": "None", "logo": "None", "latitude": 43.06959754111672, "longitude": -79.14580250859834}, "106804669RR0001": {"name": "BOYS' & GIRLS' CLUBS OF CALGARY", "designationCode": "C", "categoryCode": "09", "address": "731-13 AVE NE", "city": "CALGARY", "province": "AB", "country": "CA", "postalCode": "T2E1C8", "twitter": "None", "instagram": "None", "facebook": "None", "youtube": "None", "website": "None", "summary": "None", "logo": "None", "latitude": 51.064108492353945, "longitude": -114.04706391618096}, "131201840RR0001": {"name": "BOYS' AND GIRLS' CLUB OF LEDUC", "designationCode": "C", "categoryCode": "09", "address": "102 - 4330 BLACK GOLD DR", "city": "LEDUC", "province": "AB", "country": "CA", "postalCode": "T9E3C3", "twitter": "None", "instagram": "None", "facebook": "None", "youtube": "None", "website": "None", "summary": "None", "logo": "None", "latitude": 53.258142504032904, "longitude": -113.53462367947596}, "118814532RR0001": {"name": "BOYS' AND GIRLS' CLUB OF LETHBRIDGE AND DISTRICT", "designationCode": "C", "categoryCode": "09", "address": "1405 8 AVENUE NORTH", "city": "LETHBRIDGE", "province": "AB", "country": "CA", "postalCode": "T1H6N9", "twitter": "None", "instagram": "None", "facebook": "None", "youtube": "None", "website": "None", "summary": "None", "logo": "None", "latitude": 49.71103649321933, "longitude": -112.822461}, "132090952RR0001": {"name": "BOYS' AND GIRLS' CLUB OF RED DEER & DISTRICT", "designationCode": "C", "categoryCode": "29", "address": "4633 49 ST", "city": "RED DEER", "province": "AB", "country": "CA", "postalCode": "T4N1T4", "twitter": "None", "instagram": "None", "facebook": "None", "youtube": "None", "website": "None", "summary": "None", "logo": "None", "latitude": 52.26799448845881, "longitude": -113.80406327699232}, "858902711RR0001": {"name": "BPD EDUCATION DEVELOPMENT ASSOCIATION", "designationCode": "C", "categoryCode": "03", "address": "1250-1500 WEST GEORGIA ST,    BOX 62", "city": "VANCOUVER", "province": "BC", "country": "CA", "postalCode": "V6G2Z6", "twitter": "None", "instagram": "None", "facebook": "None", "youtube": "None", "website": "None", "summary": "None", "logo": "None", "latitude": 49.290187500000016, "longitude": -123.130035}, "118816008RR0001": {"name": "BRACEBRIDGE AGRICULTURAL SOCIETY", "designationCode": "C", "categoryCode": "56", "address": "PO BOX 53", "city": "BRACEBRIDGE", "province": "ON", "country": "CA", "postalCode": "P1L1T5", "twitter": "None", "instagram": "None", "facebook": "None", "youtube": "None", "website": "None", "summary": "None", "logo": "None", "latitude": 45.055572000000055, "longitude": -79.28863099999994}, "118816016RR0001": {"name": "BRACEBRIDGE AND MUSKOKA LAKES BURSARY FUND", "designationCode": "C", "categoryCode": "21", "address": "100 CLEARBROOK TRAIL", "city": "BRACEBRIDGE", "province": "ON", "country": "CA", "postalCode": "P1L0A3", "twitter": "None", "instagram": "None", "facebook": "None", "youtube": "None", "website": "None", "summary": "None", "logo": "None", "latitude": 45.0645937754631, "longitude": -79.32073512340655}, "897389490RR0001": {"name": "BRACEBRIDGE ARTS COUNCIL", "designationCode": "C", "categoryCode": "22", "address": "100 CLEARBROOK TRAIL          PO BOX 538", "city": "BRACEBRIDGE", "province": "ON", "country": "CA", "postalCode": "P1L1T8", "twitter": "None", "instagram": "None", "facebook": "None", "youtube": "None", "website": "None", "summary": "None", "logo": "None", "latitude": 45.0645937754631, "longitude": -79.32073512340655}, "874151822RR0001": {"name": "BRACEBRIDGE LIONS FOUNDATION", "designationCode": "A", "categoryCode": "63", "address": "PO BOX 10069", "city": "BRACEBRIDGE", "province": "ON", "country": "CA", "postalCode": "P1L1W6", "twitter": "None", "instagram": "None", "facebook": "None", "youtube": "None", "website": "None", "summary": "None", "logo": "None", "latitude": 45.055572000000055, "longitude": -79.28863099999994}, "119288918RR0107": {"name": "BRACEBRIDGE ONTARIO CONGREGATION OF JEHOVAH'S WITNESSES", "designationCode": "C", "categoryCode": "61", "address": "61 DENNISS DR. RR#2", "city": "BRACEBRIDGE", "province": "ON", "country": "CA", "postalCode": "P1L1W9", "twitter": "None", "instagram": "None", "facebook": "None", "youtube": "None", "website": "None", "summary": "None", "logo": "None", "latitude": 45.09215700000006, "longitude": -79.29352249999994}, "118816073RR0001": {"name": "BRACEBRIDGE SENIOR CITIZENS CENTENNIAL CLUB INC.", "designationCode": "C", "categoryCode": "09", "address": "54 DOMINION STREET", "city": "BRACEBRIDGE", "province": "ON", "country": "CA", "postalCode": "P1L1A5", "twitter": "None", "instagram": "None", "facebook": "None", "youtube": "None", "website": "None", "summary": "None", "logo": "None", "latitude": 45.041473341652775, "longitude": -79.31164390815954}, "107797383RR0049": {"name": "BRACEBRIDGE SEVENTH-DAY ADVENTIST CHURCH", "designationCode": "C", "categoryCode": "41", "address": "705 CEDAR LANE", "city": "BRACEBRIDGE", "province": "ON", "country": "CA", "postalCode": "P1L0A1", "twitter": "None", "instagram": "None", "facebook": "None", "youtube": "None", "website": "None", "summary": "None", "logo": "None", "latitude": 45.03873180959668, "longitude": -79.29965869562614}, "118816099RR0001": {"name": "BRACEBRIDGE UNITED CHURCH", "designationCode": "C", "categoryCode": "44", "address": "46 DOMINION ST. NORTH", "city": "BRACEBRIDGE", "province": "ON", "country": "CA", "postalCode": "P1L2A5", "twitter": "None", "instagram": "None", "facebook": "None", "youtube": "None", "website": "None", "summary": "None", "logo": "None", "latitude": 45.03947891395927, "longitude": -79.31060257092152}, "856554373RR0001": {"name": "BRACEBRIDGE VOLUNTEER FIREFIGHTERS HERITAGE MUSEUM", "designationCode": "C", "categoryCode": "50", "address": "16 DOMINION STREET", "city": "BRACEBRIDGE", "province": "ON", "country": "CA", "postalCode": "P1L2A5", "twitter": "None", "instagram": "None", "facebook": "None", "youtube": "None", "website": "None", "summary": "None", "logo": "None", "latitude": 45.040553811818384, "longitude": -79.31115542550046}, "842494478RR0001": {"name": "BRACKEN GOSPEL CHURCH INC.", "designationCode": "C", "categoryCode": "39", "address": "BOX 81", "city": "BRACKEN", "province": "SK", "country": "CA", "postalCode": "S0N0G0", "twitter": "None", "instagram": "None", "facebook": "None", "youtube": "None", "website": "None", "summary": "None", "logo": "None", "latitude": 49.18333000000007, "longitude": -108.10134}, "889497590RR0001": {"name": "BRACKEN UNITED CHURCH,", "designationCode": "C", "categoryCode": "44", "address": "BOX 55", "city": "BRACKEN", "province": "SK", "country": "CA", "postalCode": "S0N0G0", "twitter": "None", "instagram": "None", "facebook": "None", "youtube": "None", "website": "None", "summary": "None", "logo": "None", "latitude": 49.18333000000007, "longitude": -108.10134}, "118816115RR0001": {"name": "BRACKLEY POINT CEMETERY", "designationCode": "C", "categoryCode": "59", "address": "99 APPLE TREE RD.", "city": "BRACKLEY BEACH", "province": "PE", "country": "CA", "postalCode": "C1E0Z4", "twitter": "None", "instagram": "None", "facebook": "None", "youtube": "None", "website": "None", "summary": "None", "logo": "None", "latitude": 46.423823489324185, "longitude": -63.193882782820694}, "108073917RR0001": {"name": "BRADFORD BAPTIST CHURCH", "designationCode": "C", "categoryCode": "31", "address": "3224 SIDEROAD 10", "city": "BRADFORD", "province": "ON", "country": "CA", "postalCode": "L3Z3T8", "twitter": "None", "instagram": "None", "facebook": "None", "youtube": "None", "website": "None", "summary": "None", "logo": "None", "latitude": 44.11572900000006, "longitude": -79.62258049999993}, "106805120RR0001": {"name": "BRADFORD COMMUNITY CHURCH", "designationCode": "C", "categoryCode": "39", "address": "PO BOX 221", "city": "BRADFORD", "province": "ON", "country": "CA", "postalCode": "L3Z2A8", "twitter": "None", "instagram": "None", "facebook": "None", "youtube": "None", "website": "None", "summary": "None", "logo": "None", "latitude": 44.11482000000005, "longitude": -79.56249199999993}, "118816164RR0001": {"name": "BRADFORD TRINITY CHURCH", "designationCode": "C", "categoryCode": "30", "address": "P.O. BOX 282 STN MAIN", "city": "BRADFORD", "province": "ON", "country": "CA", "postalCode": "L3Z2A8", "twitter": "None", "instagram": "None", "facebook": "None", "youtube": "None", "website": "None", "summary": "None", "logo": "None", "latitude": 44.11482000000005, "longitude": -79.56249199999993}, "118816172RR0001": {"name": "BRADFORD UNITED CHURCH", "designationCode": "C", "categoryCode": "44", "address": "PO BOX 148", "city": "BRADFORD", "province": "ON", "country": "CA", "postalCode": "L3Z2A7", "twitter": "None", "instagram": "None", "facebook": "None", "youtube": "None", "website": "None", "summary": "None", "logo": "None", "latitude": 44.11482000000005, "longitude": -79.56249199999993}, "828854471RR0001": {"name": "BRADFORD WEST GWILLIMBURY COMMUNITY INITIATIVES", "designationCode": "C", "categoryCode": "09", "address": "2862 LINE 11", "city": "BRADFORD", "province": "ON", "country": "CA", "postalCode": "L3Z3M7", "twitter": "None", "instagram": "None", "facebook": "None", "youtube": "None", "website": "None", "summary": "None", "logo": "None", "latitude": 44.11572900000006, "longitude": -79.62258049999993}, "891297749RR0001": {"name": "BRADFORD WEST GWILLIMBURY FRIENDS OF THE LIBRARY", "designationCode": "C", "categoryCode": "50", "address": "425 HOLLAND STREET WEST", "city": "BRADFORD", "province": "ON", "country": "CA", "postalCode": "L3Z0J2", "twitter": "None", "instagram": "None", "facebook": "None", "youtube": "None", "website": "None", "summary": "None", "logo": "None", "latitude": 44.11031707195478, "longitude": -79.58273367410574}, "892365107RR0001": {"name": "BRADFORD WEST GWILLIMBURY LOCAL HISTORY ASSOCIATION", "designationCode": "C", "categoryCode": "50", "address": "95 BRITANNIA AVE", "city": "BRADFORD", "province": "ON", "country": "CA", "postalCode": "L3Z1A2", "twitter": "None", "instagram": "None", "facebook": "None", "youtube": "None", "website": "None", "summary": "None", "logo": "None", "latitude": 44.12089208562658, "longitude": -79.5634058067144}, "865602296RR0001": {"name": "BRADFORD WEST GWILLIMBURY SENIORS ASSOCIATION", "designationCode": "C", "categoryCode": "56", "address": "715 SIMCOE STREET", "city": "BRADFORD", "province": "ON", "country": "CA", "postalCode": "L3Z2A6", "twitter": "None", "instagram": "None", "facebook": "None", "youtube": "None", "website": "None", "summary": "None", "logo": "None", "latitude": 44.092015144064746, "longitude": -79.56701795767306}, "106805260RR0001": {"name": "BRADNER PRESBYTERIAN CHURCH", "designationCode": "C", "categoryCode": "37", "address": "5275 BRADNER RD", "city": "ABBOTSFORD", "province": "BC", "country": "CA", "postalCode": "V4X2P1", "twitter": "None", "instagram": "None", "facebook": "None", "youtube": "None", "website": "None", "summary": "None", "logo": "None", "latitude": 49.09766304662705, "longitude": -122.42647488513448}, "118816198RR0001": {"name": "BRADWELL CEMETERY ASSOCIATION INC.", "designationCode": "C", "categoryCode": "59", "address": "BOX 40", "city": "BRADWELL", "province": "SK", "country": "CA", "postalCode": "S0K0P0", "twitter": "None", "instagram": "None", "facebook": "None", "youtube": "None", "website": "None", "summary": "None", "logo": "None", "latitude": 51.94708098965215, "longitude": -106.22788384156064}, "118816206RR0001": {"name": "BRAEBURN LAKE CHRISTIAN CAMP ASSOCIATION", "designationCode": "C", "categoryCode": "56", "address": "P.O. BOX 30116", "city": "WHITEHORSE", "province": "YT", "country": "CA", "postalCode": "Y1A5M2", "twitter": "None", "instagram": "None", "facebook": "None", "youtube": "None", "website": "None", "summary": "None", "logo": "None", "latitude": 60.72084600000005, "longitude": -135.05323399999992}, "887351393RR0001": {"name": "BRAEBURN NIEGHBOURHOOD PLACE INCORPORATED", "designationCode": "C", "categoryCode": "09", "address": "75 TANDRIDGE CRESCENT 108", "city": "ETOBICOKE", "province": "ON", "country": "CA", "postalCode": "M9W2N9", "twitter": "None", "instagram": "None", "facebook": "None", "youtube": "None", "website": "None", "summary": "None", "logo": "None", "latitude": 43.72907649512393, "longitude": -79.54609687099621}, "847418076RR0001": {"name": "BRAEMAR BAPTIST SOCIETY OF EDMONTON", "designationCode": "C", "categoryCode": "31", "address": "7407 98 AVENUE", "city": "EDMONTON", "province": "AB", "country": "CA", "postalCode": "T6A0A8", "twitter": "None", "instagram": "None", "facebook": "None", "youtube": "None", "website": "None", "summary": "None", "logo": "None", "latitude": 53.537161035230085, "longitude": -113.4422132494952}, "893316786RR0001": {"name": "BRAEMAR HOUSE SCHOOL INCORPORATED", "designationCode": "C", "categoryCode": "20", "address": "36 BAXTER STREET", "city": "BRANTFORD", "province": "ON", "country": "CA", "postalCode": "N3R2V8", "twitter": "None", "instagram": "None", "facebook": "None", "youtube": "None", "website": "None", "summary": "None", "logo": "None", "latitude": 43.16851904691552, "longitude": -80.2561488098278}, "118816263RR0001": {"name": "BRAESIDE UNITED CHURCH", "designationCode": "C", "categoryCode": "44", "address": "PO BOX 58", "city": "BRAESIDE", "province": "ON", "country": "CA", "postalCode": "K0A1G0", "twitter": "None", "instagram": "None", "facebook": "None", "youtube": "None", "website": "None", "summary": "None", "logo": "None", "latitude": 45.46563000000003, "longitude": -76.40723999999994}, "118816271RR0001": {"name": "BRAGG CREEK COMMUNITY ASSOCIATION", "designationCode": "C", "categoryCode": "56", "address": "BOX 39                        23 WHITE AVENUE", "city": "BRAGG CREEK", "province": "AB", "country": "CA", "postalCode": "T0L0K0", "twitter": "None", "instagram": "None", "facebook": "None", "youtube": "None", "website": "None", "summary": "None", "logo": "None", "latitude": 50.950197661925245, "longitude": -114.56242811584646}, "106805476RR0001": {"name": "BRAGG CREEK COMMUNITY CHURCH OF GOD", "designationCode": "C", "categoryCode": "39", "address": "BOX 502", "city": "BRAGG CREEK", "province": "AB", "country": "CA", "postalCode": "T0L0K0", "twitter": "None", "instagram": "None", "facebook": "None", "youtube": "None", "website": "None", "summary": "None", "logo": "None", "latitude": 50.951040000000035, "longitude": -114.56075999999996}, "886599596RR0001": {"name": "BRAHM BUNGA SPIRITUAL FELLOWSHIP CALGARY", "designationCode": "C", "categoryCode": "39", "address": "BOX 42 RR 6 SITE 6", "city": "CALGARY", "province": "AB", "country": "CA", "postalCode": "T2M4L5", "twitter": "None", "instagram": "None", "facebook": "None", "youtube": "None", "website": "None", "summary": "None", "logo": "None", "latitude": 51.071298000000056, "longitude": -114.09404749999993}, "892237967RR0001": {"name": "BRAHMA KUMARIS WORLD SPIRITUAL", "designationCode": "C", "categoryCode": "39", "address": "3467 MONMOUTH AVE.", "city": "VANCOUVER", "province": "BC", "country": "CA", "postalCode": "V5R5R8", "twitter": "None", "instagram": "None", "facebook": "None", "youtube": "None", "website": "None", "summary": "None", "logo": "None", "latitude": 49.240535963714066, "longitude": -123.02818542376022}, "133038851RR0001": {"name": "BRAHMA KUMARIS WORLD SPIRITUAL ORGANIZATION", "designationCode": "C", "categoryCode": "39", "address": "SUITE 207 10132 105 ST", "city": "EDMONTON", "province": "AB", "country": "CA", "postalCode": "T5J1C9", "twitter": "None", "instagram": "None", "facebook": "None", "youtube": "None", "website": "None", "summary": "None", "logo": "None", "latitude": 53.54169300000001, "longitude": -113.50115823651078}, "132007055RR0001": {"name": "BRAHMA KUMARIS WORLD SPIRITUAL ORGANIZATION (ONTARIO)", "designationCode": "C", "categoryCode": "39", "address": "3000 ISLINGTON AVE", "city": "TORONTO", "province": "ON", "country": "CA", "postalCode": "M9L2K9", "twitter": "None", "instagram": "None", "facebook": "None", "youtube": "None", "website": "None", "summary": "None", "logo": "None", "latitude": 43.75982010739234, "longitude": -79.57165824914847}, "891638520RR0001": {"name": "BRAHMA KUMARIS WORLD SPIRITUAL ORGANIZATION - A SOCIETY FOR WORLD DEVELOPMENT", "designationCode": "C", "categoryCode": "39", "address": "100, 206-10A STREET NW", "city": "CALGARY", "province": "AB", "country": "CA", "postalCode": "T2N4P4", "twitter": "None", "instagram": "None", "facebook": "None", "youtube": "None", "website": "None", "summary": "None", "logo": "None", "latitude": 51.05280354644345, "longitude": -114.0872952322173}, "859319139RR0001": {"name": "BRAHMA KUMARIS WORLD SPIRITUAL ORGANIZATION SOCIETY", "designationCode": "C", "categoryCode": "39", "address": "1 CEDARBRAE LANE", "city": "HALIFAX", "province": "NS", "country": "CA", "postalCode": "B3M3M4", "twitter": "None", "instagram": "None", "facebook": "None", "youtube": "None", "website": "None", "summary": "None", "logo": "None", "latitude": 44.66397824202203, "longitude": -63.64835410424702}, "889065769RR0001": {"name": "BRAHMA VIDYA GURUKULAM", "designationCode": "C", "categoryCode": "47", "address": "1228 62 ST NW", "city": "EDMONTON", "province": "AB", "country": "CA", "postalCode": "T6L2H9", "twitter": "None", "instagram": "None", "facebook": "None", "youtube": "None", "website": "None", "summary": "None", "logo": "None", "latitude": 53.4424064768307, "longitude": -113.43296623206736}, "122641368RR0001": {"name": "BRAHMARISHI MISSION OF CANADA INC.", "designationCode": "C", "categoryCode": "39", "address": "525 BRIDGE ST E", "city": "KITCHENER", "province": "ON", "country": "CA", "postalCode": "N2K3C5", "twitter": "None", "instagram": "None", "facebook": "None", "youtube": "None", "website": "None", "summary": "None", "logo": "None"}, "106805542RR0001": {"name": "BRAIDWOOD BIBLE CHAPEL", "designationCode": "C", "categoryCode": "39", "address": "306 BRAIDWOOD AVE", "city": "PETERBOROUGH", "province": "ON", "country": "CA", "postalCode": "K9J1V6", "twitter": "None", "instagram": "None", "facebook": "None", "youtube": "None", "website": "None", "summary": "None", "logo": "None", "latitude": 44.28507893202133, "longitude": -78.31907904039463}, "891052094RR0001": {"name": "BRAIN CANADA FOUNDATION / FONDATION BRAIN CANADA", "designationCode": "A", "categoryCode": "03", "address": "1600 - 1200 AV MCGILL COLLEGE", "city": "MONTREAL", "province": "QC", "country": "CA", "postalCode": "H3B4G7", "twitter": "None", "instagram": "None", "facebook": "None", "youtube": "None", "website": "None", "summary": "None", "logo": "None", "latitude": 45.501577964452785, "longitude": -73.57059570832115}, "129709598RR0001": {"name": "BRAIN CARE CENTRE (BCC)", "designationCode": "C", "categoryCode": "59", "address": "10106-111 AVENUE              #229 ROYAL ALEX PLACE", "city": "EDMONTON", "province": "AB", "country": "CA", "postalCode": "T5G0B4", "twitter": "None", "instagram": "None", "facebook": "None", "youtube": "None", "website": "None", "summary": "None", "logo": "None", "latitude": 53.55890147100233, "longitude": -113.49402202553523}, "899164248RR0001": {"name": "BRAIN INJURY ASSOCIATION (SUDBURY & DISTRICT)", "designationCode": "C", "categoryCode": "11", "address": "2750 BANCROFT DR", "city": "SUDBURY", "province": "ON", "country": "CA", "postalCode": "P3B1T9", "twitter": "None", "instagram": "None", "facebook": "None", "youtube": "None", "website": "None", "summary": "None", "logo": "None", "latitude": 46.48658732947642, "longitude": -80.9123270353743}, "862771540RR0001": {"name": "BRAIN INJURY ASSOCIATION OF CANADA / ASSOCIATION CANADIENNE DES LESES CEREBRAUX", "designationCode": "C", "categoryCode": "11", "address": "2706 ALTA VISTA DRIVE,        SUITE 113", "city": "OTTAWA", "province": "ON", "country": "CA", "postalCode": "K1V7T4", "twitter": "None", "instagram": "None", "facebook": "None", "youtube": "None", "website": "None", "summary": "None", "logo": "None", "latitude": 45.37308829228441, "longitude": -75.66352621957388}, "127049484RR0001": {"name": "BRAIN INJURY ASSOCIATION OF FORT ERIE", "designationCode": "C", "categoryCode": "09", "address": "649 NIAGARA BOULEVARD", "city": "FORT ERIE", "province": "ON", "country": "CA", "postalCode": "L2A3H7", "twitter": "None", "instagram": "None", "facebook": "None", "youtube": "None", "website": "None", "summary": "None", "logo": "None", "latitude": 42.931478410208356, "longitude": -78.9148031100754}, "139093736RR0001": {"name": "BRAIN INJURY ASSOCIATION OF LONDON AND REGION", "designationCode": "C", "categoryCode": "11", "address": "201 KING ST", "city": "LONDON", "province": "ON", "country": "CA", "postalCode": "N6A1C9", "twitter": "None", "instagram": "None", "facebook": "None", "youtube": "None", "website": "None", "summary": "None", "logo": "None", "latitude": 42.98290806797868, "longitude": -81.24760251067582}, "118954833RR0001": {"name": "BRAIN INJURY ASSOCIATION OF NIAGARA", "designationCode": "C", "categoryCode": "11", "address": "115A - 282 LINWELL RD", "city": "ST CATHARINES", "province": "ON", "country": "CA", "postalCode": "L2N6N5", "twitter": "None", "instagram": "None", "facebook": "None", "youtube": "None", "website": "None", "summary": "None", "logo": "None", "latitude": 43.19531532996734, "longitude": -79.23791111890489}, "857126148RR0001": {"name": "BRAIN INJURY ASSOCIATION OF NORTH BAY AND AREA", "designationCode": "C", "categoryCode": "11", "address": "432 - 101 WORTHINGTON ST E", "city": "NORTH BAY", "province": "ON", "country": "CA", "postalCode": "P1B1G5", "twitter": "None", "instagram": "None", "facebook": "None", "youtube": "None", "website": "None", "summary": "None", "logo": "None", "latitude": 46.30612246828138, "longitude": -79.45717943153993}, "138201579RR0001": {"name": "BRAIN INJURY ASSOCIATION OF NOVA SCOTIA", "designationCode": "C", "categoryCode": "09", "address": "PO BOX 8804", "city": "HALIFAX", "province": "NS", "country": "CA", "postalCode": "B3K5M4", "twitter": "None", "instagram": "None", "facebook": "None", "youtube": "None", "website": "None", "summary": "None", "logo": "None", "latitude": 44.645478000000054, "longitude": -63.576552499999934}, "136609450RR0001": {"name": "BRAIN INJURY ASSOCIATION OF PEEL & HALTON", "designationCode": "C", "categoryCode": "59", "address": "PO BOX 67012 RPO S COMMON MALL", "city": "MISSISSAUGA", "province": "ON", "country": "CA", "postalCode": "L5L5V4", "twitter": "None", "instagram": "None", "facebook": "None", "youtube": "None", "website": "None", "summary": "None", "logo": "None", "latitude": 43.543510447370416, "longitude": -79.68678392619759}, "138351226RR0001": {"name": "BRAIN INJURY ASSOCIATION OF SAULT STE. MARIE AND DISTRICT", "designationCode": "C", "categoryCode": "19", "address": "PO BOX 22045 RPO CAMBRIAN MALL", "city": "SAULT STE. MARIE", "province": "ON", "country": "CA", "postalCode": "P6B6H4", "twitter": "None", "instagram": "None", "facebook": "None", "youtube": "None", "website": "None", "summary": "None", "logo": "None", "latitude": 46.517883000000054, "longitude": -84.34795399999993}, "118954866RR0001": {"name": "BRAIN INJURY ASSOCIATION OF THE OTTAWA VALLEY / ASSOCIATION DES NEUROTRAUMATISES CRANIENS DE LA REGION D'OTTAWA", "designationCode": "C", "categoryCode": "11", "address": "300A-211 BRONSON AVE", "city": "OTTAWA", "province": "ON", "country": "CA", "postalCode": "K1R6H5", "twitter": "None", "instagram": "None", "facebook": "None", "youtube": "None", "website": "None", "summary": "None", "logo": "None", "latitude": 45.41349725618897, "longitude": -75.7068905103587}, "876865817RR0001": {"name": "BRAIN INJURY ASSOCIATION OF WINDSOR AND ESSEX COUNTY", "designationCode": "C", "categoryCode": "11", "address": "UNIT 200, 201 WEST GRAND BLVD", "city": "WINDSOR", "province": "ON", "country": "CA", "postalCode": "N9E3W7", "twitter": "None", "instagram": "None", "facebook": "None", "youtube": "None", "website": "None", "summary": "None", "logo": "None", "latitude": 42.27400225976699, "longitude": -83.01276029987315}, "861059517RR0001": {"name": "BRAIN INJURY ASSOCIATION QUINTE DISTRICT", "designationCode": "C", "categoryCode": "19", "address": "2-223 PINNACLE STREET", "city": "BELLEVILLE", "province": "ON", "country": "CA", "postalCode": "K8N3A7", "twitter": "None", "instagram": "None", "facebook": "None", "youtube": "None", "website": "None", "summary": "None", "logo": "None", "latitude": 44.16455914354513, "longitude": -77.38281205384041}, "891866733RR0001": {"name": "BRAIN INJURY ASSOCIATION SARNIA-LAMBTON", "designationCode": "C", "categoryCode": "11", "address": "1048 - 1705 LONDON LINE", "city": "SARNIA", "province": "ON", "country": "CA", "postalCode": "N7W1B2", "twitter": "None", "instagram": "None", "facebook": "None", "youtube": "None", "website": "None", "summary": "None", "logo": "None", "latitude": 42.98380953837541, "longitude": -82.32875121440934}, "891146862RR0001": {"name": "BRAIN INJURY ASSOCIATION WATERLOO-WELLINGTON", "designationCode": "C", "categoryCode": "11", "address": "335 LANCASTER ST W", "city": "KITCHENER", "province": "ON", "country": "CA", "postalCode": "N2H4V4", "twitter": "None", "instagram": "None", "facebook": "None", "youtube": "None", "website": "None", "summary": "None", "logo": "None", "latitude": 43.46971124562873, "longitude": -80.48434785792581}, "133889378RR0001": {"name": "BRAIN INJURY COMMUNITY RE-ENTRY (NIAGARA) INC", "designationCode": "C", "categoryCode": "11", "address": "2 - 3340 SCHMON PKY           SS 11", "city": "THOROLD", "province": "ON", "country": "CA", "postalCode": "L2V4Y6", "twitter": "None", "instagram": "None", "facebook": "None", "youtube": "None", "website": "None", "summary": "None", "logo": "None", "latitude": 43.11163066994667, "longitude": -79.23937637356462}, "108083908RR0001": {"name": "BRAIN INJURY SERVICES OF HAMILTON", "designationCode": "C", "categoryCode": "11", "address": "225 KING WILLIAM STREET       SUITE 508", "city": "HAMILTON", "province": "ON", "country": "CA", "postalCode": "L8R1B1", "twitter": "None", "instagram": "None", "facebook": "None", "youtube": "None", "website": "None", "summary": "None", "logo": "None", "latitude": 43.25533113962134, "longitude": -79.86085359310985}, "886852748RR0001": {"name": "BRAIN INJURY SERVICES OF NORTHERN ONTARIO", "designationCode": "C", "categoryCode": "11", "address": "426 BALMORAL STREET", "city": "THUNDER BAY", "province": "ON", "country": "CA", "postalCode": "P7C5G8", "twitter": "None", "instagram": "None", "facebook": "None", "youtube": "None", "website": "None", "summary": "None", "logo": "None", "latitude": 48.39063300000001, "longitude": -89.25816161388457}, "139155410RR0001": {"name": "BRAIN INJURY SERVICES OF SIMCOE COUNTY INC.", "designationCode": "C", "categoryCode": "11", "address": "21 ESSA ROAD UNIT 1", "city": "BARRIE", "province": "ON", "country": "CA", "postalCode": "L4N3K4", "twitter": "None", "instagram": "None", "facebook": "None", "youtube": "None", "website": "None", "summary": "None", "logo": "None", "latitude": 44.37407992284607, "longitude": -79.6906496512781}, "850964347RR0001": {"name": "BRAIN INJURY SOCIETY OF TORONTO", "designationCode": "C", "categoryCode": "11", "address": "40 ST. CLAIR AVENUE EAST      SUITE 205", "city": "TORONTO", "province": "ON", "country": "CA", "postalCode": "M4T1M9", "twitter": "None", "instagram": "None", "facebook": "None", "youtube": "None", "website": "None", "summary": "None", "logo": "None", "latitude": 43.688628125454436, "longitude": -79.39269839381973}, "134653757RR0001": {"name": "BRAIN TRAUMA SUPPORT SOCIETY", "designationCode": "C", "categoryCode": "09", "address": "RR8 S2 C8", "city": "LETHBRIDGE", "province": "AB", "country": "CA", "postalCode": "T1J4P4", "twitter": "None", "instagram": "None", "facebook": "None", "youtube": "None", "website": "None", "summary": "None", "logo": "None", "latitude": 49.69264200000005, "longitude": -112.69386349999994}, "118816339RR0001": {"name": "BRAIN TUMOUR FOUNDATION OF CANADA", "designationCode": "A", "categoryCode": "13", "address": "203 - 205 HORTON ST E", "city": "LONDON", "province": "ON", "country": "CA", "postalCode": "N6B1K7", "twitter": "None", "instagram": "None", "facebook": "None", "youtube": "None", "website": "None", "summary": "None", "logo": "None", "latitude": 42.97942690166118, "longitude": -81.24554153580836}, "822779278RR0001": {"name": "BRAINSTORM FOUNDATION", "designationCode": "A", "categoryCode": "03", "address": "67 SUNNY ACRES RD", "city": "KINGSTON", "province": "ON", "country": "CA", "postalCode": "K7M3N4", "twitter": "None", "instagram": "None", "facebook": "None", "youtube": "None", "website": "None", "summary": "None", "logo": "None", "latitude": 44.211795537884484, "longitude": -76.56376151445538}, "140202003RR0001": {"name": "BRAINTRUST CANADA ASSOCIATION", "designationCode": "C", "categoryCode": "11", "address": "11-368 INDUSTRIAL AVE", "city": "KELOWNA", "province": "BC", "country": "CA", "postalCode": "V1Y7E8", "twitter": "None", "instagram": "None", "facebook": "None", "youtube": "None", "website": "None", "summary": "None", "logo": "None", "latitude": 49.89620882831464, "longitude": -119.49484845188343}, "106805575RR0001": {"name": "BRALORNE-PIONEER MUSEUM SOCIETY", "designationCode": "C", "categoryCode": "50", "address": "3767 LILLOOET-PIONEER HWY 40", "city": "BRALORNE", "province": "BC", "country": "CA", "postalCode": "V0K1P0", "twitter": "None", "instagram": "None", "facebook": "None", "youtube": "None", "website": "None", "summary": "None", "logo": "None", "latitude": 50.85132900000005, "longitude": -122.83880299999993}, "118816347RR0001": {"name": "BRAMALEA ALLIANCE CHURCH", "designationCode": "C", "categoryCode": "39", "address": "905 CENTRAL PARK DRIVE", "city": "BRAMPTON", "province": "ON", "country": "CA", "postalCode": "L6S4E7", "twitter": "None", "instagram": "None", "facebook": "None", "youtube": "None", "website": "None", "summary": "None", "logo": "None", "latitude": 43.73186655894764, "longitude": -79.72194252048624}, "828280354RR0001": {"name": "BRAMALEA BAPTIST CHURCH", "designationCode": "C", "categoryCode": "31", "address": "9050 DIXIE ROAD", "city": "BRAMPTON", "province": "ON", "country": "CA", "postalCode": "L6S1J3", "twitter": "None", "instagram": "None", "facebook": "None", "youtube": "None", "website": "None", "summary": "None", "logo": "None", "latitude": 43.7153059938545, "longitude": -79.72875151462827}, "118816370RR0001": {"name": "BRAMALEA CHURCH OF GOD", "designationCode": "C", "categoryCode": "39", "address": "600 BALMORAL DR", "city": "BRAMPTON", "province": "ON", "country": "CA", "postalCode": "L6T1W5", "twitter": "None", "instagram": "None", "facebook": "None", "youtube": "None", "website": "None", "summary": "None", "logo": "None", "latitude": 43.71623488594255, "longitude": -79.70443580047873}, "107797383RR0026": {"name": "BRAMALEA FILIPINO-CANADIAN SEVENTH-DAY ADVENTIST CHURCH", "designationCode": "C", "categoryCode": "41", "address": "8458 TORBRAM RD", "city": "BRAMALEA", "province": "ON", "country": "CA", "postalCode": "L6T4M9", "twitter": "None", "instagram": "None", "facebook": "None", "youtube": "None", "website": "None", "summary": "None", "logo": "None"}, "107406316RR0020": {"name": "BRAMALEA FREE METHODIST CHURCH", "designationCode": "C", "categoryCode": "39", "address": "355 HOWDEN BLVD.", "city": "BRAMPTON", "province": "ON", "country": "CA", "postalCode": "L6S4L6", "twitter": "None", "instagram": "None", "facebook": "None", "youtube": "None", "website": "None", "summary": "None", "logo": "None", "latitude": 43.71757964588242, "longitude": -79.74011635293415}, "136046984RR0001": {"name": "BRAMALEA GOSPEL ASSEMBLY", "designationCode": "C", "categoryCode": "36", "address": "93 AUTUMN BLVD", "city": "BRAMPTON", "province": "ON", "country": "CA", "postalCode": "L6T2W1", "twitter": "None", "instagram": "None", "facebook": "None", "youtube": "None", "website": "None", "summary": "None", "logo": "None", "latitude": 43.71281408938761, "longitude": -79.70283352259237}, "875363871RR0001": {"name": "BRAMBER CEMETERY ORGANIZATION", "designationCode": "C", "categoryCode": "59", "address": "6997 HWY 215                  RR1 WALTON", "city": "HANTS", "province": "NS", "country": "CA", "postalCode": "B0N2R0", "twitter": "None", "instagram": "None", "facebook": "None", "youtube": "None", "website": "None", "summary": "None", "logo": "None", "latitude": 45.17757602811976, "longitude": -64.1504097315454}, "893416586RR0001": {"name": "BRAMHI SOCIETY", "designationCode": "C", "categoryCode": "39", "address": "1006 - 3533 DERRY RD E", "city": "MISSISSAUGA", "province": "ON", "country": "CA", "postalCode": "L4T1B1", "twitter": "None", "instagram": "None", "facebook": "None", "youtube": "None", "website": "None", "summary": "None", "logo": "None", "latitude": 43.71417631669447, "longitude": -79.63121374482066}, "861989465RR0001": {"name": "BRAMPTON AND CALEDON COMMUNITY FOUNDATION", "designationCode": "A", "categoryCode": "03", "address": "150 MAIN ST N BOX 74027", "city": "BRAMPTON", "province": "ON", "country": "CA", "postalCode": "L6V1N9", "twitter": "None", "instagram": "None", "facebook": "None", "youtube": "None", "website": "None", "summary": "None", "logo": "None", "latitude": 43.688360198741876, "longitude": -79.76322483233328}, "890795347RR0001": {"name": "BRAMPTON ARABIC PENTECOSTAL CHURCH", "designationCode": "C", "categoryCode": "36", "address": "6 BRENNAN DRIVE", "city": "ANGUS", "province": "ON", "country": "CA", "postalCode": "L0M1B1", "twitter": "None", "instagram": "None", "facebook": "None", "youtube": "None", "website": "None", "summary": "None", "logo": "None", "latitude": 44.31098448268776, "longitude": -79.8774525}, "126104736RR0001": {"name": "BRAMPTON ARTS COUNCIL", "designationCode": "C", "categoryCode": "22", "address": "33 BRAEMORE STREET", "city": "DUNDALK", "province": "ON", "country": "CA", "postalCode": "N0C1B0", "twitter": "None", "instagram": "None", "facebook": "None", "youtube": "None", "website": "None", "summary": "None", "logo": "None", "latitude": 44.17590675174687, "longitude": -80.38675313710618}, "118816412RR0001": {"name": "BRAMPTON BRAMALEA CHRISTIAN FELLOWSHIP, INC.", "designationCode": "C", "categoryCode": "47", "address": "11613 BRAMALEA RD N", "city": "BRAMPTON", "province": "ON", "country": "CA", "postalCode": "L6R0C2", "twitter": "None", "instagram": "None", "facebook": "None", "youtube": "None", "website": "None", "summary": "None", "logo": "None", "latitude": 43.768907315886416, "longitude": -79.77735514871061}, "139827752RR0001": {"name": "BRAMPTON CALEDON COMMUNITY HOUSING", "designationCode": "C", "categoryCode": "09", "address": "34 CHURCH ST W", "city": "BRAMPTON", "province": "ON", "country": "CA", "postalCode": "L6X1H3", "twitter": "None", "instagram": "None", "facebook": "None", "youtube": "None", "website": "None", "summary": "None", "logo": "None", "latitude": 43.68765225676589, "longitude": -79.76527574453219}, "106805880RR0001": {"name": "BRAMPTON CALEDON COMMUNITY LIVING", "designationCode": "C", "categoryCode": "11", "address": "34 CHURCH STREET WEST", "city": "BRAMPTON", "province": "ON", "country": "CA", "postalCode": "L6X1H3", "twitter": "None", "instagram": "None", "facebook": "None", "youtube": "None", "website": "None", "summary": "None", "logo": "None", "latitude": 43.68765225676589, "longitude": -79.76527574453219}, "847498565RR0001": {"name": "BRAMPTON CALEDON ORCHESTRA", "designationCode": "C", "categoryCode": "22", "address": "P.O. BOX 127 STN.             CALEDON EAST", "city": "CALEDON", "province": "ON", "country": "CA", "postalCode": "L7C3L8", "twitter": "None", "instagram": "None", "facebook": "None", "youtube": "None", "website": "None", "summary": "None", "logo": "None", "latitude": 43.7573660834971, "longitude": -79.91556969199306}, "118816420RR0001": {"name": "BRAMPTON CHINESE BAPTIST CHURCH", "designationCode": "C", "categoryCode": "31", "address": "1989 NORTH PARK DRIVE", "city": "BRAMPTON", "province": "ON", "country": "CA", "postalCode": "L6S5X5", "twitter": "None", "instagram": "None", "facebook": "None", "youtube": "None", "website": "None", "summary": "None", "logo": "None", "latitude": 43.744915960297845, "longitude": -79.73178027780038}, "862926763RR0001": {"name": "BRAMPTON CHURCH OF GOD DELIVERANCE MINISTRIES", "designationCode": "C", "categoryCode": "39", "address": "5 - 35 HEDGEDALE RD", "city": "BRAMPTON", "province": "ON", "country": "CA", "postalCode": "L6T5P3", "twitter": "None", "instagram": "None", "facebook": "None", "youtube": "None", "website": "None", "summary": "None", "logo": "None", "latitude": 43.68509910770948, "longitude": -79.70232212083813}, "817009277RR0001": {"name": "BRAMPTON COMMUNITY CHRISTIAN CHURCH", "designationCode": "C", "categoryCode": "39", "address": "5 CRESSWELL DR", "city": "BRAMPTON", "province": "ON", "country": "CA", "postalCode": "L6Y2T5", "twitter": "None", "instagram": "None", "facebook": "None", "youtube": "None", "website": "None", "summary": "None", "logo": "None", "latitude": 43.65933503274858, "longitude": -79.75486589774354}, "135758357RR0001": {"name": "BRAMPTON EVANGELICAL MISSIONARY CHURCH", "designationCode": "C", "categoryCode": "39", "address": "48 MCLAUGHLIN RD.S.", "city": "BRAMPTON", "province": "ON", "country": "CA", "postalCode": "L6Y2C7", "twitter": "None", "instagram": "None", "facebook": "None", "youtube": "None", "website": "None", "summary": "None", "logo": "None", "latitude": 43.67384939970545, "longitude": -79.76761395845153}, "864757091RR0001": {"name": "BRAMPTON GOSPEL HALL", "designationCode": "C", "categoryCode": "45", "address": "14 INSPIRATION WAY", "city": "BRAMPTON", "province": "ON", "country": "CA", "postalCode": "L6R0L7", "twitter": "None", "instagram": "None", "facebook": "None", "youtube": "None", "website": "None", "summary": "None", "logo": "None", "latitude": 43.76998757227784, "longitude": -79.75668495198796}, "874765720RR0001": {"name": "BRAMPTON HISTORICAL SOCIETY", "designationCode": "C", "categoryCode": "50", "address": "24 OKANAGAN DR", "city": "BRAMPTON", "province": "ON", "country": "CA", "postalCode": "L6R2X9", "twitter": "None", "instagram": "None", "facebook": "None", "youtube": "None", "website": "None", "summary": "None", "logo": "None", "latitude": 43.77246740186983, "longitude": -79.73984788900097}, "889691366RR0001": {"name": "BRAMPTON HORTICULTURAL SOCIETY", "designationCode": "C", "categoryCode": "56", "address": "P.O. BOX 92546                160 MAIN ST. SOUTH", "city": "BRAMPTON", "province": "ON", "country": "CA", "postalCode": "L6W4R1", "twitter": "None", "instagram": "None", "facebook": "None", "youtube": "None", "website": "None", "summary": "None", "logo": "None", "latitude": 43.67739209775482, "longitude": -79.74845264132438}}