{"119021434RR0001": {"name": "LITTLE NARROWS PRESBYTERIAN CHURCH", "designationCode": "C", "categoryCode": "37", "address": "PO BOX 352", "city": "WHYCOCOMAGH", "province": "NS", "country": "CA", "postalCode": "B0E3M0", "twitter": "None", "instagram": "None", "facebook": "None", "youtube": "None", "website": "None", "summary": "None", "logo": "None", "latitude": 45.986578959739866, "longitude": -61.09164516623389}, "133484022RR0001": {"name": "LITTLE NEIGHBOURS PRESCHOOL SOCIETY", "designationCode": "C", "categoryCode": "20", "address": "155 FINNIGAN ST", "city": "COQUITLAM", "province": "BC", "country": "CA", "postalCode": "V3K5J2", "twitter": "None", "instagram": "None", "facebook": "None", "youtube": "None", "website": "None", "summary": "None", "logo": "None", "latitude": 49.23443949120591, "longitude": -122.83671247443465}, "870865086RR0001": {"name": "LITTLE PEOPLE OF MANITOBA INC.", "designationCode": "C", "categoryCode": "09", "address": "4 LAKEPOINTE RD", "city": "WINNIPEG", "province": "MB", "country": "CA", "postalCode": "R3T4R4", "twitter": "None", "instagram": "None", "facebook": "None", "youtube": "None", "website": "None", "summary": "None", "logo": "None", "latitude": 49.80967252510255, "longitude": -97.16289269608748}, "889278974RR0001": {"name": "LITTLE PEOPLE OF ONTARIO / L P O", "designationCode": "C", "categoryCode": "59", "address": "108 ROSEDALE HEIGHTS DR", "city": "TORONTO", "province": "ON", "country": "CA", "postalCode": "M4T1C6", "twitter": "None", "instagram": "None", "facebook": "None", "youtube": "None", "website": "None", "summary": "None", "logo": "None", "latitude": 43.68761117626508, "longitude": -79.37820733847877}, "103349973RR0001": {"name": "LITTLE PEOPLE'S PLACE INC.", "designationCode": "C", "categoryCode": "01", "address": "OR JOANNE GILLAN, ADMIN. ASS. 906 COTTONWOOD ROAD", "city": "WINNIPEG", "province": "MB", "country": "CA", "postalCode": "R2J1G2", "twitter": "None", "instagram": "None", "facebook": "None", "youtube": "None", "website": "None", "summary": "None", "logo": "None", "latitude": 49.860868614981094, "longitude": -97.07997752579503}, "119021459RR0001": {"name": "LITTLE PEOPLE'S PRESCHOOL PARENTS ASSOCIATION", "designationCode": "C", "categoryCode": "20", "address": "5600 BALACLAVA STREET", "city": "VANCOUVER", "province": "BC", "country": "CA", "postalCode": "V6N1L1", "twitter": "None", "instagram": "None", "facebook": "None", "youtube": "None", "website": "None", "summary": "None", "logo": "None", "latitude": 49.235607520974824, "longitude": -123.17661834985428}, "107630071RR0001": {"name": "LITTLE PEOPLES DAY CARE CENTRE", "designationCode": "C", "categoryCode": "01", "address": "510 MOHAWK RD WEST", "city": "HAMILTON", "province": "ON", "country": "CA", "postalCode": "L9C1X4", "twitter": "None", "instagram": "None", "facebook": "None", "youtube": "None", "website": "None", "summary": "None", "logo": "None", "latitude": 43.23221401584036, "longitude": -79.90606292977097}, "107630089RR0001": {"name": "LITTLE PEOPLES PLACE OF SHELBURNE ASSOCIATION", "designationCode": "C", "categoryCode": "20", "address": "P O BOX 1145", "city": "SHELBURNE", "province": "NS", "country": "CA", "postalCode": "B0T1W0", "twitter": "None", "instagram": "None", "facebook": "None", "youtube": "None", "website": "None", "summary": "None", "logo": "None", "latitude": 43.57026600000006, "longitude": -65.35813399999994}, "119021491RR0001": {"name": "LITTLE PLUME EVANGELICAL CHURCH", "designationCode": "C", "categoryCode": "39", "address": "10224 RANGE ROAD 52", "city": "CYPRESS COUNTY", "province": "AB", "country": "CA", "postalCode": "T1B0K7", "twitter": "None", "instagram": "None", "facebook": "None", "youtube": "None", "website": "None", "summary": "None", "logo": "None", "latitude": 49.81740789157475, "longitude": -110.5920630939033}, "129873600RR0001": {"name": "LITTLE PRAIRIE HERITAGE SOCIETY", "designationCode": "C", "categoryCode": "50", "address": "BOX 1777                      WESTGATE ROAD", "city": "CHETWYND", "province": "BC", "country": "CA", "postalCode": "V0C1J0", "twitter": "None", "instagram": "None", "facebook": "None", "youtube": "None", "website": "None", "summary": "None", "logo": "None", "latitude": 55.69230625326106, "longitude": -121.65887359949723}, "107630295RR0001": {"name": "LITTLE RASCALS NURSERY INCORPORATED", "designationCode": "C", "categoryCode": "01", "address": "BOX 8", "city": "SPRAGUE", "province": "MB", "country": "CA", "postalCode": "R0A1Z0", "twitter": "None", "instagram": "None", "facebook": "None", "youtube": "None", "website": "None", "summary": "None", "logo": "None", "latitude": 49.03615000000008, "longitude": -95.64291999999995}, "138083266RR0001": {"name": "LITTLE RED CAMPING ASSOCIATION", "designationCode": "C", "categoryCode": "49", "address": "BOX 334", "city": "BOWDEN", "province": "AB", "country": "CA", "postalCode": "T0M0K0", "twitter": "None", "instagram": "None", "facebook": "None", "youtube": "None", "website": "None", "summary": "None", "logo": "None", "latitude": 51.93861000000004, "longitude": -114.02976999999998}, "129714234RR0001": {"name": "LITTLE RED THEATRE", "designationCode": "C", "categoryCode": "22", "address": "25 BEATY AVENUE", "city": "TORONTO", "province": "ON", "country": "CA", "postalCode": "M6K3B3", "twitter": "None", "instagram": "None", "facebook": "None", "youtube": "None", "website": "None", "summary": "None", "logo": "None", "latitude": 43.637307809885144, "longitude": -79.44022887688284}, "119021517RR0001": {"name": "LITTLE RIVER CEMETERY COMMITTEE", "designationCode": "C", "categoryCode": "59", "address": "GENERAL DELIVERY", "city": "DIGBY COUNTY", "province": "NS", "country": "CA", "postalCode": "B0V1C0", "twitter": "None", "instagram": "None", "facebook": "None", "youtube": "None", "website": "None", "summary": "None", "logo": "None", "latitude": 44.44388700000006, "longitude": -66.14597149999993}, "139156046RR0001": {"name": "LITTLE RIVER ENHANCEMENT SOCIETY", "designationCode": "C", "categoryCode": "52", "address": "556 KINNIKINIK WAY", "city": "COMOX", "province": "BC", "country": "CA", "postalCode": "V9M3V8", "twitter": "None", "instagram": "None", "facebook": "None", "youtube": "None", "website": "None", "summary": "None", "logo": "None", "latitude": 49.68415717153321, "longitude": -124.8861129331465}, "119021525RR0001": {"name": "LITTLE RIVER UNITED BAPTIST CHURCH", "designationCode": "C", "categoryCode": "31", "address": "RR#3", "city": "OXFORD", "province": "NS", "country": "CA", "postalCode": "B0M1P0", "twitter": "None", "instagram": "None", "facebook": "None", "youtube": "None", "website": "None", "summary": "None", "logo": "None", "latitude": 45.73593000000005, "longitude": -63.86782999999997}, "859809113RR0001": {"name": "LITTLE SAINTS LEARNING CENTER INC.", "designationCode": "C", "categoryCode": "01", "address": "15 ST MARK'S PLACE", "city": "WINNIPEG", "province": "MB", "country": "CA", "postalCode": "R2M0S3", "twitter": "None", "instagram": "None", "facebook": "None", "youtube": "None", "website": "None", "summary": "None", "logo": "None", "latitude": 49.86037987373752, "longitude": -97.11305258578093}, "896458320RR0001": {"name": "LITTLE SASKATCHEWAN RIVER CONSERVATION DISTRICT", "designationCode": "C", "categoryCode": "32", "address": "BOX 209                       59 NORTH RAILWAY ST", "city": "OAK RIVER", "province": "MB", "country": "CA", "postalCode": "R0K1T0", "twitter": "None", "instagram": "None", "facebook": "None", "youtube": "None", "website": "None", "summary": "None", "logo": "None", "latitude": 50.13466240253704, "longitude": -100.43008732454712}, "119021533RR0001": {"name": "LITTLE SOUTH WEST BAPTIST CHURCH INC.", "designationCode": "C", "categoryCode": "31", "address": "2601 ROUTE 420 HWY", "city": "SILLIKERS", "province": "NB", "country": "CA", "postalCode": "E9E1T8", "twitter": "None", "instagram": "None", "facebook": "None", "youtube": "None", "website": "None", "summary": "None", "logo": "None", "latitude": 46.94063729669802, "longitude": -65.89952244252731}, "891173973RR0001": {"name": "LITTLE STONE CHURCH", "designationCode": "C", "categoryCode": "39", "address": "BOX 175                       829 CENTRALE STREET", "city": "BRYSON", "province": "QC", "country": "CA", "postalCode": "J0X1H0", "twitter": "None", "instagram": "None", "facebook": "None", "youtube": "None", "website": "None", "summary": "None", "logo": "None", "latitude": 45.677703803768296, "longitude": -76.62352749073783}, "119021566RR0001": {"name": "LITTLE STRING ORCHESTRA", "designationCode": "C", "categoryCode": "22", "address": "269 CLARENCE ST               P.O. BOX 20054 CLARENCE", "city": "BRANTFORD", "province": "ON", "country": "CA", "postalCode": "N3R0A4", "twitter": "None", "instagram": "None", "facebook": "None", "youtube": "None", "website": "None", "summary": "None", "logo": "None", "latitude": 43.15184187982572, "longitude": -80.26052391029526}, "897994901RR0001": {"name": "LITTLE TOMATO CHILDREN'S THEATRE", "designationCode": "C", "categoryCode": "22", "address": "11 ISLAND PARK COURT", "city": "LEAMINGTON", "province": "ON", "country": "CA", "postalCode": "N8H5C9", "twitter": "None", "instagram": "None", "facebook": "None", "youtube": "None", "website": "None", "summary": "None", "logo": "None", "latitude": 42.04207296113457, "longitude": -82.61414286291749}, "119021582RR0001": {"name": "LITTLE TRINITY CHURCH", "designationCode": "C", "categoryCode": "30", "address": "425 KING ST EAST", "city": "TORONTO", "province": "ON", "country": "CA", "postalCode": "M5A1L3", "twitter": "None", "instagram": "None", "facebook": "None", "youtube": "None", "website": "None", "summary": "None", "logo": "None", "latitude": 43.65336229251555, "longitude": -79.36202891352657}, "859446924RR0001": {"name": "LITTLE VOICE FOUNDATION", "designationCode": "B", "categoryCode": "20", "address": "367 TEMPLETON STREET", "city": "OTTAWA", "province": "ON", "country": "CA", "postalCode": "K1N6X8", "twitter": "None", "instagram": "None", "facebook": "None", "youtube": "None", "website": "None", "summary": "None", "logo": "None", "latitude": 45.42320320650348, "longitude": -75.67257587344906}, "845683168RR0001": {"name": "LITTLE WARRIORS", "designationCode": "C", "categoryCode": "09", "address": "PO BOX 92507 RPO NOTTINGHAM", "city": "SHERWOOD PARK", "province": "AB", "country": "CA", "postalCode": "T8A3X4", "twitter": "None", "instagram": "None", "facebook": "None", "youtube": "None", "website": "None", "summary": "None", "logo": "None", "latitude": 53.52612183947098, "longitude": -113.28132213977932}, "136488871RR0001": {"name": "LITTLE WINGS DAY CARE CENTRE SOCIETY", "designationCode": "C", "categoryCode": "20", "address": "6001 GRANT MCCONACHIE WAY     YVR 3295", "city": "RICHMOND", "province": "BC", "country": "CA", "postalCode": "V7B1K3", "twitter": "None", "instagram": "None", "facebook": "None", "youtube": "None", "website": "None", "summary": "None", "logo": "None", "latitude": 49.19261584216515, "longitude": -123.1595262428787}, "132329467RR0001": {"name": "LITTLE WOODY BAPTIST CHURCH", "designationCode": "C", "categoryCode": "31", "address": "BOX 327", "city": "SWAN RIVER", "province": "MB", "country": "CA", "postalCode": "R0L1Z0", "twitter": "None", "instagram": "None", "facebook": "None", "youtube": "None", "website": "None", "summary": "None", "logo": "None", "latitude": 52.11672730414978, "longitude": -101.25989472758229}, "119021590RR0001": {"name": "LITTLEWOOD PASTORAL CHARGE", "designationCode": "C", "categoryCode": "44", "address": "8074 LITTLEWOOD DR RR 33", "city": "LONDON", "province": "ON", "country": "CA", "postalCode": "N6P1P3", "twitter": "None", "instagram": "None", "facebook": "None", "youtube": "None", "website": "None", "summary": "None", "logo": "None", "latitude": 42.84955204267271, "longitude": -81.30537846318245}, "131908550RR0001": {"name": "LIVE ART PRODUCTIONS SOCIETY", "designationCode": "C", "categoryCode": "22", "address": "6068 QUINPOOL RD", "city": "HALIFAX", "province": "NS", "country": "CA", "postalCode": "B3L1A1", "twitter": "None", "instagram": "None", "facebook": "None", "youtube": "None", "website": "None", "summary": "None", "logo": "None", "latitude": 44.64671299526814, "longitude": -63.59244392255761}, "857784342RR0001": {"name": "LIVE BAIT THEATRE", "designationCode": "C", "categoryCode": "22", "address": "43E MAIN ST                   P.O. BOX 6441", "city": "SACKVILLE", "province": "NB", "country": "CA", "postalCode": "E4L1G6", "twitter": "None", "instagram": "None", "facebook": "None", "youtube": "None", "website": "None", "summary": "None", "logo": "None", "latitude": 45.89528278909357, "longitude": -64.37031850197808}, "823931118RR0001": {"name": "LIVE FAITH OUT AT WORK MINISTRY INC.", "designationCode": "C", "categoryCode": "47", "address": "16 MINNETONKA STREET", "city": "WINNIPEG", "province": "MB", "country": "CA", "postalCode": "R2M4J8", "twitter": "None", "instagram": "None", "facebook": "None", "youtube": "None", "website": "None", "summary": "None", "logo": "None", "latitude": 49.824613235645394, "longitude": -97.12678484537501}, "889786216RR0001": {"name": "LIVE TO GIVE RELIEF ORGANIZATION", "designationCode": "C", "categoryCode": "09", "address": "188 LOWTHER AVE", "city": "TORONTO", "province": "ON", "country": "CA", "postalCode": "M5R1E8", "twitter": "None", "instagram": "None", "facebook": "None", "youtube": "None", "website": "None", "summary": "None", "logo": "None", "latitude": 43.66825715404807, "longitude": -79.4071798529055}, "859157661RR0001": {"name": "LIVELY #3909 FOUNDATION", "designationCode": "A", "categoryCode": "65", "address": "PO BOX 50", "city": "COPPER CLIFF", "province": "ON", "country": "CA", "postalCode": "P0M1N0", "twitter": "None", "instagram": "None", "facebook": "None", "youtube": "None", "website": "None", "summary": "None", "logo": "None", "latitude": 46.474830000000054, "longitude": -81.06802999999996}, "119288918RR0312": {"name": "LIVELY ONTARIO CONGREGATION OF JEHOVAH'S WITNESSES,", "designationCode": "C", "categoryCode": "61", "address": "1651 SKYWARD DR", "city": "SUDBURY", "province": "ON", "country": "CA", "postalCode": "P3E5K7", "twitter": "None", "instagram": "None", "facebook": "None", "youtube": "None", "website": "None", "summary": "None", "logo": "None", "latitude": 46.45586584564099, "longitude": -81.01410885855056}, "887970648RR0001": {"name": "LIVERPOOL FIRE FIGHTERS ASSOCIATION", "designationCode": "C", "categoryCode": "59", "address": "P.O. BOX 268", "city": "LIVERPOOL", "province": "NS", "country": "CA", "postalCode": "B0T1K0", "twitter": "None", "instagram": "None", "facebook": "None", "youtube": "None", "website": "None", "summary": "None", "logo": "None", "latitude": 44.03577000000007, "longitude": -64.72067999999996}, "119288918RR0366": {"name": "LIVERPOOL NOVA SCOTIA CONGREGATION OF JEHOVAH'S WITNESSES", "designationCode": "C", "categoryCode": "61", "address": "PO BOX 1453", "city": "LIVERPOOL", "province": "NS", "country": "CA", "postalCode": "B0T1K0", "twitter": "None", "instagram": "None", "facebook": "None", "youtube": "None", "website": "None", "summary": "None", "logo": "None", "latitude": 44.03577000000007, "longitude": -64.72067999999996}, "108231135RR0001": {"name": "LIVERPOOL PASTORAL CHARGE", "designationCode": "C", "categoryCode": "44", "address": "PO BOX 1197", "city": "LIVERPOOL", "province": "NS", "country": "CA", "postalCode": "B0T1K0", "twitter": "None", "instagram": "None", "facebook": "None", "youtube": "None", "website": "None", "summary": "None", "logo": "None", "latitude": 44.03577000000007, "longitude": -64.72067999999996}, "890802390RR0001": {"name": "LIVERPOOL REGIONAL HIGH SCHOOL FOUNDATION", "designationCode": "C", "categoryCode": "25", "address": "PO BOX 1266", "city": "LIVERPOOL", "province": "NS", "country": "CA", "postalCode": "B0T1K0", "twitter": "None", "instagram": "None", "facebook": "None", "youtube": "None", "website": "None", "summary": "None", "logo": "None", "latitude": 44.03577000000007, "longitude": -64.72067999999996}, "119021715RR0001": {"name": "LIVERPOOL UNITED BAPTIST CHURCH", "designationCode": "C", "categoryCode": "31", "address": "PO BOX 1145", "city": "LIVERPOOL", "province": "NS", "country": "CA", "postalCode": "B0T1K0", "twitter": "None", "instagram": "None", "facebook": "None", "youtube": "None", "website": "None", "summary": "None", "logo": "None", "latitude": 44.03577000000007, "longitude": -64.72067999999996}, "855757449RR0001": {"name": "LIVIA STOYKE CHARITABLE FOUNDATION", "designationCode": "C", "categoryCode": "59", "address": "11340 - 79 AVENUE", "city": "EDMONTON", "province": "AB", "country": "CA", "postalCode": "T6G0P3", "twitter": "None", "instagram": "None", "facebook": "None", "youtube": "None", "website": "None", "summary": "None", "logo": "None"}, "888821055RR0001": {"name": "LIVING BIBLE EXPLORERS INC", "designationCode": "C", "categoryCode": "47", "address": "600 BURNELL ST", "city": "WINNIPEG", "province": "MB", "country": "CA", "postalCode": "R3G2B7", "twitter": "None", "instagram": "None", "facebook": "None", "youtube": "None", "website": "None", "summary": "None", "logo": "None", "latitude": 49.895416791563264, "longitude": -97.17073542411548}, "107630881RR0001": {"name": "LIVING BRANCHES COMMUNITY CHURCH", "designationCode": "C", "categoryCode": "39", "address": "BOX 667", "city": "ROCKY MOUNTAIN HOUSE", "province": "AB", "country": "CA", "postalCode": "T4T1A5", "twitter": "None", "instagram": "None", "facebook": "None", "youtube": "None", "website": "None", "summary": "None", "logo": "None", "latitude": 52.37758500000005, "longitude": -114.93030049999993}, "107628588RR0001": {"name": "LIVING CHRIST LUTHERAN CHURCH", "designationCode": "C", "categoryCode": "32", "address": "BOX 209", "city": "LIPTON", "province": "SK", "country": "CA", "postalCode": "S0G3B0", "twitter": "None", "instagram": "None", "facebook": "None", "youtube": "None", "website": "None", "summary": "None", "logo": "None", "latitude": 50.36424824390069, "longitude": -102.4129944774132}, "897927935RR0001": {"name": "LIVING CHURCH OF GOD", "designationCode": "C", "categoryCode": "39", "address": "PO BOX 409", "city": "MISSISSAUGA", "province": "ON", "country": "CA", "postalCode": "L5M0P6", "twitter": "None", "instagram": "None", "facebook": "None", "youtube": "None", "website": "None", "summary": "None", "logo": "None", "latitude": 43.56015000000005, "longitude": -79.72056799999993}, "119203933RR0001": {"name": "LIVING FAITH AND WORD CHURCH INC.", "designationCode": "C", "categoryCode": "39", "address": "PO BOX 614", "city": "STURGIS", "province": "SK", "country": "CA", "postalCode": "S0A4A0", "twitter": "None", "instagram": "None", "facebook": "None", "youtube": "None", "website": "None", "summary": "None", "logo": "None", "latitude": 51.940030000000036, "longitude": -102.54296999999997}, "119021749RR0001": {"name": "LIVING FAITH ASSEMBLY", "designationCode": "C", "categoryCode": "36", "address": "PO BOX 96", "city": "KIRKLAND LAKE", "province": "ON", "country": "CA", "postalCode": "P2N3M6", "twitter": "None", "instagram": "None", "facebook": "None", "youtube": "None", "website": "None", "summary": "None", "logo": "None", "latitude": 48.15028500000005, "longitude": -80.03540149999994}, "807394002RR0001": {"name": "LIVING FAITH ASSEMBLY (LONDON)", "designationCode": "C", "categoryCode": "36", "address": "1974 CORONATION DRIVE", "city": "LONDON", "province": "ON", "country": "CA", "postalCode": "N6G0B6", "twitter": "None", "instagram": "None", "facebook": "None", "youtube": "None", "website": "None", "summary": "None", "logo": "None", "latitude": 43.005259895377606, "longitude": -81.32853133181368}, "890258197RR0001": {"name": "LIVING FAITH CENTRE", "designationCode": "C", "categoryCode": "39", "address": "P.O. BOX 201", "city": "PANGMAN", "province": "SK", "country": "CA", "postalCode": "S0C2C0", "twitter": "None", "instagram": "None", "facebook": "None", "youtube": "None", "website": "None", "summary": "None", "logo": "None", "latitude": 49.65007000000003, "longitude": -104.66778999999997}, "897238796RR0001": {"name": "LIVING FAITH CHRISTIAN CHURCH OF COLLINGWOOD", "designationCode": "C", "categoryCode": "47", "address": "PO BOX 292", "city": "COLLINGWOOD", "province": "ON", "country": "CA", "postalCode": "L9Y3Z5", "twitter": "None", "instagram": "None", "facebook": "None", "youtube": "None", "website": "None", "summary": "None", "logo": "None", "latitude": 44.49987600000006, "longitude": -80.21683249999994}, "107630915RR0001": {"name": "LIVING FAITH COMMUNITY CHURCH OF CHATHAM", "designationCode": "C", "categoryCode": "39", "address": "530 VICTORIA AVENUE", "city": "CHATHAM", "province": "ON", "country": "CA", "postalCode": "N7L3B6", "twitter": "None", "instagram": "None", "facebook": "None", "youtube": "None", "website": "None", "summary": "None", "logo": "None", "latitude": 42.42341538799137, "longitude": -82.2047406734951}, "118875384RR0001": {"name": "LIVING FAITH COMMUNITY PRESBYTERIAN CHURCH", "designationCode": "C", "categoryCode": "37", "address": "115 JAMIESON CRT", "city": "THORNTON", "province": "ON", "country": "CA", "postalCode": "L0L2N0", "twitter": "None", "instagram": "None", "facebook": "None", "youtube": "None", "website": "None", "summary": "None", "logo": "None", "latitude": 44.27140666775364, "longitude": -79.71567745138239}, "865735906RR0001": {"name": "LIVING FAITH EVANGELICAL LUTHERAN CHURCH", "designationCode": "C", "categoryCode": "39", "address": "311A BROADWAY AVENUE", "city": "ORANGEVILLE", "province": "ON", "country": "CA", "postalCode": "L9W1L4", "twitter": "None", "instagram": "None", "facebook": "None", "youtube": "None", "website": "None", "summary": "None", "logo": "None", "latitude": 43.916577610192185, "longitude": -80.10990251833276}, "107630931RR0001": {"name": "LIVING FAITH EVANGELISTIC ASSOCIATION", "designationCode": "C", "categoryCode": "47", "address": "BOX 100", "city": "CAROLINE", "province": "AB", "country": "CA", "postalCode": "T0M0M0", "twitter": "None", "instagram": "None", "facebook": "None", "youtube": "None", "website": "None", "summary": "None", "logo": "None", "latitude": 52.01426958479823, "longitude": -114.7393280153368}, "860603174RR0001": {"name": "LIVING FAITH FELLOWSHIP ASSOCIATION OF CLEARWATER", "designationCode": "C", "categoryCode": "39", "address": "BOX 100", "city": "CAROLINE", "province": "AB", "country": "CA", "postalCode": "T0M0M0", "twitter": "None", "instagram": "None", "facebook": "None", "youtube": "None", "website": "None", "summary": "None", "logo": "None", "latitude": 52.01426958479823, "longitude": -114.7393280153368}, "118956184RR0001": {"name": "LIVING FAITH FELLOWSHIP INC.", "designationCode": "C", "categoryCode": "34", "address": "BOX 335", "city": "HERBERT", "province": "SK", "country": "CA", "postalCode": "S0H2A0", "twitter": "None", "instagram": "None", "facebook": "None", "youtube": "None", "website": "None", "summary": "None", "logo": "None", "latitude": 50.42651921542417, "longitude": -107.22535903213169}, "108052671RR0001": {"name": "LIVING FAITH LUTHERAN CHURCH, THE SUNSHINE COAST, SECHELT, B.C.", "designationCode": "C", "categoryCode": "39", "address": "4607 WHITAKER RD", "city": "SECHELT", "province": "BC", "country": "CA", "postalCode": "V0N3A2", "twitter": "None", "instagram": "None", "facebook": "None", "youtube": "None", "website": "None", "summary": "None", "logo": "None", "latitude": 49.440869182901515, "longitude": -123.72450764086209}, "877017418RR0001": {"name": "LIVING FAITH MIRACLE CENTER", "designationCode": "C", "categoryCode": "39", "address": "PO BOX 20062", "city": "KELOWNA", "province": "BC", "country": "CA", "postalCode": "V1Y9H2", "twitter": "None", "instagram": "None", "facebook": "None", "youtube": "None", "website": "None", "summary": "None", "logo": "None", "latitude": 49.88697900000005, "longitude": -119.49661249999994}, "107833394RR0087": {"name": "LIVING FAITH PENTECOSTAL CHURCH", "designationCode": "C", "categoryCode": "36", "address": "PO BOX 33                     RR 3", "city": "POINT OF BAY", "province": "NL", "country": "CA", "postalCode": "A0H2A0", "twitter": "None", "instagram": "None", "facebook": "None", "youtube": "None", "website": "None", "summary": "None", "logo": "None", "latitude": 49.29565200000006, "longitude": -55.26185299999993}, "866741739RR0001": {"name": "LIVING FAITH PENTECOSTAL TABERNACLE", "designationCode": "C", "categoryCode": "36", "address": "5101 31ST STREET", "city": "LLOYDMINSTER", "province": "AB", "country": "CA", "postalCode": "T9V1L1", "twitter": "None", "instagram": "None", "facebook": "None", "youtube": "None", "website": "None", "summary": "None", "logo": "None", "latitude": 53.2653528189442, "longitude": -110.00787073511832}, "871608626RR0001": {"name": "LIVING FOUNTAIN BIBLE CAMP", "designationCode": "C", "categoryCode": "39", "address": "PO BOX 347", "city": "ROSENORT", "province": "MB", "country": "CA", "postalCode": "R0G1W0", "twitter": "None", "instagram": "None", "facebook": "None", "youtube": "None", "website": "None", "summary": "None", "logo": "None", "latitude": 49.45817000000005, "longitude": -97.43545999999998}, "861379667RR0001": {"name": "LIVING FREE MINISTRIES INC.", "designationCode": "C", "categoryCode": "49", "address": "732 MCMILLAN AVE", "city": "WINNIPEG", "province": "MB", "country": "CA", "postalCode": "R3M0V2", "twitter": "None", "instagram": "None", "facebook": "None", "youtube": "None", "website": "None", "summary": "None", "logo": "None", "latitude": 49.87160812626248, "longitude": -97.15394452357332}, "890132699RR0001": {"name": "LIVING GOSPEL CHURCH INC.", "designationCode": "C", "categoryCode": "36", "address": "100 - 525 WILLIAM AVE", "city": "WINNIPEG", "province": "MB", "country": "CA", "postalCode": "R3A0J7", "twitter": "None", "instagram": "None", "facebook": "None", "youtube": "None", "website": "None", "summary": "None", "logo": "None", "latitude": 49.90258591369947, "longitude": -97.15052495807615}, "862271756RR0001": {"name": "LIVING GRACE INTERNATIONAL BAPTIST CHURCH", "designationCode": "C", "categoryCode": "39", "address": "10603 ELLERSLIE RD  SW", "city": "EDMONTON", "province": "AB", "country": "CA", "postalCode": "T6W1A1", "twitter": "None", "instagram": "None", "facebook": "None", "youtube": "None", "website": "None", "summary": "None", "logo": "None", "latitude": 53.42475049725965, "longitude": -113.50220069455825}, "118957943RR0001": {"name": "LIVING HOPE ALLIANCE CHURCH REGINA INC.", "designationCode": "C", "categoryCode": "39", "address": "P O BOX 32011", "city": "REGINA", "province": "SK", "country": "CA", "postalCode": "S4N7L2", "twitter": "None", "instagram": "None", "facebook": "None", "youtube": "None", "website": "None", "summary": "None", "logo": "None", "latitude": 50.448246000000054, "longitude": -104.59517299999993}, "864039938RR0001": {"name": "LIVING HOPE BAPTIST CHURCH", "designationCode": "C", "categoryCode": "39", "address": "66 TENTH STREET", "city": "ETOBICOKE", "province": "ON", "country": "CA", "postalCode": "M8V3G1", "twitter": "None", "instagram": "None", "facebook": "None", "youtube": "None", "website": "None", "summary": "None", "logo": "None", "latitude": 43.59787286065333, "longitude": -79.50783556605205}, "119243434RR0001": {"name": "LIVING HOPE CAMP ASSOCIATION", "designationCode": "C", "categoryCode": "49", "address": "BOX 87", "city": "DONALDA", "province": "AB", "country": "CA", "postalCode": "T0B1H0", "twitter": "None", "instagram": "None", "facebook": "None", "youtube": "None", "website": "None", "summary": "None", "logo": "None", "latitude": 52.58343000000008, "longitude": -112.56860999999998}, "119021830RR0001": {"name": "LIVING HOPE CHRISTIAN ASSEMBLY", "designationCode": "C", "categoryCode": "39", "address": "918 MAIN ST E", "city": "HAMILTON", "province": "ON", "country": "CA", "postalCode": "L8M1M5", "twitter": "None", "instagram": "None", "facebook": "None", "youtube": "None", "website": "None", "summary": "None", "logo": "None", "latitude": 43.24570842613145, "longitude": -79.83271759848208}, "894827542RR0001": {"name": "LIVING HOPE CHRISTIAN CENTRE", "designationCode": "C", "categoryCode": "36", "address": "3831-116 AVE", "city": "EDMONTON", "province": "AB", "country": "CA", "postalCode": "T5W0W8", "twitter": "None", "instagram": "None", "facebook": "None", "youtube": "None", "website": "None", "summary": "None", "logo": "None", "latitude": 53.568545481245444, "longitude": -113.402151}, "853822138RR0001": {"name": "LIVING HOPE CHRISTIAN CHURCH", "designationCode": "C", "categoryCode": "39", "address": "17412 103B AVE.", "city": "SURREY", "province": "BC", "country": "CA", "postalCode": "V4N5R4", "twitter": "None", "instagram": "None", "facebook": "None", "youtube": "None", "website": "None", "summary": "None", "logo": "None", "latitude": 49.190649276155604, "longitude": -122.73993404385708}, "140415944RR0001": {"name": "LIVING HOPE CHRISTIAN FELLOWSHIP", "designationCode": "C", "categoryCode": "34", "address": "12246 100TH AVE.", "city": "SURREY", "province": "BC", "country": "CA", "postalCode": "V3V2X1", "twitter": "None", "instagram": "None", "facebook": "None", "youtube": "None", "website": "None", "summary": "None", "logo": "None", "latitude": 49.184425499567325, "longitude": -122.8828531902591}, "130565963RR0008": {"name": "LIVING HOPE CHRISTIAN FELLOWSHIP OF THE CHRISTIAN & MISSIONARY ALLIANCE IN CANADA", "designationCode": "C", "categoryCode": "39", "address": "130-2401 CLIFFE AVENUE", "city": "COURTENAY", "province": "BC", "country": "CA", "postalCode": "V9N2L5", "twitter": "None", "instagram": "None", "facebook": "None", "youtube": "None", "website": "None", "summary": "None", "logo": "None", "latitude": 49.67788083752945, "longitude": -124.98391275683554}, "107965147RR0001": {"name": "LIVING HOPE CHRISTIAN REFORMED CHURCH", "designationCode": "C", "categoryCode": "39", "address": "34631 OLD CLAYBURN RD", "city": "ABBOTSFORD", "province": "BC", "country": "CA", "postalCode": "V2S4H5", "twitter": "None", "instagram": "None", "facebook": "None", "youtube": "None", "website": "None", "summary": "None", "logo": "None", "latitude": 49.06012947157926, "longitude": -122.26550302553522}, "140315136RR0001": {"name": "LIVING HOPE CHRISTIAN REFORMED CHURCH", "designationCode": "C", "categoryCode": "39", "address": "1 CONSUMERS PLACE", "city": "PETERBOROUGH", "province": "ON", "country": "CA", "postalCode": "K9J0C5", "twitter": "None", "instagram": "None", "facebook": "None", "youtube": "None", "website": "None", "summary": "None", "logo": "None", "latitude": 44.291074346673085, "longitude": -78.28958111760682}, "132026857RR0001": {"name": "LIVING HOPE CHRISTIAN REFORMED CHURCH OF SARNIA", "designationCode": "C", "categoryCode": "39", "address": "1281 EXMOUTH ST.", "city": "SARNIA", "province": "ON", "country": "CA", "postalCode": "N7S1W9", "twitter": "None", "instagram": "None", "facebook": "None", "youtube": "None", "website": "None", "summary": "None", "logo": "None", "latitude": 42.98450096523893, "longitude": -82.36049409438084}, "107647620RR0001": {"name": "LIVING HOPE CHURCH", "designationCode": "C", "categoryCode": "39", "address": "PO BOX 612                    120 MAIN ST", "city": "LUCAN", "province": "ON", "country": "CA", "postalCode": "N0M2J0", "twitter": "None", "instagram": "None", "facebook": "None", "youtube": "None", "website": "None", "summary": "None", "logo": "None", "latitude": 43.186389702409585, "longitude": -81.39963773752568}, "870369998RR0001": {"name": "LIVING HOPE CHURCH OF GOD", "designationCode": "C", "categoryCode": "39", "address": "29936 RTE 134, BOX 10", "city": "DALHOUSIE JUNCTION", "province": "NB", "country": "CA", "postalCode": "E3N6A1", "twitter": "None", "instagram": "None", "facebook": "None", "youtube": "None", "website": "None", "summary": "None", "logo": "None", "latitude": 48.03898831993653, "longitude": -66.5126474351886}, "892286048RR0001": {"name": "LIVING HOPE COMMUNITY CHURCH", "designationCode": "C", "categoryCode": "39", "address": "80 CURTIS ST", "city": "ST THOMAS", "province": "ON", "country": "CA", "postalCode": "N5P1J2", "twitter": "None", "instagram": "None", "facebook": "None", "youtube": "None", "website": "None", "summary": "None", "logo": "None", "latitude": 42.77976402189645, "longitude": -81.19633138037621}, "893122226RR0001": {"name": "LIVING HOPE COMMUNITY CHURCH", "designationCode": "C", "categoryCode": "39", "address": "220 MELROSE AVENUE", "city": "HALIFAX", "province": "NS", "country": "CA", "postalCode": "B3N2E7", "twitter": "None", "instagram": "None", "facebook": "None", "youtube": "None", "website": "None", "summary": "None", "logo": "None", "latitude": 44.64803878238801, "longitude": -63.642802359686165}, "107631004RR0001": {"name": "LIVING HOPE COMMUNITY CHURCH INC.", "designationCode": "C", "categoryCode": "39", "address": "100 KING ST", "city": "ESTEVAN", "province": "SK", "country": "CA", "postalCode": "S4A2T5", "twitter": "None", "instagram": "None", "facebook": "None", "youtube": "None", "website": "None", "summary": "None", "logo": "None", "latitude": 49.14669867402479, "longitude": -102.9697983259752}, "890772940RR0001": {"name": "LIVING HOPE FELLOWSHIP", "designationCode": "C", "categoryCode": "39", "address": "7175 ROYAL OAK AVENUE", "city": "BURNABY", "province": "BC", "country": "CA", "postalCode": "V5J4J3", "twitter": "None", "instagram": "None", "facebook": "None", "youtube": "None", "website": "None", "summary": "None", "logo": "None", "latitude": 49.21865842413748, "longitude": -122.98858706334852}, "892715376RR0001": {"name": "LIVING HOPE FELLOWSHIP INC", "designationCode": "C", "categoryCode": "34", "address": "BOX 1059", "city": "NEEPAWA", "province": "MB", "country": "CA", "postalCode": "R0J1H0", "twitter": "None", "instagram": "None", "facebook": "None", "youtube": "None", "website": "None", "summary": "None", "logo": "None", "latitude": 50.22581100000005, "longitude": -99.48963949999994}, "846922540RR0001": {"name": "LIVING HOPE LUTHERAN BRETHREN CHURCH OF BEAUMONT", "designationCode": "C", "categoryCode": "39", "address": "102-6202 29 AVE", "city": "BEAUMONT", "province": "AB", "country": "CA", "postalCode": "T4X0H5", "twitter": "None", "instagram": "None", "facebook": "None", "youtube": "None", "website": "None", "summary": "None", "logo": "None", "latitude": 53.33898727214491, "longitude": -113.43066881184787}, "885266221RR0001": {"name": "LIVING HOPE MINISTRIES", "designationCode": "B", "categoryCode": "45", "address": "345 SAINT JEAN ST", "city": "ORILLIA", "province": "ON", "country": "CA", "postalCode": "L3V4L6", "twitter": "None", "instagram": "None", "facebook": "None", "youtube": "None", "website": "None", "summary": "None", "logo": "None", "latitude": 44.620732431142265, "longitude": -79.42088744522188}, "856793369RR0001": {"name": "LIVING HOPE NATIVE MINISTRIES", "designationCode": "C", "categoryCode": "49", "address": "PO BOX 1468                   1-23 HWY 105", "city": "RED LAKE", "province": "ON", "country": "CA", "postalCode": "P0V2M0", "twitter": "None", "instagram": "None", "facebook": "None", "youtube": "None", "website": "None", "summary": "None", "logo": "None", "latitude": 51.01764546189702, "longitude": -93.82074644665583}, "890763345RR0001": {"name": "LIVING HOPE PRESBYTERIAN CHURCH", "designationCode": "C", "categoryCode": "37", "address": "2037 NINTH LINE", "city": "OAKVILLE", "province": "ON", "country": "CA", "postalCode": "L6H7G7", "twitter": "None", "instagram": "None", "facebook": "None", "youtube": "None", "website": "None", "summary": "None", "logo": "None", "latitude": 43.49611119874187, "longitude": -79.68075455825515}, "854918638RR0001": {"name": "LIVING IN FAITH EVERYDAY CHURCH OF ST. ALBERT", "designationCode": "C", "categoryCode": "36", "address": "85 DEER RIDGE DR", "city": "ST ALBERT", "province": "AB", "country": "CA", "postalCode": "T8N6A9", "twitter": "None", "instagram": "None", "facebook": "None", "youtube": "None", "website": "None", "summary": "None", "logo": "None", "latitude": 53.656557525967926, "longitude": -113.64812163918864}, "107631020RR0001": {"name": "LIVING INDEPENDENCE FOR ELDERS (L.I.F.E.) INC.", "designationCode": "C", "categoryCode": "09", "address": "BOX 684", "city": "ASHERN", "province": "MB", "country": "CA", "postalCode": "R0C0E0", "twitter": "None", "instagram": "None", "facebook": "None", "youtube": "None", "website": "None", "summary": "None", "logo": "None", "latitude": 51.18065000000007, "longitude": -98.35010999999997}, "119027134RR0001": {"name": "LIVING JOY CHRISTIAN CENTER, INC.", "designationCode": "C", "categoryCode": "39", "address": "BOX 2406", "city": "MACKENZIE", "province": "BC", "country": "CA", "postalCode": "V0J2C0", "twitter": "None", "instagram": "None", "facebook": "None", "youtube": "None", "website": "None", "summary": "None", "logo": "None", "latitude": 54.35901764398257, "longitude": -128.53940735741423}, "119207389RR0001": {"name": "LIVING LANGUAGE INSTITUTE FOUNDATION", "designationCode": "C", "categoryCode": "20", "address": "2712 WAVERLEY AVENUE", "city": "VANCOUVER", "province": "BC", "country": "CA", "postalCode": "V5S1E8", "twitter": "None", "instagram": "None", "facebook": "None", "youtube": "None", "website": "None", "summary": "None", "logo": "None", "latitude": 49.22674254674263, "longitude": -123.05116188634658}, "119129872RR0001": {"name": "LIVING LEGACY COMMUNITY FOUNDATION INC.", "designationCode": "A", "categoryCode": "09", "address": "BOX 1343", "city": "RUSSELL", "province": "MB", "country": "CA", "postalCode": "R0J1W0", "twitter": "None", "instagram": "None", "facebook": "None", "youtube": "None", "website": "None", "summary": "None", "logo": "None", "latitude": 50.69676379161792, "longitude": -101.40612232134879}, "896435070RR0001": {"name": "LIVING POSITIVE RESOURCE CENTRE, OKANAGAN", "designationCode": "C", "categoryCode": "19", "address": "168 ASHER RD", "city": "KELOWNA", "province": "BC", "country": "CA", "postalCode": "V1X3H6", "twitter": "None", "instagram": "None", "facebook": "None", "youtube": "None", "website": "None", "summary": "None", "logo": "None", "latitude": 49.889924846913914, "longitude": -119.39126197259094}, "870879632RR0001": {"name": "LIVING ROCK CHURCH", "designationCode": "C", "categoryCode": "36", "address": "PO BOX 2058 STN MAIN", "city": "ST MARYS", "province": "ON", "country": "CA", "postalCode": "N4X1C3", "twitter": "None", "instagram": "None", "facebook": "None", "youtube": "None", "website": "None", "summary": "None", "logo": "None", "latitude": 43.25948700000005, "longitude": -81.14143399999993}, "812465672RR0001": {"name": "LIVING SKY SCHOOL DIVISION NO. 202", "designationCode": "C", "categoryCode": "20", "address": "509 PIONEER AVE", "city": "NORTH BATTLEFORD", "province": "SK", "country": "CA", "postalCode": "S9A4A5", "twitter": "None", "instagram": "None", "facebook": "None", "youtube": "None", "website": "None", "summary": "None", "logo": "None", "latitude": 52.764231413295434, "longitude": -108.2810787285476}, "119121267RR0001": {"name": "LIVING SPIRIT UNITED CHURCH", "designationCode": "C", "categoryCode": "44", "address": "629-49 AVE SW", "city": "CALGARY", "province": "AB", "country": "CA", "postalCode": "T2S1G6", "twitter": "None", "instagram": "None", "facebook": "None", "youtube": "None", "website": "None", "summary": "None", "logo": "None", "latitude": 51.00959250678067, "longitude": -114.0784335}, "118842640RR0001": {"name": "LIVING SPRINGS BIBLE CAMP ASSOCIATION", "designationCode": "C", "categoryCode": "49", "address": "RR 3 3610-56TH AVE", "city": "WETASKIWIN", "province": "AB", "country": "CA", "postalCode": "T9A1X1", "twitter": "None", "instagram": "None", "facebook": "None", "youtube": "None", "website": "None", "summary": "None", "logo": "None", "latitude": 52.974423730655815, "longitude": -113.34255057377271}, "880757919RR0001": {"name": "LIVING SPRINGS CHRISTIAN CHURCH OF CALGARY", "designationCode": "C", "categoryCode": "39", "address": "239 EDGEBROOK CIR NW", "city": "CALGARY", "province": "AB", "country": "CA", "postalCode": "T3A5A2", "twitter": "None", "instagram": "None", "facebook": "None", "youtube": "None", "website": "None", "summary": "None", "logo": "None", "latitude": 51.1337153089042, "longitude": -114.1304407327312}, "871452348RR0001": {"name": "LIVING SPRINGS CHRISTIAN FELLOWSHIP", "designationCode": "C", "categoryCode": "36", "address": "2304 YANKEE VALLEY BLVD SW", "city": "AIRDRIE", "province": "AB", "country": "CA", "postalCode": "T4B0R7", "twitter": "None", "instagram": "None", "facebook": "None", "youtube": "None", "website": "None", "summary": "None", "logo": "None", "latitude": 51.27086651269503, "longitude": -114.0476329118818}, "859972044RR0001": {"name": "LIVING SPRINGS COMMUNITY CHURCH", "designationCode": "C", "categoryCode": "39", "address": "# 202 20349 88 AVE", "city": "LANGLEY", "province": "BC", "country": "CA", "postalCode": "V1M2K5", "twitter": "None", "instagram": "None", "facebook": "None", "youtube": "None", "website": "None", "summary": "None", "logo": "None", "latitude": 49.16288348658288, "longitude": -122.65873071189917}, "141070912RR0001": {"name": "LIVING SPRINGS MENNONITE CHURCH OF HYTHE", "designationCode": "C", "categoryCode": "34", "address": "P.O. BOX 530", "city": "HYTHE", "province": "AB", "country": "CA", "postalCode": "T0H2C0", "twitter": "None", "instagram": "None", "facebook": "None", "youtube": "None", "website": "None", "summary": "None", "logo": "None", "latitude": 55.32677000000007, "longitude": -119.55663999999996}, "107631111RR0001": {"name": "LIVING STONE ASSEMBLY", "designationCode": "C", "categoryCode": "36", "address": "3501 KENNEDY ROAD", "city": "SCARBOROUGH", "province": "ON", "country": "CA", "postalCode": "M1V4Y3", "twitter": "None", "instagram": "None", "facebook": "None", "youtube": "None", "website": "None", "summary": "None", "logo": "None", "latitude": 43.82243954844472, "longitude": -79.30644909694767}}