{"889992087RR0001": {"name": "CAMP DE VACANCES LAC SIMON INC", "designationCode": "C", "categoryCode": "56", "address": "4359 AV MONTROSE", "city": "WESTMOUNT", "province": "QC", "country": "CA", "postalCode": "H3Y2B2", "twitter": "None", "instagram": "None", "facebook": "None", "youtube": "None", "website": "None", "summary": "None", "logo": "None", "latitude": 45.48727273994457, "longitude": -73.59993582405205}, "118827054RR0001": {"name": "CAMP DES BOULEAUX DE L'ASSOCIATION D'EGLISES BAPTISTES EVANGELIQUES AU QUEBEC", "designationCode": "C", "categoryCode": "49", "address": "7 PLACE CHARLES", "city": "CHELSEA", "province": "QC", "country": "CA", "postalCode": "J9B1L6", "twitter": "None", "instagram": "None", "facebook": "None", "youtube": "None", "website": "None", "summary": "None", "logo": "None", "latitude": 45.48870653788447, "longitude": -75.76142049685467}, "133218958RR0001": {"name": "CAMP DORSET CORPORATION", "designationCode": "C", "categoryCode": "65", "address": "1606 AVONMORE SQ", "city": "PICKERING", "province": "ON", "country": "CA", "postalCode": "L1V7H5", "twitter": "None", "instagram": "None", "facebook": "None", "youtube": "None", "website": "None", "summary": "None", "logo": "None", "latitude": 43.84159800000006, "longitude": -79.07922349999993}, "118827096RR0001": {"name": "CAMP DOUGLAS", "designationCode": "C", "categoryCode": "49", "address": "11858 216 ST", "city": "MAPLE RIDGE", "province": "BC", "country": "CA", "postalCode": "V2X5H8", "twitter": "None", "instagram": "None", "facebook": "None", "youtube": "None", "website": "None", "summary": "None", "logo": "None", "latitude": 49.21789407799065, "longitude": -122.6228084400141}, "118827112RR0001": {"name": "CAMP ECOLE CHICOBI INC.", "designationCode": "C", "categoryCode": "29", "address": "1371 CHEMIN DU LAC CHICOBI", "city": "GUYENNE", "province": "QC", "country": "CA", "postalCode": "J0Y1L0", "twitter": "None", "instagram": "None", "facebook": "None", "youtube": "None", "website": "None", "summary": "None", "logo": "None", "latitude": 48.84195166030914, "longitude": -78.49890668682531}, "118827138RR0001": {"name": "CAMP EITAN EDUCATIONAL AND SOCIAL OUTREACH PROJECT", "designationCode": "C", "categoryCode": "56", "address": "226 CARMICHAEL AVE.", "city": "TORONTO", "province": "ON", "country": "CA", "postalCode": "M5M2X4", "twitter": "None", "instagram": "None", "facebook": "None", "youtube": "None", "website": "None", "summary": "None", "logo": "None", "latitude": 43.73514318347842, "longitude": -79.43149820358929}, "889031290RR0001": {"name": "CAMP ESCUMINAC A.P.D.C.", "designationCode": "C", "categoryCode": "56", "address": "25 MGR. ROSS", "city": "GASPE", "province": "QC", "country": "CA", "postalCode": "G4X1L7", "twitter": "None", "instagram": "None", "facebook": "None", "youtube": "None", "website": "None", "summary": "None", "logo": "None", "latitude": 48.83089501550074, "longitude": -64.48977624075239}, "847100849RR0001": {"name": "CAMP EVERGREEN MENNONITE BRETHREN MINISTRIES, SUNDRE", "designationCode": "C", "categoryCode": "56", "address": "PO BOX 492", "city": "SUNDRE", "province": "AB", "country": "CA", "postalCode": "T0M1X0", "twitter": "None", "instagram": "None", "facebook": "None", "youtube": "None", "website": "None", "summary": "None", "logo": "None", "latitude": 51.797180000000026, "longitude": -114.64119999999997}, "136173259RR0001": {"name": "CAMP FAMILIAL ST-URBAIN", "designationCode": "C", "categoryCode": "56", "address": "3804 RUE SEWELL", "city": "MONTR\u00c9AL", "province": "QC", "country": "CA", "postalCode": "H2W1W2", "twitter": "None", "instagram": "None", "facebook": "None", "youtube": "None", "website": "None", "summary": "None", "logo": "None", "latitude": 45.51470989563741, "longitude": -73.57681246739564}, "118827153RR0001": {"name": "CAMP FIRCOM SOCIETY OF THE UNITED CHURCH OF CANADA", "designationCode": "C", "categoryCode": "56", "address": "2776 SEMLIN DRIVE", "city": "VANCOUVER", "province": "BC", "country": "CA", "postalCode": "V5N4R6", "twitter": "None", "instagram": "None", "facebook": "None", "youtube": "None", "website": "None", "summary": "None", "logo": "None", "latitude": 49.25970337040611, "longitude": -123.06395002902899}, "137241675RR0001": {"name": "CAMP GEDDIE-CAMP OF THE SYNOD OF THE ATLANTIC PROVINCES OF THE PRESBYTERIAN CHURCH IN CANADA", "designationCode": "C", "categoryCode": "56", "address": "P.O. BOX 34", "city": "NEW GLASBOW", "province": "NS", "country": "CA", "postalCode": "B2H5E1", "twitter": "None", "instagram": "None", "facebook": "None", "youtube": "None", "website": "None", "summary": "None", "logo": "None", "latitude": 45.591837000000055, "longitude": -62.643414499999935}, "105201065RR0001": {"name": "CAMP GENCHEFF INC.", "designationCode": "C", "categoryCode": "56", "address": "P.O. BOX 412", "city": "CHARLOTTETOWN", "province": "PE", "country": "CA", "postalCode": "C1A7K7", "twitter": "None", "instagram": "None", "facebook": "None", "youtube": "None", "website": "None", "summary": "None", "logo": "None", "latitude": 46.23659700000006, "longitude": -63.12815449999994}, "829098813RR0001": {"name": "CAMP GITCHIGOMEE", "designationCode": "C", "categoryCode": "56", "address": "P. O. BOX: 29018", "city": "THUNDER BAY", "province": "ON", "country": "CA", "postalCode": "P7B6P9", "twitter": "None", "instagram": "None", "facebook": "None", "youtube": "None", "website": "None", "summary": "None", "logo": "None", "latitude": 48.38168400000005, "longitude": -89.24550199999993}, "118827203RR0001": {"name": "CAMP HARDING COMMITTEE", "designationCode": "C", "categoryCode": "56", "address": "BOX 1568", "city": "MAPLE CREEK", "province": "SK", "country": "CA", "postalCode": "S0N1N0", "twitter": "None", "instagram": "None", "facebook": "None", "youtube": "None", "website": "None", "summary": "None", "logo": "None", "latitude": 49.91416000000004, "longitude": -109.46959999999996}, "118827211RR0001": {"name": "CAMP HATIKVAH FOUNDATION", "designationCode": "C", "categoryCode": "56", "address": "1-5763 OAK ST", "city": "VANCOUVER", "province": "BC", "country": "CA", "postalCode": "V6M2V7", "twitter": "None", "instagram": "None", "facebook": "None", "youtube": "None", "website": "None", "summary": "None", "logo": "None", "latitude": 49.23331072162269, "longitude": -123.12815555277254}, "118827229RR0001": {"name": "CAMP HEALTH, HOPE & HAPPINESS SOCIETY", "designationCode": "C", "categoryCode": "56", "address": "PO BOX 182", "city": "SEBA BEACH", "province": "AB", "country": "CA", "postalCode": "T0E2B0", "twitter": "None", "instagram": "None", "facebook": "None", "youtube": "None", "website": "None", "summary": "None", "logo": "None", "latitude": 53.55925000000008, "longitude": -114.73865999999998}, "118827237RR0001": {"name": "CAMP HERMOSA INCORPORATED", "designationCode": "C", "categoryCode": "49", "address": "568 STONEBURY CRES", "city": "WATERLOO", "province": "ON", "country": "CA", "postalCode": "N2K3R1", "twitter": "None", "instagram": "None", "facebook": "None", "youtube": "None", "website": "None", "summary": "None", "logo": "None", "latitude": 43.504520196779964, "longitude": -80.5223219905936}, "867056004RR0001": {"name": "CAMP HORNBY SOCIETY", "designationCode": "C", "categoryCode": "56", "address": "3538 WEST 43RD AVE", "city": "VANCOUVER", "province": "BC", "country": "CA", "postalCode": "V6N3J9", "twitter": "None", "instagram": "None", "facebook": "None", "youtube": "None", "website": "None", "summary": "None", "logo": "None", "latitude": 49.2328255100989, "longitude": -123.18315291618097}, "891763674RR0001": {"name": "CAMP JARDIN (GAN) D'ISRAEL/CAMP GARDEN (GAN) OF ISRAEL", "designationCode": "C", "categoryCode": "56", "address": "4387, AVENUE PLAMONDON", "city": "MONTREAL", "province": "QC", "country": "CA", "postalCode": "H3S1M1", "twitter": "None", "instagram": "None", "facebook": "None", "youtube": "None", "website": "None", "summary": "None", "logo": "None", "latitude": 45.498339931732865, "longitude": -73.63819473968476}, "100750959RR0001": {"name": "CAMP JOLI-B INC.", "designationCode": "C", "categoryCode": "56", "address": "687 LARIVIERE", "city": "ROUYN NORANDA", "province": "QC", "country": "CA", "postalCode": "J9X4K1", "twitter": "None", "instagram": "None", "facebook": "None", "youtube": "None", "website": "None", "summary": "None", "logo": "None", "latitude": 48.226586132407974, "longitude": -79.00655393268516}, "879229912RR0001": {"name": "CAMP JORDAN ASSOCIATION", "designationCode": "C", "categoryCode": "56", "address": "POST OFFICE BOX 52", "city": "BARRINGTON PASSAGE", "province": "NS", "country": "CA", "postalCode": "B0W1G0", "twitter": "None", "instagram": "None", "facebook": "None", "youtube": "None", "website": "None", "summary": "None", "logo": "None", "latitude": 43.52570000000003, "longitude": -65.61060999999995}, "890014970RR0001": {"name": "CAMP JUMOKE", "designationCode": "C", "categoryCode": "56", "address": "1457 DUNDAS STREET WEST       SUITE 205", "city": "TORONTO", "province": "ON", "country": "CA", "postalCode": "M6J1Y7", "twitter": "None", "instagram": "None", "facebook": "None", "youtube": "None", "website": "None", "summary": "None", "logo": "None", "latitude": 43.64956551788919, "longitude": -79.43049330544173}, "118827286RR0001": {"name": "CAMP KAGAMA", "designationCode": "C", "categoryCode": "56", "address": "BOX 484", "city": "INGLESIDE", "province": "ON", "country": "CA", "postalCode": "K0C1M0", "twitter": "None", "instagram": "None", "facebook": "None", "youtube": "None", "website": "None", "summary": "None", "logo": "None", "latitude": 44.995790000000056, "longitude": -74.98682999999994}, "118827294RR0001": {"name": "CAMP KAHQUAH CORPORATION LIMITED", "designationCode": "C", "categoryCode": "47", "address": "303 - 43 CHURCH ST", "city": "ST CATHARINES", "province": "ON", "country": "CA", "postalCode": "L2R7E1", "twitter": "None", "instagram": "None", "facebook": "None", "youtube": "None", "website": "None", "summary": "None", "logo": "None", "latitude": 43.15925156038995, "longitude": -79.24765592330742}, "118827302RR0001": {"name": "CAMP KAKEKA, INC.", "designationCode": "C", "categoryCode": "56", "address": "467 COUNTY RD 19", "city": "AMELIASBURG", "province": "ON", "country": "CA", "postalCode": "K0K1A0", "twitter": "None", "instagram": "None", "facebook": "None", "youtube": "None", "website": "None", "summary": "None", "logo": "None", "latitude": 44.06097622867223, "longitude": -77.43279048365414}, "124539214RR0001": {"name": "CAMP KAWARTHA INCORPORATED", "designationCode": "C", "categoryCode": "21", "address": "1010 BIRCHVIEW ROAD", "city": "DOURO-DUMMER", "province": "ON", "country": "CA", "postalCode": "K0L2H0", "twitter": "None", "instagram": "None", "facebook": "None", "youtube": "None", "website": "None", "summary": "None", "logo": "None", "latitude": 44.51178450046152, "longitude": -78.1857252571656}, "106835960RR0001": {"name": "CAMP KEIR", "designationCode": "C", "categoryCode": "56", "address": "BOX 20125", "city": "CHARLOTTETOWN", "province": "PE", "country": "CA", "postalCode": "C1A9E3", "twitter": "None", "instagram": "None", "facebook": "None", "youtube": "None", "website": "None", "summary": "None", "logo": "None", "latitude": 46.23659700000006, "longitude": -63.12815449999994}, "118827344RR0001": {"name": "CAMP KINNERET-BILUIM", "designationCode": "C", "categoryCode": "56", "address": "5555 RUE WESTMINSTER          SUITE 300", "city": "COTE SAINT-LUC", "province": "QC", "country": "CA", "postalCode": "H4W2J2", "twitter": "None", "instagram": "None", "facebook": "None", "youtube": "None", "website": "None", "summary": "None", "logo": "None", "latitude": 45.45992646517395, "longitude": -73.66331351151253}, "118827351RR0001": {"name": "CAMP KOOLAREE", "designationCode": "C", "categoryCode": "44", "address": "1300 PINE AVE", "city": "TRAIL", "province": "BC", "country": "CA", "postalCode": "V1R4E6", "twitter": "None", "instagram": "None", "facebook": "None", "youtube": "None", "website": "None", "summary": "None", "logo": "None", "latitude": 49.09513632449034, "longitude": -117.7100364186151}, "882899172RR0001": {"name": "CAMP LAUREL FOUNDATION, INC.", "designationCode": "C", "categoryCode": "56", "address": "90 GARFIELD AVE", "city": "TORONTO", "province": "ON", "country": "CA", "postalCode": "M4T1G1", "twitter": "None", "instagram": "None", "facebook": "None", "youtube": "None", "website": "None", "summary": "None", "logo": "None", "latitude": 43.68840213962135, "longitude": -79.37895734569214}, "119013142RR0001": {"name": "CAMP LEMIEUX", "designationCode": "C", "categoryCode": "56", "address": "239 4TH AVE SE", "city": "SWIFT CURRENT", "province": "SK", "country": "CA", "postalCode": "S9H3L6", "twitter": "None", "instagram": "None", "facebook": "None", "youtube": "None", "website": "None", "summary": "None", "logo": "None", "latitude": 50.2765017485429, "longitude": -107.79497997082943}, "855809141RR0001": {"name": "CAMP LI LO LI, CANADA", "designationCode": "C", "categoryCode": "56", "address": "3160 WOODBURN RD, RR#1", "city": "BINBROOK", "province": "ON", "country": "CA", "postalCode": "L0R1C0", "twitter": "None", "instagram": "None", "facebook": "None", "youtube": "None", "website": "None", "summary": "None", "logo": "None", "latitude": 43.105862356656424, "longitude": -79.75746537653613}, "892466962RR0001": {"name": "CAMP LIVING WATER MINISTRIES", "designationCode": "C", "categoryCode": "49", "address": "BOX 1611", "city": "ROCKY MOUNTAIN HOUSE", "province": "AB", "country": "CA", "postalCode": "T4T1B2", "twitter": "None", "instagram": "None", "facebook": "None", "youtube": "None", "website": "None", "summary": "None", "logo": "None", "latitude": 52.37758500000005, "longitude": -114.93030049999993}, "118827393RR0001": {"name": "CAMP LUTHER ASSOCIATION", "designationCode": "C", "categoryCode": "56", "address": "9311 SHOOK RD", "city": "MISSION", "province": "BC", "country": "CA", "postalCode": "V2V7M2", "twitter": "None", "instagram": "None", "facebook": "None", "youtube": "None", "website": "None", "summary": "None", "logo": "None", "latitude": 49.17092917030221, "longitude": -122.24181161413088}, "891026791RR0001": {"name": "CAMP MACLEOD", "designationCode": "C", "categoryCode": "56", "address": "2731 TROUT BROOK ROAD", "city": "ALBERT BRIDGE", "province": "NS", "country": "CA", "postalCode": "B1K2P2", "twitter": "None", "instagram": "None", "facebook": "None", "youtube": "None", "website": "None", "summary": "None", "logo": "None", "latitude": 46.01593467531277, "longitude": -60.062366652143474}, "118827419RR0001": {"name": "CAMP MANITOU", "designationCode": "C", "categoryCode": "56", "address": "1350-ONE LOMBARD PLACE", "city": "WINNIPEG", "province": "MB", "country": "CA", "postalCode": "R3B0X3", "twitter": "None", "instagram": "None", "facebook": "None", "youtube": "None", "website": "None", "summary": "None", "logo": "None", "latitude": 49.89608549999999, "longitude": -97.13498849999999}, "832037493RR0001": {"name": "CAMP MANITOU BAY OF ISLANDS", "designationCode": "C", "categoryCode": "56", "address": "718 RAMSEY LAKE RD", "city": "SUDBURY", "province": "ON", "country": "CA", "postalCode": "P3E6H5", "twitter": "None", "instagram": "None", "facebook": "None", "youtube": "None", "website": "None", "summary": "None", "logo": "None", "latitude": 46.470334938278846, "longitude": -80.97627481266973}, "123222291RR0001": {"name": "CAMP MARISTE", "designationCode": "C", "categoryCode": "56", "address": "8082 CHEMIN MORGAN", "city": "RAWDON", "province": "QC", "country": "CA", "postalCode": "J0K1S0", "twitter": "None", "instagram": "None", "facebook": "None", "youtube": "None", "website": "None", "summary": "None", "logo": "None", "latitude": 46.138912323619365, "longitude": -73.73549954483804}, "118827435RR0001": {"name": "CAMP MASSAD OF MANITOBA", "designationCode": "C", "categoryCode": "56", "address": "C306-123 DONCASTER ST", "city": "WINNIPEG", "province": "MB", "country": "CA", "postalCode": "R3N2B2", "twitter": "None", "instagram": "None", "facebook": "None", "youtube": "None", "website": "None", "summary": "None", "logo": "None", "latitude": 49.86779026460563, "longitude": -97.20862592209049}, "123023921RR0001": {"name": "CAMP MASSAWIPPI- CENTRE MACKAY", "designationCode": "C", "categoryCode": "56", "address": "3161 CH ROUND BAY", "city": "AYER'S CLIFF", "province": "QC", "country": "CA", "postalCode": "J0B1C0", "twitter": "None", "instagram": "None", "facebook": "None", "youtube": "None", "website": "None", "summary": "None", "logo": "None", "latitude": 45.18447548211083, "longitude": -72.04526076963472}, "891342396RR0001": {"name": "CAMP MCCOY ASSOCIATION", "designationCode": "C", "categoryCode": "56", "address": "PO BOX 40028  RPO SOUTH RIDGE", "city": "MEDICINE HAT", "province": "AB", "country": "CA", "postalCode": "T1B4S6", "twitter": "None", "instagram": "None", "facebook": "None", "youtube": "None", "website": "None", "summary": "None", "logo": "None", "latitude": 50.001323248609765, "longitude": -110.68386672721418}, "118827443RR0001": {"name": "CAMP MCDOUGALL INC.", "designationCode": "C", "categoryCode": "56", "address": "200 MCNABB STREET             PO BOX 22082", "city": "SAULT STE MARIE", "province": "ON", "country": "CA", "postalCode": "P6B6H4", "twitter": "None", "instagram": "None", "facebook": "None", "youtube": "None", "website": "None", "summary": "None", "logo": "None", "latitude": 46.5218930293594, "longitude": -84.31929697064061}, "134922368RR0001": {"name": "CAMP MEDLEY", "designationCode": "C", "categoryCode": "56", "address": "115 CHURCH ST", "city": "FREDERICTON", "province": "NB", "country": "CA", "postalCode": "E3B4C8", "twitter": "None", "instagram": "None", "facebook": "None", "youtube": "None", "website": "None", "summary": "None", "logo": "None", "latitude": 45.957881461567275, "longitude": -66.63531666890746}, "127589158RR0001": {"name": "CAMP MENESETUNG", "designationCode": "C", "categoryCode": "56", "address": "229 MORRIS ST", "city": "BLYTH", "province": "ON", "country": "CA", "postalCode": "N0M1H0", "twitter": "None", "instagram": "None", "facebook": "None", "youtube": "None", "website": "None", "summary": "None", "logo": "None", "latitude": 43.7304936103352, "longitude": -81.42909910064034}, "129615118RR0001": {"name": "CAMP MISQUAH", "designationCode": "C", "categoryCode": "56", "address": "3332 MCCARTHY ROAD            PO. BOX 37086", "city": "OTTAWA", "province": "ON", "country": "CA", "postalCode": "K1V0W9", "twitter": "None", "instagram": "None", "facebook": "None", "youtube": "None", "website": "None", "summary": "None", "logo": "None", "latitude": 45.35131173544385, "longitude": -75.67025572719129}, "118827476RR0001": {"name": "CAMP MONAHAN ASSOCIATION", "designationCode": "C", "categoryCode": "49", "address": "PO BOX 26035 RPO NORTHGATE", "city": "REGINA", "province": "SK", "country": "CA", "postalCode": "S4R8R7", "twitter": "None", "instagram": "None", "facebook": "None", "youtube": "None", "website": "None", "summary": "None", "logo": "None", "latitude": 50.48245000000003, "longitude": -104.61737999999997}, "889273645RR0001": {"name": "CAMP MOSHAVA", "designationCode": "C", "categoryCode": "29", "address": "300 - 4600 BATHURST ST", "city": "NORTH YORK", "province": "ON", "country": "CA", "postalCode": "M2R3V2", "twitter": "None", "instagram": "None", "facebook": "None", "youtube": "None", "website": "None", "summary": "None", "logo": "None", "latitude": 43.764549213428396, "longitude": -79.4407190577642}, "893285668RR0001": {"name": "CAMP MUSICAL DE L'ESTRIE", "designationCode": "C", "categoryCode": "22", "address": "730 RUE MCMANAMY", "city": "SHERBROOKE", "province": "QC", "country": "CA", "postalCode": "J1H2M8", "twitter": "None", "instagram": "None", "facebook": "None", "youtube": "None", "website": "None", "summary": "None", "logo": "None", "latitude": 45.38962649235396, "longitude": -71.89671094463039}, "118827492RR0001": {"name": "CAMP MUSICAL DES LAURENTIDES INC.", "designationCode": "C", "categoryCode": "22", "address": "4011 RUE GREY", "city": "MONTREAL", "province": "QC", "country": "CA", "postalCode": "H4A3N9", "twitter": "None", "instagram": "None", "facebook": "None", "youtube": "None", "website": "None", "summary": "None", "logo": "None", "latitude": 45.479708275895796, "longitude": -73.61331205285946}, "861775047RR0001": {"name": "CAMP MUSICAL DU LAC MATAPEDIA", "designationCode": "C", "categoryCode": "22", "address": "1 CHEMIN ST-PIERRE", "city": "SAYABEC", "province": "QC", "country": "CA", "postalCode": "G0J3K0", "twitter": "None", "instagram": "None", "facebook": "None", "youtube": "None", "website": "None", "summary": "None", "logo": "None", "latitude": 48.570338638928845, "longitude": -67.63177892016301}, "106836000RR0001": {"name": "CAMP MUSICAL DU SAGUENAY-LAC-ST-JEAN INC.", "designationCode": "C", "categoryCode": "22", "address": "1589 ROUTE 169", "city": "METABETCHOUAN-LAC-A-LA-CROIX", "province": "QC", "country": "CA", "postalCode": "G8G1A8", "twitter": "None", "instagram": "None", "facebook": "None", "youtube": "None", "website": "None", "summary": "None", "logo": "None", "latitude": 48.43997871710667, "longitude": -71.84367357988636}, "131309981RR0001": {"name": "CAMP MUSICAL P\u00c8RE LINDSAY INC.", "designationCode": "C", "categoryCode": "56", "address": "CP 44 SUCC BUREAU-CHEF", "city": "JOLIETTE", "province": "QC", "country": "CA", "postalCode": "J6E3Z3", "twitter": "None", "instagram": "None", "facebook": "None", "youtube": "None", "website": "None", "summary": "None", "logo": "None", "latitude": 46.02356700000006, "longitude": -73.44196099999994}, "118827542RR0001": {"name": "CAMP MUSICAL ST-ALEXANDRE INC.", "designationCode": "C", "categoryCode": "22", "address": "267 RANG ST-GERARD EST", "city": "ST-ALEXANDRE", "province": "QC", "country": "CA", "postalCode": "G0L2G0", "twitter": "None", "instagram": "None", "facebook": "None", "youtube": "None", "website": "None", "summary": "None", "logo": "None", "latitude": 47.68575614216673, "longitude": -69.53160633669714}, "118827559RR0001": {"name": "CAMP NAKAMUN", "designationCode": "C", "categoryCode": "56", "address": "RR 1", "city": "BUSBY", "province": "AB", "country": "CA", "postalCode": "T0G0H0", "twitter": "None", "instagram": "None", "facebook": "None", "youtube": "None", "website": "None", "summary": "None", "logo": "None", "latitude": 53.94905000000006, "longitude": -113.89195999999998}, "890074990RR0001": {"name": "CAMP NORLAND CHRISTIAN MINISTRIES, INC.", "designationCode": "C", "categoryCode": "49", "address": "1065 RAMSEY LAKE RD", "city": "SUDBURY", "province": "ON", "country": "CA", "postalCode": "P3E6J7", "twitter": "None", "instagram": "None", "facebook": "None", "youtube": "None", "website": "None", "summary": "None", "logo": "None", "latitude": 46.47280038077799, "longitude": -80.96611149261375}, "106836042RR0001": {"name": "CAMP NOTRE-DAME DE LA ROUGE INC.", "designationCode": "C", "categoryCode": "29", "address": "2311 ROUTE 148", "city": "GRENVILLE-SUR-LA-ROUGE", "province": "QC", "country": "CA", "postalCode": "J0V1B0", "twitter": "None", "instagram": "None", "facebook": "None", "youtube": "None", "website": "None", "summary": "None", "logo": "None", "latitude": 45.64373590966928, "longitude": -74.69277619293268}, "118827625RR0001": {"name": "CAMP O'NEILL", "designationCode": "C", "categoryCode": "56", "address": "PO BOX 99", "city": "ESTERHAZY", "province": "SK", "country": "CA", "postalCode": "S0A0X0", "twitter": "None", "instagram": "None", "facebook": "None", "youtube": "None", "website": "None", "summary": "None", "logo": "None", "latitude": 50.65157000000005, "longitude": -102.05784999999997}, "132714700RR0001": {"name": "CAMP OF THE WOODS MINISTRIES, INC", "designationCode": "C", "categoryCode": "56", "address": "BOX 11", "city": "DINORWIC", "province": "ON", "country": "CA", "postalCode": "P0V1P0", "twitter": "None", "instagram": "None", "facebook": "None", "youtube": "None", "website": "None", "summary": "None", "logo": "None", "latitude": 49.688253326491534, "longitude": -92.49267742929767}, "118827609RR0001": {"name": "CAMP OKOTOKS SOCIETY", "designationCode": "C", "categoryCode": "56", "address": "3333 RICHARDSON WAY S.W.", "city": "CALGARY", "province": "AB", "country": "CA", "postalCode": "T3E7B6", "twitter": "None", "instagram": "None", "facebook": "None", "youtube": "None", "website": "None", "summary": "None", "logo": "None", "latitude": 51.01541264392051, "longitude": -114.13369166002066}, "118827617RR0001": {"name": "CAMP OLIER", "designationCode": "C", "categoryCode": "01", "address": "1591 L-A-VENNE #201", "city": "MONTREAL", "province": "QC", "country": "CA", "postalCode": "H2C3J7", "twitter": "None", "instagram": "None", "facebook": "None", "youtube": "None", "website": "None", "summary": "None", "logo": "None"}, "131116022RR0001": {"name": "CAMP OOCHIGEAS", "designationCode": "C", "categoryCode": "01", "address": "464 BATHURST ST", "city": "TORONTO", "province": "ON", "country": "CA", "postalCode": "M5T2S6", "twitter": "None", "instagram": "None", "facebook": "None", "youtube": "None", "website": "None", "summary": "None", "logo": "None", "latitude": 43.65565424257029, "longitude": -79.40743486874587}, "118827641RR0001": {"name": "CAMP OZANAM", "designationCode": "C", "categoryCode": "56", "address": "496 ROUTE 323", "city": "LAC-DES-PLAGES", "province": "QC", "country": "CA", "postalCode": "J0T1K0", "twitter": "None", "instagram": "None", "facebook": "None", "youtube": "None", "website": "None", "summary": "None", "logo": "None", "latitude": 45.999798105904226, "longitude": -74.855652883406}, "119075695RR0001": {"name": "CAMP PAGWEAK", "designationCode": "C", "categoryCode": "56", "address": "312 OLD GREENFIELD RD", "city": "VALLEY", "province": "NS", "country": "CA", "postalCode": "B6L3Z2", "twitter": "None", "instagram": "None", "facebook": "None", "youtube": "None", "website": "None", "summary": "None", "logo": "None", "latitude": 45.37459130968358, "longitude": -63.179573966760465}, "128290822RR0001": {"name": "CAMP PATMOS", "designationCode": "C", "categoryCode": "49", "address": "1560 RTE DE L'EGLISE", "city": "L'ASCENSION-DE-NOTRE-SEIGNEUR", "province": "QC", "country": "CA", "postalCode": "G0W1Y0", "twitter": "None", "instagram": "None", "facebook": "None", "youtube": "None", "website": "None", "summary": "None", "logo": "None", "latitude": 48.72121326810553, "longitude": -71.65950783288153}, "118827658RR0001": {"name": "CAMP PENIEL INC.", "designationCode": "C", "categoryCode": "56", "address": "4824 CHEMIN C\u00d4TE-DES-NEIGES   BUREAU 301", "city": "MONTR\u00c9AL", "province": "QC", "country": "CA", "postalCode": "H3V1G4", "twitter": "None", "instagram": "None", "facebook": "None", "youtube": "None", "website": "None", "summary": "None", "logo": "None", "latitude": 45.49532050288555, "longitude": -73.61328180391251}, "845444918RR0001": {"name": "CAMP PENIEL SOCIETY", "designationCode": "C", "categoryCode": "56", "address": "415 CEDAR LAKE RD", "city": "CEADR LAKE", "province": "NS", "country": "CA", "postalCode": "B5A5L8", "twitter": "None", "instagram": "None", "facebook": "None", "youtube": "None", "website": "None", "summary": "None", "logo": "None", "latitude": 44.01999485711776, "longitude": -66.10625836860069}, "118827666RR0001": {"name": "CAMP PIVABISKA", "designationCode": "C", "categoryCode": "56", "address": "15 HAMANN RD", "city": "JOGUES", "province": "ON", "country": "CA", "postalCode": "P0L1R0", "twitter": "None", "instagram": "None", "facebook": "None", "youtube": "None", "website": "None", "summary": "None", "logo": "None", "latitude": 49.59791700000005, "longitude": -83.74626349999993}, "133423962RR0001": {"name": "CAMP QUALITY CANADA", "designationCode": "C", "categoryCode": "56", "address": "206-1444 QUEEN ST EAST", "city": "TORONTO", "province": "ON", "country": "CA", "postalCode": "M4L1E1", "twitter": "None", "instagram": "None", "facebook": "None", "youtube": "None", "website": "None", "summary": "None", "logo": "None", "latitude": 43.664841, "longitude": -79.323183}, "118827682RR0001": {"name": "CAMP QWANOES", "designationCode": "C", "categoryCode": "56", "address": "PO BOX 250", "city": "CROFTON", "province": "BC", "country": "CA", "postalCode": "V0R1R0", "twitter": "None", "instagram": "None", "facebook": "None", "youtube": "None", "website": "None", "summary": "None", "logo": "None", "latitude": 48.865530000000035, "longitude": -123.64061999999996}, "130624760RR0001": {"name": "CAMP RICHELIEU DE ST-HYACINTHE INC", "designationCode": "C", "categoryCode": "01", "address": "C.P. 422", "city": "SAINT-HYACINTHE", "province": "QC", "country": "CA", "postalCode": "J2S7B8", "twitter": "None", "instagram": "None", "facebook": "None", "youtube": "None", "website": "None", "summary": "None", "logo": "None", "latitude": 45.62664000000005, "longitude": -72.94719049999993}, "118827708RR0001": {"name": "CAMP RICHELIEU SAINT-COME INC.", "designationCode": "C", "categoryCode": "56", "address": "941 RUE PRINCIPALE", "city": "ST-COME", "province": "QC", "country": "CA", "postalCode": "J0K2B0", "twitter": "None", "instagram": "None", "facebook": "None", "youtube": "None", "website": "None", "summary": "None", "logo": "None", "latitude": 46.27848768884545, "longitude": -73.75888735622371}, "118827922RR0001": {"name": "CAMP RICHELIEU VIVE LA JOIE INC.", "designationCode": "C", "categoryCode": "56", "address": "300 BOUL HOTEL DE VILLE", "city": "RIVIERE DU LOUP", "province": "QC", "country": "CA", "postalCode": "G5R5C6", "twitter": "None", "instagram": "None", "facebook": "None", "youtube": "None", "website": "None", "summary": "None", "logo": "None", "latitude": 47.82226050184634, "longitude": -69.55662958791572}, "118827716RR0001": {"name": "CAMP SAINT-DONAT", "designationCode": "C", "categoryCode": "56", "address": "3.7-1710 RUE BEAUDRY", "city": "MONTR\u00c9AL", "province": "QC", "country": "CA", "postalCode": "H2L3E7", "twitter": "None", "instagram": "None", "facebook": "None", "youtube": "None", "website": "None", "summary": "None", "logo": "None", "latitude": 45.5203528956374, "longitude": -73.55927210658429}, "892816208RR0001": {"name": "CAMP SCOUGUI", "designationCode": "C", "categoryCode": "29", "address": "53, RUE MONFETTE              C.P.157", "city": "VICTORIAVILLE", "province": "QC", "country": "CA", "postalCode": "G6P6S8", "twitter": "None", "instagram": "None", "facebook": "None", "youtube": "None", "website": "None", "summary": "None", "logo": "None", "latitude": 46.05993735388645, "longitude": -71.96386455118602}, "118827740RR0001": {"name": "CAMP SEGUNAKADECK INC.", "designationCode": "C", "categoryCode": "56", "address": "PO BOX 302 STN CENTRAL", "city": "CHARLOTTETOWN", "province": "PE", "country": "CA", "postalCode": "C1A7K7", "twitter": "None", "instagram": "None", "facebook": "None", "youtube": "None", "website": "None", "summary": "None", "logo": "None", "latitude": 46.23659700000006, "longitude": -63.12815449999994}, "137480422RR0001": {"name": "CAMP SHAGABEC COMMITTEE", "designationCode": "C", "categoryCode": "49", "address": "BOX 331 SITE 402 RR4", "city": "SASKATOON", "province": "SK", "country": "CA", "postalCode": "S7K3J7", "twitter": "None", "instagram": "None", "facebook": "None", "youtube": "None", "website": "None", "summary": "None", "logo": "None", "latitude": 52.13049000000005, "longitude": -106.65926449999994}, "868727025RR0001": {"name": "CAMP SHELDRAKE INCORPORATED", "designationCode": "C", "categoryCode": "49", "address": "P.O.BOX 4", "city": "MIRAMICHI", "province": "NB", "country": "CA", "postalCode": "E1V3M2", "twitter": "None", "instagram": "None", "facebook": "None", "youtube": "None", "website": "None", "summary": "None", "logo": "None", "latitude": 47.00187600000005, "longitude": -65.56824349999994}, "107764573RR0021": {"name": "CAMP SILVERSIDES", "designationCode": "C", "categoryCode": "56", "address": "BOX 519", "city": "BENTLEY", "province": "AB", "country": "CA", "postalCode": "T0C1J0", "twitter": "None", "instagram": "None", "facebook": "None", "youtube": "None", "website": "None", "summary": "None", "logo": "None", "latitude": 52.45537747553501, "longitude": -113.96484692260027}, "868735085RR0001": {"name": "CAMP SPIRIT LAKE", "designationCode": "C", "categoryCode": "50", "address": "242 CHEMIN JOSEPH-LANGLOIS", "city": "TH\u00c9CESSON", "province": "QC", "country": "CA", "postalCode": "J0Y2S0", "twitter": "None", "instagram": "None", "facebook": "None", "youtube": "None", "website": "None", "summary": "None", "logo": "None", "latitude": 48.583718190980235, "longitude": -78.2202080318536}, "119169225RR0001": {"name": "CAMP ST. BASIL", "designationCode": "C", "categoryCode": "56", "address": "7007-109 ST", "city": "EDMONTON", "province": "AB", "country": "CA", "postalCode": "T6H3B9", "twitter": "None", "instagram": "None", "facebook": "None", "youtube": "None", "website": "None", "summary": "None", "logo": "None", "latitude": 53.507033528449426, "longitude": -113.51198628008034}, "101630010RR0001": {"name": "CAMP SUNFLOWER SOCIETY FOR DISABLED CHILDREN", "designationCode": "C", "categoryCode": "56", "address": "33 COVILLE CRES NE", "city": "CALGARY", "province": "AB", "country": "CA", "postalCode": "T3K5E2", "twitter": "None", "instagram": "None", "facebook": "None", "youtube": "None", "website": "None", "summary": "None", "logo": "None", "latitude": 51.16952652899768, "longitude": -114.03840141618096}, "118827823RR0001": {"name": "CAMP TAMARACK ASSOCIATION", "designationCode": "C", "categoryCode": "56", "address": "PO BOX 1333  STN MAIN", "city": "GRANDE PRAIRIE", "province": "AB", "country": "CA", "postalCode": "T8V4Z1", "twitter": "None", "instagram": "None", "facebook": "None", "youtube": "None", "website": "None", "summary": "None", "logo": "None", "latitude": 55.171122000000054, "longitude": -118.79491399999993}, "895486322RR0001": {"name": "CAMP TEEPEE POLE", "designationCode": "C", "categoryCode": "49", "address": "BOX 52124 EDMONTON TRAIL R.P.O311-16 AVE N.E.", "city": "CALGARY", "province": "AB", "country": "CA", "postalCode": "T2E8K9", "twitter": "None", "instagram": "None", "facebook": "None", "youtube": "None", "website": "None", "summary": "None", "logo": "None", "latitude": 51.04531500000006, "longitude": -114.06301099999993}, "892608845RR0001": {"name": "CAMP THOMPSON", "designationCode": "C", "categoryCode": "56", "address": "127 SOUTH BAY ROAD", "city": "ELLIOT LAKE", "province": "ON", "country": "CA", "postalCode": "P5A2S9", "twitter": "None", "instagram": "None", "facebook": "None", "youtube": "None", "website": "None", "summary": "None", "logo": "None", "latitude": 46.471444500534886, "longitude": -82.65860483512526}, "855053377RR0001": {"name": "CAMP TORONTO TRIPLE THREAT BURSARY FUND", "designationCode": "C", "categoryCode": "09", "address": "20 QUEEN STREET WEST          SUITE 3000", "city": "TORONTO", "province": "ON", "country": "CA", "postalCode": "M5H3R3", "twitter": "None", "instagram": "None", "facebook": "None", "youtube": "None", "website": "None", "summary": "None", "logo": "None", "latitude": 43.652350571469775, "longitude": -79.38077842754927}, "891800377RR0001": {"name": "CAMP TULAHEAD SOCIETY", "designationCode": "C", "categoryCode": "56", "address": "BOX 1272", "city": "PRINCETON", "province": "BC", "country": "CA", "postalCode": "V0X1W0", "twitter": "None", "instagram": "None", "facebook": "None", "youtube": "None", "website": "None", "summary": "None", "logo": "None", "latitude": 49.458687000000054, "longitude": -120.50591299999994}, "124220849RR0001": {"name": "CAMP WARWA", "designationCode": "C", "categoryCode": "56", "address": "BOX 29", "city": "DARWELL", "province": "AB", "country": "CA", "postalCode": "T0E0L0", "twitter": "None", "instagram": "None", "facebook": "None", "youtube": "None", "website": "None", "summary": "None", "logo": "None", "latitude": 53.66946000000007, "longitude": -114.59151999999995}, "131882342RR0001": {"name": "CAMP WEGESEGUM INC", "designationCode": "C", "categoryCode": "56", "address": "158 MILLENNIUM DR", "city": "QUISPAMSIS", "province": "NB", "country": "CA", "postalCode": "E2E6E6", "twitter": "None", "instagram": "None", "facebook": "None", "youtube": "None", "website": "None", "summary": "None", "logo": "None", "latitude": 45.405231392673485, "longitude": -65.95110541128534}, "139789341RR0001": {"name": "CAMP WHITNEY, ST PAUL PRESBYTERY", "designationCode": "C", "categoryCode": "56", "address": "PO BOX 454", "city": "PIERCELAND", "province": "SK", "country": "CA", "postalCode": "S0M2K0", "twitter": "None", "instagram": "None", "facebook": "None", "youtube": "None", "website": "None", "summary": "None", "logo": "None", "latitude": 54.333480000000066, "longitude": -109.76833999999997}, "119298206RR0001": {"name": "CAMP WILDWOOD INCORPORATED", "designationCode": "C", "categoryCode": "56", "address": "PO BOX 564", "city": "MONCTON", "province": "NB", "country": "CA", "postalCode": "E1C8L9", "twitter": "None", "instagram": "None", "facebook": "None", "youtube": "None", "website": "None", "summary": "None", "logo": "None", "latitude": 46.08834900000005, "longitude": -64.77824149999994}, "118827963RR0001": {"name": "CAMP 3F ASSOCIATION", "designationCode": "C", "categoryCode": "56", "address": "BOX 389", "city": "PLAMONDON", "province": "AB", "country": "CA", "postalCode": "T0A2T0", "twitter": "None", "instagram": "None", "facebook": "None", "youtube": "None", "website": "None", "summary": "None", "logo": "None", "latitude": 54.84978000000007, "longitude": -112.34449999999998}, "118892421RR0001": {"name": "CAMP-\u00c9COLE K\u00c9NO", "designationCode": "C", "categoryCode": "56", "address": "5020 RUE CLEMENT-LOCKQUELL", "city": "ST-AUGUSTIN-D-DESM", "province": "QC", "country": "CA", "postalCode": "G3A1B3", "twitter": "None", "instagram": "None", "facebook": "None", "youtube": "None", "website": "None", "summary": "None", "logo": "None", "latitude": 46.73578200000006, "longitude": -71.40233149999993}, "872517123RR0001": {"name": "CAMPAIGN FOR KIDS FOUNDATION", "designationCode": "A", "categoryCode": "03", "address": "BOX 201", "city": "KENTVILLE", "province": "NS", "country": "CA", "postalCode": "B4N3W4", "twitter": "None", "instagram": "None", "facebook": "None", "youtube": "None", "website": "None", "summary": "None", "logo": "None", "latitude": 45.07663200000006, "longitude": -64.49369299999994}, "873413272RR0001": {"name": "CAMPBELL AREA MUSIC PARENTS ASSOCIATION INC.", "designationCode": "C", "categoryCode": "22", "address": "102 MASSEY RD", "city": "REGINA", "province": "SK", "country": "CA", "postalCode": "S4S4M9", "twitter": "None", "instagram": "None", "facebook": "None", "youtube": "None", "website": "None", "summary": "None", "logo": "None", "latitude": 50.41193769614579, "longitude": -104.60911785078102}, "829802461RR0001": {"name": "CAMPBELL BAPTIST CHURCH OF WINDSOR", "designationCode": "C", "categoryCode": "31", "address": "1821 WYANDOTTE ST WEST", "city": "WINDSOR", "province": "ON", "country": "CA", "postalCode": "N9B1J4", "twitter": "None", "instagram": "None", "facebook": "None", "youtube": "None", "website": "None", "summary": "None", "logo": "None", "latitude": 42.30677224614831, "longitude": -83.05753472395996}, "889353793RR0001": {"name": "CAMPBELL EMPLOYEE CHARITABLE FUND", "designationCode": "C", "categoryCode": "75", "address": "60 BIRMINGHAM STREET", "city": "TORONTO", "province": "ON", "country": "CA", "postalCode": "M8V2B8", "twitter": "None", "instagram": "None", "facebook": "None", "youtube": "None", "website": "None", "summary": "None", "logo": "None", "latitude": 43.60452126239177, "longitude": -79.50060534003664}, "118826684RR0001": {"name": "CAMPBELL RIVER AND DISTRICT ADULT CARE SOCIETY", "designationCode": "C", "categoryCode": "09", "address": "12-142 LARWOOD RD", "city": "CAMPBELL RIVER", "province": "BC", "country": "CA", "postalCode": "V9W1S2", "twitter": "None", "instagram": "None", "facebook": "None", "youtube": "None", "website": "None", "summary": "None", "logo": "None", "latitude": 49.96767184629772, "longitude": -125.21385284456602}, "118826692RR0001": {"name": "CAMPBELL RIVER AND DISTRICT ASSOCIATION FOR COMMUNITY LIVING", "designationCode": "C", "categoryCode": "11", "address": "1153 GREENWOOD STREET", "city": "CAMPBELL RIVER", "province": "BC", "country": "CA", "postalCode": "V9W3C5", "twitter": "None", "instagram": "None", "facebook": "None", "youtube": "None", "website": "None", "summary": "None", "logo": "None", "latitude": 50.026355077990644, "longitude": -125.25222927003875}, "889573598RR0001": {"name": "CAMPBELL RIVER AND DISTRICT FOOD BANK SOCIETY", "designationCode": "C", "categoryCode": "09", "address": "1393 MARWALK CRES", "city": "CAMPBELL RIVER", "province": "BC", "country": "CA", "postalCode": "V9W5V9", "twitter": "None", "instagram": "None", "facebook": "None", "youtube": "None", "website": "None", "summary": "None", "logo": "None", "latitude": 50.02875648542906, "longitude": -125.27225089050151}, "898142161RR0001": {"name": "CAMPBELL RIVER AND DISTRICT PUBLIC ART GALLERY", "designationCode": "C", "categoryCode": "50", "address": "1235 SHOPPERS ROW", "city": "CAMPBELL RIVER", "province": "BC", "country": "CA", "postalCode": "V9W2C7", "twitter": "None", "instagram": "None", "facebook": "None", "youtube": "None", "website": "None", "summary": "None", "logo": "None", "latitude": 50.02700571801602, "longitude": -125.24525687924877}}