{"862232170RR0001": {"name": "AIR CADET LEAGUE OF CANADA 909 PEREGRINE SPONSORING COMMITTEE", "designationCode": "C", "categoryCode": "29", "address": "SUITE 257 22-2475 DOBBIN RD", "city": "WESTBANK", "province": "BC", "country": "CA", "postalCode": "V4T2E9", "twitter": "None", "instagram": "None", "facebook": "None", "youtube": "None", "website": "None", "summary": "None", "logo": "None", "latitude": 49.828419933925986, "longitude": -119.63155997446472}, "130387665RR0027": {"name": "AIR CADET LEAGUE OF CANADA-PORT ELGIN SQUADRON NO 340", "designationCode": "C", "categoryCode": "29", "address": "PO BOX 1755", "city": "PORT ELGIN", "province": "ON", "country": "CA", "postalCode": "N0H2C0", "twitter": "None", "instagram": "None", "facebook": "None", "youtube": "None", "website": "None", "summary": "None", "logo": "None", "latitude": 44.43698400000005, "longitude": -81.38664349999993}, "125593657RR0062": {"name": "AIR CADET LEAGUE OF CANADA-THE NEW BRUNSWICK PROVINCIAL COM", "designationCode": "C", "categoryCode": "29", "address": "749 WAASIS RD", "city": "OROMOCTO", "province": "NB", "country": "CA", "postalCode": "E2V2N4", "twitter": "None", "instagram": "None", "facebook": "None", "youtube": "None", "website": "None", "summary": "None", "logo": "None", "latitude": 45.840678434070156, "longitude": -66.51353164914332}, "125593657RR0150": {"name": "AIR CADET LEAGUE OF CANADA-WYLIE-MITCHELL SQUADRON #30", "designationCode": "C", "categoryCode": "29", "address": "BOX 937", "city": "ESTEVAN", "province": "SK", "country": "CA", "postalCode": "S4A2A7", "twitter": "None", "instagram": "None", "facebook": "None", "youtube": "None", "website": "None", "summary": "None", "logo": "None", "latitude": 49.140249000000054, "longitude": -102.99454999999993}, "130387665RR0032": {"name": "AIR CADET LEAGUE OF CANADA-715 BURLINGTON SQUADRON", "designationCode": "C", "categoryCode": "29", "address": "828 LEGION RD", "city": "BURLINGTON", "province": "ON", "country": "CA", "postalCode": "L7S1T6", "twitter": "None", "instagram": "None", "facebook": "None", "youtube": "None", "website": "None", "summary": "None", "logo": "None", "latitude": 43.333820498730596, "longitude": -79.81243974565737}, "130387665RR0035": {"name": "AIR CADET LEAGUE OF CANADA, # 253 CLAUDE NUNNEY V C SQUADRON", "designationCode": "C", "categoryCode": "29", "address": "P.O. BOX 311", "city": "LANCASTER", "province": "ON", "country": "CA", "postalCode": "K0C1N0", "twitter": "None", "instagram": "None", "facebook": "None", "youtube": "None", "website": "None", "summary": "None", "logo": "None", "latitude": 45.256231809853304, "longitude": -74.59372027289841}, "125593657RR0016": {"name": "AIR CADET LEAGUE OF CANADA, # 733, DRAYTON VALLEY, ALBERTA SQUADRON", "designationCode": "C", "categoryCode": "29", "address": "BOX 6874", "city": "DRAYTON VALLEY", "province": "AB", "country": "CA", "postalCode": "T7A1S2", "twitter": "None", "instagram": "None", "facebook": "None", "youtube": "None", "website": "None", "summary": "None", "logo": "None", "latitude": 53.22798600000006, "longitude": -114.98692399999993}, "125593657RR0068": {"name": "AIR CADET LEAGUE OF CANADA, #42, WETASKIWIN SQUADRON", "designationCode": "C", "categoryCode": "29", "address": "PO BOX 6355", "city": "WETASKIWIN", "province": "AB", "country": "CA", "postalCode": "T9A2G1", "twitter": "None", "instagram": "None", "facebook": "None", "youtube": "None", "website": "None", "summary": "None", "logo": "None", "latitude": 52.96987500000006, "longitude": -113.37725149999994}, "130387665RR0033": {"name": "AIR CADET LEAGUE OF CANADA, #820 MILTON SQUADRON", "designationCode": "C", "categoryCode": "29", "address": "P.O. BOX 83", "city": "MILTON", "province": "ON", "country": "CA", "postalCode": "L9T2Y3", "twitter": "None", "instagram": "None", "facebook": "None", "youtube": "None", "website": "None", "summary": "None", "logo": "None", "latitude": 43.51104600000005, "longitude": -79.88386399999993}, "125593657RR0017": {"name": "AIR CADET LEAGUE OF CANADA, 177 WINNIPEG SQUADRON", "designationCode": "C", "categoryCode": "29", "address": "969 ST MATHEWS AVE", "city": "WINNIPEG", "province": "MB", "country": "CA", "postalCode": "R3G0J7", "twitter": "None", "instagram": "None", "facebook": "None", "youtube": "None", "website": "None", "summary": "None", "logo": "None", "latitude": 49.89038446826102, "longitude": -97.17888005966878}, "892520768RR0001": {"name": "AIR CADET LEAGUE OF CANADA, 188 COBRA SQUADRON - DOWNSVIEW", "designationCode": "C", "categoryCode": "29", "address": "328 CHARLTON AVENUE", "city": "THORNHILL", "province": "ON", "country": "CA", "postalCode": "L4J6H8", "twitter": "None", "instagram": "None", "facebook": "None", "youtube": "None", "website": "None", "summary": "None", "logo": "None", "latitude": 43.79416800579973, "longitude": -79.46038602080336}, "130387665RR0052": {"name": "AIR CADET LEAGUE OF CANADA, 288 KIRKLAND LAKE SQUADRON, CHAPUT HUGHES", "designationCode": "C", "categoryCode": "29", "address": "288 RED FOX BOX 1202          SQADRON SPONSORING COMMITTEE", "city": "KIRKLAND LAKE", "province": "ON", "country": "CA", "postalCode": "P2N3M7", "twitter": "None", "instagram": "None", "facebook": "None", "youtube": "None", "website": "None", "summary": "None", "logo": "None", "latitude": 48.15028500000005, "longitude": -80.03540149999994}, "130387665RR0065": {"name": "AIR CADET LEAGUE OF CANADA, 58 A/C A. DWIGHT ROSS, GC, CBE, CD. SQUADRON, KINGSTON", "designationCode": "C", "categoryCode": "29", "address": "P O BOX 1889", "city": "KINGSTON", "province": "ON", "country": "CA", "postalCode": "K7L5J7", "twitter": "None", "instagram": "None", "facebook": "None", "youtube": "None", "website": "None", "summary": "None", "logo": "None", "latitude": 44.23153200000006, "longitude": -76.47933049999993}, "125593657RR0108": {"name": "AIR CADET LEAGUE OF CANADA, 601 SQUADRON, MACKLIN SASKATCHEWAN", "designationCode": "C", "categoryCode": "29", "address": "BOX 651", "city": "MACKLIN", "province": "SK", "country": "CA", "postalCode": "S0L2C0", "twitter": "None", "instagram": "None", "facebook": "None", "youtube": "None", "website": "None", "summary": "None", "logo": "None", "latitude": 52.33280000000008, "longitude": -109.93590999999998}, "130387665RR0026": {"name": "AIR CADET LEAGUE OF CANADA, 631 SENTINEL SQUADRON, ONTARIO", "designationCode": "C", "categoryCode": "29", "address": "6 - 110 LING RD", "city": "SCARBOROUGH", "province": "ON", "country": "CA", "postalCode": "M1E4V9", "twitter": "None", "instagram": "None", "facebook": "None", "youtube": "None", "website": "None", "summary": "None", "logo": "None", "latitude": 43.768305147642764, "longitude": -79.18248685489606}, "859729915RR0001": {"name": "AIR CADET LEAGUE OF CANADA, 655 RICHMOND SQUADRON SPONSORINGCOMMITTEE", "designationCode": "C", "categoryCode": "29", "address": "BOX 26016                     CRPO", "city": "RICHMOND", "province": "BC", "country": "CA", "postalCode": "V6Y3V3", "twitter": "None", "instagram": "None", "facebook": "None", "youtube": "None", "website": "None", "summary": "None", "logo": "None", "latitude": 49.163343000000054, "longitude": -123.13664449999993}, "858580335RR0001": {"name": "AIR CADET LEAGUE OF CANADA, 692 AIR CANADA SQUADRON SPONSORING COMMITTEE", "designationCode": "C", "categoryCode": "29", "address": "692 AIR CADET, PO BOX 43081   RICHMOND CENTRE POSTAL", "city": "OUTLET", "province": "BC", "country": "CA", "postalCode": "V6Y3Y3", "twitter": "None", "instagram": "None", "facebook": "None", "youtube": "None", "website": "None", "summary": "None", "logo": "None", "latitude": 49.16691000000003, "longitude": -123.13750999999996}, "130387665RR0028": {"name": "AIR CADET LEAGUE OF CANADA, 700 DAVID HORNELL VC SQUADRON", "designationCode": "C", "categoryCode": "29", "address": "P. O. BOX 79752               1995 WESTON RD", "city": "TORONTO", "province": "ON", "country": "CA", "postalCode": "M9N3W9", "twitter": "None", "instagram": "None", "facebook": "None", "youtube": "None", "website": "None", "summary": "None", "logo": "None", "latitude": 43.701102008627004, "longitude": -79.5195066017082}, "130387665RR0066": {"name": "AIR CADET LEAGUE OF CANADA, 718 YUKON SQUADRON", "designationCode": "C", "categoryCode": "29", "address": "34 SOUTH ST", "city": "PORT HOPE", "province": "ON", "country": "CA", "postalCode": "L1A1R8", "twitter": "None", "instagram": "None", "facebook": "None", "youtube": "None", "website": "None", "summary": "None", "logo": "None", "latitude": 43.9534594205088, "longitude": -78.29734277852153}, "125593657RR0025": {"name": "AIR CADET LEAGUE OF CANADA, 773 RICHIBUCTO SQUADRON", "designationCode": "C", "categoryCode": "29", "address": "3-9235 MAIN STREET", "city": "RICHIBUCTO", "province": "NB", "country": "CA", "postalCode": "E4W4B4", "twitter": "None", "instagram": "None", "facebook": "None", "youtube": "None", "website": "None", "summary": "None", "logo": "None", "latitude": 46.67065649240574, "longitude": -64.86885385899453}, "125593657RR0082": {"name": "AIR CADET LEAGUE OF CANADA, 797 LANIGAN K OF C SQUADRON", "designationCode": "C", "categoryCode": "29", "address": "BOX 401", "city": "LANIGAN", "province": "SK", "country": "CA", "postalCode": "S0K2M0", "twitter": "None", "instagram": "None", "facebook": "None", "youtube": "None", "website": "None", "summary": "None", "logo": "None", "latitude": 51.84617000000003, "longitude": -105.03797999999995}, "853823334RR0001": {"name": "AIR CADET LEAGUE OF CANADA, 819 NORTH DELTA SPONSORING COMMITTEE", "designationCode": "C", "categoryCode": "29", "address": "101-12080 NORDEL WAY          PO BOX 84533", "city": "SURREY", "province": "BC", "country": "CA", "postalCode": "V3W6Y7", "twitter": "None", "instagram": "None", "facebook": "None", "youtube": "None", "website": "None", "summary": "None", "logo": "None", "latitude": 49.161915804965304, "longitude": -122.88677924796926}, "130387665RR0068": {"name": "AIR CADET LEAGUE OF CANADA, 892 SNOWY OWL SQUADRON", "designationCode": "C", "categoryCode": "29", "address": "13691 MCLAUGHLIN RD.", "city": "CALEDON", "province": "ON", "country": "CA", "postalCode": "L7C3L9", "twitter": "None", "instagram": "None", "facebook": "None", "youtube": "None", "website": "None", "summary": "None", "logo": "None", "latitude": 43.75751584524734, "longitude": -79.88042238527466}, "897461208RR0001": {"name": "AIR CADET LEAGUE OF CANADA, 907 SQUADRON SPONSORING COMMITTEE", "designationCode": "C", "categoryCode": "29", "address": "UNIT 71504-1453 JOHNSTON RD", "city": "WHITE ROCK", "province": "BC", "country": "CA", "postalCode": "V4B5J5", "twitter": "None", "instagram": "None", "facebook": "None", "youtube": "None", "website": "None", "summary": "None", "logo": "None", "latitude": 49.02835036888692, "longitude": -122.80129978786562}, "125593657RR0193": {"name": "AIR CADET LEAGUE, NO 11 LETHBRIDGE SQUADRON", "designationCode": "C", "categoryCode": "29", "address": "BOX 27005 POSTAL STATION      HENDERSON LAKE", "city": "LETHBRIDGE", "province": "AB", "country": "CA", "postalCode": "T1K6X5", "twitter": "None", "instagram": "None", "facebook": "None", "youtube": "None", "website": "None", "summary": "None", "logo": "None", "latitude": 49.67924596118729, "longitude": -112.7961922310067}, "123613523RR0019": {"name": "AIR CADET LEAGUE, NO 555 MAPLE LEAF SQUADRON", "designationCode": "C", "categoryCode": "29", "address": "4171 DE L'ESPLANADE", "city": "MONTREAL", "province": "QC", "country": "CA", "postalCode": "H2W1S9", "twitter": "None", "instagram": "None", "facebook": "None", "youtube": "None", "website": "None", "summary": "None", "logo": "None"}, "125593657RR0199": {"name": "AIR CADET LEAGUE, SABRE SQUADRON SASKATCHEWAN NO 34", "designationCode": "C", "categoryCode": "29", "address": "BOX 3087", "city": "REGINA", "province": "SK", "country": "CA", "postalCode": "S4P3G7", "twitter": "None", "instagram": "None", "facebook": "None", "youtube": "None", "website": "None", "summary": "None", "logo": "None", "latitude": 50.448246000000054, "longitude": -104.59517299999993}, "888612108RR0001": {"name": "AIR CADET LEAGUE, 353 MILE ZERO SQUADRON SPONSORING COMMITTEE", "designationCode": "C", "categoryCode": "29", "address": "P.O. BOX 2612", "city": "DAWSON CREEK", "province": "BC", "country": "CA", "postalCode": "V1G5A1", "twitter": "None", "instagram": "None", "facebook": "None", "youtube": "None", "website": "None", "summary": "None", "logo": "None", "latitude": 55.76171100000006, "longitude": -120.23704249999994}, "889428660RR0001": {"name": "AIR RONGE COMMUNITY LIBRARY BOARD", "designationCode": "A", "categoryCode": "55", "address": "P.O. BOX 5680", "city": "LA RONGE", "province": "SK", "country": "CA", "postalCode": "S0J1C0", "twitter": "None", "instagram": "None", "facebook": "None", "youtube": "None", "website": "None", "summary": "None", "logo": "None", "latitude": 55.104968852218384, "longitude": -105.2789552305204}, "870327731RR0001": {"name": "AIR RONGE PENTECOSTAL CHURCH", "designationCode": "C", "categoryCode": "36", "address": "129 ANSON STREET              P.O. BOX 277", "city": "AIR RONGE", "province": "SK", "country": "CA", "postalCode": "S0J3G0", "twitter": "None", "instagram": "None", "facebook": "None", "youtube": "None", "website": "None", "summary": "None", "logo": "None", "latitude": 55.0824423938374, "longitude": -105.3168792975547}, "887152452RR0001": {"name": "AIRBC CARES 4 KIDS SOCIETY", "designationCode": "C", "categoryCode": "09", "address": "11421 ROYAL CRES.", "city": "SURREY", "province": "BC", "country": "CA", "postalCode": "V3V6V5", "twitter": "None", "instagram": "None", "facebook": "None", "youtube": "None", "website": "None", "summary": "None", "logo": "None", "latitude": 49.181846415228684, "longitude": -122.90600263682272}, "118779792RR0001": {"name": "AIRDRIE ALLIANCE CHURCH", "designationCode": "C", "categoryCode": "39", "address": "1604 SUMMERFIELD BLVD", "city": "AIRDRIE", "province": "AB", "country": "CA", "postalCode": "T4B1C7", "twitter": "None", "instagram": "None", "facebook": "None", "youtube": "None", "website": "None", "summary": "None", "logo": "None", "latitude": 51.279036380518185, "longitude": -114.00592919828053}, "140904772RR0001": {"name": "AIRDRIE AND DISTRICT VICTIMS ASSISTANCE SOCIETY", "designationCode": "C", "categoryCode": "59", "address": "2 HIGHLAND PARK WAY NE", "city": "AIRDRIE", "province": "AB", "country": "CA", "postalCode": "T4A0R1", "twitter": "None", "instagram": "None", "facebook": "None", "youtube": "None", "website": "None", "summary": "None", "logo": "None", "latitude": 51.302835433373026, "longitude": -113.98975874887073}, "118814441RR0001": {"name": "AIRDRIE BOYS' AND GIRLS' CLUB", "designationCode": "C", "categoryCode": "29", "address": "1003 ALLEN STREET", "city": "AIRDRIE", "province": "AB", "country": "CA", "postalCode": "T4B1B3", "twitter": "None", "instagram": "None", "facebook": "None", "youtube": "None", "website": "None", "summary": "None", "logo": "None", "latitude": 51.28463319403866, "longitude": -114.00610961483592}, "887903920RR0001": {"name": "AIRDRIE FESTIVAL OF LIGHTS FOUNDATION", "designationCode": "A", "categoryCode": "56", "address": "PO BOX 10353", "city": "AIRDRIE", "province": "AB", "country": "CA", "postalCode": "T4A0H6", "twitter": "None", "instagram": "None", "facebook": "None", "youtube": "None", "website": "None", "summary": "None", "logo": "None", "latitude": 51.28868400000006, "longitude": -114.01344349999994}, "888364262RR0001": {"name": "AIRDRIE FOOD BANK", "designationCode": "C", "categoryCode": "09", "address": "20 EAST LAKE WAY", "city": "AIRDRIE", "province": "AB", "country": "CA", "postalCode": "T4A2J3", "twitter": "None", "instagram": "None", "facebook": "None", "youtube": "None", "website": "None", "summary": "None", "logo": "None", "latitude": 51.29158697002138, "longitude": -113.99644671977637}, "106690258RR0001": {"name": "AIRDRIE KOINONIA CHRISTIAN SCHOOL SOCIETY", "designationCode": "C", "categoryCode": "20", "address": "77 GATEWAY DRIVE NE", "city": "AIRDRIE", "province": "AB", "country": "CA", "postalCode": "T4B0J6", "twitter": "None", "instagram": "None", "facebook": "None", "youtube": "None", "website": "None", "summary": "None", "logo": "None", "latitude": 51.30614452596792, "longitude": -114.01039341618096}, "118779842RR0001": {"name": "AIRDRIE MEALS ON WHEELS", "designationCode": "C", "categoryCode": "59", "address": "P.O. BOX 10081", "city": "AIRDRIE", "province": "AB", "country": "CA", "postalCode": "T4A0H4", "twitter": "None", "instagram": "None", "facebook": "None", "youtube": "None", "website": "None", "summary": "None", "logo": "None", "latitude": 51.28868400000006, "longitude": -114.01344349999994}, "118779867RR0001": {"name": "AIRDRIE OVER - 50 CLUB", "designationCode": "C", "categoryCode": "56", "address": "101-275 JENSEN DRIVE N.E.", "city": "AIRDRIE", "province": "AB", "country": "CA", "postalCode": "T4B1P7", "twitter": "None", "instagram": "None", "facebook": "None", "youtube": "None", "website": "None", "summary": "None", "logo": "None", "latitude": 51.295410000000004, "longitude": -114.01032599999999}, "130172521RR0001": {"name": "AIRDRIE PASTORAL CHARGE,", "designationCode": "C", "categoryCode": "44", "address": "212 1 AVE NE", "city": "AIRDRIE", "province": "AB", "country": "CA", "postalCode": "T4B2B2", "twitter": "None", "instagram": "None", "facebook": "None", "youtube": "None", "website": "None", "summary": "None", "logo": "None", "latitude": 51.29271148600597, "longitude": -114.01094266763806}, "864456397RR0001": {"name": "AIRDRIE REGIONAL RECREATION ENHANCEMENT SOCIETY", "designationCode": "A", "categoryCode": "56", "address": "800 EASTLAKE BLVD.", "city": "AIRDRIE", "province": "AB", "country": "CA", "postalCode": "T4A2K9", "twitter": "None", "instagram": "None", "facebook": "None", "youtube": "None", "website": "None", "summary": "None", "logo": "None", "latitude": 51.255303000000055, "longitude": -113.97798349999994}, "118779883RR0001": {"name": "AIRDRIE SEVENTH-DAY ADVENTIST CHURCH", "designationCode": "C", "categoryCode": "41", "address": "5816 HIGHWAY 2A", "city": "LACOMBE", "province": "AB", "country": "CA", "postalCode": "T4L2G5", "twitter": "None", "instagram": "None", "facebook": "None", "youtube": "None", "website": "None", "summary": "None", "logo": "None", "latitude": 52.474063600197404, "longitude": -113.71692568401835}, "118779859RR0001": {"name": "AIRDRIE STAY AND PLAY ASSOCIATION", "designationCode": "C", "categoryCode": "20", "address": "212-1 AVENUE NE", "city": "AIRDRIE", "province": "AB", "country": "CA", "postalCode": "T4B0R4", "twitter": "None", "instagram": "None", "facebook": "None", "youtube": "None", "website": "None", "summary": "None", "logo": "None", "latitude": 51.29271148600597, "longitude": -114.01094266763806}, "894147735RR0001": {"name": "AIRDRIE VICTORY FELLOWSHIP", "designationCode": "C", "categoryCode": "39", "address": "508 3 AVE SE", "city": "AIRDRIE", "province": "AB", "country": "CA", "postalCode": "T4B2C2", "twitter": "None", "instagram": "None", "facebook": "None", "youtube": "None", "website": "None", "summary": "None", "logo": "None", "latitude": 51.28883949379626, "longitude": -114.00334102553522}, "861458263RR0001": {"name": "AIRPORT CHARITABLE TRUST", "designationCode": "B", "categoryCode": "39", "address": "780 SASKATCHEWAN AVE W", "city": "PORTAGE LA PRAIRIE", "province": "MB", "country": "CA", "postalCode": "R1N0M7", "twitter": "None", "instagram": "None", "facebook": "None", "youtube": "None", "website": "None", "summary": "None", "logo": "None", "latitude": 49.97373494820344, "longitude": -98.30132080652011}, "870409489RR0001": {"name": "AISLING DISCOVERIES CHILD AND FAMILY CENTRE", "designationCode": "C", "categoryCode": "09", "address": "325 MILNER AVENUE             SUITE 110", "city": "SCARBOROUGH", "province": "ON", "country": "CA", "postalCode": "M1B5N1", "twitter": "None", "instagram": "None", "facebook": "None", "youtube": "None", "website": "None", "summary": "None", "logo": "None", "latitude": 43.7902928198398, "longitude": -79.23343452954593}, "888515848RR0001": {"name": "AISLING DISCOVERIES CHILD AND FAMILY FOUNDATION", "designationCode": "A", "categoryCode": "23", "address": "325 MILNER AVENUE, STE 110    AISLING DIS. CHILD & FMY CTR", "city": "SCARBOROUGH", "province": "ON", "country": "CA", "postalCode": "M1B5N1", "twitter": "None", "instagram": "None", "facebook": "None", "youtube": "None", "website": "None", "summary": "None", "logo": "None", "latitude": 43.7902928198398, "longitude": -79.23343452954593}, "894945633RR0032": {"name": "AJAX ALLIANCE CHURCH", "designationCode": "C", "categoryCode": "39", "address": "115 RITCHIE AVE", "city": "AJAX", "province": "ON", "country": "CA", "postalCode": "L1S7E8", "twitter": "None", "instagram": "None", "facebook": "None", "youtube": "None", "website": "None", "summary": "None", "logo": "None", "latitude": 43.85413225278476, "longitude": -79.0406720812802}, "106690597RR0001": {"name": "AJAX BAPTIST CHURCH", "designationCode": "C", "categoryCode": "31", "address": "56 ANGUS DR", "city": "AJAX", "province": "ON", "country": "CA", "postalCode": "L1S5C3", "twitter": "None", "instagram": "None", "facebook": "None", "youtube": "None", "website": "None", "summary": "None", "logo": "None", "latitude": 43.855098259998115, "longitude": -79.01918289318456}, "889388641RR0001": {"name": "AJAX PICKERING CHRISTIAN ASSEMBLY BUILDING ASSOCIATION", "designationCode": "C", "categoryCode": "49", "address": "214 LAKE DRIVEWAY WEST", "city": "AJAX", "province": "ON", "country": "CA", "postalCode": "L1S5A1", "twitter": "None", "instagram": "None", "facebook": "None", "youtube": "None", "website": "None", "summary": "None", "logo": "None", "latitude": 43.825390292255776, "longitude": -79.03286212375232}, "141132662RR0001": {"name": "AJAX PICKERING HOSPITAL FOUNDATION", "designationCode": "A", "categoryCode": "13", "address": "580 HARWOOD AVENUE SOUTH", "city": "AJAX", "province": "ON", "country": "CA", "postalCode": "L1S2J4", "twitter": "None", "instagram": "None", "facebook": "None", "youtube": "None", "website": "None", "summary": "None", "logo": "None", "latitude": 43.838179056239994, "longitude": -79.01634292846593}, "889021796RR0001": {"name": "AJAX PUBLIC LIBRARY BOARD", "designationCode": "A", "categoryCode": "50", "address": "55 HARWOOD AVENUE SOUTH", "city": "AJAX", "province": "ON", "country": "CA", "postalCode": "L1S2H8", "twitter": "None", "instagram": "None", "facebook": "None", "youtube": "None", "website": "None", "summary": "None", "logo": "None", "latitude": 43.85122186262901, "longitude": -79.02129384563483}, "118779982RR0001": {"name": "AJAX ROTARY CLUB CHARITABLE TRUST", "designationCode": "A", "categoryCode": "65", "address": "314 HARWOOD AVE. S.           P.O. BOX 21022", "city": "AJAX", "province": "ON", "country": "CA", "postalCode": "L1S7H2", "twitter": "None", "instagram": "None", "facebook": "None", "youtube": "None", "website": "None", "summary": "None", "logo": "None", "latitude": 43.84502985375075, "longitude": -79.01896711809388}, "106690936RR0001": {"name": "AKALI SINGH SIKH SOCIETY", "designationCode": "C", "categoryCode": "62", "address": "1890 SKEENA ST", "city": "VANCOUVER", "province": "BC", "country": "CA", "postalCode": "V5M4L3", "twitter": "None", "instagram": "None", "facebook": "None", "youtube": "None", "website": "None", "summary": "None", "logo": "None", "latitude": 49.26761119763874, "longitude": -123.0284757145218}, "871733671RR0001": {"name": "AKASU PALLIATIVE CARE SOCIETY", "designationCode": "C", "categoryCode": "11", "address": "PO BOX 623 STN MAIN", "city": "VEGREVILLE", "province": "AB", "country": "CA", "postalCode": "T9C1R7", "twitter": "None", "instagram": "None", "facebook": "None", "youtube": "None", "website": "None", "summary": "None", "logo": "None", "latitude": 53.49528600000005, "longitude": -112.05415249999993}, "889304846RR0001": {"name": "AKHAND KIRTANI JATHA SOCIETY OF B C", "designationCode": "C", "categoryCode": "62", "address": "#205-8501 162 ST.", "city": "SURREY", "province": "BC", "country": "CA", "postalCode": "V4N1B2", "twitter": "None", "instagram": "None", "facebook": "None", "youtube": "None", "website": "None", "summary": "None", "logo": "None", "latitude": 49.157173089647415, "longitude": -122.77332601223367}, "106691066RR0001": {"name": "AKIVA SCHOOL L'ECOLE AKIVA", "designationCode": "C", "categoryCode": "20", "address": "450 KENSINGTON", "city": "WESTMOUNT", "province": "QC", "country": "CA", "postalCode": "H3Y3A2", "twitter": "None", "instagram": "None", "facebook": "None", "youtube": "None", "website": "None", "summary": "None", "logo": "None", "latitude": 45.4849769866698, "longitude": -73.59726301846608}, "868264409RR0001": {"name": "AKSHOBYA KADAMPA BUDDHIST CENTRE", "designationCode": "C", "categoryCode": "35", "address": "2120 KENSINGTON ROAD NW       SUITE 208", "city": "CALGARY", "province": "AB", "country": "CA", "postalCode": "T2N3R7", "twitter": "None", "instagram": "None", "facebook": "None", "youtube": "None", "website": "None", "summary": "None", "logo": "None", "latitude": 51.05251251875456, "longitude": -114.10918216763807}, "898762216RR0001": {"name": "AL AZHAR ACADEMY OF CANADA FOR EDUCATIONAL ACTIVITIES AND SOCIAL SERVICE", "designationCode": "C", "categoryCode": "60", "address": "357 SIMCOE ST S", "city": "OSHAWA", "province": "ON", "country": "CA", "postalCode": "L1H4J2", "twitter": "None", "instagram": "None", "facebook": "None", "youtube": "None", "website": "None", "summary": "None", "logo": "None", "latitude": 43.888212501269415, "longitude": -78.85929063243758}, "885448928RR0001": {"name": "AL AZHAR SHRINE HOSPITAL PATIENT TRANSPORTATION FUND", "designationCode": "C", "categoryCode": "01", "address": "5225-101 STREET N.W.,", "city": "CALGARY", "province": "AB", "country": "CA", "postalCode": "T3L1S4", "twitter": "None", "instagram": "None", "facebook": "None", "youtube": "None", "website": "None", "summary": "None", "logo": "None", "latitude": 51.10009267055224, "longitude": -114.23428776132484}, "864640255RR0001": {"name": "AL BATOOL FATIMA ASSOCIATION INC.", "designationCode": "C", "categoryCode": "60", "address": "2575 BOND STREET", "city": "OTTAWA", "province": "ON", "country": "CA", "postalCode": "K2B7C3", "twitter": "None", "instagram": "None", "facebook": "None", "youtube": "None", "website": "None", "summary": "None", "logo": "None", "latitude": 45.36363430143103, "longitude": -75.78764424675389}, "888118445RR0001": {"name": "AL FORSYTH FOUNDATION INC", "designationCode": "C", "categoryCode": "21", "address": "BOX 217", "city": "ERIKSDALE", "province": "MB", "country": "CA", "postalCode": "R0C0W0", "twitter": "None", "instagram": "None", "facebook": "None", "youtube": "None", "website": "None", "summary": "None", "logo": "None", "latitude": 50.86375000000004, "longitude": -98.11142999999998}, "888435260RR0001": {"name": "AL RITCHIE COMMUNITY ASSOCIATION INC", "designationCode": "C", "categoryCode": "56", "address": "2250 LINDSAY STREET", "city": "REGINA", "province": "SK", "country": "CA", "postalCode": "S4N3C3", "twitter": "None", "instagram": "None", "facebook": "None", "youtube": "None", "website": "None", "summary": "None", "logo": "None", "latitude": 50.443176705911625, "longitude": -104.58514685844881}, "887696755RR0001": {"name": "AL ROADBURG FOUNDATION", "designationCode": "B", "categoryCode": "03", "address": "301-1177 WEST BROADWAY", "city": "VANCOUVER", "province": "BC", "country": "CA", "postalCode": "V6H1G3", "twitter": "None", "instagram": "None", "facebook": "None", "youtube": "None", "website": "None", "summary": "None", "logo": "None", "latitude": 49.263477504327845, "longitude": -123.13050283236194}, "868660820RR0001": {"name": "AL SHAMAL SHRINE HOSPITAL PATIENT TRANSPORTATION FUND", "designationCode": "C", "categoryCode": "09", "address": "14511-142 STREET", "city": "EDMONTON", "province": "AB", "country": "CA", "postalCode": "T6V1H9", "twitter": "None", "instagram": "None", "facebook": "None", "youtube": "None", "website": "None", "summary": "None", "logo": "None", "latitude": 53.607303, "longitude": -113.56968416510018}, "861553683RR0001": {"name": "AL-AMEEN ISLAMIC MOSQUE", "designationCode": "C", "categoryCode": "60", "address": "5410 122 AVENUE", "city": "EDMONTON", "province": "AB", "country": "CA", "postalCode": "T5W1S2", "twitter": "None", "instagram": "None", "facebook": "None", "youtube": "None", "website": "None", "summary": "None", "logo": "None", "latitude": 53.57673449321934, "longitude": -113.42565080682671}, "870119351RR0001": {"name": "AL-ANON FAMILY GROUP HEADQUARTERS (CANADA) INC", "designationCode": "C", "categoryCode": "57", "address": "900 - 275 SLATER ST", "city": "OTTAWA", "province": "ON", "country": "CA", "postalCode": "K1P5H9", "twitter": "None", "instagram": "None", "facebook": "None", "youtube": "None", "website": "None", "summary": "None", "logo": "None", "latitude": 45.418732385250046, "longitude": -75.7012450535806}, "125976910RR0001": {"name": "AL-ANON/ALATEEN CENTRAL SERVICES MANITOBA", "designationCode": "C", "categoryCode": "57", "address": "107-2621 PORTAGE AVE", "city": "WINNIPEG", "province": "MB", "country": "CA", "postalCode": "R3J0P7", "twitter": "None", "instagram": "None", "facebook": "None", "youtube": "None", "website": "None", "summary": "None", "logo": "None", "latitude": 49.87680504137558, "longitude": -97.267773159992}, "835607276RR0001": {"name": "AL-EMAN ISLAMIC CENTRE OF CANADA INC.", "designationCode": "C", "categoryCode": "60", "address": "1407 - 1175 DUNDAS ST W", "city": "MISSISSAUGA", "province": "ON", "country": "CA", "postalCode": "L5C1C7", "twitter": "None", "instagram": "None", "facebook": "None", "youtube": "None", "website": "None", "summary": "None", "logo": "None", "latitude": 43.54380792803128, "longitude": -79.65688225315085}, "862256823RR0001": {"name": "AL-EMAN SOCIETY OF CANADA", "designationCode": "C", "categoryCode": "60", "address": "120 BERMONDSEY ROAD", "city": "TORONTO", "province": "ON", "country": "CA", "postalCode": "M4A1X5", "twitter": "None", "instagram": "None", "facebook": "None", "youtube": "None", "website": "None", "summary": "None", "logo": "None", "latitude": 43.7178831876047, "longitude": -79.31374287379484}, "894414788RR0001": {"name": "AL-HIJRA MOSQUE", "designationCode": "C", "categoryCode": "60", "address": "5100 HOWARD AVE", "city": "WINDSOR", "province": "ON", "country": "CA", "postalCode": "N9A6Z6", "twitter": "None", "instagram": "None", "facebook": "None", "youtube": "None", "website": "None", "summary": "None", "logo": "None", "latitude": 42.22774904801202, "longitude": -82.99745514617179}, "873018162RR0001": {"name": "AL-HODA ISLAMIC SOCIETY", "designationCode": "C", "categoryCode": "60", "address": "14816 89A ST", "city": "EDMONTON", "province": "AB", "country": "CA", "postalCode": "T5E3L4", "twitter": "None", "instagram": "None", "facebook": "None", "youtube": "None", "website": "None", "summary": "None", "logo": "None", "latitude": 53.60959207042119, "longitude": -113.47805999110918}, "138695564RR0001": {"name": "AL-HUDA LEBANESE MUSLIM SOCIETY", "designationCode": "C", "categoryCode": "60", "address": "975 KENNEDY RD", "city": "SCARBOROUGH", "province": "ON", "country": "CA", "postalCode": "M1P2K5", "twitter": "None", "instagram": "None", "facebook": "None", "youtube": "None", "website": "None", "summary": "None", "logo": "None", "latitude": 43.74470985957061, "longitude": -79.27303959792863}, "863549440RR0001": {"name": "AL-IRSHAD EDUCATION SERVICES INC", "designationCode": "C", "categoryCode": "60", "address": "7 KILLARNEY AVENUE            POST OFFICE BOX 34108", "city": "WINNIPEG", "province": "MB", "country": "CA", "postalCode": "R3T5T5", "twitter": "None", "instagram": "None", "facebook": "None", "youtube": "None", "website": "None", "summary": "None", "logo": "None", "latitude": 49.78953487006726, "longitude": -97.1569499024284}, "822031738RR0001": {"name": "AL-KAWTHAR FOUNDATION", "designationCode": "A", "categoryCode": "03", "address": "1250-1500 WEST GEORGIA STREET BOX 62", "city": "VANCOUVER", "province": "BC", "country": "CA", "postalCode": "V6G2Z6", "twitter": "None", "instagram": "None", "facebook": "None", "youtube": "None", "website": "None", "summary": "None", "logo": "None", "latitude": 49.290187500000016, "longitude": -123.130035}, "841674674RR0001": {"name": "AL-MADINAH CALGARY ISLAMIC ASSEMBLY", "designationCode": "C", "categoryCode": "60", "address": "4616 80 AVE NE", "city": "CALGARY", "province": "AB", "country": "CA", "postalCode": "T3J4B7", "twitter": "None", "instagram": "None", "facebook": "None", "youtube": "None", "website": "None", "summary": "None", "logo": "None", "latitude": 51.12534647100232, "longitude": -113.96760250057692}, "734314693RR0001": {"name": "AL-Taqwa Learning", "designationCode": "C", "categoryCode": "60", "address": "100 BLACKBURN AVE", "city": "OTTAWA", "province": "ON", "country": "CA", "postalCode": "K1N8A7", "twitter": "None", "instagram": "None", "facebook": "None", "youtube": "None", "website": "None", "summary": "None", "logo": "None", "latitude": 45.42427189203074, "longitude": -75.67426910964271}, "830705000RR0001": {"name": "AL-TO-G\u00ceTES", "designationCode": "C", "categoryCode": "57", "address": "115 RTE WHITTOM", "city": "HOPE", "province": "QC", "country": "CA", "postalCode": "G0C2K0", "twitter": "None", "instagram": "None", "facebook": "None", "youtube": "None", "website": "None", "summary": "None", "logo": "None", "latitude": 48.03694125644876, "longitude": -65.22354528354184}, "853068526RR0001": {"name": "AL-UMMAH HERITAGE CENTRE", "designationCode": "C", "categoryCode": "60", "address": "UNIT 2                        43 RAILSIDE ROAD", "city": "TORONTO", "province": "ON", "country": "CA", "postalCode": "M3A1B2", "twitter": "None", "instagram": "None", "facebook": "None", "youtube": "None", "website": "None", "summary": "None", "logo": "None", "latitude": 43.73882664998004, "longitude": -79.3211413089911}, "822853610RR0001": {"name": "ALberta Psychiatric Association Foundation", "designationCode": "C", "categoryCode": "21", "address": "P.O. BOX 6173 STATION D", "city": "CALGARY", "province": "AB", "country": "CA", "postalCode": "T2P2C8", "twitter": "None", "instagram": "None", "facebook": "None", "youtube": "None", "website": "None", "summary": "None", "logo": "None", "latitude": 51.04531500000006, "longitude": -114.06301099999993}, "884251703RR0001": {"name": "ALABASTER BOX MINISTRIES", "designationCode": "C", "categoryCode": "47", "address": "709 - 37 JOHNSON ST", "city": "BARRIE", "province": "ON", "country": "CA", "postalCode": "L4M5C3", "twitter": "None", "instagram": "None", "facebook": "None", "youtube": "None", "website": "None", "summary": "None", "logo": "None", "latitude": 44.39606659838998, "longitude": -79.65674492977097}, "819657966RR0001": {"name": "ALABRAR Muslim Association", "designationCode": "C", "categoryCode": "60", "address": "PO BOX 28545 RPO SHOPPING CTR", "city": "AURORA", "province": "ON", "country": "CA", "postalCode": "L4G6S6", "twitter": "None", "instagram": "None", "facebook": "None", "youtube": "None", "website": "None", "summary": "None", "logo": "None", "latitude": 44.00671200000005, "longitude": -79.44972199999994}, "889680773RR0001": {"name": "ALAC (Alliance pour l'accueil et l'int\u00e9gration des immigrants-es)", "designationCode": "C", "categoryCode": "09", "address": "350 - 5165 CH QUEEN-MARY", "city": "MONTREAL", "province": "QC", "country": "CA", "postalCode": "H3W1X7", "twitter": "None", "instagram": "None", "facebook": "None", "youtube": "None", "website": "None", "summary": "None", "logo": "None", "latitude": 45.48504827228912, "longitude": -73.62804484433582}, "886347798RR0001": {"name": "ALAMEDA AGRICULTURAL SOCIETY", "designationCode": "C", "categoryCode": "56", "address": "BOX 181", "city": "ALAMEDA", "province": "SK", "country": "CA", "postalCode": "S0C0A0", "twitter": "None", "instagram": "None", "facebook": "None", "youtube": "None", "website": "None", "summary": "None", "logo": "None", "latitude": 49.266710000000046, "longitude": -102.28233999999998}, "118780055RR0001": {"name": "ALAMEDA MERRY MAKERS SOCIETY", "designationCode": "C", "categoryCode": "56", "address": "BOX 71", "city": "ALAMEDA", "province": "SK", "country": "CA", "postalCode": "S0C0A0", "twitter": "None", "instagram": "None", "facebook": "None", "youtube": "None", "website": "None", "summary": "None", "logo": "None", "latitude": 49.266710000000046, "longitude": -102.28233999999998}, "863311866RR0001": {"name": "ALAMELU CHILDREN'S HOMES (CANADA)", "designationCode": "C", "categoryCode": "01", "address": "284 ELLIS AVENUE", "city": "TORONTO", "province": "ON", "country": "CA", "postalCode": "M6S2X2", "twitter": "None", "instagram": "None", "facebook": "None", "youtube": "None", "website": "None", "summary": "None", "logo": "None", "latitude": 43.64576070690752, "longitude": -79.472476496826}, "864116645RR0001": {"name": "ALAN JOYS MEMORIAL FUND SOCIETY", "designationCode": "C", "categoryCode": "11", "address": "PO BOX 45006                  RPO MACKENZIE DRUG", "city": "MEDICINE HAT", "province": "AB", "country": "CA", "postalCode": "T1A0B1", "twitter": "None", "instagram": "None", "facebook": "None", "youtube": "None", "website": "None", "summary": "None", "logo": "None", "latitude": 50.04073001832193, "longitude": -110.6724299705696}, "135518140RR0001": {"name": "ALAN THICKE CENTRE FOR JUVENILE DIABETES RESEARCH CORPORATION", "designationCode": "A", "categoryCode": "03", "address": "69 VICTORIA ST", "city": "LONDON", "province": "ON", "country": "CA", "postalCode": "N6A2B1", "twitter": "None", "instagram": "None", "facebook": "None", "youtube": "None", "website": "None", "summary": "None", "logo": "None", "latitude": 43.001353049656814, "longitude": -81.26584490853492}, "868453127RR0001": {"name": "ALAN WEBSTER REALMONT TRUST", "designationCode": "A", "categoryCode": "05", "address": "1 PLACE VILLE MARIE           5TH FLOOR SOUTH", "city": "MONTREAL", "province": "QC", "country": "CA", "postalCode": "H3B2B2", "twitter": "None", "instagram": "None", "facebook": "None", "youtube": "None", "website": "None", "summary": "None", "logo": "None", "latitude": 45.50188724476333, "longitude": -73.56787382018557}, "106691868RR0001": {"name": "ALANO CLUB (EDMONTON 1969)", "designationCode": "C", "categoryCode": "57", "address": "10728 124 ST NW", "city": "EDMONTON", "province": "AB", "country": "CA", "postalCode": "T5M0H1", "twitter": "None", "instagram": "None", "facebook": "None", "youtube": "None", "website": "None", "summary": "None", "logo": "None", "latitude": 53.55178174854291, "longitude": -113.53597676925935}, "136347481RR0001": {"name": "ALANO CLUB OF COURTENAY", "designationCode": "C", "categoryCode": "57", "address": "543 6TH ST", "city": "COURTENAY", "province": "BC", "country": "CA", "postalCode": "V9N1M5", "twitter": "None", "instagram": "None", "facebook": "None", "youtube": "None", "website": "None", "summary": "None", "logo": "None", "latitude": 49.6888961120303, "longitude": -125.00202065746412}, "889188249RR0001": {"name": "ALANO CLUB OF THE NORTH SHORE", "designationCode": "C", "categoryCode": "57", "address": "176 2ND ST E", "city": "NORTH VANCOUVER", "province": "BC", "country": "CA", "postalCode": "V7L1C3", "twitter": "None", "instagram": "None", "facebook": "None", "youtube": "None", "website": "None", "summary": "None", "logo": "None", "latitude": 49.31172643847822, "longitude": -123.07544478071783}, "106691876RR0001": {"name": "ALANO CLUB OF VANCOUVER", "designationCode": "C", "categoryCode": "57", "address": "1525 WEST 7TH AVE", "city": "VANCOUVER", "province": "BC", "country": "CA", "postalCode": "V6J1S1", "twitter": "None", "instagram": "None", "facebook": "None", "youtube": "None", "website": "None", "summary": "None", "logo": "None", "latitude": 49.26539346768412, "longitude": -123.13947163627446}, "862940178RR0001": {"name": "ALASTAIR & DIANA GILLESPIE FOUNDATION", "designationCode": "B", "categoryCode": "03", "address": "175 HEATH STREET WEST", "city": "TORONTO", "province": "ON", "country": "CA", "postalCode": "M4V1V1", "twitter": "None", "instagram": "None", "facebook": "None", "youtube": "None", "website": "None", "summary": "None", "logo": "None", "latitude": 43.688207809308224, "longitude": -79.4046569568354}, "119288918RR0825": {"name": "ALBA CONGREGATION OF JEHOVAH'SWITNESSES", "designationCode": "C", "categoryCode": "61", "address": "249 CRERAR DR", "city": "HAMILTON", "province": "ON", "country": "CA", "postalCode": "L9A5E5", "twitter": "None", "instagram": "None", "facebook": "None", "youtube": "None", "website": "None", "summary": "None", "logo": "None", "latitude": 43.211773739656095, "longitude": -79.8680117690578}, "119050037RR0001": {"name": "ALBANIAN MUSLIM SOCIETY OF TORONTO INC.", "designationCode": "C", "categoryCode": "60", "address": "564 ANNETTE STREET", "city": "TORONTO", "province": "ON", "country": "CA", "postalCode": "M6S2C2", "twitter": "None", "instagram": "None", "facebook": "None", "youtube": "None", "website": "None", "summary": "None", "logo": "None", "latitude": 43.65989119790515, "longitude": -79.48076632015692}, "891787780RR0001": {"name": "ALBANY COMMUNITY CHURCH SOCIETY", "designationCode": "C", "categoryCode": "39", "address": "5252 HWY. #10 ALBANY          R.R. #3", "city": "MIDDLETON", "province": "NS", "country": "CA", "postalCode": "B0S1P0", "twitter": "None", "instagram": "None", "facebook": "None", "youtube": "None", "website": "None", "summary": "None", "logo": "None", "latitude": 44.75582307538574, "longitude": -65.04812689162324}, "887964062RR0001": {"name": "ALBATROS (14) LANAUDIERE INC", "designationCode": "C", "categoryCode": "09", "address": "2500 BOUL. MASCOUCHE #208", "city": "MASCOUCHE", "province": "QC", "country": "CA", "postalCode": "J7K0H5", "twitter": "None", "instagram": "None", "facebook": "None", "youtube": "None", "website": "None", "summary": "None", "logo": "None", "latitude": 45.74389239018424, "longitude": -73.61772075862127}, "118780154RR0001": {"name": "ALBATROS MONT-LAURIER (MRC ANTOINE-LABELLE)", "designationCode": "C", "categoryCode": "01", "address": "610, RUE DE LA MADONE", "city": "MONT-LAURIER", "province": "QC", "country": "CA", "postalCode": "J9L1S9", "twitter": "None", "instagram": "None", "facebook": "None", "youtube": "None", "website": "None", "summary": "None", "logo": "None", "latitude": 46.55337619703978, "longitude": -75.49580299867327}, "836144477RR0001": {"name": "ALBATROS VALL\u00c9E-DE-LA-GATINEAU (MANIWAKI)", "designationCode": "C", "categoryCode": "11", "address": "15, RUE PRINCIPALE NORD", "city": "MONTCERF-LYTTON", "province": "QC", "country": "CA", "postalCode": "J0W1N0", "twitter": "None", "instagram": "None", "facebook": "None", "youtube": "None", "website": "None", "summary": "None", "logo": "None", "latitude": 46.53935750652088, "longitude": -76.04398237056353}}