{"854253507RR0001": {"name": "CHILDREN OF THE PROMISE CANADA", "designationCode": "C", "categoryCode": "09", "address": "995 CONCESSION 2", "city": "SELKIRK", "province": "ON", "country": "CA", "postalCode": "N0A1P0", "twitter": "None", "instagram": "None", "facebook": "None", "youtube": "None", "website": "None", "summary": "None", "logo": "None", "latitude": 42.8392270145904, "longitude": -79.9791035541599}, "883947442RR0001": {"name": "CHILDREN OF THE STREET SOCIETY", "designationCode": "C", "categoryCode": "09", "address": "208 1130 AUSTIN AVE", "city": "COQUITLAM", "province": "BC", "country": "CA", "postalCode": "V3K3P5", "twitter": "None", "instagram": "None", "facebook": "None", "youtube": "None", "website": "None", "summary": "None", "logo": "None", "latitude": 49.24893654674261, "longitude": -122.85993069317328}, "816207542RR0001": {"name": "CHILDREN/YOUTH AS PEACEBUILDERS", "designationCode": "C", "categoryCode": "09", "address": "4771 BLACK ROCK RD", "city": "BLACK ROCK", "province": "NS", "country": "CA", "postalCode": "B0P1V0", "twitter": "None", "instagram": "None", "facebook": "None", "youtube": "None", "website": "None", "summary": "None", "logo": "None", "latitude": 45.1705215572742, "longitude": -64.7536795567546}, "855530739RR0001": {"name": "CHILDREN'S & WOMEN'S HEALTH CENTRE OF BRITISH COLUMBIA BRANCH", "designationCode": "C", "categoryCode": "10", "address": "260-1770 7TH AVE W", "city": "VANCOUVER", "province": "BC", "country": "CA", "postalCode": "V6J4J6", "twitter": "None", "instagram": "None", "facebook": "None", "youtube": "None", "website": "None", "summary": "None", "logo": "None", "latitude": 49.26545048845881, "longitude": -123.1450229701656}, "134922475RR0001": {"name": "CHILDREN'S AID FOUNDATION OF HALTON", "designationCode": "A", "categoryCode": "03", "address": "1445 NORJOHN COURT,           UNITS 1 & 2", "city": "BURLINGTON", "province": "ON", "country": "CA", "postalCode": "L7L0E6", "twitter": "None", "instagram": "None", "facebook": "None", "youtube": "None", "website": "None", "summary": "None", "logo": "None", "latitude": 43.389151311154556, "longitude": -79.77599805271522}, "897546735RR0001": {"name": "CHILDREN'S AID FOUNDATION OF OTTAWA / LA FONDATION DE L'AIDE\u00c0 L'ENFANCE D'OTTAWA", "designationCode": "A", "categoryCode": "03", "address": "1602 TELESAT CRT", "city": "GLOUCESTER", "province": "ON", "country": "CA", "postalCode": "K1B1B1", "twitter": "None", "instagram": "None", "facebook": "None", "youtube": "None", "website": "None", "summary": "None", "logo": "None", "latitude": 45.42761287396866, "longitude": -75.60439186043598}, "860099464RR0001": {"name": "CHILDREN'S AID FOUNDATION OF SIMCOE COUNTY", "designationCode": "A", "categoryCode": "03", "address": "60 BELL FARM ROAD UNIT 7", "city": "BARRIE", "province": "ON", "country": "CA", "postalCode": "L4M5G6", "twitter": "None", "instagram": "None", "facebook": "None", "youtube": "None", "website": "None", "summary": "None", "logo": "None", "latitude": 44.40894019986706, "longitude": -79.68017462978224}, "886626274RR0001": {"name": "CHILDREN'S AID INTERNATIONAL RELIEF AND DEVELOPMENT ASSOCIATION", "designationCode": "C", "categoryCode": "09", "address": "BOX 4440", "city": "EDMONTON", "province": "AB", "country": "CA", "postalCode": "T6E4T5", "twitter": "None", "instagram": "None", "facebook": "None", "youtube": "None", "website": "None", "summary": "None", "logo": "None", "latitude": 53.499354000000054, "longitude": -113.46577549999994}, "106914005RR0001": {"name": "CHILDREN'S AID SOCIETY OF ALGOMA", "designationCode": "C", "categoryCode": "01", "address": "191 NORTHERN AVENUE EAST", "city": "SAULT STE MARIE", "province": "ON", "country": "CA", "postalCode": "P6B4H8", "twitter": "None", "instagram": "None", "facebook": "None", "youtube": "None", "website": "None", "summary": "None", "logo": "None", "latitude": 46.53404154674263, "longitude": -84.32681408381903}, "107954950RR0001": {"name": "CHILDREN'S AID SOCIETY OF THE CITY OF SARNIA AND COUNTY OF LAMBTON", "designationCode": "C", "categoryCode": "01", "address": "161 KENDALL STREET", "city": "PT. EDWARD", "province": "ON", "country": "CA", "postalCode": "N7V4G6", "twitter": "None", "instagram": "None", "facebook": "None", "youtube": "None", "website": "None", "summary": "None", "logo": "None", "latitude": 42.993030491777034, "longitude": -82.40314220918746}, "107374852RR0001": {"name": "CHILDREN'S AID SOCIETY OF THE DISTRICT OF THUNDER BAY", "designationCode": "C", "categoryCode": "01", "address": "1110 JADE COURT", "city": "THUNDER BAY", "province": "ON", "country": "CA", "postalCode": "P7B6M7", "twitter": "None", "instagram": "None", "facebook": "None", "youtube": "None", "website": "None", "summary": "None", "logo": "None", "latitude": 48.41056630435799, "longitude": -89.260677609983}, "880666011RR0001": {"name": "CHILDREN'S AID SOCIETY OF THE DISTRICT OF THUNDER BAY EMPLOYEES CHARITY TRUST", "designationCode": "B", "categoryCode": "75", "address": "1110 JADE COURT", "city": "THUNDER BAY", "province": "ON", "country": "CA", "postalCode": "P7B6M7", "twitter": "None", "instagram": "None", "facebook": "None", "youtube": "None", "website": "None", "summary": "None", "logo": "None", "latitude": 48.41056630435799, "longitude": -89.260677609983}, "118852250RR0001": {"name": "CHILDREN'S AID SOCIETY OF THE DISTRICTS OF SUDBURY AND MANITOULIN", "designationCode": "C", "categoryCode": "01", "address": "3-319 LASALLE BLVD", "city": "SUDBURY", "province": "ON", "country": "CA", "postalCode": "P3A1W7", "twitter": "None", "instagram": "None", "facebook": "None", "youtube": "None", "website": "None", "summary": "None", "logo": "None", "latitude": 46.522220524525615, "longitude": -80.97988427699232}, "106914252RR0001": {"name": "CHILDREN'S AID SOCIETY OF THE NIAGARA REGION", "designationCode": "C", "categoryCode": "01", "address": "PO BOX 24028", "city": "ST CATHARINES", "province": "ON", "country": "CA", "postalCode": "L2R7P7", "twitter": "None", "instagram": "None", "facebook": "None", "youtube": "None", "website": "None", "summary": "None", "logo": "None", "latitude": 43.15634700000005, "longitude": -79.24869349999993}, "118852144RR0001": {"name": "CHILDREN'S AID SOCIETY OF TORONTO", "designationCode": "C", "categoryCode": "01", "address": "30 ISABELLA ST", "city": "TORONTO", "province": "ON", "country": "CA", "postalCode": "M4Y1N1", "twitter": "None", "instagram": "None", "facebook": "None", "youtube": "None", "website": "None", "summary": "None", "logo": "None", "latitude": 43.667887157943206, "longitude": -79.3841979805816}, "891744989RR0001": {"name": "CHILDREN'S AID SOCIETY OF TORONTO EMPLOYEES' CHARITY TRUST", "designationCode": "B", "categoryCode": "75", "address": "30 ISABELLA ST", "city": "TORONTO", "province": "ON", "country": "CA", "postalCode": "M4Y1N1", "twitter": "None", "instagram": "None", "facebook": "None", "youtube": "None", "website": "None", "summary": "None", "logo": "None", "latitude": 43.667887157943206, "longitude": -79.3841979805816}, "861452639RR0001": {"name": "CHILDREN'S AIDS HEALTH PROGRAM", "designationCode": "C", "categoryCode": "11", "address": "17 HENRIETTA ST", "city": "TORONTO", "province": "ON", "country": "CA", "postalCode": "M6N1S4", "twitter": "None", "instagram": "None", "facebook": "None", "youtube": "None", "website": "None", "summary": "None", "logo": "None", "latitude": 43.67118588591388, "longitude": -79.48197545392121}, "889459798RR0001": {"name": "CHILDREN'S ARTS UMBRELLA FOUNDATION", "designationCode": "A", "categoryCode": "23", "address": "1286 CARTWRIGHT ST            GRANVILLE ISLAND", "city": "VANCOUVER", "province": "BC", "country": "CA", "postalCode": "V6H3R8", "twitter": "None", "instagram": "None", "facebook": "None", "youtube": "None", "website": "None", "summary": "None", "logo": "None", "latitude": 49.26972974323414, "longitude": -123.13361756968077}, "864696604RR0001": {"name": "CHILDREN'S AUTISM SERVICES OF EDMONTON", "designationCode": "C", "categoryCode": "11", "address": "17451 103 AVE NW", "city": "EDMONTON", "province": "AB", "country": "CA", "postalCode": "T5S1J4", "twitter": "None", "instagram": "None", "facebook": "None", "youtube": "None", "website": "None", "summary": "None", "logo": "None", "latitude": 53.545256531738985, "longitude": -113.62217022300767}, "828090860RR0001": {"name": "CHILDREN'S BIBLE HOUR MINISTRIES IN CANADA", "designationCode": "C", "categoryCode": "47", "address": "P. O. BOX 124", "city": "MAPLE RIDGE", "province": "BC", "country": "CA", "postalCode": "V2X7E9", "twitter": "None", "instagram": "None", "facebook": "None", "youtube": "None", "website": "None", "summary": "None", "logo": "None", "latitude": 49.21686600000005, "longitude": -122.60537449999993}, "854536778RR0001": {"name": "CHILDREN'S CENTRE FOUNDATION THUNDER BAY", "designationCode": "A", "categoryCode": "03", "address": "283 LISGAR ST", "city": "THUNDER BAY", "province": "ON", "country": "CA", "postalCode": "P7B6G6", "twitter": "None", "instagram": "None", "facebook": "None", "youtube": "None", "website": "None", "summary": "None", "logo": "None", "latitude": 48.423741477350305, "longitude": -89.23206069317328}, "107590796RR0001": {"name": "CHILDREN'S CENTRE THUNDER BAY", "designationCode": "C", "categoryCode": "11", "address": "283 LISGAR ST", "city": "THUNDER BAY", "province": "ON", "country": "CA", "postalCode": "P7B6G6", "twitter": "None", "instagram": "None", "facebook": "None", "youtube": "None", "website": "None", "summary": "None", "logo": "None", "latitude": 48.423741477350305, "longitude": -89.23206069317328}, "118852342RR0001": {"name": "CHILDREN'S CHRISTMAS FUND OF THE CITY OF CORNWALL", "designationCode": "C", "categoryCode": "09", "address": "321 13TH STREET WEST", "city": "CORNWALL", "province": "ON", "country": "CA", "postalCode": "K6J3G7", "twitter": "None", "instagram": "None", "facebook": "None", "youtube": "None", "website": "None", "summary": "None", "logo": "None", "latitude": 45.032471359714826, "longitude": -74.74481522121867}, "890860679RR0001": {"name": "CHILDREN'S CIRCLE DAY CARE SOCIETY", "designationCode": "C", "categoryCode": "01", "address": "904 THIRD AVENUE", "city": "KAMLOOPS", "province": "BC", "country": "CA", "postalCode": "V2C6W5", "twitter": "None", "instagram": "None", "facebook": "None", "youtube": "None", "website": "None", "summary": "None", "logo": "None", "latitude": 50.669526739396304, "longitude": -120.3361152623058}, "106914591RR0001": {"name": "CHILDREN'S DEVELOPMENT CENTRE", "designationCode": "C", "categoryCode": "20", "address": "5557 CUNARD ST", "city": "HALIFAX", "province": "NS", "country": "CA", "postalCode": "B3K1C5", "twitter": "None", "instagram": "None", "facebook": "None", "youtube": "None", "website": "None", "summary": "None", "logo": "None", "latitude": 44.65268219346174, "longitude": -63.58639687942168}, "854836137RR0001": {"name": "CHILDREN'S DISCOVERY MUSEUM ON THE SASKATCHEWAN INC.", "designationCode": "C", "categoryCode": "50", "address": "116-2325 PRESTON AVE. S.", "city": "SASKATOON", "province": "SK", "country": "CA", "postalCode": "S7J2G2", "twitter": "None", "instagram": "None", "facebook": "None", "youtube": "None", "website": "None", "summary": "None", "logo": "None", "latitude": 52.10124452407157, "longitude": -106.62254975397602}, "118914977RR0001": {"name": "CHILDREN'S FESTIVAL DE LA JEUNESSE", "designationCode": "C", "categoryCode": "22", "address": "602-294 ALBERT ST", "city": "OTTAWA", "province": "ON", "country": "CA", "postalCode": "K1P6E6", "twitter": "None", "instagram": "None", "facebook": "None", "youtube": "None", "website": "None", "summary": "None", "logo": "None", "latitude": 45.41918279681473, "longitude": -75.70200919594325}, "878242304RR0001": {"name": "CHILDREN'S FOOD KITCHEN OF YARMOUTH", "designationCode": "C", "categoryCode": "09", "address": "360 MAIN STREET 2ND LEVEL", "city": "YARMOUTH", "province": "NS", "country": "CA", "postalCode": "B5A1E8", "twitter": "None", "instagram": "None", "facebook": "None", "youtube": "None", "website": "None", "summary": "None", "logo": "None", "latitude": 43.83684207438397, "longitude": -66.1199601719659}, "891232621RR0001": {"name": "CHILDREN'S GARDEN FOUNDATION", "designationCode": "C", "categoryCode": "21", "address": "670 EGLINTON AVENUE EAST", "city": "TORONTO", "province": "ON", "country": "CA", "postalCode": "M4G2K4", "twitter": "None", "instagram": "None", "facebook": "None", "youtube": "None", "website": "None", "summary": "None", "logo": "None", "latitude": 43.71203018737357, "longitude": -79.37254944491885}, "891514044RR0001": {"name": "CHILDREN'S HEALTH EDUCATION AND RELIEF INTERNATIONAL CANADA", "designationCode": "C", "categoryCode": "09", "address": "1300 KING ST EAST             PO BOX 31012", "city": "OSHAWA", "province": "ON", "country": "CA", "postalCode": "L1H8N9", "twitter": "None", "instagram": "None", "facebook": "None", "youtube": "None", "website": "None", "summary": "None", "logo": "None"}, "118852482RR0001": {"name": "CHILDREN'S HEALTH FOUNDATION", "designationCode": "A", "categoryCode": "10", "address": "345 WESTMINSTER AVE", "city": "LONDON", "province": "ON", "country": "CA", "postalCode": "N6C4V3", "twitter": "None", "instagram": "None", "facebook": "None", "youtube": "None", "website": "None", "summary": "None", "logo": "None", "latitude": 42.96363840660167, "longitude": -81.22486814588241}, "139417471RR0001": {"name": "CHILDREN'S HEARING AND SPEECH CENTRE OF BC FOUNDATION", "designationCode": "A", "categoryCode": "13", "address": "3575 KASLO ST", "city": "VANCOUVER", "province": "BC", "country": "CA", "postalCode": "V5M3H4", "twitter": "None", "instagram": "None", "facebook": "None", "youtube": "None", "website": "None", "summary": "None", "logo": "None", "latitude": 49.25235599999999, "longitude": -123.04711307672031}, "118852441RR0001": {"name": "CHILDREN'S HEART SOCIETY", "designationCode": "C", "categoryCode": "11", "address": "128 - 9920 63 AVE NW", "city": "EDMONTON", "province": "AB", "country": "CA", "postalCode": "T6E0G9", "twitter": "None", "instagram": "None", "facebook": "None", "youtube": "None", "website": "None", "summary": "None", "logo": "None", "latitude": 53.49995345498815, "longitude": -113.4872325}, "888860590RR0001": {"name": "CHILDREN'S HERITAGE FUND", "designationCode": "C", "categoryCode": "20", "address": "1577 WALL STREET-EAST", "city": "WINNIPEG", "province": "MB", "country": "CA", "postalCode": "R3C2S5", "twitter": "None", "instagram": "None", "facebook": "None", "youtube": "None", "website": "None", "summary": "None", "logo": "None", "latitude": 49.90716751399404, "longitude": -97.1792539730798}, "118852458RR0001": {"name": "CHILDREN'S HOSPITAL AID SOCIETY", "designationCode": "C", "categoryCode": "03", "address": "BOX 900, STATION M", "city": "CALGARY", "province": "AB", "country": "CA", "postalCode": "T2P2M7", "twitter": "None", "instagram": "None", "facebook": "None", "youtube": "None", "website": "None", "summary": "None", "logo": "None", "latitude": 51.04531500000006, "longitude": -114.06301099999993}, "118852474RR0001": {"name": "CHILDREN'S HOSPITAL OF EASTERN ONTARIO FOUNDATION", "designationCode": "C", "categoryCode": "13", "address": "415 SMYTH RD", "city": "OTTAWA", "province": "ON", "country": "CA", "postalCode": "K1H8L2", "twitter": "None", "instagram": "None", "facebook": "None", "youtube": "None", "website": "None", "summary": "None", "logo": "None", "latitude": 45.39915536667867, "longitude": -75.65202850652322}, "873972798RR0001": {"name": "CHILDREN'S HOSPITAL OF EASTERN ONTARIO RESEARCH INSTITUTE INC./INSTITUT DE RECHERCHE DE L'HOPITAL POUR ENFANTS DE L'EST INC.", "designationCode": "C", "categoryCode": "11", "address": "401 SMYTH RD", "city": "OTTAWA", "province": "ON", "country": "CA", "postalCode": "K1H8L1", "twitter": "None", "instagram": "None", "facebook": "None", "youtube": "None", "website": "None", "summary": "None", "logo": "None", "latitude": 45.399101566921374, "longitude": -75.65280860300396}, "121887079RR0001": {"name": "CHILDREN'S HOSPITAL OF EASTERN ONTARIO VOLUNTEER ASSOCIATION", "designationCode": "C", "categoryCode": "19", "address": "401 SMYTH RD.", "city": "OTTAWA", "province": "ON", "country": "CA", "postalCode": "K1H8L1", "twitter": "None", "instagram": "None", "facebook": "None", "youtube": "None", "website": "None", "summary": "None", "logo": "None", "latitude": 45.399101566921374, "longitude": -75.65280860300396}, "106914708RR0001": {"name": "CHILDREN'S HOUSE MONTESSORI PRE-SCHOOL SOCIETY", "designationCode": "C", "categoryCode": "20", "address": "1960 COMO LAKE AVE, UNIT 108  PO BOX 64512", "city": "COQUITLAM", "province": "BC", "country": "CA", "postalCode": "V3J3R3", "twitter": "None", "instagram": "None", "facebook": "None", "youtube": "None", "website": "None", "summary": "None", "logo": "None", "latitude": 49.26332551673533, "longitude": -122.8389348820474}, "130421456RR0001": {"name": "CHILDREN'S INTERNATIONAL LEARNING CENTRE (HAMILTON)", "designationCode": "C", "categoryCode": "21", "address": "189 KING WILLIAM ST", "city": "HAMILTON", "province": "ON", "country": "CA", "postalCode": "L8R1A7", "twitter": "None", "instagram": "None", "facebook": "None", "youtube": "None", "website": "None", "summary": "None", "logo": "None", "latitude": 43.25552306301569, "longitude": -79.8616046740147}, "890442379RR0001": {"name": "CHILDREN'S INTERNATIONAL SUMMER VILLAGES (CANADA) METROPOLITAN TORONTO CHAPTER", "designationCode": "C", "categoryCode": "56", "address": "93 PETERBOROUGH AVE", "city": "TORONTO", "province": "ON", "country": "CA", "postalCode": "M6H2L2", "twitter": "None", "instagram": "None", "facebook": "None", "youtube": "None", "website": "None", "summary": "None", "logo": "None", "latitude": 43.673857827630094, "longitude": -79.44550762155927}, "895330371RR0001": {"name": "CHILDREN'S INTERNATIONAL SUMMER VILLAGES (FREDERICTON CHAPTER)", "designationCode": "C", "categoryCode": "56", "address": "50 HAREWOOD CRESCENT", "city": "FREDERICTON", "province": "NB", "country": "CA", "postalCode": "E3B2P3", "twitter": "None", "instagram": "None", "facebook": "None", "youtube": "None", "website": "None", "summary": "None", "logo": "None", "latitude": 45.96131607744239, "longitude": -66.6653661629062}, "886057991RR0001": {"name": "CHILDREN'S INTERNATIONAL SUMMER VILLAGES (SASKATOON) INC", "designationCode": "C", "categoryCode": "56", "address": "328 CARLETON DRIVE", "city": "SASKATOON", "province": "SK", "country": "CA", "postalCode": "S7H4C1", "twitter": "None", "instagram": "None", "facebook": "None", "youtube": "None", "website": "None", "summary": "None", "logo": "None", "latitude": 52.126388004991675, "longitude": -106.5962435997463}, "889970661RR0001": {"name": "CHILDREN'S INTERNATIONAL SUMMER VILLAGES - VANCOUVER CHAPTER", "designationCode": "C", "categoryCode": "56", "address": "2185 CLIFFWOOD RD", "city": "NORTH VANCOUVER", "province": "BC", "country": "CA", "postalCode": "V7G1S1", "twitter": "None", "instagram": "None", "facebook": "None", "youtube": "None", "website": "None", "summary": "None", "logo": "None", "latitude": 49.32614340495691, "longitude": -122.95482336389843}, "891625840RR0001": {"name": "CHILDREN'S INTERNATIONAL SUMMER VILLAGES C I S V ST GREGOIRE CHAPTER/VILLAGES INTERNATIONAUX D'ENFANTS C I S V CHAPIT", "designationCode": "C", "categoryCode": "56", "address": "1 - 6380 38E AV", "city": "MONTREAL", "province": "QC", "country": "CA", "postalCode": "H1T2X6", "twitter": "None", "instagram": "None", "facebook": "None", "youtube": "None", "website": "None", "summary": "None", "logo": "None", "latitude": 45.57132913737099, "longitude": -73.57032993686876}, "890457948RR0001": {"name": "CHILDREN'S INTERNATIONAL SUMMER VILLAGES CANADA INCORPORATED", "designationCode": "C", "categoryCode": "56", "address": "230 WINEVA AVE", "city": "TORONTO", "province": "ON", "country": "CA", "postalCode": "M4E2T4", "twitter": "None", "instagram": "None", "facebook": "None", "youtube": "None", "website": "None", "summary": "None", "logo": "None", "latitude": 43.67377018428648, "longitude": -79.29695485042399}, "118852573RR0001": {"name": "CHILDREN'S INTERNATIONAL SUMMER VILLAGES CANADA INCORPORATED, CITY OF LONDON CHAPTER", "designationCode": "C", "categoryCode": "56", "address": "399 WORTLEY ROAD", "city": "LONDON", "province": "ON", "country": "CA", "postalCode": "N6C3S4", "twitter": "None", "instagram": "None", "facebook": "None", "youtube": "None", "website": "None", "summary": "None", "logo": "None", "latitude": 42.96137648375562, "longitude": -81.24678406275586}, "118852581RR0001": {"name": "CHILDREN'S INTERNATIONAL SUMMER VILLAGES,VANCOUVER ISLAND", "designationCode": "C", "categoryCode": "56", "address": "PO BOX 8058", "city": "VICTORIA", "province": "BC", "country": "CA", "postalCode": "V8W3R7", "twitter": "None", "instagram": "None", "facebook": "None", "youtube": "None", "website": "None", "summary": "None", "logo": "None", "latitude": 48.42854700000005, "longitude": -123.36445249999994}, "124129750RR0001": {"name": "CHILDREN'S LAUGH AND LEARN DAYCARE OF DELHI INC", "designationCode": "C", "categoryCode": "20", "address": "BOX 165", "city": "DELHI", "province": "ON", "country": "CA", "postalCode": "N4B2W9", "twitter": "None", "instagram": "None", "facebook": "None", "youtube": "None", "website": "None", "summary": "None", "logo": "None", "latitude": 42.85183200000006, "longitude": -80.49284449999993}, "857986046RR0001": {"name": "CHILDREN'S LEGAL AND EDUCATIONAL RESOURCE CENTRE SOCIETY (CLERC)", "designationCode": "C", "categoryCode": "59", "address": "205 - 1217 CENTRE ST NW", "city": "CALGARY", "province": "AB", "country": "CA", "postalCode": "T2E2R3", "twitter": "None", "instagram": "None", "facebook": "None", "youtube": "None", "website": "None", "summary": "None", "logo": "None", "latitude": 51.063155580904834, "longitude": -114.06259519582768}, "129335881RR0001": {"name": "CHILDREN'S MENTAL HEALTH ONTARIO/SANTE MENTALE POUR ENFANTS ONTARIO", "designationCode": "C", "categoryCode": "11", "address": "309-40 ST CLAIR AVE E", "city": "TORONTO", "province": "ON", "country": "CA", "postalCode": "M4T1M9", "twitter": "None", "instagram": "None", "facebook": "None", "youtube": "None", "website": "None", "summary": "None", "logo": "None", "latitude": 43.68851247918197, "longitude": -79.39208759715088}, "896148947RR0001": {"name": "CHILDREN'S MENTAL HEALTH SERVICES (SERVING CHILDREN AND FAMILIES IN HASTINGS AND PRINCE EDWARD COUNTIES)", "designationCode": "C", "categoryCode": "09", "address": "3 APPLEWOOD DRIVE             SUITE 300", "city": "BELLEVILLE", "province": "ON", "country": "CA", "postalCode": "K8P4E3", "twitter": "None", "instagram": "None", "facebook": "None", "youtube": "None", "website": "None", "summary": "None", "logo": "None", "latitude": 44.14773500334688, "longitude": -77.40684308459844}, "118852391RR0001": {"name": "CHILDREN'S OWN MUSEUM", "designationCode": "C", "categoryCode": "50", "address": "49 PINEHURST CRES", "city": "TORONTO", "province": "ON", "country": "CA", "postalCode": "M9A3A4", "twitter": "None", "instagram": "None", "facebook": "None", "youtube": "None", "website": "None", "summary": "None", "logo": "None", "latitude": 43.66371513099434, "longitude": -79.52810881253951}, "106914815RR0001": {"name": "CHILDREN'S PLACE DAYCARE", "designationCode": "C", "categoryCode": "01", "address": "81 CHURCH ST", "city": "ANTIGONISH", "province": "NS", "country": "CA", "postalCode": "B2G2C9", "twitter": "None", "instagram": "None", "facebook": "None", "youtube": "None", "website": "None", "summary": "None", "logo": "None", "latitude": 45.61975058174158, "longitude": -61.98775061835663}, "893969584RR0001": {"name": "CHILDREN'S RAINFOREST, INC. - CANADA / FORET TROPICALE DES ENFANTS, INC. - CANADA", "designationCode": "C", "categoryCode": "59", "address": "1064 KINGSTON AVENUE", "city": "LONDON", "province": "ON", "country": "CA", "postalCode": "N6H4C6", "twitter": "None", "instagram": "None", "facebook": "None", "youtube": "None", "website": "None", "summary": "None", "logo": "None", "latitude": 42.98286808630054, "longitude": -81.31940409158065}, "106914872RR0001": {"name": "CHILDREN'S RESOURCE & CONSULTATION CENTRE OF ONT.", "designationCode": "C", "categoryCode": "59", "address": "100 ST. CLAIR AVENUE WEST", "city": "TORONTO", "province": "ON", "country": "CA", "postalCode": "M4V1N3", "twitter": "None", "instagram": "None", "facebook": "None", "youtube": "None", "website": "None", "summary": "None", "logo": "None", "latitude": 43.68720215998266, "longitude": -79.39920455446877}, "106914880RR0001": {"name": "CHILDREN'S RESOURCES ON WHEELS OF LANARK", "designationCode": "C", "categoryCode": "09", "address": "91 CORNELIA STREET W.", "city": "SMITHS FALLS", "province": "ON", "country": "CA", "postalCode": "K7A5L3", "twitter": "None", "instagram": "None", "facebook": "None", "youtube": "None", "website": "None", "summary": "None", "logo": "None", "latitude": 44.90632601222044, "longitude": -76.02675659469101}, "875437303RR0001": {"name": "CHILDREN'S RESPITE SUPPORT SOCIETY", "designationCode": "C", "categoryCode": "10", "address": "1862 VENTURA WAY", "city": "VICTORIA", "province": "BC", "country": "CA", "postalCode": "V8N1R3", "twitter": "None", "instagram": "None", "facebook": "None", "youtube": "None", "website": "None", "summary": "None", "logo": "None", "latitude": 48.47503250432782, "longitude": -123.31551100057692}, "897640538RR0001": {"name": "CHILDREN'S SAFETY VILLAGE OF LONDON AREA", "designationCode": "C", "categoryCode": "59", "address": "1424 CLARKE ROAD", "city": "LONDON", "province": "ON", "country": "CA", "postalCode": "N5V5B9", "twitter": "None", "instagram": "None", "facebook": "None", "youtube": "None", "website": "None", "summary": "None", "logo": "None", "latitude": 43.034751311168336, "longitude": -81.19110160594428}, "865593370RR0001": {"name": "CHILDREN'S SAFETY VILLAGE OF WINDSOR AND ESSEX COUNTY", "designationCode": "C", "categoryCode": "59", "address": "7911 FOREST GLADE DRIVE", "city": "WINDSOR", "province": "ON", "country": "CA", "postalCode": "N8T3R7", "twitter": "None", "instagram": "None", "facebook": "None", "youtube": "None", "website": "None", "summary": "None", "logo": "None", "latitude": 42.29731365995976, "longitude": -82.92734579232123}, "877568071RR0001": {"name": "CHILDREN'S SCIENCE ENRICHMENT FOUNDATION/FONDATION POUR L'ENRICHISSEMENT SCIENTIFIQUE DES ENFANTS", "designationCode": "C", "categoryCode": "21", "address": "8360 BOUGAINVILLE STREET      SUITE 201", "city": "MONTREAL", "province": "QC", "country": "CA", "postalCode": "H4P2G1", "twitter": "None", "instagram": "None", "facebook": "None", "youtube": "None", "website": "None", "summary": "None", "logo": "None", "latitude": 45.50113219594324, "longitude": -73.66151539442532}, "887328193RR0001": {"name": "CHILDREN'S SERVICE FUND PACIFIC AREA", "designationCode": "C", "categoryCode": "11", "address": "190 SCOTLAND STREET", "city": "FERGUS", "province": "ON", "country": "CA", "postalCode": "N1M2B4", "twitter": "None", "instagram": "None", "facebook": "None", "youtube": "None", "website": "None", "summary": "None", "logo": "None", "latitude": 43.710694035214146, "longitude": -80.36824286050246}, "129002705RR0001": {"name": "CHILDREN'S SERVICES COUNCIL OF VICTORIA COUNTY", "designationCode": "C", "categoryCode": "09", "address": "202-205 MCLAUGHLIN RD", "city": "LINDSAY", "province": "ON", "country": "CA", "postalCode": "K9V0K7", "twitter": "None", "instagram": "None", "facebook": "None", "youtube": "None", "website": "None", "summary": "None", "logo": "None", "latitude": 44.33947304012306, "longitude": -78.75968331831855}, "118852680RR0001": {"name": "CHILDREN'S STAGE LAKEFIELD", "designationCode": "C", "categoryCode": "22", "address": "PO BOX 981", "city": "LAKEFIELD", "province": "ON", "country": "CA", "postalCode": "K0L2H0", "twitter": "None", "instagram": "None", "facebook": "None", "youtube": "None", "website": "None", "summary": "None", "logo": "None", "latitude": 44.42679000000004, "longitude": -78.26996999999994}, "118979764RR0001": {"name": "CHILDREN'S TREATMENT CENTRE OF CHATHAM KENT", "designationCode": "C", "categoryCode": "11", "address": "355 LARK STREET", "city": "CHATHAM", "province": "ON", "country": "CA", "postalCode": "N7L5B2", "twitter": "None", "instagram": "None", "facebook": "None", "youtube": "None", "website": "None", "summary": "None", "logo": "None", "latitude": 42.40282793579401, "longitude": -82.2113360933621}, "830649141RR0001": {"name": "CHILDREN'S TREATMENT NETWORK OF SIMCOE YORK", "designationCode": "C", "categoryCode": "09", "address": "13175 YONGE STREET", "city": "RICHMOND HILL", "province": "ON", "country": "CA", "postalCode": "L4E0G6", "twitter": "None", "instagram": "None", "facebook": "None", "youtube": "None", "website": "None", "summary": "None", "logo": "None", "latitude": 43.948847116019365, "longitude": -79.45564553756735}, "118852698RR0001": {"name": "CHILDREN'S VILLAGE OF OTTAWA-CARLETON", "designationCode": "C", "categoryCode": "01", "address": "333 CHURCHILL AVE N", "city": "OTTAWA", "province": "ON", "country": "CA", "postalCode": "K1Z5B8", "twitter": "None", "instagram": "None", "facebook": "None", "youtube": "None", "website": "None", "summary": "None", "logo": "None", "latitude": 45.39420552068779, "longitude": -75.75512156685349}, "878691815RR0001": {"name": "CHILDREN'S WATER EDUCATION COUNCIL", "designationCode": "C", "categoryCode": "21", "address": "10 HURON ROAD", "city": "KITCHENER", "province": "ON", "country": "CA", "postalCode": "N2P2R7", "twitter": "None", "instagram": "None", "facebook": "None", "youtube": "None", "website": "None", "summary": "None", "logo": "None", "latitude": 43.401015678458116, "longitude": -80.43556702549401}, "868883372RR0001": {"name": "CHILDRENFIRST", "designationCode": "C", "categoryCode": "49", "address": "511 SPADINA RD", "city": "TORONTO", "province": "ON", "country": "CA", "postalCode": "M5P2W6", "twitter": "None", "instagram": "None", "facebook": "None", "youtube": "None", "website": "None", "summary": "None", "logo": "None", "latitude": 43.69199897613824, "longitude": -79.41404925503511}, "106914468RR0001": {"name": "CHILDRENS CIRCLE OF ST. BARNABAS", "designationCode": "C", "categoryCode": "20", "address": "175 HAMPTON AVE", "city": "TORONTO", "province": "ON", "country": "CA", "postalCode": "M4K2Z3", "twitter": "None", "instagram": "None", "facebook": "None", "youtube": "None", "website": "None", "summary": "None", "logo": "None", "latitude": 43.676976163483126, "longitude": -79.35256060612295}, "106914682RR0001": {"name": "CHILDRENS HOSPITAL OF EASTERN ONTARIO - OTTAWA CHILDREN'S TREATMENT CENTRE", "designationCode": "C", "categoryCode": "10", "address": "401 SMYTH ROAD", "city": "OTTAWA", "province": "ON", "country": "CA", "postalCode": "K1H8L1", "twitter": "None", "instagram": "None", "facebook": "None", "youtube": "None", "website": "None", "summary": "None", "logo": "None", "latitude": 45.399101566921374, "longitude": -75.65280860300396}, "897340303RR0001": {"name": "CHILDRENS MAGIC STAR FOUNDATION OF ALBERTA", "designationCode": "B", "categoryCode": "03", "address": "200 - 1115 11 AVE SW", "city": "CALGARY", "province": "AB", "country": "CA", "postalCode": "T2R0G5", "twitter": "None", "instagram": "None", "facebook": "None", "youtube": "None", "website": "None", "summary": "None", "logo": "None", "latitude": 51.04301649567217, "longitude": -114.08733330544173}, "118852649RR0001": {"name": "CHILDRENS PLACE COOPERATIVE INC.", "designationCode": "C", "categoryCode": "01", "address": "BOX 269 17 BURROWS RD", "city": "PINAWA", "province": "MB", "country": "CA", "postalCode": "R0E1L0", "twitter": "None", "instagram": "None", "facebook": "None", "youtube": "None", "website": "None", "summary": "None", "logo": "None", "latitude": 50.147629777631295, "longitude": -95.87863997562697}, "118852706RR0001": {"name": "CHILDRENS WORLD DAYCARE SOCIETY OF BARRHEAD", "designationCode": "C", "categoryCode": "20", "address": "1-5115 45 ST", "city": "BARRHEAD", "province": "AB", "country": "CA", "postalCode": "T7N1J2", "twitter": "None", "instagram": "None", "facebook": "None", "youtube": "None", "website": "None", "summary": "None", "logo": "None", "latitude": 54.1202585029142, "longitude": -114.3924066656475}, "130526379RR0001": {"name": "CHILDSPACE DAY CARE CORPORATION", "designationCode": "C", "categoryCode": "01", "address": "49 FELSTEAD AVENUE", "city": "TORONTO", "province": "ON", "country": "CA", "postalCode": "M4J1G3", "twitter": "None", "instagram": "None", "facebook": "None", "youtube": "None", "website": "None", "summary": "None", "logo": "None", "latitude": 43.67855167831387, "longitude": -79.32799745545043}, "118852722RR0001": {"name": "CHILLIWACK ALLIANCE CHURCH", "designationCode": "C", "categoryCode": "39", "address": "8700 YOUNG RD S", "city": "CHILLIWACK", "province": "BC", "country": "CA", "postalCode": "V2P4P4", "twitter": "None", "instagram": "None", "facebook": "None", "youtube": "None", "website": "None", "summary": "None", "logo": "None", "latitude": 49.16036017095455, "longitude": -121.9523239808161}, "135119675RR0001": {"name": "CHILLIWACK AND DISTRICT SENIORS' RESOURCES SOCIETY", "designationCode": "C", "categoryCode": "01", "address": "9291 CORBOULD", "city": "CHILLIWACK", "province": "BC", "country": "CA", "postalCode": "V2P4A6", "twitter": "None", "instagram": "None", "facebook": "None", "youtube": "None", "website": "None", "summary": "None", "logo": "None", "latitude": 49.17115379568659, "longitude": -121.96297354586497}, "887360709RR0001": {"name": "CHILLIWACK ANIMAL SAFE HAVEN SOCIETY", "designationCode": "C", "categoryCode": "54", "address": "49843 CHILLIWACK CENTRAL RD", "city": "CHILLIWACK", "province": "BC", "country": "CA", "postalCode": "V2P6H3", "twitter": "None", "instagram": "None", "facebook": "None", "youtube": "None", "website": "None", "summary": "None", "logo": "None", "latitude": 49.16170798900935, "longitude": -121.84550133725911}, "107355828RR0001": {"name": "CHILLIWACK BAPTIST CHURCH", "designationCode": "C", "categoryCode": "31", "address": "46336 FIRST AVENUE", "city": "CHILLIWACK", "province": "BC", "country": "CA", "postalCode": "V2P1W7", "twitter": "None", "instagram": "None", "facebook": "None", "youtube": "None", "website": "None", "summary": "None", "logo": "None", "latitude": 49.16888747992329, "longitude": -121.94196593580908}, "118852771RR0001": {"name": "CHILLIWACK CHRISTIAN SCHOOL SOCIETY", "designationCode": "C", "categoryCode": "20", "address": "45515 KNIGHT RD", "city": "CHILLIWACK", "province": "BC", "country": "CA", "postalCode": "V2R5L2", "twitter": "None", "instagram": "None", "facebook": "None", "youtube": "None", "website": "None", "summary": "None", "logo": "None", "latitude": 49.1393571534998, "longitude": -121.96512397305115}, "894113372RR0006": {"name": "CHILLIWACK CHURCH OF THE NAZARENE", "designationCode": "C", "categoryCode": "39", "address": "9315 WINDSOR ST", "city": "CHILLIWACK", "province": "BC", "country": "CA", "postalCode": "V2P6C5", "twitter": "None", "instagram": "None", "facebook": "None", "youtube": "None", "website": "None", "summary": "None", "logo": "None", "latitude": 49.171544696087494, "longitude": -121.92999455277254}, "106915259RR0001": {"name": "CHILLIWACK COMMUNITY ARTS COUNCIL", "designationCode": "C", "categoryCode": "22", "address": "9722 WINDSOR ST", "city": "CHILLIWACK", "province": "BC", "country": "CA", "postalCode": "V2P6C2", "twitter": "None", "instagram": "None", "facebook": "None", "youtube": "None", "website": "None", "summary": "None", "logo": "None", "latitude": 49.178708413266776, "longitude": -121.92978994333231}, "118852797RR0001": {"name": "CHILLIWACK COMMUNITY SERVICES", "designationCode": "C", "categoryCode": "09", "address": "45938 WELLINGTON AVENUE", "city": "CHILLIWACK", "province": "BC", "country": "CA", "postalCode": "V2P2C7", "twitter": "None", "instagram": "None", "facebook": "None", "youtube": "None", "website": "None", "summary": "None", "logo": "None", "latitude": 49.17126029058232, "longitude": -121.95362150389514}, "829279678RR0001": {"name": "CHILLIWACK FIRE FIGHTERS CHARITABLE SOCIETY", "designationCode": "A", "categoryCode": "03", "address": "45950B CHEAM AVENUE", "city": "CHILLIWACK", "province": "BC", "country": "CA", "postalCode": "V2P1N6", "twitter": "None", "instagram": "None", "facebook": "None", "youtube": "None", "website": "None", "summary": "None", "logo": "None", "latitude": 49.16653463914705, "longitude": -121.95408336085295}, "125104521RR0001": {"name": "CHILLIWACK FISH AND GAME PROTECTIVE ASSOCIATION", "designationCode": "C", "categoryCode": "54", "address": "27009 FRASER HWY", "city": "ALDERGROVE", "province": "BC", "country": "CA", "postalCode": "V4W3L6", "twitter": "None", "instagram": "None", "facebook": "None", "youtube": "None", "website": "None", "summary": "None", "logo": "None", "latitude": 49.05829645715252, "longitude": -122.47646150138497}, "118852821RR0001": {"name": "CHILLIWACK FOUNDATION", "designationCode": "A", "categoryCode": "03", "address": "SUITE 1 45780 YALE ROAD", "city": "CHILLIWACK", "province": "BC", "country": "CA", "postalCode": "V2P2N4", "twitter": "None", "instagram": "None", "facebook": "None", "youtube": "None", "website": "None", "summary": "None", "logo": "None", "latitude": 49.16190401641729, "longitude": -121.95856490951587}, "867303232RR0001": {"name": "CHILLIWACK HOSPICE SOCIETY", "designationCode": "C", "categoryCode": "09", "address": "7112 VEDDER RD", "city": "CHILLIWACK", "province": "BC", "country": "CA", "postalCode": "V2R3T6", "twitter": "None", "instagram": "None", "facebook": "None", "youtube": "None", "website": "None", "summary": "None", "logo": "None", "latitude": 49.132225470106896, "longitude": -121.95993528803537}, "128717493RR0001": {"name": "CHILLIWACK KIWANIS HOUSING SOCIETY", "designationCode": "C", "categoryCode": "01", "address": "35-7760 LUCKAKUCK PL", "city": "CHILLIWACK", "province": "BC", "country": "CA", "postalCode": "V2R3C8", "twitter": "None", "instagram": "None", "facebook": "None", "youtube": "None", "website": "None", "summary": "None", "logo": "None", "latitude": 49.14211923478001, "longitude": -121.97300090198539}, "887374726RR0001": {"name": "CHILLIWACK KOREAN PRESBYTERIAN CHURCH", "designationCode": "C", "categoryCode": "39", "address": "46100 CHILLIWACK CENTRAL RD", "city": "CHILLIWACK", "province": "BC", "country": "CA", "postalCode": "V2P1J6", "twitter": "None", "instagram": "None", "facebook": "None", "youtube": "None", "website": "None", "summary": "None", "logo": "None", "latitude": 49.16189748730496, "longitude": -121.94925202553523}, "867259533RR0001": {"name": "CHILLIWACK LEARNING SOCIETY", "designationCode": "C", "categoryCode": "21", "address": "45905 YALE RD PO BOX 21081    SOUTHGATE", "city": "CHILLIWACK", "province": "BC", "country": "CA", "postalCode": "V2P8A9", "twitter": "None", "instagram": "None", "facebook": "None", "youtube": "None", "website": "None", "summary": "None", "logo": "None", "latitude": 49.16664239356977, "longitude": -121.95868742833854}, "118852854RR0001": {"name": "CHILLIWACK MUSEUM AND HISTORICAL SOCIETY", "designationCode": "C", "categoryCode": "50", "address": "45820 SPADINA AVE", "city": "CHILLIWACK", "province": "BC", "country": "CA", "postalCode": "V2P1T3", "twitter": "None", "instagram": "None", "facebook": "None", "youtube": "None", "website": "None", "summary": "None", "logo": "None", "latitude": 49.16929710794063, "longitude": -121.95678152458294}, "106915283RR0001": {"name": "CHILLIWACK OPPORTUNITY SOCIETY", "designationCode": "C", "categoryCode": "59", "address": "10135 WILLIAMS ROAD", "city": "CHILLIWACK", "province": "BC", "country": "CA", "postalCode": "V2P5H3", "twitter": "None", "instagram": "None", "facebook": "None", "youtube": "None", "website": "None", "summary": "None", "logo": "None", "latitude": 49.18516132944774, "longitude": -121.94659299838389}, "133488957RR0001": {"name": "CHILLIWACK PRO-LIFE SOCIETY", "designationCode": "C", "categoryCode": "09", "address": "PO BOX 171", "city": "CHILLIWACK", "province": "BC", "country": "CA", "postalCode": "V2P6H7", "twitter": "None", "instagram": "None", "facebook": "None", "youtube": "None", "website": "None", "summary": "None", "logo": "None", "latitude": 49.15747500000006, "longitude": -121.95172249999993}, "886637859RR0001": {"name": "CHILLIWACK RESOURCE CENTRE", "designationCode": "C", "categoryCode": "59", "address": "46240 YALE ROAD", "city": "CHILLIWACK", "province": "BC", "country": "CA", "postalCode": "V2P2P3", "twitter": "None", "instagram": "None", "facebook": "None", "youtube": "None", "website": "None", "summary": "None", "logo": "None", "latitude": 49.171704184646245, "longitude": -121.94963984496383}, "872366067RR0001": {"name": "CHILLIWACK RESTORATIVE JUSTICE AND YOUTH ADVOCACY ASSOCIATION", "designationCode": "C", "categoryCode": "59", "address": "45877 WELLINGTON AVE", "city": "CHILLIWACK", "province": "BC", "country": "CA", "postalCode": "V2P2C8", "twitter": "None", "instagram": "None", "facebook": "None", "youtube": "None", "website": "None", "summary": "None", "logo": "None", "latitude": 49.17195409690591, "longitude": -121.95519193177822}, "891877771RR0001": {"name": "CHILLIWACK SAFETY VILLAGE SOCIETY", "designationCode": "C", "categoryCode": "59", "address": "BOX 314", "city": "CHILLIWACK", "province": "BC", "country": "CA", "postalCode": "V2P6J4", "twitter": "None", "instagram": "None", "facebook": "None", "youtube": "None", "website": "None", "summary": "None", "logo": "None", "latitude": 49.15747500000006, "longitude": -121.95172249999993}, "882623119RR0001": {"name": "CHILLIWACK SCHOOL OF PERFORMING ARTS", "designationCode": "C", "categoryCode": "22", "address": "P.O. BOX 252", "city": "CHILLIWACK", "province": "BC", "country": "CA", "postalCode": "V2P6J1", "twitter": "None", "instagram": "None", "facebook": "None", "youtube": "None", "website": "None", "summary": "None", "logo": "None", "latitude": 49.15747500000006, "longitude": -121.95172249999993}, "891962169RR0001": {"name": "CHILLIWACK SEARCH AND RESCUE SOCIETY", "designationCode": "C", "categoryCode": "59", "address": "45515 KNIGHT RD", "city": "CHILLIWACK", "province": "BC", "country": "CA", "postalCode": "V2R5L2", "twitter": "None", "instagram": "None", "facebook": "None", "youtube": "None", "website": "None", "summary": "None", "logo": "None", "latitude": 49.1393571534998, "longitude": -121.96512397305115}, "879935211RR0001": {"name": "CHILLIWACK SENIOR PEER COUNSELLORS", "designationCode": "C", "categoryCode": "09", "address": "45938 WELLINGTON AVE.", "city": "CHILLIWACK", "province": "BC", "country": "CA", "postalCode": "V2P2C7", "twitter": "None", "instagram": "None", "facebook": "None", "youtube": "None", "website": "None", "summary": "None", "logo": "None", "latitude": 49.17126029058232, "longitude": -121.95362150389514}, "118818491RR0044": {"name": "CHILLIWACK SEVENTH-DAY ADVENTIST CHURCH", "designationCode": "C", "categoryCode": "41", "address": "PO 1000", "city": "ABBOTSFORD", "province": "BC", "country": "CA", "postalCode": "V2S4P5", "twitter": "None", "instagram": "None", "facebook": "None", "youtube": "None", "website": "None", "summary": "None", "logo": "None", "latitude": 49.03851300000005, "longitude": -122.29441549999993}}