{"819511882RR0001": {"name": "Convocation of IGBO Anglicans in Canada", "designationCode": "C", "categoryCode": "30", "address": "1002 WETHERBY LANE", "city": "MISSISSAUGA", "province": "ON", "country": "CA", "postalCode": "L4W2S4", "twitter": "None", "instagram": "None", "facebook": "None", "youtube": "None", "website": "None", "summary": "None", "logo": "None", "latitude": 43.61477100141365, "longitude": -79.61469564167015}, "762808699RR0001": {"name": "Convos", "designationCode": "C", "categoryCode": "09", "address": "4995 KING STREET              BOX 1153", "city": "BEAMSVILLE", "province": "ON", "country": "CA", "postalCode": "L0R1B0", "twitter": "None", "instagram": "None", "facebook": "None", "youtube": "None", "website": "None", "summary": "None", "logo": "None", "latitude": 43.165682589531855, "longitude": -79.47611032027248}, "816137590RR0001": {"name": "Cooke Foundation Inc.", "designationCode": "B", "categoryCode": "03", "address": "255 METCALF ST", "city": "SAINT JOHN", "province": "NB", "country": "CA", "postalCode": "E2K1K7", "twitter": "None", "instagram": "None", "facebook": "None", "youtube": "None", "website": "None", "summary": "None", "logo": "None", "latitude": 45.2760362961509, "longitude": -66.07854773244273}, "770893899RR0001": {"name": "Cooking with the Saker Sisters Society", "designationCode": "C", "categoryCode": "20", "address": "77 STANLEY ST", "city": "NORTH SYDNEY", "province": "NS", "country": "CA", "postalCode": "B2A1V3", "twitter": "None", "instagram": "None", "facebook": "None", "youtube": "None", "website": "None", "summary": "None", "logo": "None", "latitude": 46.21089097140636, "longitude": -60.2550917247967}, "853391365RR0001": {"name": "Coop\u00e9ration int\u00e9gration Canada inc.", "designationCode": "C", "categoryCode": "09", "address": "209 - 404 MCARTHUR AVE", "city": "OTTAWA", "province": "ON", "country": "CA", "postalCode": "K1K1G8", "twitter": "None", "instagram": "None", "facebook": "None", "youtube": "None", "website": "None", "summary": "None", "logo": "None", "latitude": 45.43209152120739, "longitude": -75.64884963765944}, "818256802RR0001": {"name": "Copland Financial Ministries", "designationCode": "C", "categoryCode": "49", "address": "325 RENFREW DRIVE             SUITE 301", "city": "MARKHAM", "province": "ON", "country": "CA", "postalCode": "L3R9S8", "twitter": "None", "instagram": "None", "facebook": "None", "youtube": "None", "website": "None", "summary": "None", "logo": "None", "latitude": 43.86305043020367, "longitude": -79.36604623656902}, "805129806RR0001": {"name": "Copperfield Charitable Trust", "designationCode": "B", "categoryCode": "05", "address": "3425 2 AVE S", "city": "LETHBRIDGE", "province": "AB", "country": "CA", "postalCode": "T1J4V1", "twitter": "None", "instagram": "None", "facebook": "None", "youtube": "None", "website": "None", "summary": "None", "logo": "None", "latitude": 49.696839530439966, "longitude": -112.78914308381903}, "841142672RR0001": {"name": "Coptic Orthadox Patriarchate Saint Maurice Coptic Orthodox Church", "designationCode": "C", "categoryCode": "39", "address": "388 OTTAWA STREET SOUTH", "city": "KITCHENER", "province": "ON", "country": "CA", "postalCode": "N2M3P4", "twitter": "None", "instagram": "None", "facebook": "None", "youtube": "None", "website": "None", "summary": "None", "logo": "None", "latitude": 43.4329240752207, "longitude": -80.4790961367358}, "816076244RR0001": {"name": "Coptic Orthodox Culture Association", "designationCode": "C", "categoryCode": "09", "address": "PO BOX 92220                  RPO BRIDLEWOOD MALL", "city": "SCARBOROUGH", "province": "ON", "country": "CA", "postalCode": "M1W3Y9", "twitter": "None", "instagram": "None", "facebook": "None", "youtube": "None", "website": "None", "summary": "None", "logo": "None", "latitude": 43.799570000000074, "longitude": -79.31777999999997}, "801212838RR0001": {"name": "Coptic Orthodox Patriarchate the Church of the Virgin Mary & St. Mina", "designationCode": "C", "categoryCode": "39", "address": "113 COLUMBIA DRIVE", "city": "SASKATOON", "province": "SK", "country": "CA", "postalCode": "S7K1E8", "twitter": "None", "instagram": "None", "facebook": "None", "youtube": "None", "website": "None", "summary": "None", "logo": "None", "latitude": 52.15935887203543, "longitude": -106.63592283954664}, "836435503RR0001": {"name": "Coptic Youth Channel of Canada Society", "designationCode": "C", "categoryCode": "47", "address": "825 DENISON STREET            UNIT 26", "city": "MARKHAM", "province": "ON", "country": "CA", "postalCode": "L3R5E4", "twitter": "None", "instagram": "None", "facebook": "None", "youtube": "None", "website": "None", "summary": "None", "logo": "None", "latitude": 43.8255448670151, "longitude": -79.33466597986046}, "836443465RR0001": {"name": "Coquet\u00e9lions inc.", "designationCode": "C", "categoryCode": "09", "address": "262-3291 CH.SAINTE-FOY", "city": "QUEBEC", "province": "QC", "country": "CA", "postalCode": "G1X3V2", "twitter": "None", "instagram": "None", "facebook": "None", "youtube": "None", "website": "None", "summary": "None", "logo": "None", "latitude": 46.7705943946278, "longitude": -71.31937153863521}, "724062724RR0001": {"name": "Coquitlam Agape Church", "designationCode": "C", "categoryCode": "39", "address": "1179 CREEKSIDE DR", "city": "COQUITLAM", "province": "BC", "country": "CA", "postalCode": "V3E1A3", "twitter": "None", "instagram": "None", "facebook": "None", "youtube": "None", "website": "None", "summary": "None", "logo": "None", "latitude": 49.2815549023025, "longitude": -122.81115081972422}, "130565963RR0029": {"name": "Coquitlam Mandarin Church", "designationCode": "C", "categoryCode": "39", "address": "2878 MALIBU COURT", "city": "COQUITLAM", "province": "BC", "country": "CA", "postalCode": "V3B8G1", "twitter": "None", "instagram": "None", "facebook": "None", "youtube": "None", "website": "None", "summary": "None", "logo": "None", "latitude": 49.2922664851406, "longitude": -122.80318159062836}, "119288918RR1467": {"name": "Coquitlam Mandarin Congregation of Jehovah's Witnesses, Vancouver, British Columbia", "designationCode": "C", "categoryCode": "61", "address": "211-2368 MARPOLE AVE", "city": "PORT COQUITLAM", "province": "BC", "country": "CA", "postalCode": "V3C0B4", "twitter": "None", "instagram": "None", "facebook": "None", "youtube": "None", "website": "None", "summary": "None", "logo": "None", "latitude": 49.261898505395706, "longitude": -122.78436226507576}, "119288918RR1466": {"name": "Coquitlam Spanish Congregation of Jehovah's Witnesses, Vancouver, British Columbia", "designationCode": "C", "categoryCode": "61", "address": "699 BLUE MOUNTAIN STREET", "city": "COQUITLAM", "province": "BC", "country": "CA", "postalCode": "V3J4R8", "twitter": "None", "instagram": "None", "facebook": "None", "youtube": "None", "website": "None", "summary": "None", "logo": "None", "latitude": 49.25966282653357, "longitude": -122.86880942169223}, "816196950RR0001": {"name": "Cor Unum Africa Charitable Organization", "designationCode": "C", "categoryCode": "21", "address": "7007 ISLINGTON AVENUE         SUITE 203", "city": "WOODBRIDGE", "province": "ON", "country": "CA", "postalCode": "L4L4T5", "twitter": "None", "instagram": "None", "facebook": "None", "youtube": "None", "website": "None", "summary": "None", "logo": "None", "latitude": 43.76462523235585, "longitude": -79.57499287365154}, "856175732RR0001": {"name": "Coram Deo Foundation", "designationCode": "A", "categoryCode": "47", "address": "360 - 13401 108 AVE", "city": "SURREY", "province": "BC", "country": "CA", "postalCode": "V3T5T3", "twitter": "None", "instagram": "None", "facebook": "None", "youtube": "None", "website": "None", "summary": "None", "logo": "None", "latitude": 49.198952482110826, "longitude": -122.8502604970858}, "859304495RR0001": {"name": "Corbeille de pain Lac-Saint-Louis / Bread Basket Lac-Saint-Louis", "designationCode": "C", "categoryCode": "09", "address": "68, AVENUE PRINCE EDWARD", "city": "POINTE-CLAIRE", "province": "QC", "country": "CA", "postalCode": "H9R4C7", "twitter": "None", "instagram": "None", "facebook": "None", "youtube": "None", "website": "None", "summary": "None", "logo": "None", "latitude": 45.4544487454845, "longitude": -73.79226682309977}, "106973993RR0002": {"name": "Corbett Avenue Wesleyan Church", "designationCode": "C", "categoryCode": "39", "address": "55 CORBETT AVENUE", "city": "FREDERICTON", "province": "NB", "country": "CA", "postalCode": "E3A3X3", "twitter": "None", "instagram": "None", "facebook": "None", "youtube": "None", "website": "None", "summary": "None", "logo": "None", "latitude": 45.95241376770148, "longitude": -66.62064250528012}, "119288918RR0744": {"name": "Cordova Valley Congregation of Jehovah's Witnesses, Oshawa, Ontario", "designationCode": "C", "categoryCode": "61", "address": "5 - 449 SIMCOE ST S", "city": "OSHAWA", "province": "ON", "country": "CA", "postalCode": "L1H4J7", "twitter": "None", "instagram": "None", "facebook": "None", "youtube": "None", "website": "None", "summary": "None", "logo": "None", "latitude": 43.871449406243805, "longitude": -78.83996067186318}, "800866626RR0001": {"name": "Cormorant Island Supportive Recovery Society", "designationCode": "C", "categoryCode": "57", "address": "PO BOX 4", "city": "ALERT BAY", "province": "BC", "country": "CA", "postalCode": "V0N1A0", "twitter": "None", "instagram": "None", "facebook": "None", "youtube": "None", "website": "None", "summary": "None", "logo": "None", "latitude": 50.6420595, "longitude": -127.02791249999999}, "820887503RR0001": {"name": "Corn Hill United Baptist Church Ltd.", "designationCode": "C", "categoryCode": "31", "address": "2521 RT 890", "city": "CORN HILL", "province": "NB", "country": "CA", "postalCode": "E4Z1B6", "twitter": "None", "instagram": "None", "facebook": "None", "youtube": "None", "website": "None", "summary": "None", "logo": "None", "latitude": 45.926052000000055, "longitude": -65.19617899999993}, "809087869RR0001": {"name": "Corne d'abondance de Candiac", "designationCode": "C", "categoryCode": "09", "address": "59, CHEMIN HAENDEL", "city": "CANDIAC", "province": "QC", "country": "CA", "postalCode": "J5R1R7", "twitter": "None", "instagram": "None", "facebook": "None", "youtube": "None", "website": "None", "summary": "None", "logo": "None", "latitude": 45.388943455998685, "longitude": -73.5184966478739}, "823551247RR0001": {"name": "Corner Stone Church of Slave Lake", "designationCode": "C", "categoryCode": "39", "address": "POST OFFICE BOX 43", "city": "SLAVE LAKE", "province": "AB", "country": "CA", "postalCode": "T0G2A0", "twitter": "None", "instagram": "None", "facebook": "None", "youtube": "None", "website": "None", "summary": "None", "logo": "None", "latitude": 55.28284800000006, "longitude": -114.77156299999993}, "739859528RR0001": {"name": "Cornerstone Anglican Church", "designationCode": "C", "categoryCode": "30", "address": "1273 EXMOUTH STREET", "city": "SARNIA", "province": "ON", "country": "CA", "postalCode": "N7S1W9", "twitter": "None", "instagram": "None", "facebook": "None", "youtube": "None", "website": "None", "summary": "None", "logo": "None", "latitude": 42.98451474174375, "longitude": -82.36142056433002}, "842869265RR0001": {"name": "Cornerstone Asian Church", "designationCode": "C", "categoryCode": "39", "address": "3434 CAWTHRA ROAD", "city": "MISSISSAUGA", "province": "ON", "country": "CA", "postalCode": "L5A2X7", "twitter": "None", "instagram": "None", "facebook": "None", "youtube": "None", "website": "None", "summary": "None", "logo": "None", "latitude": 43.60289140380306, "longitude": -79.61180688874117}, "777938325RR0001": {"name": "Cornerstone Baptist Church", "designationCode": "C", "categoryCode": "39", "address": "PO BOX 3 STN MAIN", "city": "BRACEBRIDGE", "province": "ON", "country": "CA", "postalCode": "P1L1T5", "twitter": "None", "instagram": "None", "facebook": "None", "youtube": "None", "website": "None", "summary": "None", "logo": "None", "latitude": 45.055572000000055, "longitude": -79.28863099999994}, "819557349RR0001": {"name": "Cornerstone Baptist Church of Edmonton", "designationCode": "C", "categoryCode": "31", "address": "25318 TWP RD 552", "city": "STURGEON COUNTY", "province": "AB", "country": "CA", "postalCode": "T8R2C5", "twitter": "None", "instagram": "None", "facebook": "None", "youtube": "None", "website": "None", "summary": "None", "logo": "None", "latitude": 53.745367514859424, "longitude": -113.65741260935425}, "891495541RR0001": {"name": "Cornerstone Canadian Reformed Church", "designationCode": "C", "categoryCode": "39", "address": "353 STONECHURCH ROAD EAST", "city": "HAMILTON", "province": "ON", "country": "CA", "postalCode": "L9B1B1", "twitter": "None", "instagram": "None", "facebook": "None", "youtube": "None", "website": "None", "summary": "None", "logo": "None", "latitude": 43.208214000000055, "longitude": -79.87776649999994}, "892787367RR0001": {"name": "Cornerstone Cape Breton Association - Strategies for Building Healthier Relationships", "designationCode": "C", "categoryCode": "59", "address": "POST OFFICE BOX 505", "city": "SYDNEY", "province": "NS", "country": "CA", "postalCode": "B1P6H4", "twitter": "None", "instagram": "None", "facebook": "None", "youtube": "None", "website": "None", "summary": "None", "logo": "None", "latitude": 46.137372000000056, "longitude": -60.19552249999994}, "809244502RR0001": {"name": "Cornerstone Christian Assembly of Manitoulin", "designationCode": "C", "categoryCode": "39", "address": "PO BOX 757", "city": "LITTLE CURRENT", "province": "ON", "country": "CA", "postalCode": "P0P1K0", "twitter": "None", "instagram": "None", "facebook": "None", "youtube": "None", "website": "None", "summary": "None", "logo": "None", "latitude": 45.82642761199063, "longitude": -82.15772370619678}, "804832194RR0001": {"name": "Cornerstone Christian Church of God Edmonton", "designationCode": "C", "categoryCode": "39", "address": "1219 164 ST SW", "city": "EDMONTON", "province": "AB", "country": "CA", "postalCode": "T6W3K4", "twitter": "None", "instagram": "None", "facebook": "None", "youtube": "None", "website": "None", "summary": "None", "logo": "None", "latitude": 53.419943447929874, "longitude": -113.60506913225228}, "896073228RR0001": {"name": "Cornerstone Christian Community Church", "designationCode": "C", "categoryCode": "39", "address": "9680 NINTH LINE", "city": "MARKHAM", "province": "ON", "country": "CA", "postalCode": "L6B1A8", "twitter": "None", "instagram": "None", "facebook": "None", "youtube": "None", "website": "None", "summary": "None", "logo": "None", "latitude": 43.90757543323342, "longitude": -79.24212240362924}, "806819041RR0001": {"name": "Cornerstone Christian Fellowship", "designationCode": "C", "categoryCode": "49", "address": "POST OFFICE BOX 452", "city": "SIOUX LOOKOUT", "province": "ON", "country": "CA", "postalCode": "P8T1A8", "twitter": "None", "instagram": "None", "facebook": "None", "youtube": "None", "website": "None", "summary": "None", "logo": "None", "latitude": 50.09808300000006, "longitude": -91.91503249999994}, "118857275RR0001": {"name": "Cornerstone Christian Reformed Church", "designationCode": "C", "categoryCode": "39", "address": "1191 22ND ST NE", "city": "SALMON ARM", "province": "BC", "country": "CA", "postalCode": "V1E2V5", "twitter": "None", "instagram": "None", "facebook": "None", "youtube": "None", "website": "None", "summary": "None", "logo": "None", "latitude": 50.70886041638376, "longitude": -119.25932007168855}, "107396905RR0024": {"name": "Cornerstone Church", "designationCode": "C", "categoryCode": "39", "address": "1227-48 AVE NE", "city": "CALGARY", "province": "AB", "country": "CA", "postalCode": "T2E5T1", "twitter": "None", "instagram": "None", "facebook": "None", "youtube": "None", "website": "None", "summary": "None", "logo": "None", "latitude": 51.095785485140595, "longitude": -114.035733}, "753035724RR0001": {"name": "Cornerstone Church of God Canada", "designationCode": "C", "categoryCode": "39", "address": "67 PACIFIC WIND CRES", "city": "BRAMPTON", "province": "ON", "country": "CA", "postalCode": "L6R2B1", "twitter": "None", "instagram": "None", "facebook": "None", "youtube": "None", "website": "None", "summary": "None", "logo": "None", "latitude": 43.73851080959666, "longitude": -79.7655699704254}, "791865124RR0001": {"name": "Cornerstone Church Richibucto Inc", "designationCode": "C", "categoryCode": "39", "address": "9318 MAIN ST", "city": "RICHIBUCTO", "province": "NB", "country": "CA", "postalCode": "E4W4C7", "twitter": "None", "instagram": "None", "facebook": "None", "youtube": "None", "website": "None", "summary": "None", "logo": "None", "latitude": 46.67669923535693, "longitude": -64.86366364813276}, "108220310RR0001": {"name": "Cornerstone Community Church", "designationCode": "C", "categoryCode": "37", "address": "180 NASHVILLE ROAD            PO BOX 272", "city": "KLEINBURG", "province": "ON", "country": "CA", "postalCode": "L0J1C0", "twitter": "None", "instagram": "None", "facebook": "None", "youtube": "None", "website": "None", "summary": "None", "logo": "None", "latitude": 43.843273990882054, "longitude": -79.63446795755655}, "119162113RR0001": {"name": "Cornerstone Community Church of St. Albert", "designationCode": "C", "categoryCode": "36", "address": "PO BOX 126 STN MAIN", "city": "ST ALBERT", "province": "AB", "country": "CA", "postalCode": "T8N1N2", "twitter": "None", "instagram": "None", "facebook": "None", "youtube": "None", "website": "None", "summary": "None", "logo": "None", "latitude": 53.633832000000055, "longitude": -113.62747399999994}, "119302289RR0001": {"name": "Cornerstone Family Violence Prevention Centre", "designationCode": "C", "categoryCode": "09", "address": "40 SWAYNE ST", "city": "COBOURG", "province": "ON", "country": "CA", "postalCode": "K9A1K5", "twitter": "None", "instagram": "None", "facebook": "None", "youtube": "None", "website": "None", "summary": "None", "logo": "None", "latitude": 43.960875128512846, "longitude": -78.16400699792253}, "757083290RR0001": {"name": "Cornerstone Filipino Community Church, Edmonton", "designationCode": "C", "categoryCode": "39", "address": "9511 63 AVE NW", "city": "EDMONTON", "province": "AB", "country": "CA", "postalCode": "T6E0G2", "twitter": "None", "instagram": "None", "facebook": "None", "youtube": "None", "website": "None", "summary": "None", "logo": "None", "latitude": 53.49972548845881, "longitude": -113.47389352553522}, "135270718RR0001": {"name": "Cornerstone House of Refuge (OTTAWA) Apostolic Church (CHORAC)", "designationCode": "C", "categoryCode": "39", "address": "1196 WELLINGTON ST WEST", "city": "OTTAWA", "province": "ON", "country": "CA", "postalCode": "K1Y2Z5", "twitter": "None", "instagram": "None", "facebook": "None", "youtube": "None", "website": "None", "summary": "None", "logo": "None", "latitude": 45.40049723561673, "longitude": -75.72981387425712}, "837258854RR0001": {"name": "Cornerstone Housing for Women / Le pilier logements pour femmes", "designationCode": "C", "categoryCode": "59", "address": "314 BOOTH STREET", "city": "OTTAWA", "province": "ON", "country": "CA", "postalCode": "K1R7K2", "twitter": "None", "instagram": "None", "facebook": "None", "youtube": "None", "website": "None", "summary": "None", "logo": "None", "latitude": 45.40863583291021, "longitude": -75.71010339941697}, "810255042RR0001": {"name": "Cornerstone Housing Society Incorporated", "designationCode": "C", "categoryCode": "01", "address": "152 TOPSAIL RD", "city": "ST. JOHN'S", "province": "NL", "country": "CA", "postalCode": "A1E2B1", "twitter": "None", "instagram": "None", "facebook": "None", "youtube": "None", "website": "None", "summary": "None", "logo": "None", "latitude": 47.542848788981836, "longitude": -52.73157753515408}, "851952762RR0001": {"name": "Cornerstone Korean Community Church", "designationCode": "C", "categoryCode": "37", "address": "23500 DEWDNEY TRUNK ROAD", "city": "MAPLE RIDGE", "province": "BC", "country": "CA", "postalCode": "V2X3L8", "twitter": "None", "instagram": "None", "facebook": "None", "youtube": "None", "website": "None", "summary": "None", "logo": "None", "latitude": 49.22032753895234, "longitude": -122.569974}, "807255625RR0001": {"name": "Cornerstone Landing Youth Services", "designationCode": "C", "categoryCode": "01", "address": "155 INDUSTRIAL AVE", "city": "CARLETON PLACE", "province": "ON", "country": "CA", "postalCode": "K7C3V7", "twitter": "None", "instagram": "None", "facebook": "None", "youtube": "None", "website": "None", "summary": "None", "logo": "None", "latitude": 45.15235221702713, "longitude": -76.1469940044687}, "893740324RR0001": {"name": "Cornerstone Life Centre", "designationCode": "C", "categoryCode": "36", "address": "PO BOX 10053 RPO HART", "city": "PRINCE GEORGE", "province": "BC", "country": "CA", "postalCode": "V2K5Y1", "twitter": "None", "instagram": "None", "facebook": "None", "youtube": "None", "website": "None", "summary": "None", "logo": "None", "latitude": 54.106418582505306, "longitude": -122.651208}, "861950681RR0001": {"name": "Cornerstone Neighbourhood Fellowship Baptist Church", "designationCode": "C", "categoryCode": "31", "address": "20639 123 AVE", "city": "MAPLE RIDGE", "province": "BC", "country": "CA", "postalCode": "V2X4B1", "twitter": "None", "instagram": "None", "facebook": "None", "youtube": "None", "website": "None", "summary": "None", "logo": "None", "latitude": 49.226289525967914, "longitude": -122.64866116763807}, "895143337RR0001": {"name": "Cornerstone Pastoral Charge", "designationCode": "C", "categoryCode": "44", "address": "PO BOX 35", "city": "WASKADA", "province": "MB", "country": "CA", "postalCode": "R0M2E0", "twitter": "None", "instagram": "None", "facebook": "None", "youtube": "None", "website": "None", "summary": "None", "logo": "None", "latitude": 49.09763000000004, "longitude": -100.80228999999997}, "108052739RR0001": {"name": "Cornerstone Pentecostal Church", "designationCode": "C", "categoryCode": "39", "address": "4274 WILKINSON RD", "city": "VICTORIA", "province": "BC", "country": "CA", "postalCode": "V8Z5B5", "twitter": "None", "instagram": "None", "facebook": "None", "youtube": "None", "website": "None", "summary": "None", "logo": "None", "latitude": 48.48521374689813, "longitude": -123.40551432491743}, "871738142RR0001": {"name": "Cornerstone Pentecostal Church", "designationCode": "C", "categoryCode": "36", "address": "118 HAENER DRIVE", "city": "YELLOWKNIFE", "province": "NT", "country": "CA", "postalCode": "X1A0A1", "twitter": "None", "instagram": "None", "facebook": "None", "youtube": "None", "website": "None", "summary": "None", "logo": "None", "latitude": 62.46381431360732, "longitude": -114.37615594377485}, "887997914RR0001": {"name": "Cornerstone Vineyard Christian Fellowship, Inc.", "designationCode": "C", "categoryCode": "39", "address": "287 4TH STREET", "city": "WINKLER", "province": "MB", "country": "CA", "postalCode": "R6W0M5", "twitter": "None", "instagram": "None", "facebook": "None", "youtube": "None", "website": "None", "summary": "None", "logo": "None", "latitude": 49.18155558987262, "longitude": -97.93771209692383}, "866957889RR0001": {"name": "Cornwall Fire Service Sparky's Toy Drive", "designationCode": "C", "categoryCode": "09", "address": "21601 CONCESSION 3 RD", "city": "BAINSVILLE", "province": "ON", "country": "CA", "postalCode": "K0C1E0", "twitter": "None", "instagram": "None", "facebook": "None", "youtube": "None", "website": "None", "summary": "None", "logo": "None", "latitude": 45.21409311019097, "longitude": -74.42377905620633}, "130333701RR0001": {"name": "Cornwall Wesleyan Church", "designationCode": "C", "categoryCode": "39", "address": "780 SYDNEY ST", "city": "CORNWALL", "province": "ON", "country": "CA", "postalCode": "K6H3J6", "twitter": "None", "instagram": "None", "facebook": "None", "youtube": "None", "website": "None", "summary": "None", "logo": "None", "latitude": 45.02757658728147, "longitude": -74.73156009550445}, "106975022RR0001": {"name": "Cornwallis Street Baptist Church, Halifax", "designationCode": "C", "categoryCode": "31", "address": "PO BOX 47046                  RPO GOTTINGEN ST", "city": "HALIFAX", "province": "NS", "country": "CA", "postalCode": "B3K5Y2", "twitter": "None", "instagram": "None", "facebook": "None", "youtube": "None", "website": "None", "summary": "None", "logo": "None", "latitude": 44.65644536251654, "longitude": -63.58979363038157}, "865866990RR0001": {"name": "Coro Vivo Ottawa Inc.", "designationCode": "C", "categoryCode": "22", "address": "2638 INNES ROAD               BOX 47051", "city": "OTTAWA", "province": "ON", "country": "CA", "postalCode": "K1B5P9", "twitter": "None", "instagram": "None", "facebook": "None", "youtube": "None", "website": "None", "summary": "None", "logo": "None", "latitude": 45.43204657695238, "longitude": -75.5635902477931}, "894552769RR0001": {"name": "Coronation Evangelical Free Church", "designationCode": "C", "categoryCode": "39", "address": "PO BOX 160", "city": "CORONATION", "province": "AB", "country": "CA", "postalCode": "T0C1C0", "twitter": "None", "instagram": "None", "facebook": "None", "youtube": "None", "website": "None", "summary": "None", "logo": "None", "latitude": 52.08834149999997, "longitude": -111.43338299999999}, "833252554RR0001": {"name": "Coronation/Consort Victim Services Society", "designationCode": "C", "categoryCode": "59", "address": "4909 ROYAL STREET", "city": "CORONATION", "province": "AB", "country": "CA", "postalCode": "T0C1C0", "twitter": "None", "instagram": "None", "facebook": "None", "youtube": "None", "website": "None", "summary": "None", "logo": "None", "latitude": 52.09294800721336, "longitude": -111.4490312561603}, "821195203RR0001": {"name": "Corpath Forums", "designationCode": "C", "categoryCode": "49", "address": "401-8989 MACLEOD TRAIL SW", "city": "CALGARY", "province": "AB", "country": "CA", "postalCode": "T2H0M2", "twitter": "None", "instagram": "None", "facebook": "None", "youtube": "None", "website": "None", "summary": "None", "logo": "None", "latitude": 50.99439991848855, "longitude": -114.0716953460148}, "814895090RR0001": {"name": "Corporation \u00e9glise Sainte-Am\u00e9lie...ouverte \u00e0 la vie", "designationCode": "C", "categoryCode": "52", "address": "126, AV. LAVAL", "city": "BAIE-COMEAU", "province": "QC", "country": "CA", "postalCode": "G4Z1R2", "twitter": "None", "instagram": "None", "facebook": "None", "youtube": "None", "website": "None", "summary": "None", "logo": "None", "latitude": 49.21280200473185, "longitude": -68.15055386857297}, "838300580RR0001": {"name": "Corporation d'\u00c9ducation Jeunesse", "designationCode": "C", "categoryCode": "21", "address": "6500 RUE DE SAINT-VALLIER     UNITE 300", "city": "MONTREAL", "province": "QC", "country": "CA", "postalCode": "H2S2P7", "twitter": "None", "instagram": "None", "facebook": "None", "youtube": "None", "website": "None", "summary": "None", "logo": "None", "latitude": 45.53504682624509, "longitude": -73.60498231516524}, "137089132RR0001": {"name": "Corporation d'Initiatives Environnementales Marguerite-D'Youville", "designationCode": "C", "categoryCode": "59", "address": "609 MARIE-VICTORIN", "city": "VERCHERES", "province": "QC", "country": "CA", "postalCode": "J0L2R0", "twitter": "None", "instagram": "None", "facebook": "None", "youtube": "None", "website": "None", "summary": "None", "logo": "None", "latitude": 45.776677325033, "longitude": -73.35623688721195}, "127783793RR0001": {"name": "Corporation de d\u00e9veloppement communautaire solidarit\u00e9s Villeray", "designationCode": "C", "categoryCode": "09", "address": "660 RUE VILLERAY              LOCAL 1.102", "city": "MONTREAL", "province": "QC", "country": "CA", "postalCode": "H2R1J1", "twitter": "None", "instagram": "None", "facebook": "None", "youtube": "None", "website": "None", "summary": "None", "logo": "None", "latitude": 45.54332852316931, "longitude": -73.62167189589721}, "850269481RR0001": {"name": "Corporation de gestion immobili\u00e8re Notre-Dame Auxiliatrice", "designationCode": "C", "categoryCode": "09", "address": "891 RUE PERREAULT EST", "city": "ROUYN-NORANDA", "province": "QC", "country": "CA", "postalCode": "J9X5H5", "twitter": "None", "instagram": "None", "facebook": "None", "youtube": "None", "website": "None", "summary": "None", "logo": "None", "latitude": 48.237934533758185, "longitude": -78.99108363918864}, "827690165RR0001": {"name": "Corporation de la chapelle St-Joseph du Lac inc.", "designationCode": "C", "categoryCode": "50", "address": "6160 RTE DE FOSSAMBAULT", "city": "FOSSAMBAULT-SUR-LE-LAC", "province": "QC", "country": "CA", "postalCode": "G3N1W8", "twitter": "None", "instagram": "None", "facebook": "None", "youtube": "None", "website": "None", "summary": "None", "logo": "None", "latitude": 46.88970080038032, "longitude": -71.61264045742593}, "812273878RR0001": {"name": "Corporation de la maison Rosalie-Cadron", "designationCode": "C", "categoryCode": "52", "address": "1997, RUE NOTRE-DAME", "city": "LAVALTRIE", "province": "QC", "country": "CA", "postalCode": "J5T1S6", "twitter": "None", "instagram": "None", "facebook": "None", "youtube": "None", "website": "None", "summary": "None", "logo": "None", "latitude": 45.89936070635925, "longitude": -73.2679447825609}, "836942052RR0001": {"name": "Corporation de logements communautaires de Sainte-Flavie", "designationCode": "C", "categoryCode": "09", "address": "125, RUE CHOUINARD", "city": "STE-FLAVIE", "province": "QC", "country": "CA", "postalCode": "G0J2L0", "twitter": "None", "instagram": "None", "facebook": "None", "youtube": "None", "website": "None", "summary": "None", "logo": "None", "latitude": 48.612625743811044, "longitude": -68.22398613558197}, "138626999RR0001": {"name": "Corporation de transport adapt\u00e9 de Sept-\u00celes Inc.", "designationCode": "C", "categoryCode": "59", "address": "652, AVENUE DE QUEN", "city": "SEPT-ILES", "province": "QC", "country": "CA", "postalCode": "G4R2R5", "twitter": "None", "instagram": "None", "facebook": "None", "youtube": "None", "website": "None", "summary": "None", "logo": "None", "latitude": 50.212348270067416, "longitude": -66.38952449858635}, "815844659RR0001": {"name": "Corporation des biens culturels de la ville de Brossard", "designationCode": "A", "categoryCode": "23", "address": "2 - 5715 RUE DU CONDOR", "city": "BROSSARD", "province": "QC", "country": "CA", "postalCode": "J4Z0A5", "twitter": "None", "instagram": "None", "facebook": "None", "youtube": "None", "website": "None", "summary": "None", "logo": "None", "latitude": 45.45782725506376, "longitude": -73.42266106844002}, "895636140RR0001": {"name": "Corporation des loisirs St-Pie X", "designationCode": "C", "categoryCode": "56", "address": "280 BOUL ARTHUR BUIES E       CP 25001", "city": "RIMOUSKI", "province": "QC", "country": "CA", "postalCode": "G5L8B3", "twitter": "None", "instagram": "None", "facebook": "None", "youtube": "None", "website": "None", "summary": "None", "logo": "None", "latitude": 48.450015726040355, "longitude": -68.50320274744992}, "887078202RR0001": {"name": "Corporation des A\u00een\u00e9(e)s de St-Agapit", "designationCode": "C", "categoryCode": "09", "address": "1176, RUE PRINCIPALE", "city": "SAINT-AGAPIT", "province": "QC", "country": "CA", "postalCode": "G0S1Z0", "twitter": "None", "instagram": "None", "facebook": "None", "youtube": "None", "website": "None", "summary": "None", "logo": "None", "latitude": 46.56053978328205, "longitude": -71.43844063353315}, "897178208RR0001": {"name": "Corporation des Gestionnaires de phares de l'estuaire et du golfe Saint-Laurent", "designationCode": "C", "categoryCode": "52", "address": "12 RTE DE LA RIVIERE", "city": "MANCHE-D'EPEE", "province": "QC", "country": "CA", "postalCode": "G0E1R0", "twitter": "None", "instagram": "None", "facebook": "None", "youtube": "None", "website": "None", "summary": "None", "logo": "None", "latitude": 49.24437939832045, "longitude": -65.4438664856306}, "890403397RR0001": {"name": "Corporation du village des sources de la corporation les fr\u00e8res du Sacr\u00e9-Coeur-Rimouski", "designationCode": "C", "categoryCode": "09", "address": "145 CHEMIN DU 3E RANG O", "city": "RIMOUSKI", "province": "QC", "country": "CA", "postalCode": "G5N5K6", "twitter": "None", "instagram": "None", "facebook": "None", "youtube": "None", "website": "None", "summary": "None", "logo": "None", "latitude": 48.32148115397543, "longitude": -68.45530614661648}, "106954217RR0001": {"name": "Corporation du Coll\u00e8ge de Sainte-Anne-de-la-Pocati\u00e8re", "designationCode": "C", "categoryCode": "20", "address": "100, 4E AVENUE", "city": "LA POCATI\u00c8RE", "province": "QC", "country": "CA", "postalCode": "G0R1Z0", "twitter": "None", "instagram": "None", "facebook": "None", "youtube": "None", "website": "None", "summary": "None", "logo": "None", "latitude": 47.36699289757065, "longitude": -70.03980789130864}, "891745945RR0001": {"name": "Corporation du Domaine du Seigneur Taschereau", "designationCode": "C", "categoryCode": "52", "address": "700 RUE NOTRE-DAME NORD       BUREAU F", "city": "SAINTE-MARIE", "province": "QC", "country": "CA", "postalCode": "G6E2K9", "twitter": "None", "instagram": "None", "facebook": "None", "youtube": "None", "website": "None", "summary": "None", "logo": "None", "latitude": 46.44375904825134, "longitude": -71.03282756450449}, "841377567RR0001": {"name": "Corporation du Mus\u00e9e de la Nation Huronne-Wendat", "designationCode": "C", "categoryCode": "50", "address": "15 PLACE DE LA RENCONTRE      EKIONKIESTHA", "city": "WENDAKE", "province": "QC", "country": "CA", "postalCode": "G0A4V0", "twitter": "None", "instagram": "None", "facebook": "None", "youtube": "None", "website": "None", "summary": "None", "logo": "None", "latitude": 46.857107089071235, "longitude": -71.35863454251398}, "885253112RR0001": {"name": "Corporation int\u00e9gration \u00e0 la vie active des personnes handicap\u00e9es de Laval", "designationCode": "C", "categoryCode": "11", "address": "387 BOULEVARD DES PRAIRIES    BUREAU 210-B", "city": "LAVAL", "province": "QC", "country": "CA", "postalCode": "H7N2W4", "twitter": "None", "instagram": "None", "facebook": "None", "youtube": "None", "website": "None", "summary": "None", "logo": "None", "latitude": 45.54674685486739, "longitude": -73.70770992148975}, "833315369RR0001": {"name": "Corporation \u00abCommunaut\u00e9 Catholique Congolaise \"Bondeko\" d'Ottawa-Gatineau (CCCBOG)\u00bb", "designationCode": "C", "categoryCode": "38", "address": "344 AVENUE CYR", "city": "OTTAWA", "province": "ON", "country": "CA", "postalCode": "K1L7P1", "twitter": "None", "instagram": "None", "facebook": "None", "youtube": "None", "website": "None", "summary": "None", "logo": "None", "latitude": 45.432447810433395, "longitude": -75.66245195576754}, "888633641RR0001": {"name": "Corporation of the Anglican Parish of Fundy and the Lakes", "designationCode": "C", "categoryCode": "30", "address": "2000 LOCH LOMOND ROAD", "city": "SAINT JOHN", "province": "NB", "country": "CA", "postalCode": "E2N1A2", "twitter": "None", "instagram": "None", "facebook": "None", "youtube": "None", "website": "None", "summary": "None", "logo": "None", "latitude": 45.314627025051266, "longitude": -65.96331405010254}, "868802273RR0001": {"name": "Corporation pour la mise en valeur du bois de l'\u00c9querre", "designationCode": "C", "categoryCode": "52", "address": "49 RANG DE L'EQUERRE", "city": "LAVAL", "province": "QC", "country": "CA", "postalCode": "H7L6A3", "twitter": "None", "instagram": "None", "facebook": "None", "youtube": "None", "website": "None", "summary": "None", "logo": "None", "latitude": 45.607549462952235, "longitude": -73.76461763970825}, "838601334RR0001": {"name": "Corporation B\u00e9n\u00e9voles d'Expertise", "designationCode": "C", "categoryCode": "59", "address": "203-5000 3IEME AVENUE OUEST", "city": "QUEBEC", "province": "QC", "country": "CA", "postalCode": "G1H7J1", "twitter": "None", "instagram": "None", "facebook": "None", "youtube": "None", "website": "None", "summary": "None", "logo": "None", "latitude": 46.84890044321879, "longitude": -71.26074300915299}, "851639054RR0001": {"name": "Corporation Du Th\u00e9\u00e2tre Outremont", "designationCode": "C", "categoryCode": "22", "address": "1248 AV. BERNARD", "city": "OUTREMONT", "province": "QC", "country": "CA", "postalCode": "H2V1V6", "twitter": "None", "instagram": "None", "facebook": "None", "youtube": "None", "website": "None", "summary": "None", "logo": "None", "latitude": 45.52017596612624, "longitude": -73.60865046791524}, "801877333RR0001": {"name": "Corporation Gabriel-Michel", "designationCode": "C", "categoryCode": "49", "address": "1021 RUE DU CONSEIL", "city": "SHERBROOKE", "province": "QC", "country": "CA", "postalCode": "J1G1M2", "twitter": "None", "instagram": "None", "facebook": "None", "youtube": "None", "website": "None", "summary": "None", "logo": "None", "latitude": 45.40384493964161, "longitude": -71.86679647202344}, "134525518RR0001": {"name": "Corporation L'Espoir", "designationCode": "C", "categoryCode": "59", "address": "55 AV DUPRAS                  LOCAL I-528", "city": "LASALLE", "province": "QC", "country": "CA", "postalCode": "H8R4A8", "twitter": "None", "instagram": "None", "facebook": "None", "youtube": "None", "website": "None", "summary": "None", "logo": "None", "latitude": 45.428526502914195, "longitude": -73.66278337757535}, "127231397RR0001": {"name": "Corporation Loge-To\u00eet Beauce", "designationCode": "A", "categoryCode": "03", "address": "541 80E RUE", "city": "SAINT-GEORGES", "province": "QC", "country": "CA", "postalCode": "G5Y0M5", "twitter": "None", "instagram": "None", "facebook": "None", "youtube": "None", "website": "None", "summary": "None", "logo": "None", "latitude": 46.13721201471519, "longitude": -70.70020737414154}, "762233898RR0001": {"name": "Corporation Notre-Dame-des-Champs", "designationCode": "A", "categoryCode": "03", "address": "155 RUE COMMERCIALE", "city": "SAINT-DAMIEN-DE-BUCKLAND", "province": "QC", "country": "CA", "postalCode": "G0R2Y0", "twitter": "None", "instagram": "None", "facebook": "None", "youtube": "None", "website": "None", "summary": "None", "logo": "None", "latitude": 46.62461716703862, "longitude": -70.65923134151916}, "875547325RR0001": {"name": "Corporation R\u00e9v. Louis-Napol\u00e9on-Fiset", "designationCode": "C", "categoryCode": "52", "address": "109 PRINCIPALE", "city": "ST-HENEDINE", "province": "QC", "country": "CA", "postalCode": "G0S2R0", "twitter": "None", "instagram": "None", "facebook": "None", "youtube": "None", "website": "None", "summary": "None", "logo": "None", "latitude": 46.55797647870663, "longitude": -70.98521001757206}, "893038844RR0001": {"name": "Corporation Victoire", "designationCode": "C", "categoryCode": "21", "address": "100 CH DU LAC-MOURIER", "city": "MALARTIC", "province": "QC", "country": "CA", "postalCode": "J0Y1Z0", "twitter": "None", "instagram": "None", "facebook": "None", "youtube": "None", "website": "None", "summary": "None", "logo": "None", "latitude": 48.11150700000002, "longitude": -78.14142938424044}, "822210233RR0001": {"name": "Corporations for Community Connections, Incorporated", "designationCode": "B", "categoryCode": "03", "address": "867 COTTAGE GROVE AVE", "city": "KINGSVILLE", "province": "ON", "country": "CA", "postalCode": "N9Y3G3", "twitter": "None", "instagram": "None", "facebook": "None", "youtube": "None", "website": "None", "summary": "None", "logo": "None", "latitude": 42.02566645322874, "longitude": -82.76195422095886}, "107910259RR0043": {"name": "Corpus Christi Parish", "designationCode": "C", "categoryCode": "38", "address": "16 LOCKWOOD RD", "city": "TORONTO", "province": "ON", "country": "CA", "postalCode": "M4L3M8", "twitter": "None", "instagram": "None", "facebook": "None", "youtube": "None", "website": "None", "summary": "None", "logo": "None", "latitude": 43.668641965577976, "longitude": -79.30948512839726}, "108094392RR0022": {"name": "Corpus Christi Parish", "designationCode": "C", "categoryCode": "38", "address": "750 RUTLAND RD N", "city": "KELOWNA", "province": "BC", "country": "CA", "postalCode": "V1X3B7", "twitter": "None", "instagram": "None", "facebook": "None", "youtube": "None", "website": "None", "summary": "None", "logo": "None", "latitude": 49.89755767055226, "longitude": -119.38690412233774}, "119109817RR0147": {"name": "Corpus Christi Parish", "designationCode": "C", "categoryCode": "38", "address": "1400 CABANA RD W", "city": "WINDSOR", "province": "ON", "country": "CA", "postalCode": "N9G1C4", "twitter": "None", "instagram": "None", "facebook": "None", "youtube": "None", "website": "None", "summary": "None", "logo": "None", "latitude": 42.254339254024586, "longitude": -83.01962852250546}, "896725355RR0001": {"name": "Corrientes Del Sur Colectivo de Cine y Video/Southern Currents Film & Video Collective", "designationCode": "C", "categoryCode": "50", "address": "22-1161 ST CLAIR AVE W", "city": "TORONTO", "province": "ON", "country": "CA", "postalCode": "M6E1B2", "twitter": "None", "instagram": "None", "facebook": "None", "youtube": "None", "website": "None", "summary": "None", "logo": "None", "latitude": 43.67801976972371, "longitude": -79.4430252665196}, "118877224RR0001": {"name": "Cortes Island Seniors Society", "designationCode": "C", "categoryCode": "56", "address": "PO BOX 27 MANSONS LANDING", "city": "CORTES ISLAND", "province": "BC", "country": "CA", "postalCode": "V0P1K0", "twitter": "None", "instagram": "None", "facebook": "None", "youtube": "None", "website": "None", "summary": "None", "logo": "None", "latitude": 50.06744700000006, "longitude": -124.98296299999993}, "830847893RR0001": {"name": "Cosmos Community Support Services Ltd.", "designationCode": "C", "categoryCode": "59", "address": "1-7428 49 AVE", "city": "RED DEER", "province": "AB", "country": "CA", "postalCode": "T4P1M2", "twitter": "None", "instagram": "None", "facebook": "None", "youtube": "None", "website": "None", "summary": "None", "logo": "None", "latitude": 52.300879209992594, "longitude": -113.81063420713197}, "839852308RR0001": {"name": "Cottage Country Cats Animal Rescue", "designationCode": "C", "categoryCode": "54", "address": "POST OFFICE BOX 349", "city": "GOODERHAM", "province": "ON", "country": "CA", "postalCode": "K0M1R0", "twitter": "None", "instagram": "None", "facebook": "None", "youtube": "None", "website": "None", "summary": "None", "logo": "None", "latitude": 44.90723300950823, "longitude": -78.37920012892532}, "835704297RR0001": {"name": "Cottonwood Charitable Foundation", "designationCode": "B", "categoryCode": "03", "address": "1800-510 WEST GEORGIA STREET", "city": "VANCOUVER", "province": "BC", "country": "CA", "postalCode": "V6B0M3", "twitter": "None", "instagram": "None", "facebook": "None", "youtube": "None", "website": "None", "summary": "None", "logo": "None", "latitude": 49.281267759207665, "longitude": -123.11633309804196}, "831736962RR0001": {"name": "Council for The Advancement of African Canadians in Alberta", "designationCode": "C", "categoryCode": "20", "address": "11528-107TH AVENUE            POST OFFICE BOX 64072", "city": "EDMONTON", "province": "AB", "country": "CA", "postalCode": "T5H4K7", "twitter": "None", "instagram": "None", "facebook": "None", "youtube": "None", "website": "None", "summary": "None", "logo": "None", "latitude": 53.551434518754554, "longitude": -113.520762}}