{"890541543RR0001": {"name": "FREDERICTON ROTARY CLUB CHARITABLE TRUST", "designationCode": "C", "categoryCode": "65", "address": "P.O. BOX 301", "city": "FREDERICTON", "province": "NB", "country": "CA", "postalCode": "E3B4Y9", "twitter": "None", "instagram": "None", "facebook": "None", "youtube": "None", "website": "None", "summary": "None", "logo": "None", "latitude": 45.96062100000006, "longitude": -66.63911299999994}, "107669848RR0022": {"name": "FREDERICTON SEVENTH-DAY ADVENTIST CHURCH", "designationCode": "C", "categoryCode": "41", "address": "121 SALISBURY RD", "city": "MONCTON", "province": "NB", "country": "CA", "postalCode": "E1E1A6", "twitter": "None", "instagram": "None", "facebook": "None", "youtube": "None", "website": "None", "summary": "None", "logo": "None", "latitude": 46.0711640413756, "longitude": -64.82144086984238}, "107405284RR0001": {"name": "FREDERICTON SEXUAL ASSAULT CRISIS CENTRE INC.", "designationCode": "C", "categoryCode": "09", "address": "PO BOX 174", "city": "FREDERICTON", "province": "NB", "country": "CA", "postalCode": "E3B4Y9", "twitter": "None", "instagram": "None", "facebook": "None", "youtube": "None", "website": "None", "summary": "None", "logo": "None", "latitude": 45.96062100000006, "longitude": -66.63911299999994}, "118931328RR0001": {"name": "FREDERICTON SOCIETY OF SAINT ANDREW SCOTTISH CULTURAL FUND", "designationCode": "C", "categoryCode": "22", "address": "42 SOMERSET DRIVE", "city": "HANWELL", "province": "NB", "country": "CA", "postalCode": "E3C1M8", "twitter": "None", "instagram": "None", "facebook": "None", "youtube": "None", "website": "None", "summary": "None", "logo": "None", "latitude": 45.897399325004336, "longitude": -66.75814226236311}, "107405300RR0001": {"name": "FREDERICTON SOUTH NURSING HOME INC.", "designationCode": "C", "categoryCode": "10", "address": "521 WOODSTOCK ROAD", "city": "FREDERICTON", "province": "NB", "country": "CA", "postalCode": "E3B2J2", "twitter": "None", "instagram": "None", "facebook": "None", "youtube": "None", "website": "None", "summary": "None", "logo": "None", "latitude": 45.96177346378898, "longitude": -66.67139684263373}, "837557479RR0001": {"name": "FREDERICTON SPCA INC.", "designationCode": "C", "categoryCode": "54", "address": "P.O. BOX 192                  STATION A", "city": "FREDERICTON", "province": "NB", "country": "CA", "postalCode": "E3B4Y9", "twitter": "None", "instagram": "None", "facebook": "None", "youtube": "None", "website": "None", "summary": "None", "logo": "None", "latitude": 45.96062100000006, "longitude": -66.63911299999994}, "862808409RR0001": {"name": "FREDERICTON THERAPEUTIC RIDING ASSOCIATION (FTRA)", "designationCode": "C", "categoryCode": "11", "address": "81 JAFFREY STREET", "city": "FREDERICTON", "province": "NB", "country": "CA", "postalCode": "E3A2R2", "twitter": "None", "instagram": "None", "facebook": "None", "youtube": "None", "website": "None", "summary": "None", "logo": "None", "latitude": 45.97111806272721, "longitude": -66.63652566639732}, "141088187RR0001": {"name": "FREDERICTON TRAILS COALITION INC /COALITION DES SENTIERS DE FREDERICTON INC", "designationCode": "C", "categoryCode": "56", "address": "P.O. BOX 3715, STATION B", "city": "FREDERICTON", "province": "NB", "country": "CA", "postalCode": "E3A5L7", "twitter": "None", "instagram": "None", "facebook": "None", "youtube": "None", "website": "None", "summary": "None", "logo": "None", "latitude": 45.958638328435796, "longitude": -66.62155541090102}, "870100351RR0001": {"name": "FREDERICTON WORD OF FAITH FAMILY CHURCH INC", "designationCode": "C", "categoryCode": "39", "address": "1005 RIVERSIDE DRIVE", "city": "FREDERICTON", "province": "NB", "country": "CA", "postalCode": "E3A8P9", "twitter": "None", "instagram": "None", "facebook": "None", "youtube": "None", "website": "None", "summary": "None", "logo": "None", "latitude": 45.92961319484673, "longitude": -66.59998215846281}, "118931369RR0001": {"name": "FREDERICTON YMCA ENDOWMENT FUND INC.", "designationCode": "A", "categoryCode": "53", "address": "570 YORK STREET", "city": "FREDERICTON", "province": "NB", "country": "CA", "postalCode": "E3B3R2", "twitter": "None", "instagram": "None", "facebook": "None", "youtube": "None", "website": "None", "summary": "None", "logo": "None", "latitude": 45.95291283374693, "longitude": -66.65180774104108}, "839952926RR0001": {"name": "FREDRICKSON-MCGREGOR EDUCATION FOUNDATION FOR LICENSED PRACTICAL NURSES", "designationCode": "C", "categoryCode": "21", "address": "ST ALBERT TRAIL PLACE         13163 146 STREET", "city": "EDMONTON", "province": "AB", "country": "CA", "postalCode": "T5L4S8", "twitter": "None", "instagram": "None", "facebook": "None", "youtube": "None", "website": "None", "summary": "None", "logo": "None", "latitude": 53.59116611998766, "longitude": -113.57174913854706}, "872525704RR0001": {"name": "FREE BAPTIST CEMETERY OF MINERAL LTD.", "designationCode": "C", "categoryCode": "59", "address": "2 - 8860 MAIN ST", "city": "FLORENCEVILLE-BRISTOL", "province": "NB", "country": "CA", "postalCode": "E7L2A1", "twitter": "None", "instagram": "None", "facebook": "None", "youtube": "None", "website": "None", "summary": "None", "logo": "None", "latitude": 46.45626392310587, "longitude": -67.60266604535764}, "874880123RR0001": {"name": "FREE BELIEVERS IN CHRIST FELLOWSHIP INTERNATIONAL (BRITISH COLUMBIA)", "designationCode": "C", "categoryCode": "39", "address": "85 - 7430 - 13 AVE.", "city": "BURNABY", "province": "BC", "country": "CA", "postalCode": "V3N4K4", "twitter": "None", "instagram": "None", "facebook": "None", "youtube": "None", "website": "None", "summary": "None", "logo": "None", "latitude": 49.216025883952, "longitude": -122.94045028097436}, "872899661RR0001": {"name": "FREE BELIEVERS IN CHRIST FELLOWSHIP INTERNATIONAL (ONTARIO)", "designationCode": "C", "categoryCode": "47", "address": "210 MARLEE AVE APT 1", "city": "TORONTO", "province": "ON", "country": "CA", "postalCode": "M6B3H6", "twitter": "None", "instagram": "None", "facebook": "None", "youtube": "None", "website": "None", "summary": "None", "logo": "None", "latitude": 43.70516087454559, "longitude": -79.4423066317155}, "891064743RR0001": {"name": "FREE CHURCH CAMP ASSOCIATION", "designationCode": "C", "categoryCode": "56", "address": "20719 48 AVE", "city": "LANGLEY", "province": "BC", "country": "CA", "postalCode": "V3A3L7", "twitter": "None", "instagram": "None", "facebook": "None", "youtube": "None", "website": "None", "summary": "None", "logo": "None", "latitude": 49.08961751543632, "longitude": -122.6480820298344}, "107405755RR0001": {"name": "FREE CHURCH OF SCOTLAND", "designationCode": "C", "categoryCode": "39", "address": "593 SHEPPARD AVE E", "city": "WILLOWDALE", "province": "ON", "country": "CA", "postalCode": "M2K1B4", "twitter": "None", "instagram": "None", "facebook": "None", "youtube": "None", "website": "None", "summary": "None", "logo": "None", "latitude": 43.76767082315802, "longitude": -79.38380681805079}, "107405730RR0001": {"name": "FREE CHURCH OF SCOTLAND EASTERN CHARGE", "designationCode": "C", "categoryCode": "39", "address": "PO BOX 753", "city": "MONTAGUE", "province": "PE", "country": "CA", "postalCode": "C0A1R0", "twitter": "None", "instagram": "None", "facebook": "None", "youtube": "None", "website": "None", "summary": "None", "logo": "None", "latitude": 46.14343222329997, "longitude": -62.75594020244682}, "118931427RR0001": {"name": "FREE CHURCH OF SCOTLAND-WESTERN PARISH", "designationCode": "C", "categoryCode": "37", "address": "40 UPTON PARK DR", "city": "CHARLOTTETOWN", "province": "PE", "country": "CA", "postalCode": "C1E1Z5", "twitter": "None", "instagram": "None", "facebook": "None", "youtube": "None", "website": "None", "summary": "None", "logo": "None", "latitude": 46.277831703849095, "longitude": -63.184426952536235}, "823010517RR0001": {"name": "FREE FOR ALL FOUNDATION", "designationCode": "C", "categoryCode": "09", "address": "PO BOX 23519 RPO CENTENNIAL", "city": "BRAMPTON", "province": "ON", "country": "CA", "postalCode": "L6V4J4", "twitter": "None", "instagram": "None", "facebook": "None", "youtube": "None", "website": "None", "summary": "None", "logo": "None", "latitude": 43.703729962779406, "longitude": -79.75760999495095}, "885076604RR0001": {"name": "FREE FOR ALL OUTREACH MINISTRY OF CHRIST INC.", "designationCode": "C", "categoryCode": "39", "address": "110-101 WESTMORE DR", "city": "ETOBICOKE", "province": "ON", "country": "CA", "postalCode": "M9V3Y7", "twitter": "None", "instagram": "None", "facebook": "None", "youtube": "None", "website": "None", "summary": "None", "logo": "None", "latitude": 43.73721812934957, "longitude": -79.60210830163349}, "889273777RR0001": {"name": "FREE GRACE BAPTIST CHURCH", "designationCode": "C", "categoryCode": "39", "address": "34837 OAKHILL DR", "city": "ABBOTSFORD", "province": "BC", "country": "CA", "postalCode": "V2S7R3", "twitter": "None", "instagram": "None", "facebook": "None", "youtube": "None", "website": "None", "summary": "None", "logo": "None", "latitude": 49.04456250043269, "longitude": -122.25948283236193}, "118931534RR0001": {"name": "FREE HEBREW FOR JUNIORS", "designationCode": "C", "categoryCode": "21", "address": "4585 BOURRET", "city": "MONTREAL", "province": "QC", "country": "CA", "postalCode": "H3S1X1", "twitter": "None", "instagram": "None", "facebook": "None", "youtube": "None", "website": "None", "summary": "None", "logo": "None", "latitude": 45.495458957268085, "longitude": -73.63273412311715}, "888355849RR0001": {"name": "FREE LOAN OF CHASIDEI BELZ", "designationCode": "C", "categoryCode": "09", "address": "5459 DUROCHER AVE.", "city": "OUTREMONT", "province": "QC", "country": "CA", "postalCode": "H2V3X9", "twitter": "None", "instagram": "None", "facebook": "None", "youtube": "None", "website": "None", "summary": "None", "logo": "None", "latitude": 45.52047325757394, "longitude": -73.60243221036997}, "118931567RR0001": {"name": "FREE LOAN ORGANIZATION OF MONTREAL", "designationCode": "C", "categoryCode": "09", "address": "6305 HILSDALE", "city": "MONTREAL", "province": "QC", "country": "CA", "postalCode": "H3S2M8", "twitter": "None", "instagram": "None", "facebook": "None", "youtube": "None", "website": "None", "summary": "None", "logo": "None", "latitude": 45.511001057995344, "longitude": -73.62504012949378}, "107405888RR0001": {"name": "FREE MAGYAR REFORMED CHURCH (WINDSOR)", "designationCode": "C", "categoryCode": "39", "address": "1396 ELSMERE AVE", "city": "WINDSOR", "province": "ON", "country": "CA", "postalCode": "N8X4G8", "twitter": "None", "instagram": "None", "facebook": "None", "youtube": "None", "website": "None", "summary": "None", "logo": "None", "latitude": 42.30617018541167, "longitude": -83.01721311653895}, "107405961RR0001": {"name": "FREE METHODIST CENTENNIAL CHAPEL", "designationCode": "C", "categoryCode": "39", "address": "975 WINDBREAK ST", "city": "KAMLOOPS", "province": "BC", "country": "CA", "postalCode": "V2B5P5", "twitter": "None", "instagram": "None", "facebook": "None", "youtube": "None", "website": "None", "summary": "None", "logo": "None", "latitude": 50.70493699417162, "longitude": -120.40428061723145}, "891637571RR0001": {"name": "FREE METHODIST CHURCH MEWASSIN", "designationCode": "C", "categoryCode": "39", "address": "BOX 25", "city": "DUFFIELD", "province": "AB", "country": "CA", "postalCode": "T0E0N0", "twitter": "None", "instagram": "None", "facebook": "None", "youtube": "None", "website": "None", "summary": "None", "logo": "None", "latitude": 53.527630000000045, "longitude": -114.34564999999998}, "829153964RR0001": {"name": "FREE METHODIST TAMIL CHURCH BRAMPTON", "designationCode": "C", "categoryCode": "39", "address": "355 HOWDEN BLVD.", "city": "BRAMPTON", "province": "ON", "country": "CA", "postalCode": "L6S4L6", "twitter": "None", "instagram": "None", "facebook": "None", "youtube": "None", "website": "None", "summary": "None", "logo": "None", "latitude": 43.71757964588242, "longitude": -79.74011635293415}, "118931880RR0001": {"name": "FREE PENTECOSTAL CHURCH", "designationCode": "C", "categoryCode": "36", "address": "BOX 223", "city": "YORKTON", "province": "SK", "country": "CA", "postalCode": "S3N2V7", "twitter": "None", "instagram": "None", "facebook": "None", "youtube": "None", "website": "None", "summary": "None", "logo": "None", "latitude": 51.20403900000005, "longitude": -102.44985199999994}, "877158501RR0001": {"name": "FREE REFORMED CHURCH OF BORNHOLM", "designationCode": "C", "categoryCode": "39", "address": "P.O BOX 722", "city": "SEAFORTH", "province": "ON", "country": "CA", "postalCode": "N0K1W0", "twitter": "None", "instagram": "None", "facebook": "None", "youtube": "None", "website": "None", "summary": "None", "logo": "None", "latitude": 43.55304000000007, "longitude": -81.39369999999997}, "137175931RR0001": {"name": "FREE REFORMED CHURCH OF CHILLIWACK, B.C.", "designationCode": "C", "categoryCode": "39", "address": "8840 BROADWAY STREET", "city": "CHILLIWACK", "province": "BC", "country": "CA", "postalCode": "V2P5W1", "twitter": "None", "instagram": "None", "facebook": "None", "youtube": "None", "website": "None", "summary": "None", "logo": "None", "latitude": 49.16274795435419, "longitude": -121.93465812433512}, "118931948RR0001": {"name": "FREE REFORMED CHURCH OF DUNDAS", "designationCode": "C", "categoryCode": "39", "address": "1576,2ND CONCESSION RD RR 1", "city": "LYNDEN", "province": "ON", "country": "CA", "postalCode": "L0R1T0", "twitter": "None", "instagram": "None", "facebook": "None", "youtube": "None", "website": "None", "summary": "None", "logo": "None", "latitude": 43.257409703272195, "longitude": -80.0904989188067}, "118931955RR0001": {"name": "FREE REFORMED CHURCH OF LANGLEY", "designationCode": "C", "categoryCode": "39", "address": "16726 80 AVE", "city": "SURREY", "province": "BC", "country": "CA", "postalCode": "V4N0G8", "twitter": "None", "instagram": "None", "facebook": "None", "youtube": "None", "website": "None", "summary": "None", "logo": "None", "latitude": 49.14774217984309, "longitude": -122.7586547714524}, "126801398RR0001": {"name": "FREE REFORMED CHURCH OF NORTH AMERICA", "designationCode": "C", "categoryCode": "39", "address": "PO BOX 20060                  1274 TOTE ROAD", "city": "LONDON", "province": "ON", "country": "CA", "postalCode": "N6K2K0", "twitter": "None", "instagram": "None", "facebook": "None", "youtube": "None", "website": "None", "summary": "None", "logo": "None", "latitude": 42.95827974883136, "longitude": -81.37147079693031}, "107406415RR0001": {"name": "FREE REFORMED CHURCH OF ST. THOMAS", "designationCode": "C", "categoryCode": "39", "address": "145 ST.GEORGE STREET", "city": "ST.THOMAS", "province": "ON", "country": "CA", "postalCode": "N5P3M3", "twitter": "None", "instagram": "None", "facebook": "None", "youtube": "None", "website": "None", "summary": "None", "logo": "None", "latitude": 42.790895743423675, "longitude": -81.2042033122375}, "864113626RR0001": {"name": "FREE REFORMED CHURCHES OF NORTH AMERICA", "designationCode": "C", "categoryCode": "39", "address": "PO BOX 497", "city": "ST GEORGE BRANT", "province": "ON", "country": "CA", "postalCode": "N0E1N0", "twitter": "None", "instagram": "None", "facebook": "None", "youtube": "None", "website": "None", "summary": "None", "logo": "None", "latitude": 43.10805150000001, "longitude": -80.4166515}, "868875147RR0001": {"name": "FREE REFORMED MISSIONS INTERNATIONAL", "designationCode": "C", "categoryCode": "39", "address": "14 SOUTHLAND DR", "city": "LONDON", "province": "ON", "country": "CA", "postalCode": "N6P1C2", "twitter": "None", "instagram": "None", "facebook": "None", "youtube": "None", "website": "None", "summary": "None", "logo": "None", "latitude": 42.90342108133753, "longitude": -81.29511660006342}, "107406514RR0001": {"name": "FREE REFORMED SENIOR CITIZENS HOME INCORPORATED", "designationCode": "C", "categoryCode": "01", "address": "1058 BOTANICAL DR", "city": "BURLINGTON", "province": "ON", "country": "CA", "postalCode": "L7T1V2", "twitter": "None", "instagram": "None", "facebook": "None", "youtube": "None", "website": "None", "summary": "None", "logo": "None", "latitude": 43.2899496264067, "longitude": -79.877620569825}, "119145555RR0001": {"name": "FREE SERBIAN EASTERN ORTHODOX CHURCH OF ST. PETER AND PAUL OF SUDBURY", "designationCode": "C", "categoryCode": "39", "address": "515 ANTWERP AVENUE", "city": "SUDBURY", "province": "ON", "country": "CA", "postalCode": "P3C4M9", "twitter": "None", "instagram": "None", "facebook": "None", "youtube": "None", "website": "None", "summary": "None", "logo": "None", "latitude": 46.50390822667193, "longitude": -81.00191475935718}, "894468198RR0001": {"name": "FREE SPIRIT MINISTRIES, INC.", "designationCode": "C", "categoryCode": "43", "address": "10 - 4 OAKBURN CRES", "city": "NORTH YORK", "province": "ON", "country": "CA", "postalCode": "M2N2T4", "twitter": "None", "instagram": "None", "facebook": "None", "youtube": "None", "website": "None", "summary": "None", "logo": "None", "latitude": 43.75842116515658, "longitude": -79.40499956869982}, "118932037RR0001": {"name": "FREE WILL BAPTIST CHURCH OF BRISTOL", "designationCode": "C", "categoryCode": "31", "address": "20 TAPLEY RD", "city": "BRISTOL", "province": "NB", "country": "CA", "postalCode": "E7L2E1", "twitter": "None", "instagram": "None", "facebook": "None", "youtube": "None", "website": "None", "summary": "None", "logo": "None", "latitude": 46.456109829087275, "longitude": -67.61904522429859}, "806286944RR0001": {"name": "FREE WILL BAPTIST CHURCH OF HOLMESVILLE, NEW BRUNSWICK INC.", "designationCode": "C", "categoryCode": "31", "address": "P O BOX 507", "city": "BATH", "province": "NB", "country": "CA", "postalCode": "E7J2N3", "twitter": "None", "instagram": "None", "facebook": "None", "youtube": "None", "website": "None", "summary": "None", "logo": "None", "latitude": 46.50950400000005, "longitude": -67.59541249999994}, "118932060RR0001": {"name": "FREE WILL BAPTIST CHURCH OF LANSDOWNE", "designationCode": "C", "categoryCode": "31", "address": "7646 ROUTE 105", "city": "PEEL", "province": "NB", "country": "CA", "postalCode": "E7L3Y6", "twitter": "None", "instagram": "None", "facebook": "None", "youtube": "None", "website": "None", "summary": "None", "logo": "None", "latitude": 46.363300258213116, "longitude": -67.55775588293056}, "118932078RR0001": {"name": "FREE WILL BAPTIST CHURCH OF LERWICK", "designationCode": "C", "categoryCode": "31", "address": "389 CURRIE ROAD", "city": "TILLEY", "province": "NB", "country": "CA", "postalCode": "E7H1W1", "twitter": "None", "instagram": "None", "facebook": "None", "youtube": "None", "website": "None", "summary": "None", "logo": "None", "latitude": 46.8626559261643, "longitude": -67.58889750164478}, "107406597RR0001": {"name": "FREE WILL BAPTIST CHURCH OF PLASTER ROCK", "designationCode": "C", "categoryCode": "31", "address": "203 MAIN ST", "city": "PLASTER ROCK", "province": "NB", "country": "CA", "postalCode": "E7G2G8", "twitter": "None", "instagram": "None", "facebook": "None", "youtube": "None", "website": "None", "summary": "None", "logo": "None", "latitude": 46.90383345045876, "longitude": -67.39633115436517}, "118932102RR0001": {"name": "FREE WILL BAPTIST CHURCH OF STICKNEY", "designationCode": "C", "categoryCode": "31", "address": "9 CHURCH STREET", "city": "STICKNEY CARLETON CO", "province": "NB", "country": "CA", "postalCode": "E7L4E3", "twitter": "None", "instagram": "None", "facebook": "None", "youtube": "None", "website": "None", "summary": "None", "logo": "None", "latitude": 46.3847818029542, "longitude": -67.57174315633445}, "888877461RR0001": {"name": "FREED AND ORMAN FAMILIES CHARITABLE FOUNDATION", "designationCode": "B", "categoryCode": "03", "address": "1526 OTTAWA STREET", "city": "WINDSOR", "province": "ON", "country": "CA", "postalCode": "N8X2G5", "twitter": "None", "instagram": "None", "facebook": "None", "youtube": "None", "website": "None", "summary": "None", "logo": "None", "latitude": 42.31076356789175, "longitude": -83.00975193937892}, "856011747RR0001": {"name": "FREEDOM APOSTOLIC MINISTRIES", "designationCode": "C", "categoryCode": "31", "address": "2114 ARBORVIEW DR", "city": "LAKEFIELD", "province": "ON", "country": "CA", "postalCode": "K0L2H0", "twitter": "None", "instagram": "None", "facebook": "None", "youtube": "None", "website": "None", "summary": "None", "logo": "None", "latitude": 44.48715796696296, "longitude": -78.24495224594583}, "866813991RR0001": {"name": "FREEDOM AT DEPTH CANADA/LIBERT\u00c9 EN PROFONDEUR CANADA", "designationCode": "C", "categoryCode": "56", "address": "2 RUE DE L'ESCALE", "city": "GATINEAU", "province": "QC", "country": "CA", "postalCode": "J8Z3R2", "twitter": "None", "instagram": "None", "facebook": "None", "youtube": "None", "website": "None", "summary": "None", "logo": "None", "latitude": 45.47349471495762, "longitude": -75.73677975578492}, "891269748RR0001": {"name": "FREEDOM BIBLE CHURCH", "designationCode": "C", "categoryCode": "39", "address": "RR 1", "city": "THORBURN", "province": "NS", "country": "CA", "postalCode": "B0K1W0", "twitter": "None", "instagram": "None", "facebook": "None", "youtube": "None", "website": "None", "summary": "None", "logo": "None", "latitude": 45.56894299795978, "longitude": -62.53528136563699}, "118931443RR0001": {"name": "FREEDOM CHAPEL FOUNDATION OF CANADA CORPORATION", "designationCode": "C", "categoryCode": "39", "address": "5-3410 MIDLAND AVE.", "city": "SCARBOROUGH", "province": "ON", "country": "CA", "postalCode": "M1V4V5", "twitter": "None", "instagram": "None", "facebook": "None", "youtube": "None", "website": "None", "summary": "None", "logo": "None", "latitude": 43.81102834609616, "longitude": -79.29062276369076}, "107406316RR0015": {"name": "FREEDOM CHRISTIAN COMMUNITY", "designationCode": "C", "categoryCode": "39", "address": "P.O. BOX 28019                NORTH PARK PLAZA P.O.", "city": "BRANTFORD", "province": "ON", "country": "CA", "postalCode": "N3R7X5", "twitter": "None", "instagram": "None", "facebook": "None", "youtube": "None", "website": "None", "summary": "None", "logo": "None", "latitude": 43.164344813079865, "longitude": -80.2649226702642}, "108016312RR0001": {"name": "FREEDOM CHRISTIAN FELLOWSHIP", "designationCode": "C", "categoryCode": "36", "address": "BOX 898", "city": "STETTLER", "province": "AB", "country": "CA", "postalCode": "T0C2L0", "twitter": "None", "instagram": "None", "facebook": "None", "youtube": "None", "website": "None", "summary": "None", "logo": "None", "latitude": 52.32597900000006, "longitude": -112.70698099999993}, "815467147RR0001": {"name": "FREEDOM CITY MINISTRIES", "designationCode": "C", "categoryCode": "39", "address": "28 - 150 BAMBURGH CIR", "city": "SCARBOROUGH", "province": "ON", "country": "CA", "postalCode": "M1W3V7", "twitter": "None", "instagram": "None", "facebook": "None", "youtube": "None", "website": "None", "summary": "None", "logo": "None", "latitude": 43.812341235356946, "longitude": -79.3264869414564}, "122491806RR0001": {"name": "FREEDOM FOUNDATION OF NOVA SCOTIA", "designationCode": "C", "categoryCode": "57", "address": "P.O. BOX 23027 SC-RPO", "city": "DARTMOUTH", "province": "NS", "country": "CA", "postalCode": "B3A1N7", "twitter": "None", "instagram": "None", "facebook": "None", "youtube": "None", "website": "None", "summary": "None", "logo": "None", "latitude": 44.67060600000005, "longitude": -63.57828499999994}, "832604540RR0001": {"name": "FREEDOM GOSPEL ETHIOPIAN'S CHURCH", "designationCode": "C", "categoryCode": "39", "address": "2174 DANFORTH AVENUE", "city": "TORONTO", "province": "ON", "country": "CA", "postalCode": "M4C1K3", "twitter": "None", "instagram": "None", "facebook": "None", "youtube": "None", "website": "None", "summary": "None", "logo": "None", "latitude": 43.68631111076791, "longitude": -79.3102593341796}, "810163998RR0001": {"name": "FREEDOM HILL CHURCH INC.", "designationCode": "C", "categoryCode": "36", "address": "465 ATLANTIC AVE", "city": "WINNIPEG", "province": "MB", "country": "CA", "postalCode": "R2W0R7", "twitter": "None", "instagram": "None", "facebook": "None", "youtube": "None", "website": "None", "summary": "None", "logo": "None", "latitude": 49.92922390259097, "longitude": -97.13611133720937}, "891429524RR0001": {"name": "FREEDOM HOUSE CANADA INC", "designationCode": "C", "categoryCode": "39", "address": "219 HALLS MILL RD", "city": "LONDON", "province": "ON", "country": "CA", "postalCode": "N6K2L3", "twitter": "None", "instagram": "None", "facebook": "None", "youtube": "None", "website": "None", "summary": "None", "logo": "None", "latitude": 42.96278828864908, "longitude": -81.33436940218694}, "850053349RR0001": {"name": "FREEDOM HOUSE INTERNATIONAL CHURCH", "designationCode": "C", "categoryCode": "39", "address": "103 - 1 MARKET ST", "city": "BRANTFORD", "province": "ON", "country": "CA", "postalCode": "N3T6C8", "twitter": "None", "instagram": "None", "facebook": "None", "youtube": "None", "website": "None", "summary": "None", "logo": "None", "latitude": 43.13900411824106, "longitude": -80.26350328536046}, "861168607RR0001": {"name": "FREEDOM HOUSE RECOVERY SOCIETY", "designationCode": "C", "categoryCode": "09", "address": "14739 WELLINGTON DR", "city": "SURREY", "province": "BC", "country": "CA", "postalCode": "V3R8Z8", "twitter": "None", "instagram": "None", "facebook": "None", "youtube": "None", "website": "None", "summary": "None", "logo": "None", "latitude": 49.20931432168613, "longitude": -122.81352759463907}, "889057931RR0001": {"name": "FREEDOM IN CHRIST MINISTRIES", "designationCode": "C", "categoryCode": "39", "address": "107 COMMERCIAL ST", "city": "WELLAND", "province": "ON", "country": "CA", "postalCode": "L3B5Z1", "twitter": "None", "instagram": "None", "facebook": "None", "youtube": "None", "website": "None", "summary": "None", "logo": "None", "latitude": 42.97184197446478, "longitude": -79.24189494460173}, "135463180RR0001": {"name": "FREEDOM IN CHRIST MINISTRIES CANADA INCORPORATED", "designationCode": "C", "categoryCode": "47", "address": "P.O. BOX 33115", "city": "REGINA", "province": "SK", "country": "CA", "postalCode": "S4T7X2", "twitter": "None", "instagram": "None", "facebook": "None", "youtube": "None", "website": "None", "summary": "None", "logo": "None", "latitude": 50.448246000000054, "longitude": -104.59517299999993}, "823571864RR0001": {"name": "FREEDOM IN CHRIST PENTECOSTAL ASSEMBLY", "designationCode": "C", "categoryCode": "36", "address": "1643 BLEAMS ROAD", "city": "KITCHENER", "province": "ON", "country": "CA", "postalCode": "N2E3X8", "twitter": "None", "instagram": "None", "facebook": "None", "youtube": "None", "website": "None", "summary": "None", "logo": "None", "latitude": 43.400442535057195, "longitude": -80.5064009516995}, "857771075RR0001": {"name": "FREEDOM OUTREACH INC.", "designationCode": "C", "categoryCode": "57", "address": "BOX 271", "city": "DENARE BEACH", "province": "SK", "country": "CA", "postalCode": "S0P0B0", "twitter": "None", "instagram": "None", "facebook": "None", "youtube": "None", "website": "None", "summary": "None", "logo": "None", "latitude": 54.65890500000006, "longitude": -102.07980349999994}, "867977878RR0001": {"name": "FREEDOM POINT CHURCH", "designationCode": "C", "categoryCode": "39", "address": "55 AUTUMN PLACE", "city": "ST CATHARINES", "province": "ON", "country": "CA", "postalCode": "L2P3W6", "twitter": "None", "instagram": "None", "facebook": "None", "youtube": "None", "website": "None", "summary": "None", "logo": "None", "latitude": 43.14273872078599, "longitude": -79.20585715892415}, "895460525RR0001": {"name": "FREEDOM TRAILS THERAPEUTIC RIDING ASSOCIATION", "designationCode": "C", "categoryCode": "56", "address": "BOX 20054", "city": "WHITEHORSE", "province": "YT", "country": "CA", "postalCode": "Y1A7A2", "twitter": "None", "instagram": "None", "facebook": "None", "youtube": "None", "website": "None", "summary": "None", "logo": "None", "latitude": 60.72084600000005, "longitude": -135.05323399999992}, "851044677RR0001": {"name": "FREEDOM VICTORY CHRISTIAN CENTRE", "designationCode": "C", "categoryCode": "39", "address": "1050 SIMCOE ST N", "city": "OSHAWA", "province": "ON", "country": "CA", "postalCode": "L1G4W5", "twitter": "None", "instagram": "None", "facebook": "None", "youtube": "None", "website": "None", "summary": "None", "logo": "None", "latitude": 43.9253688905426, "longitude": -78.87575364233709}, "864767272RR0002": {"name": "FREEDOM WATER SOCIETY", "designationCode": "C", "categoryCode": "01", "address": "520 HOLLYDELL ROAD", "city": "KELOWNA", "province": "BC", "country": "CA", "postalCode": "V1X1L3", "twitter": "None", "instagram": "None", "facebook": "None", "youtube": "None", "website": "None", "summary": "None", "logo": "None", "latitude": 49.882215518754556, "longitude": -119.39584436081135}, "836444505RR0001": {"name": "FREEDOM!-BEYOND ABUSE", "designationCode": "C", "categoryCode": "09", "address": "1517 BROOKVIEW DRIVE", "city": "KINGSVILLE", "province": "ON", "country": "CA", "postalCode": "N9Y2W6", "twitter": "None", "instagram": "None", "facebook": "None", "youtube": "None", "website": "None", "summary": "None", "logo": "None", "latitude": 42.03816190227384, "longitude": -82.66071809732212}, "138603162RR0001": {"name": "FREEDOMFIRE FULL GOSPEL MINISTRIES", "designationCode": "C", "categoryCode": "39", "address": "10837-155A ST", "city": "SURREY", "province": "BC", "country": "CA", "postalCode": "V3R0H7", "twitter": "None", "instagram": "None", "facebook": "None", "youtube": "None", "website": "None", "summary": "None", "logo": "None", "latitude": 49.19950649125744, "longitude": -122.79126498280331}, "735308298RR0001": {"name": "FREEDOMS GATE EQUINE RESCUE SOCIETY", "designationCode": "C", "categoryCode": "54", "address": "4730 44 NW AVE", "city": "SALMON ARM", "province": "BC", "country": "CA", "postalCode": "V1E3A7", "twitter": "None", "instagram": "None", "facebook": "None", "youtube": "None", "website": "None", "summary": "None", "logo": "None", "latitude": 50.731924778233086, "longitude": -119.33998725601607}, "834624678RR0001": {"name": "FREEING THE HUMAN SPIRIT", "designationCode": "C", "categoryCode": "59", "address": "809 BLACKBURN MEWS", "city": "KINGSTON", "province": "ON", "country": "CA", "postalCode": "K7P2N6", "twitter": "None", "instagram": "None", "facebook": "None", "youtube": "None", "website": "None", "summary": "None", "logo": "None", "latitude": 44.25138075327475, "longitude": -76.57103968405535}, "118931542RR0001": {"name": "FREELAND PRESBYTERIAN CHURCH", "designationCode": "C", "categoryCode": "37", "address": "84 LITTLE CHANNEL ROAD        RR2", "city": "ELLERSLIE", "province": "PE", "country": "CA", "postalCode": "C0B1J0", "twitter": "None", "instagram": "None", "facebook": "None", "youtube": "None", "website": "None", "summary": "None", "logo": "None", "latitude": 46.6512833716314, "longitude": -63.946673109902505}, "118931591RR0001": {"name": "FREELTON-STRABANE PASTORAL CHARGE", "designationCode": "C", "categoryCode": "44", "address": "705 - 14 SPRUCE ST", "city": "CAMBRIDGE", "province": "ON", "country": "CA", "postalCode": "N1R7L1", "twitter": "None", "instagram": "None", "facebook": "None", "youtube": "None", "website": "None", "summary": "None", "logo": "None", "latitude": 43.35783209908249, "longitude": -80.30826911757723}, "118931906RR0001": {"name": "FREEPORT UNITED BAPTIST CHURCH", "designationCode": "C", "categoryCode": "31", "address": "FREEPORT", "city": "FREEPORT", "province": "NS", "country": "CA", "postalCode": "B0V1B0", "twitter": "None", "instagram": "None", "facebook": "None", "youtube": "None", "website": "None", "summary": "None", "logo": "None", "latitude": 44.27857000000006, "longitude": -66.32304999999997}, "828437129RR0001": {"name": "FREETHOUGHT ASSOCIATION OF CANADA INC. / ASSOCIATION CANADIENNE DE LA LIBRE-PENS\u00c9E INC.", "designationCode": "C", "categoryCode": "29", "address": "202 WILTSHIRE AVENUE", "city": "TORONTO", "province": "ON", "country": "CA", "postalCode": "M6N5G2", "twitter": "None", "instagram": "None", "facebook": "None", "youtube": "None", "website": "None", "summary": "None", "logo": "None", "latitude": 43.672510215650085, "longitude": -79.45395131225106}, "886390392RR0001": {"name": "FREETOWN PEOPLES CEMETERY INC.", "designationCode": "C", "categoryCode": "59", "address": "1378 FREETOWN ROAD", "city": "FREETOWN", "province": "PE", "country": "CA", "postalCode": "C0B1L0", "twitter": "None", "instagram": "None", "facebook": "None", "youtube": "None", "website": "None", "summary": "None", "logo": "None", "latitude": 46.373161820416726, "longitude": -63.623238307519195}, "118932151RR0001": {"name": "FRENCH IMMERSION ASSOCIATION OF GUELPH", "designationCode": "C", "categoryCode": "21", "address": "9 DEERCHASE CRT", "city": "GUELPH", "province": "ON", "country": "CA", "postalCode": "N1G3X5", "twitter": "None", "instagram": "None", "facebook": "None", "youtube": "None", "website": "None", "summary": "None", "logo": "None", "latitude": 43.50534818705645, "longitude": -80.22841646699162}, "118932169RR0001": {"name": "FRENCH LAKE BAPTIST CHURCH", "designationCode": "C", "categoryCode": "31", "address": "180 MILLS ROAD", "city": "FRENCH LAKE", "province": "NB", "country": "CA", "postalCode": "E2V4G6", "twitter": "None", "instagram": "None", "facebook": "None", "youtube": "None", "website": "None", "summary": "None", "logo": "None", "latitude": 45.77357016973075, "longitude": -66.52844845743589}, "890409394RR0001": {"name": "FRENCH SCHOOL SOCIETY/LA SOCIETE DE L'ECOLE FRANCAISE INC", "designationCode": "C", "categoryCode": "21", "address": "1441 WELLINGTON ST.", "city": "SASKATOON", "province": "SK", "country": "CA", "postalCode": "S7M1L3", "twitter": "None", "instagram": "None", "facebook": "None", "youtube": "None", "website": "None", "summary": "None", "logo": "None", "latitude": 52.108969487881886, "longitude": -106.69246038634658}, "892991860RR0001": {"name": "FRENCHMAN BUTTE MUSEUM SOCIETY", "designationCode": "C", "categoryCode": "50", "address": "BOX 114", "city": "FRENCHMAN BUTTE", "province": "SK", "country": "CA", "postalCode": "S0M0W0", "twitter": "None", "instagram": "None", "facebook": "None", "youtube": "None", "website": "None", "summary": "None", "logo": "None", "latitude": 53.592910000000074, "longitude": -109.63340999999997}, "892034372RR0001": {"name": "FRENCHMAN RIVER VALLEY GOSPEL MUSIC JAMBOREE INC", "designationCode": "C", "categoryCode": "47", "address": "PO BOX 715", "city": "SHAUNAVON", "province": "SK", "country": "CA", "postalCode": "S0N2M0", "twitter": "None", "instagram": "None", "facebook": "None", "youtube": "None", "website": "None", "summary": "None", "logo": "None", "latitude": 49.64645000000007, "longitude": -108.41961999999995}, "118872365RR0002": {"name": "FRERES DE L'INSTRUCTION CHRETIENNE", "designationCode": "C", "categoryCode": "46", "address": "870 CHEMIN ST-JEAN", "city": "LAPRAIRIE", "province": "QC", "country": "CA", "postalCode": "J5R2L5", "twitter": "None", "instagram": "None", "facebook": "None", "youtube": "None", "website": "None", "summary": "None", "logo": "None", "latitude": 45.4136204272915, "longitude": -73.48291245716955}, "107407041RR0001": {"name": "FRERES DE SAINT-GABRIEL DU CANADA", "designationCode": "C", "categoryCode": "46", "address": "1601 BOUL. GOUIN E", "city": "MONTREAL", "province": "QC", "country": "CA", "postalCode": "H2C1C2", "twitter": "None", "instagram": "None", "facebook": "None", "youtube": "None", "website": "None", "summary": "None", "logo": "None", "latitude": 45.56598966224239, "longitude": -73.66200531008667}, "891845042RR0001": {"name": "FRESH ANOINTING MINISTRIES OF CANADA", "designationCode": "C", "categoryCode": "49", "address": "303 - 4230 SHERWOODTOWNE BLVD", "city": "MISSISSAUGA", "province": "ON", "country": "CA", "postalCode": "L4Z2G6", "twitter": "None", "instagram": "None", "facebook": "None", "youtube": "None", "website": "None", "summary": "None", "logo": "None", "latitude": 43.600357574211095, "longitude": -79.640639394368}, "855749230RR0001": {"name": "FRESH OIL & FIRE MINISTRIES SOCIETY", "designationCode": "C", "categoryCode": "49", "address": "94 PERRY DRIVE", "city": "SYLVAN LAKE", "province": "AB", "country": "CA", "postalCode": "T4S1K2", "twitter": "None", "instagram": "None", "facebook": "None", "youtube": "None", "website": "None", "summary": "None", "logo": "None", "latitude": 52.29948951875455, "longitude": -114.094611}, "827570326RR0001": {"name": "FRESH START MINISTRIES INC.", "designationCode": "C", "categoryCode": "09", "address": "26 - 18TH ST. EAST", "city": "PRINCE ALBERT", "province": "SK", "country": "CA", "postalCode": "S6V1G9", "twitter": "None", "instagram": "None", "facebook": "None", "youtube": "None", "website": "None", "summary": "None", "logo": "None", "latitude": 53.19679049321932, "longitude": -105.7531905}, "864949425RR0001": {"name": "FRESH WIND CHRISTIAN FELLOWSHIP", "designationCode": "C", "categoryCode": "39", "address": "8 - 33361 WREN CRES", "city": "ABBOTSFORD", "province": "BC", "country": "CA", "postalCode": "V2S5V9", "twitter": "None", "instagram": "None", "facebook": "None", "youtube": "None", "website": "None", "summary": "None", "logo": "None", "latitude": 49.058686288649085, "longitude": -122.29882219147117}, "877829184RR0001": {"name": "FRESH WIND MINISTRIES", "designationCode": "C", "categoryCode": "49", "address": "22311 50TH AVE", "city": "LANGLEY", "province": "BC", "country": "CA", "postalCode": "V2Y2V4", "twitter": "None", "instagram": "None", "facebook": "None", "youtube": "None", "website": "None", "summary": "None", "logo": "None", "latitude": 49.093050478215694, "longitude": -122.60638277699232}, "838399103RR0001": {"name": "FRESHWATER FUTURE CANADA", "designationCode": "C", "categoryCode": "59", "address": "P O BOX 233 STATION B", "city": "TORONTO", "province": "ON", "country": "CA", "postalCode": "M5T2W1", "twitter": "None", "instagram": "None", "facebook": "None", "youtube": "None", "website": "None", "summary": "None", "logo": "None", "latitude": 43.64868300000006, "longitude": -79.38544399999994}, "118932250RR0001": {"name": "FRESHWATER UNITED CHURCH", "designationCode": "C", "categoryCode": "44", "address": "99 FRESHWATER ROAD            PO BOX 113 RR#1", "city": "CARBONEAR", "province": "NL", "country": "CA", "postalCode": "A1Y1C6", "twitter": "None", "instagram": "None", "facebook": "None", "youtube": "None", "website": "None", "summary": "None", "logo": "None", "latitude": 47.726997000000054, "longitude": -53.218803499999936}, "118932268RR0001": {"name": "FRIEDRICH SCHILLER FOUNDATION FOR GERMAN-CANADIAN CULTURE", "designationCode": "A", "categoryCode": "23", "address": "3141 WHARTON WAY", "city": "MISSISSAUGA", "province": "ON", "country": "CA", "postalCode": "L4X2B6", "twitter": "None", "instagram": "None", "facebook": "None", "youtube": "None", "website": "None", "summary": "None", "logo": "None", "latitude": 43.62164446520262, "longitude": -79.57748468826854}, "107016958RR0001": {"name": "FRIEDRICH SCHILLER SCHULE INC.", "designationCode": "C", "categoryCode": "20", "address": "P O BOX 232", "city": "CALEDON EAST", "province": "ON", "country": "CA", "postalCode": "L7C3L9", "twitter": "None", "instagram": "None", "facebook": "None", "youtube": "None", "website": "None", "summary": "None", "logo": "None", "latitude": 43.869777000000056, "longitude": -79.86667399999993}, "885475509RR0001": {"name": "FRIEND 2 FRIEND SOCIAL LEARNING SOCIETY", "designationCode": "C", "categoryCode": "20", "address": "596 BLUERIDGE AVE", "city": "NORTH VANCOUVER", "province": "BC", "country": "CA", "postalCode": "V7R2J2", "twitter": "None", "instagram": "None", "facebook": "None", "youtube": "None", "website": "None", "summary": "None", "logo": "None", "latitude": 49.355053552339854, "longitude": -123.08515456353527}, "896506888RR0001": {"name": "FRIENDLY FOLK NURSERY CO-OP INC.", "designationCode": "C", "categoryCode": "01", "address": "BOX 817", "city": "ARBORG", "province": "MB", "country": "CA", "postalCode": "R0C0A0", "twitter": "None", "instagram": "None", "facebook": "None", "youtube": "None", "website": "None", "summary": "None", "logo": "None", "latitude": 50.91022850109325, "longitude": -97.2043884534773}, "107407702RR0001": {"name": "FRIENDLY FOREST PRESCHOOL ASSOCIATION", "designationCode": "C", "categoryCode": "59", "address": "2505 SUNNYSIDE RD.", "city": "ANMORE", "province": "BC", "country": "CA", "postalCode": "V3H4Y6", "twitter": "None", "instagram": "None", "facebook": "None", "youtube": "None", "website": "None", "summary": "None", "logo": "None", "latitude": 49.311622588386214, "longitude": -122.85711362925298}, "118932284RR0001": {"name": "FRIENDLY NEIGHBORS", "designationCode": "C", "categoryCode": "56", "address": "PO BOX 64", "city": "AVONLEA", "province": "SK", "country": "CA", "postalCode": "S0H0C0", "twitter": "None", "instagram": "None", "facebook": "None", "youtube": "None", "website": "None", "summary": "None", "logo": "None", "latitude": 50.016770000000065, "longitude": -105.06780999999995}, "885607325RR0001": {"name": "FRIENDLY NEIGHBOURS SOCIETY", "designationCode": "C", "categoryCode": "09", "address": "PO BOX 490", "city": "KINGSTON", "province": "NS", "country": "CA", "postalCode": "B0P1R0", "twitter": "None", "instagram": "None", "facebook": "None", "youtube": "None", "website": "None", "summary": "None", "logo": "None", "latitude": 44.98742000000004, "longitude": -64.94941999999998}, "818791212RR0001": {"name": "FRIENDS in Action International - Canada", "designationCode": "C", "categoryCode": "47", "address": "27 LONG STAN", "city": "STOUFFVILLE", "province": "ON", "country": "CA", "postalCode": "L4A1P5", "twitter": "None", "instagram": "None", "facebook": "None", "youtube": "None", "website": "None", "summary": "None", "logo": "None", "latitude": 44.047331194269816, "longitude": -79.2955861490564}, "107407769RR0001": {"name": "FRIENDS AND ADVOCATES PEEL", "designationCode": "C", "categoryCode": "09", "address": "6-239 QUEEN ST E", "city": "BRAMPTON", "province": "ON", "country": "CA", "postalCode": "L6W2B6", "twitter": "None", "instagram": "None", "facebook": "None", "youtube": "None", "website": "None", "summary": "None", "logo": "None", "latitude": 43.70475050122826, "longitude": -79.73920409478389}}