{"130361611RR0001": {"name": "B W S S BATTERED WOMENS SUPPORT SERVICES ASSOCIATION", "designationCode": "C", "categoryCode": "09", "address": "PO BOX 21503                  1424 COMMERCIAL DRIVE", "city": "VANCOUVER", "province": "BC", "country": "CA", "postalCode": "V5L5G2", "twitter": "None", "instagram": "None", "facebook": "None", "youtube": "None", "website": "None", "summary": "None", "logo": "None", "latitude": 49.271858533335184, "longitude": -123.06953653292588}, "808989289RR0001": {"name": "B\u00e2tisseurs 2010", "designationCode": "C", "categoryCode": "09", "address": "7 RUE DU RUISSELET", "city": "MATAPEDIA", "province": "QC", "country": "CA", "postalCode": "G0J1V0", "twitter": "None", "instagram": "None", "facebook": "None", "youtube": "None", "website": "None", "summary": "None", "logo": "None", "latitude": 47.976502023313515, "longitude": -66.95635898681402}, "118798024RR0001": {"name": "B.A.A.N.N. THEATRE CENTRE", "designationCode": "C", "categoryCode": "22", "address": "PO BOX 232 STN C", "city": "TORONTO", "province": "ON", "country": "CA", "postalCode": "M6J3P4", "twitter": "None", "instagram": "None", "facebook": "None", "youtube": "None", "website": "None", "summary": "None", "logo": "None", "latitude": 43.64854800000006, "longitude": -79.41777199999993}, "849159520RR0001": {"name": "B.A.C.L.J.C. MINISTRIES Corporation / La corporation B.A.C.L.J.C. MINISTRIES", "designationCode": "C", "categoryCode": "39", "address": "500 BRIDE PVT", "city": "NEPEAN", "province": "ON", "country": "CA", "postalCode": "K2J0J1", "twitter": "None", "instagram": "None", "facebook": "None", "youtube": "None", "website": "None", "summary": "None", "logo": "None", "latitude": 45.26936061062367, "longitude": -75.80001244988185}, "866771207RR0001": {"name": "B.C. ARTISTS IN HEALTHCARE SOCIETY", "designationCode": "C", "categoryCode": "01", "address": "#1001-1415 PARKWAY BLVD", "city": "COQUITLAM", "province": "BC", "country": "CA", "postalCode": "V3E0C7", "twitter": "None", "instagram": "None", "facebook": "None", "youtube": "None", "website": "None", "summary": "None", "logo": "None", "latitude": 49.297099892423844, "longitude": -122.80337880382584}, "891310179RR0001": {"name": "B.C. ASSOCIATION OF FAMILY RESOURCE PROGRAMS", "designationCode": "C", "categoryCode": "59", "address": "505 - 8840 210 ST", "city": "LANGLEY", "province": "BC", "country": "CA", "postalCode": "V1M2Y2", "twitter": "None", "instagram": "None", "facebook": "None", "youtube": "None", "website": "None", "summary": "None", "logo": "None", "latitude": 49.16302383374691, "longitude": -122.63764805816916}, "898281597RR0001": {"name": "B.C. CENTRE FOR ELDER ADVOCACY AND SUPPORT", "designationCode": "C", "categoryCode": "09", "address": "150 - 900 HOWE ST", "city": "VANCOUVER", "province": "BC", "country": "CA", "postalCode": "V6Z2M4", "twitter": "None", "instagram": "None", "facebook": "None", "youtube": "None", "website": "None", "summary": "None", "logo": "None", "latitude": 49.28059170439736, "longitude": -123.12292408531957}, "818162273RR0001": {"name": "B.C. CHILDREN'S ART AND LITERACY CENTRE SOCIETY", "designationCode": "C", "categoryCode": "21", "address": "#316-2268 REDBUD LANE", "city": "VANCOUVER", "province": "BC", "country": "CA", "postalCode": "V6K4S6", "twitter": "None", "instagram": "None", "facebook": "None", "youtube": "None", "website": "None", "summary": "None", "logo": "None", "latitude": 49.26144847172627, "longitude": -123.15728902827374}, "133000182RR0001": {"name": "B.C. FAMILY HEARING RESOURCE SOCIETY", "designationCode": "C", "categoryCode": "09", "address": "15220-92 AVE", "city": "SURREY", "province": "BC", "country": "CA", "postalCode": "V3R2T8", "twitter": "None", "instagram": "None", "facebook": "None", "youtube": "None", "website": "None", "summary": "None", "logo": "None", "latitude": 49.1700475434244, "longitude": -122.80078252553523}, "106778079RR0001": {"name": "B.C. FEDERATION OF FOSTER PARENT ASSOCIATIONS", "designationCode": "C", "categoryCode": "09", "address": "131 EIGHTH STREET             3RD FLOOR", "city": "NEW WESTMINSTER", "province": "BC", "country": "CA", "postalCode": "V3M3P6", "twitter": "None", "instagram": "None", "facebook": "None", "youtube": "None", "website": "None", "summary": "None", "logo": "None", "latitude": 49.20410525300828, "longitude": -122.91502340000359}, "838380426RR0001": {"name": "B.C. History of Nursing Society", "designationCode": "C", "categoryCode": "21", "address": "360 BAYVIEW PLACE, LIONS BAY  P.O. BOX 72082 RPO SASAMAT", "city": "VANCOUVER", "province": "BC", "country": "CA", "postalCode": "V6R4P2", "twitter": "None", "instagram": "None", "facebook": "None", "youtube": "None", "website": "None", "summary": "None", "logo": "None", "latitude": 49.27223707948245, "longitude": -123.20882760829619}, "118801174RR0001": {"name": "B.C. HOSPICE / PALLIATIVE CARE ASSOCIATION", "designationCode": "C", "categoryCode": "09", "address": "1100-1200 W 73RD AVENUE", "city": "VANCOUVER", "province": "BC", "country": "CA", "postalCode": "V6P6G5", "twitter": "None", "instagram": "None", "facebook": "None", "youtube": "None", "website": "None", "summary": "None", "logo": "None", "latitude": 49.204281470136955, "longitude": -123.13362116472388}, "118977107RR0001": {"name": "B.C. INTERIOR COMMUNITY FOUNDATION", "designationCode": "A", "categoryCode": "03", "address": "2 - 219 VICTORIA ST", "city": "KAMLOOPS", "province": "BC", "country": "CA", "postalCode": "V2C2A1", "twitter": "None", "instagram": "None", "facebook": "None", "youtube": "None", "website": "None", "summary": "None", "logo": "None", "latitude": 50.675773030865116, "longitude": -120.33624239433412}, "887841419RR0001": {"name": "B.C. INTERIOR FORESTRY MUSEUM SOCIETY", "designationCode": "C", "categoryCode": "50", "address": "BOX 419", "city": "REVELSTOKE", "province": "BC", "country": "CA", "postalCode": "V0E2S0", "twitter": "None", "instagram": "None", "facebook": "None", "youtube": "None", "website": "None", "summary": "None", "logo": "None", "latitude": 52.00738183978388, "longitude": -118.56208529545198}, "897642013RR0001": {"name": "B.C. KHALSA DARBAR SOCIETY", "designationCode": "C", "categoryCode": "62", "address": "310-8988 FRASERTON COURT", "city": "BURNABY", "province": "BC", "country": "CA", "postalCode": "V5J5H8", "twitter": "None", "instagram": "None", "facebook": "None", "youtube": "None", "website": "None", "summary": "None", "logo": "None", "latitude": 49.19945925301133, "longitude": -123.01434697833179}, "812142826RR0001": {"name": "B.C. Marine Trails Network Association", "designationCode": "C", "categoryCode": "56", "address": "3285 ROPER RD", "city": "LADYSMITH", "province": "BC", "country": "CA", "postalCode": "V9G1C4", "twitter": "None", "instagram": "None", "facebook": "None", "youtube": "None", "website": "None", "summary": "None", "logo": "None", "latitude": 49.061913663143514, "longitude": -123.79452929615701}, "892877366RR0001": {"name": "B.C. MENTAL HEALTH FOUNDATION", "designationCode": "A", "categoryCode": "13", "address": "260 - 1770 7TH AVE W", "city": "VANCOUVER", "province": "BC", "country": "CA", "postalCode": "V6J4Y6", "twitter": "None", "instagram": "None", "facebook": "None", "youtube": "None", "website": "None", "summary": "None", "logo": "None", "latitude": 49.26545048845881, "longitude": -123.1450229701656}, "866291925RR0001": {"name": "B.C. MISSION BOAT", "designationCode": "C", "categoryCode": "47", "address": "795 WEST ISLAND HIGHWAY", "city": "PARKSVILLE", "province": "BC", "country": "CA", "postalCode": "V9P1B9", "twitter": "None", "instagram": "None", "facebook": "None", "youtube": "None", "website": "None", "summary": "None", "logo": "None", "latitude": 49.33051228348886, "longitude": -124.34345291156068}, "118801224RR0001": {"name": "B.C. MUSLIM ASSOCIATION", "designationCode": "C", "categoryCode": "60", "address": "12300 BLUNDELL RD", "city": "RICHMOND", "province": "BC", "country": "CA", "postalCode": "V6W1B3", "twitter": "None", "instagram": "None", "facebook": "None", "youtube": "None", "website": "None", "summary": "None", "logo": "None", "latitude": 49.15534489069952, "longitude": -123.0878536051771}, "132807348RR0001": {"name": "B.C. Pets and Friends Society", "designationCode": "C", "categoryCode": "09", "address": "60 SEMISCH AVENUE", "city": "NORTH VANCOUVER", "province": "BC", "country": "CA", "postalCode": "V7M3H8", "twitter": "None", "instagram": "None", "facebook": "None", "youtube": "None", "website": "None", "summary": "None", "logo": "None", "latitude": 49.3132482289803, "longitude": -123.08394264614222}, "893485425RR0001": {"name": "B.C. SCHIZOPHRENIA SOCIETY (NANAIMO BRANCH)", "designationCode": "C", "categoryCode": "11", "address": "200-1585 BOWEN ROAD", "city": "NANAIMO", "province": "BC", "country": "CA", "postalCode": "V9S1G4", "twitter": "None", "instagram": "None", "facebook": "None", "youtube": "None", "website": "None", "summary": "None", "logo": "None", "latitude": 49.17757252337179, "longitude": -123.97183283250617}, "868613894RR0001": {"name": "B.C. SCHIZOPHRENIA SOCIETY, KELOWNA BRANCH", "designationCode": "C", "categoryCode": "11", "address": "203-347 LEON AVENUE", "city": "KELOWNA", "province": "BC", "country": "CA", "postalCode": "V1Y8C7", "twitter": "None", "instagram": "None", "facebook": "None", "youtube": "None", "website": "None", "summary": "None", "logo": "None", "latitude": 49.88451047013695, "longitude": -119.49592113918865}, "118801273RR0001": {"name": "B.C. SENIOR GAMES SOCIETY", "designationCode": "C", "categoryCode": "56", "address": "203-2453 BEACON AVENUE", "city": "SIDNEY", "province": "BC", "country": "CA", "postalCode": "V8L1X7", "twitter": "None", "instagram": "None", "facebook": "None", "youtube": "None", "website": "None", "summary": "None", "logo": "None", "latitude": 48.648837536987244, "longitude": -123.39836618287659}, "866683196RR0001": {"name": "B.C. SOCIAL VENTURE PARTNERS FOUNDATION", "designationCode": "A", "categoryCode": "03", "address": "230-111 HASTINGS ST W", "city": "VANCOUVER", "province": "BC", "country": "CA", "postalCode": "V6B1H4", "twitter": "None", "instagram": "None", "facebook": "None", "youtube": "None", "website": "None", "summary": "None", "logo": "None", "latitude": 49.282138914441255, "longitude": -123.10753795129177}, "867444564RR0001": {"name": "B.C. SPORTS MEDICINE RESEARCH FOUNDATION", "designationCode": "C", "categoryCode": "11", "address": "2553 WESBROOK MALL", "city": "VANCOUVER", "province": "BC", "country": "CA", "postalCode": "V6T1Z3", "twitter": "None", "instagram": "None", "facebook": "None", "youtube": "None", "website": "None", "summary": "None", "logo": "None", "latitude": 49.260774314175755, "longitude": -123.24096960013645}, "118801307RR0001": {"name": "B.C. THERAPEUTIC RIDING ASSOCIATION", "designationCode": "C", "categoryCode": "56", "address": "693 MALLORY RD", "city": "ENDERBY", "province": "BC", "country": "CA", "postalCode": "V0E1V3", "twitter": "None", "instagram": "None", "facebook": "None", "youtube": "None", "website": "None", "summary": "None", "logo": "None", "latitude": 50.60155534579368, "longitude": -119.21438274515083}, "118801315RR0001": {"name": "B.C. WILDLIFE FEDERATION", "designationCode": "C", "categoryCode": "54", "address": "101-9706 188TH STREET", "city": "SURREY", "province": "BC", "country": "CA", "postalCode": "V4N3M2", "twitter": "None", "instagram": "None", "facebook": "None", "youtube": "None", "website": "None", "summary": "None", "logo": "None", "latitude": 49.17883441326677, "longitude": -122.70123898055296}, "131704173RR0002": {"name": "B.C. 4-H PROVINCIAL COUNCIL", "designationCode": "C", "categoryCode": "29", "address": "1150 KALAMALKA LAKE RD", "city": "VERNON", "province": "BC", "country": "CA", "postalCode": "V1T6V2", "twitter": "None", "instagram": "None", "facebook": "None", "youtube": "None", "website": "None", "summary": "None", "logo": "None", "latitude": 50.25041983236193, "longitude": -119.26242348978555}, "861595775RR0001": {"name": "B.C.Turf Foundation", "designationCode": "B", "categoryCode": "03", "address": "128 WEST 8TH AVE", "city": "VANCOUVER", "province": "BC", "country": "CA", "postalCode": "V5Y1N2", "twitter": "None", "instagram": "None", "facebook": "None", "youtube": "None", "website": "None", "summary": "None", "logo": "None", "latitude": 49.26379148124544, "longitude": -123.10812394463039}, "126479674RR0001": {"name": "B.D.H. COMMUNITY FOUNDATION / FONDATION COMMUNAUTAIRE B.D.H.", "designationCode": "A", "categoryCode": "03", "address": "1 CARRE CUMMINGS, SUITE 300", "city": "MONTREAL", "province": "QC", "country": "CA", "postalCode": "H3W1M6", "twitter": "None", "instagram": "None", "facebook": "None", "youtube": "None", "website": "None", "summary": "None", "logo": "None", "latitude": 45.48925656614425, "longitude": -73.63588473115946}, "118984368RR0001": {"name": "B.F. KLASSEN FOUNDATION INC.", "designationCode": "B", "categoryCode": "03", "address": "2 NATHAN LANE", "city": "WINNIPEG", "province": "MB", "country": "CA", "postalCode": "R2K4J3", "twitter": "None", "instagram": "None", "facebook": "None", "youtube": "None", "website": "None", "summary": "None", "logo": "None"}, "897214193RR0001": {"name": "B.G.C. STEWARDSHIP FOUNDATION", "designationCode": "A", "categoryCode": "43", "address": "201 - 8315 DAVIES RD NW", "city": "EDMONTON", "province": "AB", "country": "CA", "postalCode": "T6E4N3", "twitter": "None", "instagram": "None", "facebook": "None", "youtube": "None", "website": "None", "summary": "None", "logo": "None", "latitude": 53.49480628140706, "longitude": -113.45169664302647}, "832650048RR0001": {"name": "B.O.L.T. Charitable Foundation", "designationCode": "C", "categoryCode": "23", "address": "4800 DUFFERIN STREET", "city": "TORONTO", "province": "ON", "country": "CA", "postalCode": "M3H5S9", "twitter": "None", "instagram": "None", "facebook": "None", "youtube": "None", "website": "None", "summary": "None", "logo": "None", "latitude": 43.7788263044608, "longitude": -79.4693781460553}, "118820943RR0001": {"name": "B.V.D. HOSPITAL AUXILIARY SOCIETY", "designationCode": "C", "categoryCode": "19", "address": "BOX 2672", "city": "SMITHERS", "province": "BC", "country": "CA", "postalCode": "V0J2N0", "twitter": "None", "instagram": "None", "facebook": "None", "youtube": "None", "website": "None", "summary": "None", "logo": "None", "latitude": 54.78190002943043, "longitude": -127.16272999999995}, "803071695RR0001": {"name": "B\u00e9nin enfants sains", "designationCode": "C", "categoryCode": "21", "address": "2135 GRAND-H\u00c9RON", "city": "STE-AD\u00c8LE", "province": "QC", "country": "CA", "postalCode": "J8B3M9", "twitter": "None", "instagram": "None", "facebook": "None", "youtube": "None", "website": "None", "summary": "None", "logo": "None"}, "845805142RR0001": {"name": "B-SAY-TAH FOUNDATION INC.", "designationCode": "C", "categoryCode": "59", "address": "P.O. BOX 908", "city": "FORT QU'APPELLE", "province": "SK", "country": "CA", "postalCode": "S0G1S0", "twitter": "None", "instagram": "None", "facebook": "None", "youtube": "None", "website": "None", "summary": "None", "logo": "None", "latitude": 50.76964000000004, "longitude": -103.79339999999996}, "814122396RR0001": {"name": "B'nai Brith of Canada Foundation", "designationCode": "B", "categoryCode": "03", "address": "15 HOVE ST", "city": "NORTH YORK", "province": "ON", "country": "CA", "postalCode": "M3H4Y8", "twitter": "None", "instagram": "None", "facebook": "None", "youtube": "None", "website": "None", "summary": "None", "logo": "None", "latitude": 43.75585046601066, "longitude": -79.44171780261446}, "106799539RR0001": {"name": "B'nai Shalom North Congregation", "designationCode": "C", "categoryCode": "42", "address": "60 SANIBEL CRESCENT", "city": "THORNHILL", "province": "ON", "country": "CA", "postalCode": "L4J8K7", "twitter": "None", "instagram": "None", "facebook": "None", "youtube": "None", "website": "None", "summary": "None", "logo": "None", "latitude": 43.8210044007733, "longitude": -79.443837678631}, "809481591RR0001": {"name": "B's Supporting Youth Foundation", "designationCode": "C", "categoryCode": "09", "address": "PO BOX 66072 RPO HERITAGE", "city": "EDMONTON", "province": "AB", "country": "CA", "postalCode": "T6J6T4", "twitter": "None", "instagram": "None", "facebook": "None", "youtube": "None", "website": "None", "summary": "None", "logo": "None", "latitude": 53.4746100372207, "longitude": -113.50513994777566}, "814128393RR0001": {"name": "B'Nai Brith of Canada League for Human Rights", "designationCode": "A", "categoryCode": "03", "address": "1B- 120 TERENCE MATHEWS DRIVE", "city": "KANATA", "province": "ON", "country": "CA", "postalCode": "K2M0J1", "twitter": "None", "instagram": "None", "facebook": "None", "youtube": "None", "website": "None", "summary": "None", "logo": "None", "latitude": 45.287565565410254, "longitude": -75.87259407054614}, "124782152RR0001": {"name": "B'NAI B'RITH FOUNDATION OF MOUNT ROYAL LODGE", "designationCode": "A", "categoryCode": "65", "address": "4625 BOUL DE LA COTE-VERTU    BUREAU 250", "city": "SAINT-LAURENT", "province": "QC", "country": "CA", "postalCode": "H4S1C8", "twitter": "None", "instagram": "None", "facebook": "None", "youtube": "None", "website": "None", "summary": "None", "logo": "None", "latitude": 45.486948397139905, "longitude": -73.71751226194665}, "106799471RR0001": {"name": "B'NAI B'RITH HILLEL FOUNDATION OF MONTREAL INC.", "designationCode": "C", "categoryCode": "49", "address": "3460 STANLEY STREET", "city": "MONTREAL", "province": "QC", "country": "CA", "postalCode": "H3A1R8", "twitter": "None", "instagram": "None", "facebook": "None", "youtube": "None", "website": "None", "summary": "None", "logo": "None", "latitude": 45.501950840671824, "longitude": -73.57901261047942}, "123703209RR0001": {"name": "B'NAI B'RITH JEWISH COMMUNITY CAMP INC", "designationCode": "C", "categoryCode": "49", "address": "C128 - 123 DORCHESTER ST", "city": "WINNIPEG", "province": "MB", "country": "CA", "postalCode": "R3N2B2", "twitter": "None", "instagram": "None", "facebook": "None", "youtube": "None", "website": "None", "summary": "None", "logo": "None", "latitude": 49.872057000000055, "longitude": -97.20831049999994}, "118812098RR0001": {"name": "B'NAI BRITH CANADA SENIOR CITIZEN'S RESIDENTIAL PROGRAM", "designationCode": "C", "categoryCode": "01", "address": "15 HOVE STREET", "city": "TORONTO", "province": "ON", "country": "CA", "postalCode": "M3H4Y8", "twitter": "None", "instagram": "None", "facebook": "None", "youtube": "None", "website": "None", "summary": "None", "logo": "None", "latitude": 43.75585046601066, "longitude": -79.44171780261446}, "118812106RR0001": {"name": "B'NAI BRITH FOUNDATION DISTRICT NO. 22", "designationCode": "A", "categoryCode": "43", "address": "15 HOVE STREET", "city": "DOWNSVIEW", "province": "ON", "country": "CA", "postalCode": "M3H4Y8", "twitter": "None", "instagram": "None", "facebook": "None", "youtube": "None", "website": "None", "summary": "None", "logo": "None", "latitude": 43.75585046601066, "longitude": -79.44171780261446}, "787557495RR0001": {"name": "B'NAI BRITH NATIONAL ORGANIZATION OF CANADA", "designationCode": "B", "categoryCode": "05", "address": "200 - 15 HOVE ST", "city": "NORTH YORK", "province": "ON", "country": "CA", "postalCode": "M3H4Y8", "twitter": "None", "instagram": "None", "facebook": "None", "youtube": "None", "website": "None", "summary": "None", "logo": "None", "latitude": 43.75585046601066, "longitude": -79.44171780261446}, "882725302RR0001": {"name": "B'NAI CHAYIM/CHILDREN OF LIFE FELLOWSHIP OF ALBERTA", "designationCode": "C", "categoryCode": "39", "address": "11634 - 111A AVENUE", "city": "EDMONTON", "province": "AB", "country": "CA", "postalCode": "T5G0G3", "twitter": "None", "instagram": "None", "facebook": "None", "youtube": "None", "website": "None", "summary": "None", "logo": "None", "latitude": 53.55992647489747, "longitude": -113.5236735}, "100560044RR0001": {"name": "B'NAI ISAAC SYNAGOGUE & CULTURAL CENTRE (BAYSVILLE)", "designationCode": "C", "categoryCode": "42", "address": "14 COREYDALE COURT", "city": "NORTH YORK", "province": "ON", "country": "CA", "postalCode": "M3H3N3", "twitter": "None", "instagram": "None", "facebook": "None", "youtube": "None", "website": "None", "summary": "None", "logo": "None", "latitude": 43.76619035527145, "longitude": -79.44909757703836}, "118812627RR0001": {"name": "B'NAI ZION CHARITY FUND", "designationCode": "C", "categoryCode": "49", "address": "98 BAYCREST AVE", "city": "TORONTO", "province": "ON", "country": "CA", "postalCode": "M6A1W3", "twitter": "None", "instagram": "None", "facebook": "None", "youtube": "None", "website": "None", "summary": "None", "logo": "None", "latitude": 43.727925183478426, "longitude": -79.44022731294355}, "888179462RR0001": {"name": "B'TZALEL CONGREGATION OF ST SOPHIE", "designationCode": "C", "categoryCode": "42", "address": "38 ALDRECREST", "city": "DOLLARD-DES-ORMEAUX", "province": "QC", "country": "CA", "postalCode": "H9A1T9", "twitter": "None", "instagram": "None", "facebook": "None", "youtube": "None", "website": "None", "summary": "None", "logo": "None", "latitude": 45.498041108257745, "longitude": -73.81928225258227}, "875212912RR0001": {"name": "B'YACHAD CANADA", "designationCode": "C", "categoryCode": "47", "address": "155 WELLINGTON ST W", "city": "TORONTO", "province": "ON", "country": "CA", "postalCode": "M5V3J7", "twitter": "None", "instagram": "None", "facebook": "None", "youtube": "None", "website": "None", "summary": "None", "logo": "None", "latitude": 43.64596585316531, "longitude": -79.38574575644876}, "802647511RR0001": {"name": "Baba Buda Ji Academy Society", "designationCode": "C", "categoryCode": "62", "address": "6560 124 ST", "city": "SURREY", "province": "BC", "country": "CA", "postalCode": "V3W1P7", "twitter": "None", "instagram": "None", "facebook": "None", "youtube": "None", "website": "None", "summary": "None", "logo": "None", "latitude": 49.12218624998494, "longitude": -122.87892531566543}, "856080254RR0001": {"name": "Baba Budha Ji Sikh Resource Centre Society", "designationCode": "C", "categoryCode": "62", "address": "6659 122A ST", "city": "SURREY", "province": "BC", "country": "CA", "postalCode": "V3W0W1", "twitter": "None", "instagram": "None", "facebook": "None", "youtube": "None", "website": "None", "summary": "None", "logo": "None", "latitude": 49.12413400582838, "longitude": -122.88330294284137}, "827437211RR0001": {"name": "Baba Lokenath Ashram", "designationCode": "C", "categoryCode": "48", "address": "28 LINDEN AVENUE", "city": "TORONTO", "province": "ON", "country": "CA", "postalCode": "M1K3H5", "twitter": "None", "instagram": "None", "facebook": "None", "youtube": "None", "website": "None", "summary": "None", "logo": "None", "latitude": 43.71966984901037, "longitude": -79.25662559896689}, "827657818RR0001": {"name": "Babul Hawaij Foundation", "designationCode": "B", "categoryCode": "60", "address": "115 ABNER MILES DR", "city": "MAPLE", "province": "ON", "country": "CA", "postalCode": "L6A4X4", "twitter": "None", "instagram": "None", "facebook": "None", "youtube": "None", "website": "None", "summary": "None", "logo": "None", "latitude": 43.872136330652516, "longitude": -79.46832824693988}, "804519031RR0001": {"name": "Babul Ilm Education Society", "designationCode": "C", "categoryCode": "21", "address": "6165 167B ST", "city": "SURREY", "province": "BC", "country": "CA", "postalCode": "V3S0Z1", "twitter": "None", "instagram": "None", "facebook": "None", "youtube": "None", "website": "None", "summary": "None", "logo": "None", "latitude": 49.11434562031854, "longitude": -122.75816225979563}, "118831544RR0001": {"name": "Baby's Breath / Souffle de b\u00e9b\u00e9", "designationCode": "C", "categoryCode": "11", "address": "PO BOX 5005 STN MAIN", "city": "ST CATHARINES", "province": "ON", "country": "CA", "postalCode": "L2R7T4", "twitter": "None", "instagram": "None", "facebook": "None", "youtube": "None", "website": "None", "summary": "None", "logo": "None", "latitude": 43.15634700000005, "longitude": -79.24869349999993}, "821516507RR0001": {"name": "BabyGoRound Helping Families Society", "designationCode": "C", "categoryCode": "09", "address": "3837 WEST 38TH AVENUE", "city": "VANCOUVER", "province": "BC", "country": "CA", "postalCode": "V6N2Y5", "twitter": "None", "instagram": "None", "facebook": "None", "youtube": "None", "website": "None", "summary": "None", "logo": "None", "latitude": 49.23765449321932, "longitude": -123.18907041618097}, "823471834RR0001": {"name": "Baccalieu Trail SPCA Inc.", "designationCode": "C", "categoryCode": "54", "address": "POST OFFICE BOX 273", "city": "CARBONEAR", "province": "NL", "country": "CA", "postalCode": "A1Y1B7", "twitter": "None", "instagram": "None", "facebook": "None", "youtube": "None", "website": "None", "summary": "None", "logo": "None", "latitude": 47.73637500000005, "longitude": -53.22950449999993}, "800870826RR0001": {"name": "Bach on the Rock Music Society", "designationCode": "C", "categoryCode": "22", "address": "227 CANVASBACK PL", "city": "SALT SPRING ISLAND", "province": "BC", "country": "CA", "postalCode": "V8K2W5", "twitter": "None", "instagram": "None", "facebook": "None", "youtube": "None", "website": "None", "summary": "None", "logo": "None", "latitude": 48.89170572277133, "longitude": -123.55674353380088}, "118798081RR0001": {"name": "Bach Elgar Choral Society", "designationCode": "C", "categoryCode": "22", "address": "86 HOMEWOOD AVE", "city": "HAMILTON", "province": "ON", "country": "CA", "postalCode": "L8P2M4", "twitter": "None", "instagram": "None", "facebook": "None", "youtube": "None", "website": "None", "summary": "None", "logo": "None", "latitude": 43.25071907412417, "longitude": -79.8870139582204}, "819100850RR0001": {"name": "Bach Music Festival of South Huron", "designationCode": "C", "categoryCode": "22", "address": "95 DEVON DR                   SS 3", "city": "EXETER", "province": "ON", "country": "CA", "postalCode": "N0M1S3", "twitter": "None", "instagram": "None", "facebook": "None", "youtube": "None", "website": "None", "summary": "None", "logo": "None", "latitude": 43.359042741589356, "longitude": -81.48008268653685}, "838515021RR0001": {"name": "Bachynski Family Foundation", "designationCode": "B", "categoryCode": "03", "address": "78 THURLOW ROAD", "city": "HAMPSTEAD", "province": "QC", "country": "CA", "postalCode": "H3X3G9", "twitter": "None", "instagram": "None", "facebook": "None", "youtube": "None", "website": "None", "summary": "None", "logo": "None", "latitude": 45.47936923318209, "longitude": -73.6429567921642}, "808689251RR0001": {"name": "Back to the Basic Christian Church of Calgary", "designationCode": "C", "categoryCode": "39", "address": "19 SHERWOOD HEATH NW", "city": "CALGARY", "province": "AB", "country": "CA", "postalCode": "T3R1P4", "twitter": "None", "instagram": "None", "facebook": "None", "youtube": "None", "website": "None", "summary": "None", "logo": "None", "latitude": 51.156355315253116, "longitude": -114.14969221190717}, "829334770RR0001": {"name": "Back Door Mission for the Relief of Poverty", "designationCode": "C", "categoryCode": "09", "address": "66 SIMCOE STREET SOUTH,", "city": "OSHAWA", "province": "ON", "country": "CA", "postalCode": "L1H4G3", "twitter": "None", "instagram": "None", "facebook": "None", "youtube": "None", "website": "None", "summary": "None", "logo": "None", "latitude": 43.89569996753988, "longitude": -78.86280394341829}, "823240650RR0001": {"name": "Backyard Christian Family Ministries", "designationCode": "C", "categoryCode": "39", "address": "58 THIRD AVENUE,", "city": "TRENTON", "province": "ON", "country": "CA", "postalCode": "K8V5N2", "twitter": "None", "instagram": "None", "facebook": "None", "youtube": "None", "website": "None", "summary": "None", "logo": "None", "latitude": 44.100110084107484, "longitude": -77.59349914311245}, "784599698RR0001": {"name": "Badge of Life Canada - Insigne de Vie Canada", "designationCode": "C", "categoryCode": "09", "address": "POST OFFICE BOX 168           5 MILL STREET", "city": "LIONS HEAD", "province": "ON", "country": "CA", "postalCode": "N0H1W0", "twitter": "None", "instagram": "None", "facebook": "None", "youtube": "None", "website": "None", "summary": "None", "logo": "None", "latitude": 44.98630056808616, "longitude": -81.25268959842037}, "886151596RR0001": {"name": "Baha'i Foundation Canada / Fondation baha'ie Canada", "designationCode": "A", "categoryCode": "43", "address": "7200 LESLIE STREET", "city": "THORNHILL", "province": "ON", "country": "CA", "postalCode": "L3T6L8", "twitter": "None", "instagram": "None", "facebook": "None", "youtube": "None", "website": "None", "summary": "None", "logo": "None", "latitude": 43.81241625284208, "longitude": -79.37417860632449}, "841274483RR0001": {"name": "Bai Gong International Buddhist Society", "designationCode": "C", "categoryCode": "35", "address": "1023-2560 SHELL RD", "city": "RICHMOND", "province": "BC", "country": "CA", "postalCode": "V6X0B8", "twitter": "None", "instagram": "None", "facebook": "None", "youtube": "None", "website": "None", "summary": "None", "logo": "None", "latitude": 49.19545589721233, "longitude": -123.10265371380541}, "803246289RR0001": {"name": "Baie Ste. Marie Animal Society", "designationCode": "C", "categoryCode": "54", "address": "1390 PATRICE ROAD", "city": "CHURCH POINT", "province": "NS", "country": "CA", "postalCode": "B0W1M0", "twitter": "None", "instagram": "None", "facebook": "None", "youtube": "None", "website": "None", "summary": "None", "logo": "None", "latitude": 44.292622809596665, "longitude": -66.07399313892884}, "119288918RR0657": {"name": "Baie Verte Congregation of Jehovah's Witnesses, Baie Verte, Newfoundland", "designationCode": "C", "categoryCode": "61", "address": "PO BOX 195", "city": "BAIE VERTE", "province": "NL", "country": "CA", "postalCode": "A0K1B0", "twitter": "None", "instagram": "None", "facebook": "None", "youtube": "None", "website": "None", "summary": "None", "logo": "None", "latitude": 49.939820000000054, "longitude": -56.191389999999956}, "863131751RR0001": {"name": "Baie Verte Peninsula Family Resource Program, Inc.", "designationCode": "C", "categoryCode": "09", "address": "HIGHWAY 410                   PO BOX 659", "city": "BAIE VERTE", "province": "NL", "country": "CA", "postalCode": "A0K1B0", "twitter": "None", "instagram": "None", "facebook": "None", "youtube": "None", "website": "None", "summary": "None", "logo": "None", "latitude": 49.9412323518631, "longitude": -56.18881475185653}, "119270775RR0001": {"name": "Baie Verte/Port Elgin/Tidnish Bridge Pastoral Charge", "designationCode": "C", "categoryCode": "44", "address": "5 MOORE RD", "city": "PORT ELGIN", "province": "NB", "country": "CA", "postalCode": "E4M2E6", "twitter": "None", "instagram": "None", "facebook": "None", "youtube": "None", "website": "None", "summary": "None", "logo": "None", "latitude": 46.045529077442396, "longitude": -64.09109483152521}, "891040842RR0001": {"name": "Bailieboro Springville United Church", "designationCode": "C", "categoryCode": "44", "address": "661 2ND LINE                  RR#1", "city": "BAILIEBORO", "province": "ON", "country": "CA", "postalCode": "K0L1B0", "twitter": "None", "instagram": "None", "facebook": "None", "youtube": "None", "website": "None", "summary": "None", "logo": "None", "latitude": 44.15890596886942, "longitude": -78.29868511169245}, "806138780RR0001": {"name": "Bais Dovid Congregation", "designationCode": "C", "categoryCode": "42", "address": "42 MILNER GATE,", "city": "THORNHILL", "province": "ON", "country": "CA", "postalCode": "L4J2N4", "twitter": "None", "instagram": "None", "facebook": "None", "youtube": "None", "website": "None", "summary": "None", "logo": "None", "latitude": 43.79910462228043, "longitude": -79.44922057037326}, "802606087RR0001": {"name": "Baitul Jannah Islamic Center", "designationCode": "C", "categoryCode": "60", "address": "2740 KINGSTON RD", "city": "SCARBOROUGH", "province": "ON", "country": "CA", "postalCode": "M1M1M7", "twitter": "None", "instagram": "None", "facebook": "None", "youtube": "None", "website": "None", "summary": "None", "logo": "None", "latitude": 43.71878738608678, "longitude": -79.23992001558055}, "833082399RR0001": {"name": "Baitul Mukarram Islamic Centre Calgary", "designationCode": "C", "categoryCode": "60", "address": "207 3770 WESTWINDS DR NE", "city": "CALGARY", "province": "AB", "country": "CA", "postalCode": "T3J5H3", "twitter": "None", "instagram": "None", "facebook": "None", "youtube": "None", "website": "None", "summary": "None", "logo": "None", "latitude": 51.100395127291165, "longitude": -113.97624580331592}, "871962841RR0001": {"name": "Baker Centre Health Care Foundation", "designationCode": "A", "categoryCode": "11", "address": "1 NORTHWESTERN AVENUE", "city": "TORONTO", "province": "ON", "country": "CA", "postalCode": "M6M2J7", "twitter": "None", "instagram": "None", "facebook": "None", "youtube": "None", "website": "None", "summary": "None", "logo": "None", "latitude": 43.69860681536774, "longitude": -79.4699970839346}, "801776642RR0001": {"name": "Baker Charitable Trust", "designationCode": "B", "categoryCode": "45", "address": "3425 2ND AVENUE SOUTH", "city": "LETHBRIDGE", "province": "AB", "country": "CA", "postalCode": "T1J4V1", "twitter": "None", "instagram": "None", "facebook": "None", "youtube": "None", "website": "None", "summary": "None", "logo": "None", "latitude": 49.696839530439966, "longitude": -112.78914308381903}, "819795139RR0001": {"name": "Bakerview Music Academy Society", "designationCode": "C", "categoryCode": "22", "address": "301-32330 SOUTH FRASER WAY", "city": "ABBOTSFORD", "province": "BC", "country": "CA", "postalCode": "V2T1X1", "twitter": "None", "instagram": "None", "facebook": "None", "youtube": "None", "website": "None", "summary": "None", "logo": "None", "latitude": 49.05155454227056, "longitude": -122.32862337774823}, "844089169RR0001": {"name": "Balcone Art Society", "designationCode": "C", "categoryCode": "22", "address": "308-1147 NELSON ST", "city": "VANCOUVER", "province": "BC", "country": "CA", "postalCode": "V6E1J3", "twitter": "None", "instagram": "None", "facebook": "None", "youtube": "None", "website": "None", "summary": "None", "logo": "None", "latitude": 49.28326221899698, "longitude": -123.12917723561672}, "823853197RR0001": {"name": "Balevi Family Foundation", "designationCode": "B", "categoryCode": "03", "address": "742 RUE MAIN", "city": "HUDSON", "province": "QC", "country": "CA", "postalCode": "J0P1H0", "twitter": "None", "instagram": "None", "facebook": "None", "youtube": "None", "website": "None", "summary": "None", "logo": "None", "latitude": 45.47192095115125, "longitude": -74.18063006924808}, "835943648RR0001": {"name": "Balintore Charitable Foundation", "designationCode": "B", "categoryCode": "03", "address": "99 MICHAEL COWPLAND DRIVE", "city": "KANATA", "province": "ON", "country": "CA", "postalCode": "K2M1X3", "twitter": "None", "instagram": "None", "facebook": "None", "youtube": "None", "website": "None", "summary": "None", "logo": "None", "latitude": 45.28635299999999, "longitude": -75.86999206471776}, "806968459RR0001": {"name": "Ballet Productions Canada Society", "designationCode": "C", "categoryCode": "22", "address": "3626 4TH AVE E", "city": "VANCOUVER", "province": "BC", "country": "CA", "postalCode": "V5M1M3", "twitter": "None", "instagram": "None", "facebook": "None", "youtube": "None", "website": "None", "summary": "None", "logo": "None", "latitude": 49.26651011958953, "longitude": -123.02517496398083}, "828730242RR0001": {"name": "Balm of Gilead Evangelistic Ministries, Calgary", "designationCode": "C", "categoryCode": "39", "address": "UNIT 2, 7640 FAIRMOUNT DR SE", "city": "CALGARY", "province": "AB", "country": "CA", "postalCode": "T2H0X9", "twitter": "None", "instagram": "None", "facebook": "None", "youtube": "None", "website": "None", "summary": "None", "logo": "None", "latitude": 50.98519576879802, "longitude": -114.06005978209956}, "838959385RR0001": {"name": "Balsam Foundation", "designationCode": "B", "categoryCode": "03", "address": "17 PRINCE ARTHUR AVENUE       3RD FLOOR", "city": "TORONTO", "province": "ON", "country": "CA", "postalCode": "M5R1B2", "twitter": "None", "instagram": "None", "facebook": "None", "youtube": "None", "website": "None", "summary": "None", "logo": "None", "latitude": 43.669596783773, "longitude": -79.39599526366212}, "800862336RR0001": {"name": "Balsillie School of International Affairs", "designationCode": "C", "categoryCode": "20", "address": "67 ERB STREET WEST", "city": "WATERLOO", "province": "ON", "country": "CA", "postalCode": "N2L6C2", "twitter": "None", "instagram": "None", "facebook": "None", "youtube": "None", "website": "None", "summary": "None", "logo": "None", "latitude": 43.464010643603395, "longitude": -80.5259705518785}, "835205758RR0001": {"name": "Bamboo Children's Society", "designationCode": "C", "categoryCode": "09", "address": "310-2288 MARSTRAND AVE", "city": "VANCOUVER", "province": "BC", "country": "CA", "postalCode": "V6K4S9", "twitter": "None", "instagram": "None", "facebook": "None", "youtube": "None", "website": "None", "summary": "None", "logo": "None", "latitude": 49.26240247003902, "longitude": -123.15745847859928}, "842921165RR0001": {"name": "Bancroft Family Health Team", "designationCode": "C", "categoryCode": "11", "address": "19 OAK ST                     BOX 1089", "city": "BANCROFT", "province": "ON", "country": "CA", "postalCode": "K0L1C0", "twitter": "None", "instagram": "None", "facebook": "None", "youtube": "None", "website": "None", "summary": "None", "logo": "None", "latitude": 45.05386098251994, "longitude": -77.86365561034859}, "845703107RR0001": {"name": "Band City Stray Cat Rescue and Protection Society Inc.", "designationCode": "C", "categoryCode": "54", "address": "PO BOX 1653 STN MAIN", "city": "MOOSE JAW", "province": "SK", "country": "CA", "postalCode": "S6H7K7", "twitter": "None", "instagram": "None", "facebook": "None", "youtube": "None", "website": "None", "summary": "None", "logo": "None", "latitude": 50.37724922856035, "longitude": -105.53464629643145}, "809719933RR0001": {"name": "Bandaged Paws Animal Rescue Association", "designationCode": "C", "categoryCode": "54", "address": "8618 91 ST", "city": "GRANDE PRAIRIE", "province": "AB", "country": "CA", "postalCode": "T8X1V6", "twitter": "None", "instagram": "None", "facebook": "None", "youtube": "None", "website": "None", "summary": "None", "logo": "None", "latitude": 55.1592169103526, "longitude": -118.7682190288821}, "810904888RR0001": {"name": "Bandaids for Bunnies Society", "designationCode": "C", "categoryCode": "54", "address": "9171 PINEWELL CRES", "city": "RICHMOND", "province": "BC", "country": "CA", "postalCode": "V7A2C5", "twitter": "None", "instagram": "None", "facebook": "None", "youtube": "None", "website": "None", "summary": "None", "logo": "None", "latitude": 49.141791652201725, "longitude": -123.12376611062365}, "830420188RR0001": {"name": "Bandit Ranch Rehab", "designationCode": "C", "categoryCode": "54", "address": "350 REDBERRY ROAD", "city": "SASKATOON", "province": "SK", "country": "CA", "postalCode": "S7K4W7", "twitter": "None", "instagram": "None", "facebook": "None", "youtube": "None", "website": "None", "summary": "None", "logo": "None", "latitude": 52.170699434935536, "longitude": -106.62195071994925}, "886176940RR0001": {"name": "Banff Avenue Community House", "designationCode": "C", "categoryCode": "09", "address": "2084A BANFF AVENUE", "city": "OTTAWA", "province": "ON", "country": "CA", "postalCode": "K1V7X9", "twitter": "None", "instagram": "None", "facebook": "None", "youtube": "None", "website": "None", "summary": "None", "logo": "None", "latitude": 45.365602866934395, "longitude": -75.65749913397761}, "874819410RR0001": {"name": "Banff Canmore Community Foundation", "designationCode": "A", "categoryCode": "03", "address": "P.O. BOX 3100", "city": "BANFF", "province": "AB", "country": "CA", "postalCode": "T1L1C7", "twitter": "None", "instagram": "None", "facebook": "None", "youtube": "None", "website": "None", "summary": "None", "logo": "None", "latitude": 51.17577900000006, "longitude": -115.57274299999993}, "860075647RR0001": {"name": "Banff Forum", "designationCode": "C", "categoryCode": "29", "address": "5 PERCY ST", "city": "TORONTO", "province": "ON", "country": "CA", "postalCode": "M5A3M7", "twitter": "None", "instagram": "None", "facebook": "None", "youtube": "None", "website": "None", "summary": "None", "logo": "None", "latitude": 43.6555128609556, "longitude": -79.35772888813558}, "819887050RR0001": {"name": "Bangladesh Centre and Community Services", "designationCode": "C", "categoryCode": "09", "address": "2670 DANFORTH AVENUE", "city": "TORONTO", "province": "ON", "country": "CA", "postalCode": "M4C1L9", "twitter": "None", "instagram": "None", "facebook": "None", "youtube": "None", "website": "None", "summary": "None", "logo": "None", "latitude": 43.688775161838336, "longitude": -79.2991765571873}, "856097860RR0001": {"name": "Bangladesh Hindu Community Centre in Canada Inc.", "designationCode": "C", "categoryCode": "48", "address": "427-433 BIRCHMOUNT ROAD", "city": "TORONTO", "province": "ON", "country": "CA", "postalCode": "M1K1N3", "twitter": "None", "instagram": "None", "facebook": "None", "youtube": "None", "website": "None", "summary": "None", "logo": "None", "latitude": 43.70436071948209, "longitude": -79.26699559449902}, "121134316RR0001": {"name": "Banques Alimentaires Qu\u00e9bec/Food Banks Qu\u00e9bec", "designationCode": "C", "categoryCode": "09", "address": "6880 CHEMIN C\u00d4TE-DE-LIESSE", "city": "MONTR\u00c9AL", "province": "QC", "country": "CA", "postalCode": "H4T2A1", "twitter": "None", "instagram": "None", "facebook": "None", "youtube": "None", "website": "None", "summary": "None", "logo": "None", "latitude": 45.48189737454328, "longitude": -73.69628232214069}, "887355881RR0001": {"name": "Banyan Community Services Inc.", "designationCode": "C", "categoryCode": "09", "address": "2B - 688 QUEENSDALE AVE E", "city": "HAMILTON", "province": "ON", "country": "CA", "postalCode": "L8V1M1", "twitter": "None", "instagram": "None", "facebook": "None", "youtube": "None", "website": "None", "summary": "None", "logo": "None", "latitude": 43.234258863696894, "longitude": -79.84667814100632}}