{"118971035RR0001": {"name": "INTERNATIONAL SOCIETY FOR KRISHNA CONSCIOUSNESS CANADA", "designationCode": "C", "categoryCode": "39", "address": "243 AVENUE RD", "city": "TORONTO", "province": "ON", "country": "CA", "postalCode": "M5R2J6", "twitter": "None", "instagram": "None", "facebook": "None", "youtube": "None", "website": "None", "summary": "None", "logo": "None", "latitude": 43.6768760527439, "longitude": -79.397467834959}, "118971043RR0001": {"name": "INTERNATIONAL SOCIETY FOR KRISHNA CONSCIOUSNESS FOR WESTERN CANADA", "designationCode": "C", "categoryCode": "39", "address": "5462 SE MARINE DRIVE", "city": "BURNABY", "province": "BC", "country": "CA", "postalCode": "V5J3G8", "twitter": "None", "instagram": "None", "facebook": "None", "youtube": "None", "website": "None", "summary": "None", "logo": "None", "latitude": 49.206244002544416, "longitude": -122.98465536189725}, "861871747RR0001": {"name": "INTERNATIONAL SUPPORT MINISTRIES CANADA INC.", "designationCode": "C", "categoryCode": "49", "address": "5932 - 200TH STREET", "city": "LANGLEY", "province": "BC", "country": "CA", "postalCode": "V3A1N3", "twitter": "None", "instagram": "None", "facebook": "None", "youtube": "None", "website": "None", "summary": "None", "logo": "None", "latitude": 49.11033534259042, "longitude": -122.66869621295211}, "890632847RR0001": {"name": "INTERNATIONAL SWAMINARAYAN SATSANG (ONTARIO)", "designationCode": "C", "categoryCode": "39", "address": "UNIT 5, 3011 MARKHAM ROAD", "city": "SCARBOROUGH", "province": "ON", "country": "CA", "postalCode": "M1X1L7", "twitter": "None", "instagram": "None", "facebook": "None", "youtube": "None", "website": "None", "summary": "None", "logo": "None", "latitude": 43.82842410770949, "longitude": -79.24961080047966}, "126182229RR0001": {"name": "INTERNATIONAL TAOIST CHURCH OF CANADA", "designationCode": "C", "categoryCode": "39", "address": "2ND FLOOR                     223 KEEFER ST", "city": "VANCOUVER", "province": "BC", "country": "CA", "postalCode": "V6A1X6", "twitter": "None", "instagram": "None", "facebook": "None", "youtube": "None", "website": "None", "summary": "None", "logo": "None", "latitude": 49.2794735115412, "longitude": -123.09889980391252}, "130334196RR0001": {"name": "INTERNATIONAL THEATRE INCONNU SOCIETY", "designationCode": "C", "categoryCode": "22", "address": "709 YATES STREET              PO BOX 8796 MAIN POST OFFICE", "city": "VICTORIA", "province": "BC", "country": "CA", "postalCode": "V8W3S3", "twitter": "None", "instagram": "None", "facebook": "None", "youtube": "None", "website": "None", "summary": "None", "logo": "None", "latitude": 48.42618257227784, "longitude": -123.36427466778228}, "898684246RR0001": {"name": "INTERNATIONAL UNITED BETHEL ASSEMBLAY OF ONTARIO", "designationCode": "C", "categoryCode": "39", "address": "3 - 24 ELWAY COURT", "city": "NORTH YORK", "province": "ON", "country": "CA", "postalCode": "N6B2N8", "twitter": "None", "instagram": "None", "facebook": "None", "youtube": "None", "website": "None", "summary": "None", "logo": "None", "latitude": 43.713271687200674, "longitude": -79.44413579505438}, "860691450RR0001": {"name": "INTERNATIONAL WORSHIP CENTRE INC.", "designationCode": "C", "categoryCode": "36", "address": "1077 ST. JAMES STREET", "city": "WINNIPEG", "province": "MB", "country": "CA", "postalCode": "R3H0K6", "twitter": "None", "instagram": "None", "facebook": "None", "youtube": "None", "website": "None", "summary": "None", "logo": "None", "latitude": 49.897043486814034, "longitude": -97.20034069519343}, "118971076RR0001": {"name": "INTERNATIONAL YOUTH EVANGELIZATION AND TRAINING MISSIONS", "designationCode": "C", "categoryCode": "49", "address": "17-235 SAGINAW PKWY", "city": "CAMBRIDGE", "province": "ON", "country": "CA", "postalCode": "N1T1T9", "twitter": "None", "instagram": "None", "facebook": "None", "youtube": "None", "website": "None", "summary": "None", "logo": "None", "latitude": 43.39009513070589, "longitude": -80.2981376959719}, "889298840RR0001": {"name": "INTERPROVINCIAL SCHOOL DEVELOPMENT ASSOCIATION", "designationCode": "C", "categoryCode": "11", "address": "5940 SOUTH STREET", "city": "HALIFAX", "province": "NS", "country": "CA", "postalCode": "B3H1S6", "twitter": "None", "instagram": "None", "facebook": "None", "youtube": "None", "website": "None", "summary": "None", "logo": "None", "latitude": 44.63701888028799, "longitude": -63.58258517967019}, "107513111RR0001": {"name": "INTERTRIBAL CHRISTIAN COMMUNICATIONS (CANADA) INC.", "designationCode": "C", "categoryCode": "47", "address": "PO BOX 3765 REDWOOD CENTRE", "city": "WINNIPEG", "province": "MB", "country": "CA", "postalCode": "R2W3R6", "twitter": "None", "instagram": "None", "facebook": "None", "youtube": "None", "website": "None", "summary": "None", "logo": "None", "latitude": 49.9202268867527, "longitude": -97.14013748947589}, "118971159RR0001": {"name": "INTERVAL HOUSE", "designationCode": "C", "categoryCode": "09", "address": "131 BLOOR ST WEST             SUITE 200", "city": "TORONTO", "province": "ON", "country": "CA", "postalCode": "M5S1R8", "twitter": "None", "instagram": "None", "facebook": "None", "youtube": "None", "website": "None", "summary": "None", "logo": "None", "latitude": 43.669018856483525, "longitude": -79.3925160777022}, "107513137RR0001": {"name": "INTERVAL HOUSE OF HAMILTON-WENTWORTH", "designationCode": "C", "categoryCode": "09", "address": "630 SANATORIUM ROAD", "city": "HAMILTON", "province": "ON", "country": "CA", "postalCode": "L9C7S7", "twitter": "None", "instagram": "None", "facebook": "None", "youtube": "None", "website": "None", "summary": "None", "logo": "None", "latitude": 43.23820742102841, "longitude": -79.91549467482275}, "107513145RR0001": {"name": "INTERVAL HOUSE OF OTTAWA-MAISON INTERVAL D'OTTAWA", "designationCode": "C", "categoryCode": "01", "address": "PO BOX 40089-2515 BANK ST", "city": "OTTAWA", "province": "ON", "country": "CA", "postalCode": "K1V0W8", "twitter": "None", "instagram": "None", "facebook": "None", "youtube": "None", "website": "None", "summary": "None", "logo": "None", "latitude": 45.35398346604166, "longitude": -75.6437969736156}, "122093339RR0001": {"name": "INTERVALLE", "designationCode": "C", "categoryCode": "01", "address": "173, RUE STE-ANNE", "city": "THETFORD MINES", "province": "QC", "country": "CA", "postalCode": "G6G4C1", "twitter": "None", "instagram": "None", "facebook": "None", "youtube": "None", "website": "None", "summary": "None", "logo": "None", "latitude": 46.09473599584505, "longitude": -71.30082967372624}, "129055893RR0001": {"name": "INTERVENTION REGIONALE ET INFORMATION SUR LE SIDA - (I.R.I.S- ESTRIE)", "designationCode": "C", "categoryCode": "11", "address": "505, RUE WELLINGTON", "city": "SHERBROOKE", "province": "QC", "country": "CA", "postalCode": "J1H5E2", "twitter": "None", "instagram": "None", "facebook": "None", "youtube": "None", "website": "None", "summary": "None", "logo": "None", "latitude": 45.394864219256775, "longitude": -71.88660331461699}, "118971191RR0001": {"name": "INTO ALL THE WORLD INC.", "designationCode": "C", "categoryCode": "47", "address": "5256 VICTORIA AVENUE", "city": "NIAGARA FALLS", "province": "ON", "country": "CA", "postalCode": "L2E4E7", "twitter": "None", "instagram": "None", "facebook": "None", "youtube": "None", "website": "None", "summary": "None", "logo": "None", "latitude": 43.09824695337295, "longitude": -79.07288245181508}, "107513327RR0001": {"name": "INTOLA BAPTIST CHURCH", "designationCode": "C", "categoryCode": "31", "address": "6771 MAPLEWARD RD", "city": "THUNDER BAY", "province": "ON", "country": "CA", "postalCode": "P7G2K1", "twitter": "None", "instagram": "None", "facebook": "None", "youtube": "None", "website": "None", "summary": "None", "logo": "None", "latitude": 48.49289615459633, "longitude": -89.37102014074652}, "873661268RR0001": {"name": "INTRADA BRASS", "designationCode": "C", "categoryCode": "22", "address": "1805 MEDALLION COURT", "city": "MISSISSAUGA", "province": "ON", "country": "CA", "postalCode": "L5J2L6", "twitter": "None", "instagram": "None", "facebook": "None", "youtube": "None", "website": "None", "summary": "None", "logo": "None", "latitude": 43.528096801286786, "longitude": -79.64102145089144}, "123822777RR0001": {"name": "INTREPID THEATRE COMPANY SOCIETY", "designationCode": "C", "categoryCode": "22", "address": "2-1609 BLANSHARD ST", "city": "VICTORIA", "province": "BC", "country": "CA", "postalCode": "V8W2J5", "twitter": "None", "instagram": "None", "facebook": "None", "youtube": "None", "website": "None", "summary": "None", "logo": "None", "latitude": 48.42906863696695, "longitude": -123.36191120742713}, "812402279RR0001": {"name": "INTRICITI MINISTRIES INCORPORATED", "designationCode": "C", "categoryCode": "49", "address": "1 FIRST CANADIAN PLACE        SUITE 350", "city": "TORONTO", "province": "ON", "country": "CA", "postalCode": "M5X1C1", "twitter": "None", "instagram": "None", "facebook": "None", "youtube": "None", "website": "None", "summary": "None", "logo": "None", "latitude": 43.648682740967025, "longitude": -79.38032587056271}, "121033724RR0001": {"name": "INUIT ART FOUNDATION", "designationCode": "C", "categoryCode": "22", "address": "400 - 215 SPADINA AVE", "city": "TORONTO", "province": "ON", "country": "CA", "postalCode": "M5T2C7", "twitter": "None", "instagram": "None", "facebook": "None", "youtube": "None", "website": "None", "summary": "None", "logo": "None", "latitude": 43.65063316348313, "longitude": -79.39697013165816}, "107513384RR0001": {"name": "INUIT BROADCASTING CORPORATION", "designationCode": "C", "categoryCode": "21", "address": "310 - 309 COOPER ST", "city": "OTTAWA", "province": "ON", "country": "CA", "postalCode": "K2P0G5", "twitter": "None", "instagram": "None", "facebook": "None", "youtube": "None", "website": "None", "summary": "None", "logo": "None", "latitude": 45.417332283109175, "longitude": -75.6938818960701}, "118971233RR0001": {"name": "INUIT TAPIRIIT KANATAMI", "designationCode": "C", "categoryCode": "09", "address": "75 ALBERT ST, STE 1101", "city": "OTTAWA", "province": "ON", "country": "CA", "postalCode": "K1P5E7", "twitter": "None", "instagram": "None", "facebook": "None", "youtube": "None", "website": "None", "summary": "None", "logo": "None", "latitude": 45.42207928642739, "longitude": -75.69532471400531}, "884854753RR0001": {"name": "INUVIALUIT CHARITABLE FOUNDATION", "designationCode": "C", "categoryCode": "09", "address": "BAG SERVICE #21", "city": "INUVIK", "province": "NT", "country": "CA", "postalCode": "X0E0T0", "twitter": "None", "instagram": "None", "facebook": "None", "youtube": "None", "website": "None", "summary": "None", "logo": "None", "latitude": 68.35869628298585, "longitude": -133.70778161333652}, "130485865RR0001": {"name": "INUVIALUIT EDUCATION FOUNDATION", "designationCode": "C", "categoryCode": "21", "address": "BAG SERVICE #21", "city": "INUVIK", "province": "NT", "country": "CA", "postalCode": "X0E0T0", "twitter": "None", "instagram": "None", "facebook": "None", "youtube": "None", "website": "None", "summary": "None", "logo": "None", "latitude": 68.35869628298585, "longitude": -133.70778161333652}, "897134284RR0001": {"name": "INUVIK DISTRICT EDUCATION AUTHORITY", "designationCode": "C", "categoryCode": "20", "address": "BOX 1468", "city": "INUVIK", "province": "NT", "country": "CA", "postalCode": "X0E0T0", "twitter": "None", "instagram": "None", "facebook": "None", "youtube": "None", "website": "None", "summary": "None", "logo": "None", "latitude": 68.36105000000003, "longitude": -133.73492999999996}, "842540072RR0001": {"name": "INUVIK FOOD BANK", "designationCode": "C", "categoryCode": "09", "address": "P.O. BOX 3288", "city": "INUVIK", "province": "NT", "country": "CA", "postalCode": "X0E0T0", "twitter": "None", "instagram": "None", "facebook": "None", "youtube": "None", "website": "None", "summary": "None", "logo": "None", "latitude": 68.36105000000003, "longitude": -133.73492999999996}, "140756123RR0001": {"name": "INUVIK TRANSITION HOUSE SOCIETY", "designationCode": "C", "categoryCode": "01", "address": "PO BOX 2628", "city": "INUVIK", "province": "NT", "country": "CA", "postalCode": "X0E0T0", "twitter": "None", "instagram": "None", "facebook": "None", "youtube": "None", "website": "None", "summary": "None", "logo": "None", "latitude": 68.36105000000003, "longitude": -133.73492999999996}, "890932585RR0002": {"name": "INUVIK YOUTH CENTRE SOCIETY", "designationCode": "C", "categoryCode": "09", "address": "PO BOX 1491", "city": "INUVIK", "province": "NT", "country": "CA", "postalCode": "X0E0T0", "twitter": "None", "instagram": "None", "facebook": "None", "youtube": "None", "website": "None", "summary": "None", "logo": "None", "latitude": 68.36105000000003, "longitude": -133.73492999999996}, "856131578RR0001": {"name": "INVASIVE SPECIES COUNCIL OF BRITISH COLUMBIA SOCIETY", "designationCode": "C", "categoryCode": "23", "address": "100-197 SECOND AVE N", "city": "WILLIAMS LAKE", "province": "BC", "country": "CA", "postalCode": "V2G1Z5", "twitter": "None", "instagram": "None", "facebook": "None", "youtube": "None", "website": "None", "summary": "None", "logo": "None", "latitude": 52.131298274770614, "longitude": -122.1445002932367}, "118971290RR0001": {"name": "INVERARY MANOR AUXILIARY", "designationCode": "C", "categoryCode": "13", "address": "P.O. BOX 460, MAPLE ST", "city": "INVERNESS", "province": "NS", "country": "CA", "postalCode": "B0E1N0", "twitter": "None", "instagram": "None", "facebook": "None", "youtube": "None", "website": "None", "summary": "None", "logo": "None", "latitude": 46.227432881462015, "longitude": -61.303603301719995}, "134804020RR0001": {"name": "INVERARY UNITED CHURCH", "designationCode": "C", "categoryCode": "44", "address": "4681 LATIMER RD.              BOX 69", "city": "INVERARY", "province": "ON", "country": "CA", "postalCode": "K0H1X0", "twitter": "None", "instagram": "None", "facebook": "None", "youtube": "None", "website": "None", "summary": "None", "logo": "None", "latitude": 44.38854150764606, "longitude": -76.47490353136361}, "119288918RR0589": {"name": "INVERARY, ONTARIO, CONGREGATION OF JEHOVAH'S WITNESSES", "designationCode": "C", "categoryCode": "61", "address": "2998 WALKER RD                RR # 1", "city": "SYDENHAM", "province": "ON", "country": "CA", "postalCode": "K0H2T0", "twitter": "None", "instagram": "None", "facebook": "None", "youtube": "None", "website": "None", "summary": "None", "logo": "None", "latitude": 44.38879800000005, "longitude": -76.53117049999993}, "118971316RR0001": {"name": "INVERHURON & DISTRICT RATEPAYERS ASSOCIATION CHARITABLE TRUST", "designationCode": "C", "categoryCode": "59", "address": "507-1030 CORONATION DR", "city": "LONDON", "province": "ON", "country": "CA", "postalCode": "N6G0G5", "twitter": "None", "instagram": "None", "facebook": "None", "youtube": "None", "website": "None", "summary": "None", "logo": "None", "latitude": 42.99681066753201, "longitude": -81.3275356291093}, "119288918RR1132": {"name": "INVERMERE B C CONGREGATION OF JEHOVAH'S WITNESSES", "designationCode": "C", "categoryCode": "61", "address": "BOX 776                       #2 1070 HOLLAND CREEK ESTATES", "city": "INVERMERE", "province": "BC", "country": "CA", "postalCode": "V0A1K4", "twitter": "None", "instagram": "None", "facebook": "None", "youtube": "None", "website": "None", "summary": "None", "logo": "None", "latitude": 50.49836700000006, "longitude": -116.02166299999993}, "804816577RR0001": {"name": "INVERMERE HEALTH CARE AUXILIARY SOCIETY", "designationCode": "A", "categoryCode": "15", "address": "PO BOX 571", "city": "INVERMERE", "province": "BC", "country": "CA", "postalCode": "V0A1K0", "twitter": "None", "instagram": "None", "facebook": "None", "youtube": "None", "website": "None", "summary": "None", "logo": "None", "latitude": 50.50916700000006, "longitude": -116.03037049999993}, "137954301RR0001": {"name": "INVERNESS CONSOLIDATED MEMORIAL HOSPITAL AUXILIARY", "designationCode": "C", "categoryCode": "19", "address": "PO BOX 610", "city": "INVERNESS", "province": "NS", "country": "CA", "postalCode": "B0E1N0", "twitter": "None", "instagram": "None", "facebook": "None", "youtube": "None", "website": "None", "summary": "None", "logo": "None", "latitude": 46.19549400000005, "longitude": -61.28634049999994}, "118971365RR0001": {"name": "INVERNESS CONSOLIDATED MEMORIAL HOSPITAL CHARITABLE FOUNDATION", "designationCode": "C", "categoryCode": "13", "address": "P.O. BOX 610", "city": "INVERNESS", "province": "NS", "country": "CA", "postalCode": "B0E1N0", "twitter": "None", "instagram": "None", "facebook": "None", "youtube": "None", "website": "None", "summary": "None", "logo": "None", "latitude": 46.19549400000005, "longitude": -61.28634049999994}, "881684427RR0001": {"name": "INVERNESS COUNTY COUNCIL OF THE ARTS", "designationCode": "C", "categoryCode": "22", "address": "PO BOX 709", "city": "INVERNESS", "province": "NS", "country": "CA", "postalCode": "B0E1N0", "twitter": "None", "instagram": "None", "facebook": "None", "youtube": "None", "website": "None", "summary": "None", "logo": "None", "latitude": 46.19549400000005, "longitude": -61.28634049999994}, "118971373RR0001": {"name": "INVERNESS PASTORAL CHARGE", "designationCode": "C", "categoryCode": "44", "address": "1753 DUBLIN ST", "city": "INVERNESS", "province": "QC", "country": "CA", "postalCode": "G0S1K0", "twitter": "None", "instagram": "None", "facebook": "None", "youtube": "None", "website": "None", "summary": "None", "logo": "None", "latitude": 46.262467947833045, "longitude": -71.52672876712455}, "863213450RR0001": {"name": "INVESTING IN CHILDREN INC.", "designationCode": "C", "categoryCode": "21", "address": "205 OXFORD ST. E., SUITE 206", "city": "LONDON", "province": "ON", "country": "CA", "postalCode": "N6A5G6", "twitter": "None", "instagram": "None", "facebook": "None", "youtube": "None", "website": "None", "summary": "None", "logo": "None", "latitude": 42.99517216622443, "longitude": -81.25425354772356}, "887130193RR0001": {"name": "INVESTING IN CHRIST'S CALL INTERNATIONAL", "designationCode": "C", "categoryCode": "47", "address": "12-17665 LESLIE STREET", "city": "NEWMARKET", "province": "ON", "country": "CA", "postalCode": "L3Y3E3", "twitter": "None", "instagram": "None", "facebook": "None", "youtube": "None", "website": "None", "summary": "None", "logo": "None", "latitude": 44.07015411270113, "longitude": -79.43296396644428}, "889958864RR0001": {"name": "INVITATION MINISTRIES INC.", "designationCode": "C", "categoryCode": "49", "address": "PO BOX 401 STN MAIN", "city": "MOOSE JAW", "province": "SK", "country": "CA", "postalCode": "S6H4P1", "twitter": "None", "instagram": "None", "facebook": "None", "youtube": "None", "website": "None", "summary": "None", "logo": "None", "latitude": 50.37724922856035, "longitude": -105.53464629643145}, "866279441RR0001": {"name": "INVITATION THE QUILT OF BELONGING", "designationCode": "C", "categoryCode": "21", "address": "19599 COUNTY RD 17 PO BOX 100", "city": "WILLIAMSTOWN", "province": "ON", "country": "CA", "postalCode": "K0C2J0", "twitter": "None", "instagram": "None", "facebook": "None", "youtube": "None", "website": "None", "summary": "None", "logo": "None", "latitude": 45.14806624122886, "longitude": -74.5886744635952}, "107514176RR0001": {"name": "INWOOD PASTORAL CHARGE", "designationCode": "C", "categoryCode": "44", "address": "RR 4", "city": "ALVINSTON", "province": "ON", "country": "CA", "postalCode": "N0N1A0", "twitter": "None", "instagram": "None", "facebook": "None", "youtube": "None", "website": "None", "summary": "None", "logo": "None", "latitude": 42.879960099102135, "longitude": -81.83353792200379}, "864096425RR0001": {"name": "INYE AKA HEALTH INTERNATIONAL", "designationCode": "C", "categoryCode": "01", "address": "6449 PRINCE OF WALES DRIVE    RR 3", "city": "OTTAWA", "province": "ON", "country": "CA", "postalCode": "K0A2T0", "twitter": "None", "instagram": "None", "facebook": "None", "youtube": "None", "website": "None", "summary": "None", "logo": "None", "latitude": 45.14504545793192, "longitude": -75.71293510658523}, "890433584RR0001": {"name": "IOCO UNITED CHURCH", "designationCode": "C", "categoryCode": "44", "address": "1790 IOCO RD", "city": "PORT MOODY", "province": "BC", "country": "CA", "postalCode": "V3H2X3", "twitter": "None", "instagram": "None", "facebook": "None", "youtube": "None", "website": "None", "summary": "None", "logo": "None", "latitude": 49.30256750346244, "longitude": -122.87310306272721}, "890419245RR0001": {"name": "IOF FORESTERS PREVENTION OF CHILD ABUSE FUND", "designationCode": "A", "categoryCode": "09", "address": "789 DON MILLS ROAD", "city": "DON MILLS", "province": "ON", "country": "CA", "postalCode": "M3C1T9", "twitter": "None", "instagram": "None", "facebook": "None", "youtube": "None", "website": "None", "summary": "None", "logo": "None", "latitude": 43.72060352661772, "longitude": -79.33875118402936}, "808862098RR0001": {"name": "IOM Mannkind Charitable Society", "designationCode": "C", "categoryCode": "01", "address": "13768 56 AVE", "city": "SURREY", "province": "BC", "country": "CA", "postalCode": "V3X2Z8", "twitter": "None", "instagram": "None", "facebook": "None", "youtube": "None", "website": "None", "summary": "None", "logo": "None", "latitude": 49.1046386344568, "longitude": -122.84100531141435}, "107514267RR0001": {"name": "IONA (WILLOWDALE) PRESBYTERIAN CHURCH", "designationCode": "C", "categoryCode": "37", "address": "1080 FINCH AVE E", "city": "WILLOWDALE", "province": "ON", "country": "CA", "postalCode": "M2J2X2", "twitter": "None", "instagram": "None", "facebook": "None", "youtube": "None", "website": "None", "summary": "None", "logo": "None", "latitude": 43.79049314019826, "longitude": -79.36472849169012}, "107514234RR0001": {"name": "IONA CHRISTIAN FELLOWSHIP CHURCH", "designationCode": "C", "categoryCode": "39", "address": "36426 THIRD LINE RR#1", "city": "SOUTHWOLD", "province": "ON", "country": "CA", "postalCode": "N0L2G0", "twitter": "None", "instagram": "None", "facebook": "None", "youtube": "None", "website": "None", "summary": "None", "logo": "None", "latitude": 42.78478946130746, "longitude": -81.37379962187639}, "107514242RR0001": {"name": "IONA COLLEGE", "designationCode": "C", "categoryCode": "20", "address": "CHN120 - 401 SUNSET AVE", "city": "WINDSOR", "province": "ON", "country": "CA", "postalCode": "N9B3P4", "twitter": "None", "instagram": "None", "facebook": "None", "youtube": "None", "website": "None", "summary": "None", "logo": "None", "latitude": 42.306585000000055, "longitude": -83.06588599999994}, "888451630RR0001": {"name": "IONA COMMUNITY PRESERVATION ASSOCIATION", "designationCode": "C", "categoryCode": "50", "address": "RR 3", "city": "IONA", "province": "ON", "country": "CA", "postalCode": "N0L1P0", "twitter": "None", "instagram": "None", "facebook": "None", "youtube": "None", "website": "None", "summary": "None", "logo": "None", "latitude": 42.66800287800721, "longitude": -81.3570017876694}, "107514259RR0001": {"name": "IONA PRESBYTERIAN CHURCH", "designationCode": "C", "categoryCode": "37", "address": "90 LUCIEN DRIVE", "city": "DARTMOUTH", "province": "NS", "country": "CA", "postalCode": "B2W2J3", "twitter": "None", "instagram": "None", "facebook": "None", "youtube": "None", "website": "None", "summary": "None", "logo": "None", "latitude": 44.6785957610364, "longitude": -63.50851066281928}, "118971456RR0001": {"name": "IONA STATION BAPTIST CHURCH", "designationCode": "C", "categoryCode": "31", "address": "43941 SPARTA LINE             RR 4", "city": "ST THOMAS", "province": "ON", "country": "CA", "postalCode": "N5P3S8", "twitter": "None", "instagram": "None", "facebook": "None", "youtube": "None", "website": "None", "summary": "None", "logo": "None", "latitude": 42.7034130798059, "longitude": -81.15226229917295}, "139423867RR0001": {"name": "IONA VOLUNTEER FIRE DEPARTMENT", "designationCode": "C", "categoryCode": "59", "address": "4372 HWY 223", "city": "IONA", "province": "NS", "country": "CA", "postalCode": "B2C1A2", "twitter": "None", "instagram": "None", "facebook": "None", "youtube": "None", "website": "None", "summary": "None", "logo": "None", "latitude": 45.95794381622335, "longitude": -60.8095183333825}, "102526415RR0001": {"name": "IOOF. SENIORS HOMES INC.", "designationCode": "C", "categoryCode": "01", "address": "20 BROOKS STREET", "city": "BARRIE", "province": "ON", "country": "CA", "postalCode": "L4N7X2", "twitter": "None", "instagram": "None", "facebook": "None", "youtube": "None", "website": "None", "summary": "None", "logo": "None", "latitude": 44.368626056927475, "longitude": -79.68698257366282}, "824356091RR0001": {"name": "IP INNOVATION FOUNDATION", "designationCode": "B", "categoryCode": "53", "address": "39 PLEASANT BOULEVARD         SUITE 201", "city": "TORONTO", "province": "ON", "country": "CA", "postalCode": "M4T1K2", "twitter": "None", "instagram": "None", "facebook": "None", "youtube": "None", "website": "None", "summary": "None", "logo": "None", "latitude": 43.68745286759203, "longitude": -79.39207640285076}, "864954896RR0001": {"name": "IQALUIT DISTRICT EDUCATION AUTHORITY", "designationCode": "C", "categoryCode": "20", "address": "P O BOX 235", "city": "IQALUIT", "province": "NU", "country": "CA", "postalCode": "X0A0H0", "twitter": "None", "instagram": "None", "facebook": "None", "youtube": "None", "website": "None", "summary": "None", "logo": "None", "latitude": 62.81090700000006, "longitude": -92.08155949999994}, "866896228RR0001": {"name": "IQALUIT PENTECOSTAL CHURCH", "designationCode": "C", "categoryCode": "36", "address": "PO BOX 315", "city": "IQALUIT", "province": "NU", "country": "CA", "postalCode": "X0A0H0", "twitter": "None", "instagram": "None", "facebook": "None", "youtube": "None", "website": "None", "summary": "None", "logo": "None", "latitude": 62.81090700000006, "longitude": -92.08155949999994}, "866771488RR0001": {"name": "IQRA Education Society", "designationCode": "C", "categoryCode": "60", "address": "14590-116A AVE", "city": "SURREY", "province": "BC", "country": "CA", "postalCode": "V3R2V1", "twitter": "None", "instagram": "None", "facebook": "None", "youtube": "None", "website": "None", "summary": "None", "logo": "None", "latitude": 49.21428546681873, "longitude": -122.8179825}, "878808567RR0001": {"name": "IQRA ISLAMIC SCHOOL", "designationCode": "C", "categoryCode": "20", "address": "5751 COOPERS AVE", "city": "MISSISSAUGA", "province": "ON", "country": "CA", "postalCode": "L4Z1R9", "twitter": "None", "instagram": "None", "facebook": "None", "youtube": "None", "website": "None", "summary": "None", "logo": "None", "latitude": 43.63204115048942, "longitude": -79.66075210652728}, "889494001RR0001": {"name": "IRELAND OUTREACH (CANADA) INC.", "designationCode": "C", "categoryCode": "47", "address": "53 CULLEN WAY", "city": "WHITBY", "province": "ON", "country": "CA", "postalCode": "L1R2Y9", "twitter": "None", "instagram": "None", "facebook": "None", "youtube": "None", "website": "None", "summary": "None", "logo": "None", "latitude": 43.91071934416293, "longitude": -78.96152790824645}, "865533921RR0001": {"name": "IRELAND PARK FOUNDATION", "designationCode": "C", "categoryCode": "56", "address": "67 YONGE ST. SUITE 1101", "city": "TORONTO", "province": "ON", "country": "CA", "postalCode": "M5E1J8", "twitter": "None", "instagram": "None", "facebook": "None", "youtube": "None", "website": "None", "summary": "None", "logo": "None", "latitude": 43.64876464224706, "longitude": -79.37768627863709}, "882584311RR0001": {"name": "IRENE E. NORDWICH FOUNDATION INC.", "designationCode": "B", "categoryCode": "23", "address": "1000 - 305 BROADWAY", "city": "WINNIPEG", "province": "MB", "country": "CA", "postalCode": "R3C3J7", "twitter": "None", "instagram": "None", "facebook": "None", "youtube": "None", "website": "None", "summary": "None", "logo": "None", "latitude": 49.887785209013664, "longitude": -97.14005744783303}, "118982958RR0001": {"name": "IRIS KIRBY HOUSE", "designationCode": "C", "categoryCode": "01", "address": "196 WATERFORD BRIDGE RD", "city": "ST. JOHN'S", "province": "NL", "country": "CA", "postalCode": "A1E1E2", "twitter": "None", "instagram": "None", "facebook": "None", "youtube": "None", "website": "None", "summary": "None", "logo": "None", "latitude": 47.53299677381834, "longitude": -52.738622902071356}, "827584996RR0001": {"name": "IRIS MINISTRIES CANADA", "designationCode": "C", "categoryCode": "47", "address": "10-1425 ABBEYWOOD DR", "city": "OAKVILLE", "province": "ON", "country": "CA", "postalCode": "L6M3R3", "twitter": "None", "instagram": "None", "facebook": "None", "youtube": "None", "website": "None", "summary": "None", "logo": "None", "latitude": 43.43058561752174, "longitude": -79.72642423559333}, "891249344RR0001": {"name": "IRIS NOIR", "designationCode": "C", "categoryCode": "01", "address": "CASE POSTALE 22", "city": "MONT JOLI", "province": "QC", "country": "CA", "postalCode": "G5H3K8", "twitter": "None", "instagram": "None", "facebook": "None", "youtube": "None", "website": "None", "summary": "None", "logo": "None", "latitude": 48.580980000000054, "longitude": -68.17849549999994}, "886166529RR0001": {"name": "IRIS RESIDENTIAL INNS AND SERVICES", "designationCode": "C", "categoryCode": "11", "address": "1280 OUELLETTE AVE.", "city": "WINDSOR", "province": "ON", "country": "CA", "postalCode": "N8X1J5", "twitter": "None", "instagram": "None", "facebook": "None", "youtube": "None", "website": "None", "summary": "None", "logo": "None", "latitude": 42.30429361700032, "longitude": -83.03046146373164}, "813985017RR0001": {"name": "IRIS THE DRAGON", "designationCode": "C", "categoryCode": "11", "address": "285 GRASSMERE LANE            R.R. #5", "city": "PERTH", "province": "ON", "country": "CA", "postalCode": "K7H3C7", "twitter": "None", "instagram": "None", "facebook": "None", "youtube": "None", "website": "None", "summary": "None", "logo": "None", "latitude": 45.352979538157115, "longitude": -79.1119271005805}, "889323853RR0001": {"name": "IRISH HERITAGE QUEBEC/L'HERITAGE IRLANDAIS DU QUEBEC", "designationCode": "C", "categoryCode": "50", "address": "1145 DE SALABERRY", "city": "QUEBEC", "province": "QC", "country": "CA", "postalCode": "G1R2V7", "twitter": "None", "instagram": "None", "facebook": "None", "youtube": "None", "website": "None", "summary": "None", "logo": "None", "latitude": 46.80392230088276, "longitude": -71.22412326724013}, "118971506RR0001": {"name": "IRISH REGIMENT (SUDBURY) ASSOCIATION", "designationCode": "C", "categoryCode": "51", "address": "333 RIVERSIDE DR", "city": "SUDBURY", "province": "ON", "country": "CA", "postalCode": "P3E1H5", "twitter": "None", "instagram": "None", "facebook": "None", "youtube": "None", "website": "None", "summary": "None", "logo": "None", "latitude": 46.482926419719774, "longitude": -81.0053585606479}, "131738486RR0001": {"name": "IRMA ALLIANCE CHURCH", "designationCode": "C", "categoryCode": "39", "address": "PO BOX 5", "city": "IRMA", "province": "AB", "country": "CA", "postalCode": "T0B2H0", "twitter": "None", "instagram": "None", "facebook": "None", "youtube": "None", "website": "None", "summary": "None", "logo": "None", "latitude": 52.91172000000006, "longitude": -111.23200999999995}, "892247842RR0001": {"name": "IRMA AND DISTRICT HISTORICAL SOCIETY", "designationCode": "C", "categoryCode": "50", "address": "PO BOX 392", "city": "IRMA", "province": "AB", "country": "CA", "postalCode": "T0B2H0", "twitter": "None", "instagram": "None", "facebook": "None", "youtube": "None", "website": "None", "summary": "None", "logo": "None", "latitude": 52.91172000000006, "longitude": -111.23200999999995}, "846569879RR0001": {"name": "IRMA J. BRYDSON FOUNDATION", "designationCode": "B", "categoryCode": "03", "address": "747 FORT ST.                  SUITE 1100", "city": "VICTORIA", "province": "BC", "country": "CA", "postalCode": "V8W3E9", "twitter": "None", "instagram": "None", "facebook": "None", "youtube": "None", "website": "None", "summary": "None", "logo": "None", "latitude": 48.42443559781307, "longitude": -123.36394314516126}, "889718441RR0001": {"name": "IRMA UNITED CHURCH OFFICIAL BOARD", "designationCode": "C", "categoryCode": "44", "address": "POST OFFICE BOX 155", "city": "IRMA", "province": "AB", "country": "CA", "postalCode": "T0B2H0", "twitter": "None", "instagram": "None", "facebook": "None", "youtube": "None", "website": "None", "summary": "None", "logo": "None", "latitude": 52.91172000000006, "longitude": -111.23200999999995}, "107797383RR0012": {"name": "IRON BRIDGE SEVENTH-DAY ADVENTIST CHURCH", "designationCode": "C", "categoryCode": "41", "address": "R.R. 1", "city": "IRON BRIDGE", "province": "ON", "country": "CA", "postalCode": "P0R1H0", "twitter": "None", "instagram": "None", "facebook": "None", "youtube": "None", "website": "None", "summary": "None", "logo": "None", "latitude": 46.27694000000008, "longitude": -83.21264999999994}, "118971571RR0001": {"name": "IRON BRIDGE UNITED CHURCH", "designationCode": "C", "categoryCode": "44", "address": "113 CRESSEY RD", "city": "THESSALON", "province": "ON", "country": "CA", "postalCode": "P0R1L0", "twitter": "None", "instagram": "None", "facebook": "None", "youtube": "None", "website": "None", "summary": "None", "logo": "None", "latitude": 46.261050000000054, "longitude": -83.55382099999993}, "892125170RR0001": {"name": "IRON HILL UNION CEMETERY", "designationCode": "C", "categoryCode": "59", "address": "30 CHAPMAN R R 3", "city": "COWANSVILLE", "province": "QC", "country": "CA", "postalCode": "J2K3G8", "twitter": "None", "instagram": "None", "facebook": "None", "youtube": "None", "website": "None", "summary": "None", "logo": "None", "latitude": 45.22798404123613, "longitude": -72.686173827832}, "118971589RR0001": {"name": "IRON RIVER OPEN BIBLE FELLOWSHIP", "designationCode": "C", "categoryCode": "39", "address": "PO BOX 53", "city": "LA COREY", "province": "AB", "country": "CA", "postalCode": "T0A2E0", "twitter": "None", "instagram": "None", "facebook": "None", "youtube": "None", "website": "None", "summary": "None", "logo": "None", "latitude": 54.12720846411341, "longitude": -111.36815985769374}, "893803189RR0001": {"name": "IROQUOIS FALLS ACCESS TRANSIT COMMITTEE", "designationCode": "C", "categoryCode": "09", "address": "P.O. BOX 1302", "city": "IROQUOIS FALLS", "province": "ON", "country": "CA", "postalCode": "P0K1G0", "twitter": "None", "instagram": "None", "facebook": "None", "youtube": "None", "website": "None", "summary": "None", "logo": "None", "latitude": 48.75883001500371, "longitude": -80.69020006996918}, "107515330RR0001": {"name": "IROQUOIS FALLS ADULT LEARNING CENTRE", "designationCode": "C", "categoryCode": "21", "address": "P.O.BOX 159, 146-6TH AVE.", "city": "COCHRANE", "province": "ON", "country": "CA", "postalCode": "P0L1C0", "twitter": "None", "instagram": "None", "facebook": "None", "youtube": "None", "website": "None", "summary": "None", "logo": "None", "latitude": 49.062418059923836, "longitude": -81.02495371247761}, "118971597RR0001": {"name": "IROQUOIS FALLS BIBLE CHAPEL", "designationCode": "C", "categoryCode": "39", "address": "BOX 909", "city": "IROQUOIS FALLS", "province": "ON", "country": "CA", "postalCode": "P0K1E0", "twitter": "None", "instagram": "None", "facebook": "None", "youtube": "None", "website": "None", "summary": "None", "logo": "None", "latitude": 48.75883001500371, "longitude": -80.69020006996918}, "118971605RR0001": {"name": "IROQUOIS FALLS MUSIC FESTIVAL COMMITTEE", "designationCode": "C", "categoryCode": "22", "address": "P O BOX 943", "city": "IROQUOIS FALLS", "province": "ON", "country": "CA", "postalCode": "P0K1E0", "twitter": "None", "instagram": "None", "facebook": "None", "youtube": "None", "website": "None", "summary": "None", "logo": "None", "latitude": 48.75883001500371, "longitude": -80.69020006996918}, "876640624RR0001": {"name": "IROQUOIS FALLS PENTECOSTAL CHURCH", "designationCode": "C", "categoryCode": "36", "address": "PO BOX 29, 154 TEEFY STREET", "city": "IROQUOIS FALLS", "province": "ON", "country": "CA", "postalCode": "P0K1E0", "twitter": "None", "instagram": "None", "facebook": "None", "youtube": "None", "website": "None", "summary": "None", "logo": "None", "latitude": 48.75556309258594, "longitude": -80.68352038710158}, "107515355RR0001": {"name": "IROQUOIS FALLS PRE-SCHOOL CENTRE PRE-SCOLAIRE IROQUOIS FALLS", "designationCode": "C", "categoryCode": "20", "address": "BOX 449", "city": "IROQUOIS FALLS", "province": "ON", "country": "CA", "postalCode": "P0K1G0", "twitter": "None", "instagram": "None", "facebook": "None", "youtube": "None", "website": "None", "summary": "None", "logo": "None", "latitude": 48.75883001500371, "longitude": -80.69020006996918}, "107515363RR0001": {"name": "IROQUOIS FALLS PUBLIC LIBRARY BOARD", "designationCode": "C", "categoryCode": "50", "address": "BOX 860", "city": "IROQUOIS FALLS", "province": "ON", "country": "CA", "postalCode": "P0K1G0", "twitter": "None", "instagram": "None", "facebook": "None", "youtube": "None", "website": "None", "summary": "None", "logo": "None", "latitude": 48.75883001500371, "longitude": -80.69020006996918}, "890194194RR0001": {"name": "IRRICANA FOOD BANK", "designationCode": "C", "categoryCode": "09", "address": "BOX 212", "city": "IRRICANA", "province": "AB", "country": "CA", "postalCode": "T0M1B0", "twitter": "None", "instagram": "None", "facebook": "None", "youtube": "None", "website": "None", "summary": "None", "logo": "None", "latitude": 51.32701000000003, "longitude": -113.59144999999995}, "107515462RR0001": {"name": "IRRICANA UNITED CHURCH", "designationCode": "C", "categoryCode": "44", "address": "BOX 128", "city": "IRRICANA", "province": "AB", "country": "CA", "postalCode": "T0M1B0", "twitter": "None", "instagram": "None", "facebook": "None", "youtube": "None", "website": "None", "summary": "None", "logo": "None", "latitude": 51.32701000000003, "longitude": -113.59144999999995}, "889451399RR0001": {"name": "IRVING AND MOLLY LEVINS FOUNDATION", "designationCode": "B", "categoryCode": "15", "address": "130 KING ST W 20TH FL  BOX 430STATION FIRST CANADIAN PLACE", "city": "TORONTO", "province": "ON", "country": "CA", "postalCode": "M5X1K1", "twitter": "None", "instagram": "None", "facebook": "None", "youtube": "None", "website": "None", "summary": "None", "logo": "None", "latitude": 43.64826932503962, "longitude": -79.38190945606182}, "892555483RR0001": {"name": "IRVING GREENBERG MEMORIAL CAMP FUND", "designationCode": "C", "categoryCode": "56", "address": "1801 WOODWARD DR", "city": "OTTAWA", "province": "ON", "country": "CA", "postalCode": "K2C0R3", "twitter": "None", "instagram": "None", "facebook": "None", "youtube": "None", "website": "None", "summary": "None", "logo": "None", "latitude": 45.36979357146978, "longitude": -75.75182079825703}, "823422142RR0001": {"name": "IRVING K. BARBER BRITISH COLUMBIA SCHOLARSHIP SOCIETY", "designationCode": "C", "categoryCode": "21", "address": "200 - 703 BROUGHTON ST", "city": "VICTORIA", "province": "BC", "country": "CA", "postalCode": "V8W1E2", "twitter": "None", "instagram": "None", "facebook": "None", "youtube": "None", "website": "None", "summary": "None", "logo": "None", "latitude": 48.42375157617298, "longitude": -123.36515470344507}, "118971654RR0001": {"name": "IRVING L. ROSEN FOUNDATION", "designationCode": "B", "categoryCode": "03", "address": "219 RICHVIEW AVE", "city": "TORONTO", "province": "ON", "country": "CA", "postalCode": "M5P3G2", "twitter": "None", "instagram": "None", "facebook": "None", "youtube": "None", "website": "None", "summary": "None", "logo": "None", "latitude": 43.6950430088868, "longitude": -79.42182726614361}, "118971662RR0001": {"name": "IRVING WEBSTER MCNAUGHTON SCHOLARSHIP", "designationCode": "B", "categoryCode": "25", "address": "190 MORNING DOVE DRIVE", "city": "MARKHAM", "province": "ON", "country": "CA", "postalCode": "L6B1L9", "twitter": "None", "instagram": "None", "facebook": "None", "youtube": "None", "website": "None", "summary": "None", "logo": "None", "latitude": 43.897603095764254, "longitude": -79.22525868818163}, "118971670RR0001": {"name": "ISAACS HARBOUR CEMETERY ASSOCIATION BEAUTIFICATION FUND", "designationCode": "C", "categoryCode": "59", "address": "GD", "city": "ISAACS HARBOUR", "province": "NS", "country": "CA", "postalCode": "B0H1S0", "twitter": "None", "instagram": "None", "facebook": "None", "youtube": "None", "website": "None", "summary": "None", "logo": "None", "latitude": 45.180186266259824, "longitude": -61.660431513007865}, "893635417RR0001": {"name": "ISABEL ADAMS COBURN SCHOLARSHIP TRUST", "designationCode": "B", "categoryCode": "25", "address": "318 MAPLE STREET", "city": "FREDERICTON", "province": "NB", "country": "CA", "postalCode": "E3A3R4", "twitter": "None", "instagram": "None", "facebook": "None", "youtube": "None", "website": "None", "summary": "None", "logo": "None", "latitude": 45.97952987705575, "longitude": -66.6466735814531}, "849348271RR0001": {"name": "ISABEL SIMPSON HOSPITAL TRUST", "designationCode": "B", "categoryCode": "15", "address": "(THE CANADA TRUST CO.)        PO BOX 10085", "city": "VANCOUVER", "province": "BC", "country": "CA", "postalCode": "V7Y1B6", "twitter": "None", "instagram": "None", "facebook": "None", "youtube": "None", "website": "None", "summary": "None", "logo": "None", "latitude": 49.28294993392596, "longitude": -123.11892994113924}, "860981216RR0001": {"name": "ISABELLE FIOLA MINISTRIES", "designationCode": "C", "categoryCode": "09", "address": "PO BOX 162", "city": "RORKETON", "province": "MB", "country": "CA", "postalCode": "R0L1R0", "twitter": "None", "instagram": "None", "facebook": "None", "youtube": "None", "website": "None", "summary": "None", "logo": "None", "latitude": 51.390840000000026, "longitude": -99.59604999999999}, "140315433RR0001": {"name": "ISAIAH HOUSE SPECIAL CARE SOCIETY", "designationCode": "C", "categoryCode": "01", "address": "511 YOUNG AVENUE", "city": "HALIFAX", "province": "NS", "country": "CA", "postalCode": "B3H2V4", "twitter": "None", "instagram": "None", "facebook": "None", "youtube": "None", "website": "None", "summary": "None", "logo": "None", "latitude": 44.62716401915859, "longitude": -63.57193112750322}}