{"118980390RR0001": {"name": "KHALSA DIWAN SOCIETY NEW WESTMINSTER", "designationCode": "C", "categoryCode": "62", "address": "#273-8128 128TH STREET", "city": "SURREY", "province": "BC", "country": "CA", "postalCode": "V3W1R1", "twitter": "None", "instagram": "None", "facebook": "None", "youtube": "None", "website": "None", "summary": "None", "logo": "None", "latitude": 49.150472526718644, "longitude": -122.86794847766836}, "130931389RR0001": {"name": "KHALSA DIWAN SOCIETY OF ABBOTSFORD", "designationCode": "C", "categoryCode": "62", "address": "33094 SOUTH FRASER WAY", "city": "ABBOTSFORD", "province": "BC", "country": "CA", "postalCode": "V2S2A9", "twitter": "None", "instagram": "None", "facebook": "None", "youtube": "None", "website": "None", "summary": "None", "logo": "None", "latitude": 49.050668541693646, "longitude": -122.3069638662357}, "881437560RR0001": {"name": "KHANIQAH-I NIMATULLAHI (CANADA)", "designationCode": "C", "categoryCode": "39", "address": "1596, AVENUE DES PINS OUEST", "city": "MONTREAL", "province": "QC", "country": "CA", "postalCode": "H3G1B4", "twitter": "None", "instagram": "None", "facebook": "None", "youtube": "None", "website": "None", "summary": "None", "logo": "None", "latitude": 45.497079912285834, "longitude": -73.58729372450823}, "118980457RR0001": {"name": "KHARTUM LADIES AUXILIARY", "designationCode": "C", "categoryCode": "19", "address": "344 WHYTEWOLD ROAD", "city": "WINNIPEG", "province": "MB", "country": "CA", "postalCode": "R3J2W5", "twitter": "None", "instagram": "None", "facebook": "None", "youtube": "None", "website": "None", "summary": "None", "logo": "None", "latitude": 49.88109768665242, "longitude": -97.25427451670573}, "880127824RR0001": {"name": "KHARTUM SHRINE PATIENT TRANSPORTATION FUND", "designationCode": "C", "categoryCode": "09", "address": "1155 WILKES AVE", "city": "WINNIPEG", "province": "MB", "country": "CA", "postalCode": "R3P1B9", "twitter": "None", "instagram": "None", "facebook": "None", "youtube": "None", "website": "None", "summary": "None", "logo": "None", "latitude": 49.8469524982683, "longitude": -97.19774002553523}, "874263411RR0001": {"name": "KHMER BUDDHIST SEREY SOU SDEY TEMPLE", "designationCode": "C", "categoryCode": "35", "address": "2489 FANSHAW PARK RD E", "city": "LONDON", "province": "ON", "country": "CA", "postalCode": "N5X4A1", "twitter": "None", "instagram": "None", "facebook": "None", "youtube": "None", "website": "None", "summary": "None", "logo": "None", "latitude": 43.05415206284254, "longitude": -81.18868249776546}, "889701967RR0001": {"name": "KHMER BUDDHIST TEMPLE OF ONTARIO", "designationCode": "C", "categoryCode": "35", "address": "9575 KEELE ST", "city": "MAPLE", "province": "ON", "country": "CA", "postalCode": "L6A1M1", "twitter": "None", "instagram": "None", "facebook": "None", "youtube": "None", "website": "None", "summary": "None", "logo": "None", "latitude": 43.844557881499156, "longitude": -79.50999797714876}, "869300780RR0001": {"name": "KHMER KAMPUCHEA KROM BUDDHIST TEMPLE", "designationCode": "C", "categoryCode": "35", "address": "516 BARTON ST E", "city": "STONEY CREEK", "province": "ON", "country": "CA", "postalCode": "L8E2L6", "twitter": "None", "instagram": "None", "facebook": "None", "youtube": "None", "website": "None", "summary": "None", "logo": "None", "latitude": 43.22469997305115, "longitude": -79.7099408370938}, "877292094RR0001": {"name": "KHMER-CANADIAN BUDDHIST CULTURAL SOCIETY", "designationCode": "C", "categoryCode": "35", "address": "7011 OGDEN RD SE", "city": "CALGARY", "province": "AB", "country": "CA", "postalCode": "T2C1B5", "twitter": "None", "instagram": "None", "facebook": "None", "youtube": "None", "website": "None", "summary": "None", "logo": "None", "latitude": 50.989504778233076, "longitude": -114.00075496990581}, "118843523RR0001": {"name": "KI-LOW-NA FRIENDSHIP SOCIETY", "designationCode": "C", "categoryCode": "59", "address": "442 LEON AVE", "city": "KELOWNA", "province": "BC", "country": "CA", "postalCode": "V1Y6J3", "twitter": "None", "instagram": "None", "facebook": "None", "youtube": "None", "website": "None", "summary": "None", "logo": "None", "latitude": 49.88462377807588, "longitude": -119.49439804765022}, "853065563RR0001": {"name": "KICKSTART FOUNDATION", "designationCode": "A", "categoryCode": "03", "address": "4254 WEST KING EDWARD AVENUE", "city": "VANCOUVER", "province": "BC", "country": "CA", "postalCode": "V6S1N3", "twitter": "None", "instagram": "None", "facebook": "None", "youtube": "None", "website": "None", "summary": "None", "logo": "None", "latitude": 49.2495927399159, "longitude": -123.20302521550587}, "119180537RR0001": {"name": "KID'S KASTLE CO-OPERATIVE NURSERY SCHOOL INC.", "designationCode": "C", "categoryCode": "20", "address": "6136 LUNDY'S LANE", "city": "NIAGARA FALLS", "province": "ON", "country": "CA", "postalCode": "L2G1T1", "twitter": "None", "instagram": "None", "facebook": "None", "youtube": "None", "website": "None", "summary": "None", "logo": "None", "latitude": 43.089462484563676, "longitude": -79.09612255536962}, "826073942RR0001": {"name": "KIDANE MEHRET ERITREAN ORTHODOX TEWAHDO CHURCH EDMONTON", "designationCode": "C", "categoryCode": "39", "address": "PO BOX 35047 RPO MIDTOWN", "city": "EDMONTON", "province": "AB", "country": "CA", "postalCode": "T5J0B7", "twitter": "None", "instagram": "None", "facebook": "None", "youtube": "None", "website": "None", "summary": "None", "logo": "None", "latitude": 53.54623500000005, "longitude": -113.49037249999994}, "891546004RR0001": {"name": "KIDANE MIHRET ETHIOPIAN ORTHODOX TEWAHDO CHURCH", "designationCode": "C", "categoryCode": "39", "address": "550 KING ST N", "city": "WATERLOO", "province": "ON", "country": "CA", "postalCode": "N2L5W6", "twitter": "None", "instagram": "None", "facebook": "None", "youtube": "None", "website": "None", "summary": "None", "logo": "None", "latitude": 43.49882157034358, "longitude": -80.53012173493501}, "861112266RR0001": {"name": "KIDD PIVOT PERFORMING ARTS SOCIETY", "designationCode": "C", "categoryCode": "22", "address": "SUITE 104  336 EAST 1ST AVE", "city": "VANCOUVER", "province": "BC", "country": "CA", "postalCode": "V5T4R6", "twitter": "None", "instagram": "None", "facebook": "None", "youtube": "None", "website": "None", "summary": "None", "logo": "None", "latitude": 49.267835582001375, "longitude": -123.09651320970615}, "118980481RR0001": {"name": "KIDDIE KORNER PLAYSCHOOL", "designationCode": "C", "categoryCode": "20", "address": "BOX 3212", "city": "MELFORT", "province": "SK", "country": "CA", "postalCode": "S0E1A0", "twitter": "None", "instagram": "None", "facebook": "None", "youtube": "None", "website": "None", "summary": "None", "logo": "None", "latitude": 52.85637, "longitude": -104.63436225000001}, "102830320RR0001": {"name": "KIDDIE SUNSHINE CENTRE INC.", "designationCode": "C", "categoryCode": "20", "address": "54 CENTRE AVE W", "city": "ALTONA", "province": "MB", "country": "CA", "postalCode": "R0G0B2", "twitter": "None", "instagram": "None", "facebook": "None", "youtube": "None", "website": "None", "summary": "None", "logo": "None", "latitude": 49.50846203184391, "longitude": -98.00363553635935}, "118980499RR0001": {"name": "KIDDIES KORNER CO-OP (PETROLIA) INC", "designationCode": "C", "categoryCode": "20", "address": "LOWER 404 PRINCESS STREET", "city": "PETROLIA", "province": "ON", "country": "CA", "postalCode": "N0N1R0", "twitter": "None", "instagram": "None", "facebook": "None", "youtube": "None", "website": "None", "summary": "None", "logo": "None", "latitude": 42.881633884817376, "longitude": -82.15287506116934}, "107567166RR0001": {"name": "KIDDIES KORNER PRESCHOOL SOCIETY", "designationCode": "C", "categoryCode": "20", "address": "2211 PRAIRIE AVE", "city": "PORT COQUITLAM", "province": "BC", "country": "CA", "postalCode": "V3B1V8", "twitter": "None", "instagram": "None", "facebook": "None", "youtube": "None", "website": "None", "summary": "None", "logo": "None", "latitude": 49.271229508799905, "longitude": -122.77588419317328}, "118980515RR0001": {"name": "KIDDIES' NORTHERN NURSERY INC.", "designationCode": "C", "categoryCode": "01", "address": "101 BEAVER CRESCENT", "city": "THOMPSON", "province": "MB", "country": "CA", "postalCode": "R8N1C5", "twitter": "None", "instagram": "None", "facebook": "None", "youtube": "None", "website": "None", "summary": "None", "logo": "None", "latitude": 55.74441598190317, "longitude": -97.86918986748391}, "118980523RR0001": {"name": "KIDI-GARDEN DAY NURSERIES INC.", "designationCode": "C", "categoryCode": "01", "address": "172 SMITHFIELD AVE", "city": "WINNIPEG", "province": "MB", "country": "CA", "postalCode": "R2V0C2", "twitter": "None", "instagram": "None", "facebook": "None", "youtube": "None", "website": "None", "summary": "None", "logo": "None", "latitude": 49.93061011515398, "longitude": -97.12074157135422}, "130312853RR0001": {"name": "KIDS & US COMMUNITY CHILDCARE AND FAMILY EDUCATION CENTRES INCORPORATED", "designationCode": "C", "categoryCode": "56", "address": "206 TORONTO STREET SOUTH      PO BOX 51", "city": "MARKDALE", "province": "ON", "country": "CA", "postalCode": "N0C1H0", "twitter": "None", "instagram": "None", "facebook": "None", "youtube": "None", "website": "None", "summary": "None", "logo": "None", "latitude": 44.31514026401266, "longitude": -80.64240971939665}, "821669744RR0001": {"name": "KIDS 'N' DAD SHARED SUPPORT", "designationCode": "C", "categoryCode": "09", "address": "79 JOSEPH ST", "city": "KITCHENER", "province": "ON", "country": "CA", "postalCode": "N2G1J2", "twitter": "None", "instagram": "None", "facebook": "None", "youtube": "None", "website": "None", "summary": "None", "logo": "None", "latitude": 43.449187842056794, "longitude": -80.49389957882737}, "843796673RR0001": {"name": "KIDS AUTISM NETWORK", "designationCode": "C", "categoryCode": "11", "address": "SUITE 202                     89 TYCOS DRIVE", "city": "TORONTO", "province": "ON", "country": "CA", "postalCode": "M6B1W3", "twitter": "None", "instagram": "None", "facebook": "None", "youtube": "None", "website": "None", "summary": "None", "logo": "None", "latitude": 43.704804848693236, "longitude": -79.4570043734204}, "862725868RR0001": {"name": "KIDS CAMPS FOUNDATION CANADA", "designationCode": "C", "categoryCode": "56", "address": "108 - 17703 64 AVE NW", "city": "EDMONTON", "province": "AB", "country": "CA", "postalCode": "T5T5R9", "twitter": "None", "instagram": "None", "facebook": "None", "youtube": "None", "website": "None", "summary": "None", "logo": "None", "latitude": 53.500373096513904, "longitude": -113.62298697692036}, "884476904RR0001": {"name": "KIDS CAN FLY, EARLY CHILD DEVELOPMENT AND PARENTING SUPPORT", "designationCode": "A", "categoryCode": "20", "address": "110 GERMAN SCHOOL ROAD        RR #1", "city": "PARIS", "province": "ON", "country": "CA", "postalCode": "N3L3E1", "twitter": "None", "instagram": "None", "facebook": "None", "youtube": "None", "website": "None", "summary": "None", "logo": "None", "latitude": 43.23191969216368, "longitude": -80.23611925408282}, "882700768RR0001": {"name": "KIDS CAN PLAY ASSOCIATION OF CAMBRIDGE", "designationCode": "C", "categoryCode": "09", "address": "PO BOX 607                    39 DICKSON STREET", "city": "CAMBRIDGE", "province": "ON", "country": "CA", "postalCode": "N1R7A6", "twitter": "None", "instagram": "None", "facebook": "None", "youtube": "None", "website": "None", "summary": "None", "logo": "None", "latitude": 43.35982551067581, "longitude": -80.31289503136361}, "899409171RR0001": {"name": "KIDS CANCER CARE FOUNDATION OF ALBERTA", "designationCode": "C", "categoryCode": "56", "address": "302-609 14 ST NW", "city": "CALGARY", "province": "AB", "country": "CA", "postalCode": "T2N2A1", "twitter": "None", "instagram": "None", "facebook": "None", "youtube": "None", "website": "None", "summary": "None", "logo": "None", "latitude": 51.05684716763807, "longitude": -114.09476469972282}, "132779836RR0001": {"name": "KIDS CARE ONCOLOGY CENTRAL WEST ONTARIO", "designationCode": "C", "categoryCode": "01", "address": "1510 MAIN ST W", "city": "HAMILTON", "province": "ON", "country": "CA", "postalCode": "L8S1E3", "twitter": "None", "instagram": "None", "facebook": "None", "youtube": "None", "website": "None", "summary": "None", "logo": "None", "latitude": 43.25768051543634, "longitude": -79.92288275007212}, "118980572RR0001": {"name": "KIDS CENTRE CO-OP INC.", "designationCode": "C", "categoryCode": "20", "address": "113 25 REGINA PLACE", "city": "WINNIPEG", "province": "MB", "country": "CA", "postalCode": "R2C0S5", "twitter": "None", "instagram": "None", "facebook": "None", "youtube": "None", "website": "None", "summary": "None", "logo": "None", "latitude": 49.90278506478914, "longitude": -96.99540297773308}, "138983804RR0001": {"name": "KIDS COME FIRST CHILD CARE SERVICES", "designationCode": "C", "categoryCode": "01", "address": "40 NEW WESTMINSTER DR", "city": "THORNHILL", "province": "ON", "country": "CA", "postalCode": "L4J7Z8", "twitter": "None", "instagram": "None", "facebook": "None", "youtube": "None", "website": "None", "summary": "None", "logo": "None", "latitude": 43.7908151642912, "longitude": -79.45805847079984}, "899013080RR0001": {"name": "KIDS COTTAGE DAYCARE SOCIETY", "designationCode": "C", "categoryCode": "01", "address": "2601 LOUGHEED HWY             HILLSIDE UNIT", "city": "COQUITLAM", "province": "BC", "country": "CA", "postalCode": "V4C4J2", "twitter": "None", "instagram": "None", "facebook": "None", "youtube": "None", "website": "None", "summary": "None", "logo": "None", "latitude": 49.271783617253185, "longitude": -122.78610690753702}, "139820864RR0001": {"name": "KIDS EAT SMART FOUNDATION NEWFOUNDLAND AND LABRADOR INC", "designationCode": "C", "categoryCode": "09", "address": "80 ELIZABETH AVE              2ND FLOOR", "city": "ST JOHNS", "province": "NL", "country": "CA", "postalCode": "A1A1W7", "twitter": "None", "instagram": "None", "facebook": "None", "youtube": "None", "website": "None", "summary": "None", "logo": "None", "latitude": 47.58343580267178, "longitude": -52.71041327381833}, "897070181RR0001": {"name": "KIDS FIRST ASSOCIATION", "designationCode": "C", "categoryCode": "09", "address": "110 PROVOST STREET", "city": "NEW GLASGOW", "province": "NS", "country": "CA", "postalCode": "B2H2P4", "twitter": "None", "instagram": "None", "facebook": "None", "youtube": "None", "website": "None", "summary": "None", "logo": "None", "latitude": 45.58830366028048, "longitude": -62.64470584981842}, "861900132RR0001": {"name": "KIDS FIRST DAY CARE CENTRE INC.", "designationCode": "C", "categoryCode": "01", "address": "1069  14TH AVE EAST           COCHRANE HIGH SCHOOL", "city": "REGINA", "province": "SK", "country": "CA", "postalCode": "S4N0T8", "twitter": "None", "instagram": "None", "facebook": "None", "youtube": "None", "website": "None", "summary": "None", "logo": "None", "latitude": 50.44399997937051, "longitude": -104.56860007660566}, "862380680RR0001": {"name": "KIDS FIRST FAMILY RESOURCE CENTRE INC.", "designationCode": "C", "categoryCode": "09", "address": "P. O. BOX 230", "city": "PORT SAUNDERS", "province": "NL", "country": "CA", "postalCode": "A0K4H0", "twitter": "None", "instagram": "None", "facebook": "None", "youtube": "None", "website": "None", "summary": "None", "logo": "None", "latitude": 50.693760000000054, "longitude": -57.22702999999996}, "852319672RR0001": {"name": "KIDS FIRST FOUNDATION", "designationCode": "C", "categoryCode": "21", "address": "900 LAWRENCE RD", "city": "HAMILTON", "province": "ON", "country": "CA", "postalCode": "L8K2A5", "twitter": "None", "instagram": "None", "facebook": "None", "youtube": "None", "website": "None", "summary": "None", "logo": "None", "latitude": 43.228779874805376, "longitude": -79.8021267320387}, "887489060RR0001": {"name": "KIDS FIRST PARENT ASSOCIATION OF CANADA", "designationCode": "C", "categoryCode": "09", "address": "11307 137 AVE NW", "city": "EDMONTON", "province": "AB", "country": "CA", "postalCode": "T5E1Z3", "twitter": "None", "instagram": "None", "facebook": "None", "youtube": "None", "website": "None", "summary": "None", "logo": "None", "latitude": 53.59922946681872, "longitude": -113.515461}, "118980580RR0001": {"name": "KIDS FOR KAGA", "designationCode": "C", "categoryCode": "29", "address": "30 ROBINHOOD DR", "city": "DUNDAS", "province": "ON", "country": "CA", "postalCode": "L9H4G1", "twitter": "None", "instagram": "None", "facebook": "None", "youtube": "None", "website": "None", "summary": "None", "logo": "None", "latitude": 43.25321607634587, "longitude": -79.95863449295953}, "859410151RR0001": {"name": "KIDS FOR KIDS PROMOTING EDUCATION SOCIETY", "designationCode": "C", "categoryCode": "21", "address": "PO BOX 1044", "city": "SECHELT", "province": "BC", "country": "CA", "postalCode": "V0N3A0", "twitter": "None", "instagram": "None", "facebook": "None", "youtube": "None", "website": "None", "summary": "None", "logo": "None", "latitude": 49.473460000000046, "longitude": -123.75460999999996}, "130005846RR0001": {"name": "KIDS HELP PHONE / JEUNESSE J' ECOUTE", "designationCode": "C", "categoryCode": "59", "address": "439 UNIVERSITY AVE SUITE 300", "city": "TORONTO", "province": "ON", "country": "CA", "postalCode": "M5G1Y8", "twitter": "None", "instagram": "None", "facebook": "None", "youtube": "None", "website": "None", "summary": "None", "logo": "None", "latitude": 43.65454124978367, "longitude": -79.38692594203332}, "889431003RR0001": {"name": "KIDS HELPING KIDS FOUNDATION", "designationCode": "B", "categoryCode": "03", "address": "7126 CARRINGTON ST", "city": "VANCOUVER", "province": "BC", "country": "CA", "postalCode": "V6N1T9", "twitter": "None", "instagram": "None", "facebook": "None", "youtube": "None", "website": "None", "summary": "None", "logo": "None", "latitude": 49.221094014138274, "longitude": -123.18286572041154}, "845550169RR0001": {"name": "KIDS IN CAMP", "designationCode": "C", "categoryCode": "09", "address": "206 LORD SEATON ROAD", "city": "TORONTO", "province": "ON", "country": "CA", "postalCode": "M2P1K9", "twitter": "None", "instagram": "None", "facebook": "None", "youtube": "None", "website": "None", "summary": "None", "logo": "None", "latitude": 43.757307, "longitude": -79.39335807273919}, "860673235RR0001": {"name": "KIDS INTERNATIONAL DEVELOPMENT SOCIETY", "designationCode": "C", "categoryCode": "09", "address": "545 VANCOUVER AVE", "city": "NANAIMO", "province": "BC", "country": "CA", "postalCode": "V9S4G6", "twitter": "None", "instagram": "None", "facebook": "None", "youtube": "None", "website": "None", "summary": "None", "logo": "None", "latitude": 49.179094670263794, "longitude": -123.94677736184961}, "132071135RR0001": {"name": "KIDS KOTTAGE FOUNDATION", "designationCode": "C", "categoryCode": "09", "address": "10107-134 AVE", "city": "EDMONTON", "province": "AB", "country": "CA", "postalCode": "T5E1J2", "twitter": "None", "instagram": "None", "facebook": "None", "youtube": "None", "website": "None", "summary": "None", "logo": "None", "latitude": 53.59457854284747, "longitude": -113.4947115}, "899061345RR0001": {"name": "KIDS NEED BOTH PARENTS", "designationCode": "C", "categoryCode": "09", "address": "82 TEMPERANCE STREET EAST     P.O. BOX 100", "city": "WATERFORD", "province": "ON", "country": "CA", "postalCode": "N0E1Y0", "twitter": "None", "instagram": "None", "facebook": "None", "youtube": "None", "website": "None", "summary": "None", "logo": "None", "latitude": 42.933458703849105, "longitude": -80.28617625797796}, "821578077RR0001": {"name": "KIDS OF THE FUTURE FOUNDATION", "designationCode": "C", "categoryCode": "09", "address": "5000 DUFFERIN ST              #215", "city": "TORONTO", "province": "ON", "country": "CA", "postalCode": "M3H5T5", "twitter": "None", "instagram": "None", "facebook": "None", "youtube": "None", "website": "None", "summary": "None", "logo": "None", "latitude": 43.78208531028917, "longitude": -79.47012707683588}, "885426551RR0001": {"name": "KIDS ON TRACK ASSOCIATION OF EDMONTON", "designationCode": "C", "categoryCode": "09", "address": "15641-96 AVENUE", "city": "EDMONTON", "province": "AB", "country": "CA", "postalCode": "T5P2R7", "twitter": "None", "instagram": "None", "facebook": "None", "youtube": "None", "website": "None", "summary": "None", "logo": "None", "latitude": 53.53303851341712, "longitude": -113.59124180682672}, "894201094RR0001": {"name": "KIDS STREET INTEGRATED NON-PROFIT CO-OPERATIVE NURSERY SCHOOL (PORT ELGIN) INC.", "designationCode": "C", "categoryCode": "20", "address": "BOX 1215                      582 HEPNER CRES. 2ND FLR", "city": "PORT ELGIN", "province": "ON", "country": "CA", "postalCode": "N0H2C0", "twitter": "None", "instagram": "None", "facebook": "None", "youtube": "None", "website": "None", "summary": "None", "logo": "None", "latitude": 44.45164624141188, "longitude": -81.37495713774953}, "863522124RR0001": {"name": "KIDS UP FRONT FOUNDATION (CALGARY)", "designationCode": "C", "categoryCode": "09", "address": "110-105 12TH AVE SE", "city": "CALGARY", "province": "AB", "country": "CA", "postalCode": "T2G1A1", "twitter": "None", "instagram": "None", "facebook": "None", "youtube": "None", "website": "None", "summary": "None", "logo": "None", "latitude": 51.04112640495218, "longitude": -114.05409219389539}, "882125008RR0001": {"name": "KIDS UP FRONT FOUNDATION (EDMONTON)", "designationCode": "C", "categoryCode": "11", "address": "11810 KINGSWAY AVE", "city": "EDMONTON", "province": "AB", "country": "CA", "postalCode": "T5G0X5", "twitter": "None", "instagram": "None", "facebook": "None", "youtube": "None", "website": "None", "summary": "None", "logo": "None", "latitude": 53.56753125425573, "longitude": -113.52294823809822}, "805044542RR0001": {"name": "KIDS UP FRONT FOUNDATION (TORONTO)", "designationCode": "C", "categoryCode": "09", "address": "25 DOCKSIDE DRIVE", "city": "TORONTO", "province": "ON", "country": "CA", "postalCode": "M5A0B5", "twitter": "None", "instagram": "None", "facebook": "None", "youtube": "None", "website": "None", "summary": "None", "logo": "None", "latitude": 43.644019329967335, "longitude": -79.3666042354725}, "861952075RR0001": {"name": "KIDS UP FRONT FOUNDATION (VANCOUVER)", "designationCode": "C", "categoryCode": "09", "address": "530-425 CARRALL STREET", "city": "VANCOUVER", "province": "BC", "country": "CA", "postalCode": "V6B6E3", "twitter": "None", "instagram": "None", "facebook": "None", "youtube": "None", "website": "None", "summary": "None", "logo": "None", "latitude": 49.28107458090486, "longitude": -123.10442464770009}, "139192553RR0001": {"name": "KIDS WEST INC.", "designationCode": "C", "categoryCode": "09", "address": "PO BOX 369", "city": "ALBERTON", "province": "PE", "country": "CA", "postalCode": "C0B1B0", "twitter": "None", "instagram": "None", "facebook": "None", "youtube": "None", "website": "None", "summary": "None", "logo": "None", "latitude": 46.813510000000065, "longitude": -64.06533999999994}, "886401397RR0001": {"name": "KIDS WITH CANCER SOCIETY OF NORTHERN ALBERTA", "designationCode": "C", "categoryCode": "11", "address": "11135 84 AVE", "city": "EDMONTON", "province": "AB", "country": "CA", "postalCode": "T6G0V9", "twitter": "None", "instagram": "None", "facebook": "None", "youtube": "None", "website": "None", "summary": "None", "logo": "None", "latitude": 53.52001650678067, "longitude": -113.5195335}, "890734148RR0001": {"name": "KIDS WORLD OUTREACH SOCIETY", "designationCode": "C", "categoryCode": "99", "address": "410-10TH STREET NE", "city": "CALGARY", "province": "AB", "country": "CA", "postalCode": "T2E4M3", "twitter": "None", "instagram": "None", "facebook": "None", "youtube": "None", "website": "None", "summary": "None", "logo": "None", "latitude": 51.055139095475795, "longitude": -114.03769691352657}, "868168113RR0001": {"name": "KIDS.NOW (KIDS INTERESTED IN DEVELOPING SUCCESSFULLY)", "designationCode": "C", "categoryCode": "21", "address": "122 STRATHALLAN BLVD", "city": "TORONTO", "province": "ON", "country": "CA", "postalCode": "M5N1S7", "twitter": "None", "instagram": "None", "facebook": "None", "youtube": "None", "website": "None", "summary": "None", "logo": "None", "latitude": 43.71416515794321, "longitude": -79.41556828740832}, "870616000RR0001": {"name": "KIDS' ISSUES INC. / LES ENFANTS D'ABORD INC", "designationCode": "C", "categoryCode": "21", "address": "10 ALCORN AVENUE, SUITE 200", "city": "TORONTO", "province": "ON", "country": "CA", "postalCode": "M4V3A9", "twitter": "None", "instagram": "None", "facebook": "None", "youtube": "None", "website": "None", "summary": "None", "logo": "None", "latitude": 43.6819721579432, "longitude": -79.39257867805408}, "140847849RR0001": {"name": "KIDS' SAFETY VILLAGE OF DURHAM REGION", "designationCode": "C", "categoryCode": "59", "address": "1129 ATHOL ST", "city": "WHITBY", "province": "ON", "country": "CA", "postalCode": "L1N4A6", "twitter": "None", "instagram": "None", "facebook": "None", "youtube": "None", "website": "None", "summary": "None", "logo": "None", "latitude": 43.86843721706373, "longitude": -78.93453940262056}, "893655696RR0001": {"name": "KIDS' TIME OUT (COLD LAKE) SOCIETY", "designationCode": "C", "categoryCode": "01", "address": "301B 10 ST", "city": "COLD LAKE", "province": "AB", "country": "CA", "postalCode": "T9M1A5", "twitter": "None", "instagram": "None", "facebook": "None", "youtube": "None", "website": "None", "summary": "None", "logo": "None", "latitude": 54.469691562992125, "longitude": -110.17960093078486}, "108101783RR0001": {"name": "KIDSABILITY CENTRE FOR CHILD DEVELOPMENT", "designationCode": "C", "categoryCode": "11", "address": "500 HALLMARK DR", "city": "WATERLOO", "province": "ON", "country": "CA", "postalCode": "N2K3P5", "twitter": "None", "instagram": "None", "facebook": "None", "youtube": "None", "website": "None", "summary": "None", "logo": "None", "latitude": 43.498089060534184, "longitude": -80.51975890536185}, "890943673RR0001": {"name": "KIDSABILITY CENTRE FOR CHILD DEVELOPMENT FOUNDATION", "designationCode": "A", "categoryCode": "03", "address": "500 HALLMARK DRIVE", "city": "WATERLOO", "province": "ON", "country": "CA", "postalCode": "N2K3P5", "twitter": "None", "instagram": "None", "facebook": "None", "youtube": "None", "website": "None", "summary": "None", "logo": "None", "latitude": 43.498089060534184, "longitude": -80.51975890536185}, "107567752RR0001": {"name": "KIDSPLACE NURSERY SCHOOL CO-OP INC.", "designationCode": "C", "categoryCode": "20", "address": "245 SUTTON AVENUE", "city": "WINNIPEG", "province": "MB", "country": "CA", "postalCode": "R2G0T1", "twitter": "None", "instagram": "None", "facebook": "None", "youtube": "None", "website": "None", "summary": "None", "logo": "None", "latitude": 49.9436528704193, "longitude": -97.08423160349722}, "102830999RR0001": {"name": "KIDVILLE", "designationCode": "C", "categoryCode": "01", "address": "3775 RUE EMILE", "city": "SAINT-HUBERT", "province": "QC", "country": "CA", "postalCode": "J3Y5L4", "twitter": "None", "instagram": "None", "facebook": "None", "youtube": "None", "website": "None", "summary": "None", "logo": "None", "latitude": 45.46632258505979, "longitude": -73.38347045654695}, "893838466RR0001": {"name": "KIDZINC SCHOOL AGE CARE SOCIETY OF ALBERTA", "designationCode": "C", "categoryCode": "01", "address": "4411 10 AVE SW", "city": "CALGARY", "province": "AB", "country": "CA", "postalCode": "T3C0L9", "twitter": "None", "instagram": "None", "facebook": "None", "youtube": "None", "website": "None", "summary": "None", "logo": "None", "latitude": 51.043250495672176, "longitude": -114.151581}, "894516814RR0001": {"name": "KIDZONE CHILD CARE INC.", "designationCode": "C", "categoryCode": "01", "address": "93 LINCOLN DRIVE", "city": "REGINA", "province": "SK", "country": "CA", "postalCode": "S4S6P1", "twitter": "None", "instagram": "None", "facebook": "None", "youtube": "None", "website": "None", "summary": "None", "logo": "None", "latitude": 50.4028214878819, "longitude": -104.63196052553522}, "857330476RR0001": {"name": "KIDZTOWN SOCIETY MINISTRY TO CHILDREN", "designationCode": "C", "categoryCode": "49", "address": "4 WOODGLEN CIR SW", "city": "CALGARY", "province": "AB", "country": "CA", "postalCode": "T2W4T5", "twitter": "None", "instagram": "None", "facebook": "None", "youtube": "None", "website": "None", "summary": "None", "logo": "None", "latitude": 50.944012522072775, "longitude": -114.12016238773155}, "118980630RR0001": {"name": "KIERSTEADVILLE UNITED BAPTIST CHURCH", "designationCode": "C", "categoryCode": "31", "address": "1160, ROUTE 850", "city": "KIERSTEADVILLE", "province": "NB", "country": "CA", "postalCode": "E5T3P4", "twitter": "None", "instagram": "None", "facebook": "None", "youtube": "None", "website": "None", "summary": "None", "logo": "None", "latitude": 45.62638208396968, "longitude": -65.8664138580799}, "122342769RR0001": {"name": "KIKINAHK FRIENDSHIP CENTRE", "designationCode": "C", "categoryCode": "56", "address": "BOX 254", "city": "LA RONGE", "province": "SK", "country": "CA", "postalCode": "S0J1L0", "twitter": "None", "instagram": "None", "facebook": "None", "youtube": "None", "website": "None", "summary": "None", "logo": "None", "latitude": 55.104968852218384, "longitude": -105.2789552305204}, "854045671RR0001": {"name": "KIKINAW HOUSING INC.", "designationCode": "C", "categoryCode": "09", "address": "A-284 LANGSIDE STREET", "city": "WINNIPEG", "province": "MB", "country": "CA", "postalCode": "R3C1Z8", "twitter": "None", "instagram": "None", "facebook": "None", "youtube": "None", "website": "None", "summary": "None", "logo": "None", "latitude": 49.88711823619365, "longitude": -97.1564033586183}, "887744522RR0001": {"name": "KILBRIDE TO FERRYLAND FAMILY RESOURCE CENTER COALITION INC.", "designationCode": "C", "categoryCode": "09", "address": "P O BOX 1039", "city": "GOULDS", "province": "NL", "country": "CA", "postalCode": "A1S1H2", "twitter": "None", "instagram": "None", "facebook": "None", "youtube": "None", "website": "None", "summary": "None", "logo": "None", "latitude": 47.45377500000005, "longitude": -52.77189049999993}, "891066045RR0001": {"name": "KILBRIDE UNITED CHURCH", "designationCode": "C", "categoryCode": "44", "address": "7331 MCNIVEN RD", "city": "CAMPBELLVILLE", "province": "ON", "country": "CA", "postalCode": "L0P1B0", "twitter": "None", "instagram": "None", "facebook": "None", "youtube": "None", "website": "None", "summary": "None", "logo": "None", "latitude": 43.433591562871456, "longitude": -79.95834384595194}, "826515751RR0001": {"name": "KILCONA PARK ALLIANCE CHURCH INC.", "designationCode": "C", "categoryCode": "39", "address": "1977 NORRIS ROAD", "city": "WINNIPEG", "province": "MB", "country": "CA", "postalCode": "R2G4C1", "twitter": "None", "instagram": "None", "facebook": "None", "youtube": "None", "website": "None", "summary": "None", "logo": "None", "latitude": 49.93893206630524, "longitude": -97.03719419862723}, "118980705RR0001": {"name": "KILDONAN FOUNDATION SOCIETY", "designationCode": "C", "categoryCode": "21", "address": "214 A EVERGREEN DRIVE", "city": "PORT MOODY", "province": "BC", "country": "CA", "postalCode": "V3H1R9", "twitter": "None", "instagram": "None", "facebook": "None", "youtube": "None", "website": "None", "summary": "None", "logo": "None", "latitude": 49.280121897558175, "longitude": -122.8745361576644}, "880215033RR0001": {"name": "KILDONAN M.C.C. COMMUNITY ASSISTANCE CENTRE INC.", "designationCode": "A", "categoryCode": "09", "address": "445 CHALMERS AVENUE", "city": "WINNIPEG", "province": "MB", "country": "CA", "postalCode": "R2L2C9", "twitter": "None", "instagram": "None", "facebook": "None", "youtube": "None", "website": "None", "summary": "None", "logo": "None", "latitude": 49.911100100236304, "longitude": -97.10199486369689}, "107568099RR0001": {"name": "KILDONAN PRESBYTERIAN CHURCH", "designationCode": "C", "categoryCode": "37", "address": "2373 MAIN STREET", "city": "WINNIPEG", "province": "MB", "country": "CA", "postalCode": "R2V4T6", "twitter": "None", "instagram": "None", "facebook": "None", "youtube": "None", "website": "None", "summary": "None", "logo": "None", "latitude": 49.95385754671396, "longitude": -97.09983514576777}, "118980721RR0001": {"name": "KILDONAN PRESBYTERIAN CHURCH CEMETERY TRUST FUND", "designationCode": "C", "categoryCode": "59", "address": "2373 MAIN STREET", "city": "WINNIPEG", "province": "MB", "country": "CA", "postalCode": "R2V4T6", "twitter": "None", "instagram": "None", "facebook": "None", "youtube": "None", "website": "None", "summary": "None", "logo": "None", "latitude": 49.95385754671396, "longitude": -97.09983514576777}, "118980747RR0001": {"name": "KILDONAN UNITED CHURCH", "designationCode": "C", "categoryCode": "44", "address": "187 KILBRIDE AVE", "city": "WINNIPEG", "province": "MB", "country": "CA", "postalCode": "R2V0Z7", "twitter": "None", "instagram": "None", "facebook": "None", "youtube": "None", "website": "None", "summary": "None", "logo": "None", "latitude": 49.93723688816424, "longitude": -97.11617089979234}, "887827863RR0001": {"name": "KILLALOE & DISTRICT SENIOR CITIZENS FRIENDSHIP CLUB INC.", "designationCode": "C", "categoryCode": "09", "address": "12, LAKE STREET, P.O.BOX 22", "city": "KILLALOE", "province": "ON", "country": "CA", "postalCode": "K0J2A0", "twitter": "None", "instagram": "None", "facebook": "None", "youtube": "None", "website": "None", "summary": "None", "logo": "None", "latitude": 45.55454322453689, "longitude": -77.41498737261234}, "888300035RR0001": {"name": "KILLALOE FOOD BANK", "designationCode": "C", "categoryCode": "09", "address": "P.O. BOX 282", "city": "KILLALOE", "province": "ON", "country": "CA", "postalCode": "K0J2A0", "twitter": "None", "instagram": "None", "facebook": "None", "youtube": "None", "website": "None", "summary": "None", "logo": "None", "latitude": 45.56451000000004, "longitude": -77.41959999999995}, "858279003RR0001": {"name": "KILLAM & DISTRICT HEALTH CARE FOUNDATION", "designationCode": "A", "categoryCode": "15", "address": "BOX 40", "city": "KILLAM", "province": "AB", "country": "CA", "postalCode": "T0B2L0", "twitter": "None", "instagram": "None", "facebook": "None", "youtube": "None", "website": "None", "summary": "None", "logo": "None", "latitude": 52.78344000000004, "longitude": -111.85174999999998}, "130896855RR0001": {"name": "KILLAM BAPTIST CHURCH,", "designationCode": "C", "categoryCode": "31", "address": "BOX 177", "city": "KILLAM", "province": "AB", "country": "CA", "postalCode": "T0B2L0", "twitter": "None", "instagram": "None", "facebook": "None", "youtube": "None", "website": "None", "summary": "None", "logo": "None", "latitude": 52.78344000000004, "longitude": -111.85174999999998}, "118980770RR0001": {"name": "KILLAM COMMUNITY CEMETERY ASSOCIATION", "designationCode": "C", "categoryCode": "59", "address": "BOX 189", "city": "KILLAM", "province": "AB", "country": "CA", "postalCode": "T0B2L0", "twitter": "None", "instagram": "None", "facebook": "None", "youtube": "None", "website": "None", "summary": "None", "logo": "None", "latitude": 52.78344000000004, "longitude": -111.85174999999998}, "133723601RR0001": {"name": "KILLAM COMMUNITY HALL DEVELOPMENT SOCIETY", "designationCode": "C", "categoryCode": "56", "address": "BOX 635", "city": "KILLAM", "province": "AB", "country": "CA", "postalCode": "T0B2L0", "twitter": "None", "instagram": "None", "facebook": "None", "youtube": "None", "website": "None", "summary": "None", "logo": "None", "latitude": 52.78344000000004, "longitude": -111.85174999999998}, "132154535RR0001": {"name": "KILLAM DISTRICT AGRICULTURAL SOCIETY", "designationCode": "C", "categoryCode": "56", "address": "PO BOX 54", "city": "KILLAM", "province": "AB", "country": "CA", "postalCode": "T0B2L0", "twitter": "None", "instagram": "None", "facebook": "None", "youtube": "None", "website": "None", "summary": "None", "logo": "None", "latitude": 52.78344000000004, "longitude": -111.85174999999998}, "118980804RR0001": {"name": "KILLAM KNOX UNITED CHURCH", "designationCode": "C", "categoryCode": "44", "address": "BOX 12", "city": "KILLAM", "province": "AB", "country": "CA", "postalCode": "T0B2L0", "twitter": "None", "instagram": "None", "facebook": "None", "youtube": "None", "website": "None", "summary": "None", "logo": "None", "latitude": 52.78344000000004, "longitude": -111.85174999999998}, "118980812RR0001": {"name": "KILLAM PENTECOSTAL TABERNACLE", "designationCode": "C", "categoryCode": "36", "address": "PO BOX 387", "city": "KILLAM", "province": "AB", "country": "CA", "postalCode": "T0B2L0", "twitter": "None", "instagram": "None", "facebook": "None", "youtube": "None", "website": "None", "summary": "None", "logo": "None"}, "881763114RR0001": {"name": "KILLARNEY & AREA DONOR'S CHOICE", "designationCode": "C", "categoryCode": "05", "address": "PO BOX 897", "city": "KILLARNEY", "province": "MB", "country": "CA", "postalCode": "R0K1G0", "twitter": "None", "instagram": "None", "facebook": "None", "youtube": "None", "website": "None", "summary": "None", "logo": "None", "latitude": 49.18482000000006, "longitude": -99.66915999999998}, "876678715RR0001": {"name": "KILLARNEY & DISTRICT NEW FACILITY COMMITTEE INC.", "designationCode": "C", "categoryCode": "56", "address": "BOX 10", "city": "KILLARNEY", "province": "MB", "country": "CA", "postalCode": "R0K1G0", "twitter": "None", "instagram": "None", "facebook": "None", "youtube": "None", "website": "None", "summary": "None", "logo": "None", "latitude": 49.18482000000006, "longitude": -99.66915999999998}, "118980838RR0001": {"name": "KILLARNEY AGRICULTURAL SOCIETY", "designationCode": "C", "categoryCode": "56", "address": "BOX 1623", "city": "KILLARNEY", "province": "MB", "country": "CA", "postalCode": "R0K1G0", "twitter": "None", "instagram": "None", "facebook": "None", "youtube": "None", "website": "None", "summary": "None", "logo": "None", "latitude": 49.18482000000006, "longitude": -99.66915999999998}, "119288918RR0175": {"name": "KILLARNEY CONGREGATION OF JEHOVAH'S WITNESSES", "designationCode": "C", "categoryCode": "61", "address": "BOX 207", "city": "KILLARNEY", "province": "MB", "country": "CA", "postalCode": "R0K1G0", "twitter": "None", "instagram": "None", "facebook": "None", "youtube": "None", "website": "None", "summary": "None", "logo": "None", "latitude": 49.18482000000006, "longitude": -99.66915999999998}, "108085887RR0001": {"name": "KILLARNEY FREE METHODIST CHURCH", "designationCode": "C", "categoryCode": "39", "address": "BOX 68", "city": "KILLARNEY", "province": "MB", "country": "CA", "postalCode": "R0K1G0", "twitter": "None", "instagram": "None", "facebook": "None", "youtube": "None", "website": "None", "summary": "None", "logo": "None", "latitude": 49.18482000000006, "longitude": -99.66915999999998}, "107568370RR0001": {"name": "KILLARNEY MENNONITE CHURCH", "designationCode": "C", "categoryCode": "34", "address": "BOX 969", "city": "KILLARNEY", "province": "MB", "country": "CA", "postalCode": "R0K1G0", "twitter": "None", "instagram": "None", "facebook": "None", "youtube": "None", "website": "None", "summary": "None", "logo": "None", "latitude": 49.18482000000006, "longitude": -99.66915999999998}, "897480018RR0001": {"name": "KILLARNEY PARK MENNONITE BRETHREN CHURCH", "designationCode": "C", "categoryCode": "34", "address": "6426 KERR ST", "city": "VANCOUVER", "province": "BC", "country": "CA", "postalCode": "V5S3C1", "twitter": "None", "instagram": "None", "facebook": "None", "youtube": "None", "website": "None", "summary": "None", "logo": "None", "latitude": 49.225702389953256, "longitude": -123.0410090844542}, "107568412RR0001": {"name": "KILLARNEY PASTORAL CHARGE", "designationCode": "C", "categoryCode": "44", "address": "BOX 9", "city": "KILLARNEY", "province": "MB", "country": "CA", "postalCode": "R0K1G0", "twitter": "None", "instagram": "None", "facebook": "None", "youtube": "None", "website": "None", "summary": "None", "logo": "None", "latitude": 49.18482000000006, "longitude": -99.66915999999998}, "132248097RR0001": {"name": "KILLDEER COMMUNITY HALL ASSOC INC", "designationCode": "C", "categoryCode": "56", "address": "BOX 80 KILLDEER SITE", "city": "ROCKGLEN", "province": "SK", "country": "CA", "postalCode": "S0H3R0", "twitter": "None", "instagram": "None", "facebook": "None", "youtube": "None", "website": "None", "summary": "None", "logo": "None", "latitude": 49.18014600000005, "longitude": -105.95000149999993}, "865937452RR0001": {"name": "KILLEAN CEMETERY BOARD", "designationCode": "C", "categoryCode": "59", "address": "142 HARVARD ROAD", "city": "GUELPH", "province": "ON", "country": "CA", "postalCode": "N1G3R1", "twitter": "None", "instagram": "None", "facebook": "None", "youtube": "None", "website": "None", "summary": "None", "logo": "None", "latitude": 43.51861887668494, "longitude": -80.2288822195359}, "859182685RR0001": {"name": "KILROY COUNCIL NO. 1431 CHARITABLE WELFARE TRUST", "designationCode": "A", "categoryCode": "03", "address": "93 MORGAN STREET", "city": "STRATFORD", "province": "ON", "country": "CA", "postalCode": "N5A7V2", "twitter": "None", "instagram": "None", "facebook": "None", "youtube": "None", "website": "None", "summary": "None", "logo": "None", "latitude": 43.35365791118931, "longitude": -80.97049453075803}, "118980960RR0001": {"name": "KILSYTH UNITED CHURCH", "designationCode": "C", "categoryCode": "44", "address": "217830 CONC.3 DERBY           RR3", "city": "OWEN SOUND", "province": "ON", "country": "CA", "postalCode": "N4K5N5", "twitter": "None", "instagram": "None", "facebook": "None", "youtube": "None", "website": "None", "summary": "None", "logo": "None", "latitude": 44.54873100000002, "longitude": -80.95813425}, "888075199RR0001": {"name": "KILWORTH UNITED CHURCH", "designationCode": "C", "categoryCode": "44", "address": "134 CHESTNUT PLACE", "city": "LONDON", "province": "ON", "country": "CA", "postalCode": "N6K4J6", "twitter": "None", "instagram": "None", "facebook": "None", "youtube": "None", "website": "None", "summary": "None", "logo": "None", "latitude": 42.96262139523337, "longitude": -81.35124031504968}}