{"891622144RR0001": {"name": "NEGAWATTS PRODUCTION INC.", "designationCode": "C", "categoryCode": "59", "address": "510, RUE COLLARD O, PORTE 103", "city": "ALMA", "province": "QC", "country": "CA", "postalCode": "G8B1N2", "twitter": "None", "instagram": "None", "facebook": "None", "youtube": "None", "website": "None", "summary": "None", "logo": "None", "latitude": 48.548949329159285, "longitude": -71.65062473440464}, "868107871RR0001": {"name": "NEGUAC BIBLE CHURCH", "designationCode": "C", "categoryCode": "39", "address": "146 KING ST", "city": "MIRAMICHI", "province": "NB", "country": "CA", "postalCode": "E1N2N9", "twitter": "None", "instagram": "None", "facebook": "None", "youtube": "None", "website": "None", "summary": "None", "logo": "None", "latitude": 47.02266118647952, "longitude": -65.44915653889409}, "810841676RR0001": {"name": "NEHEMIAH CONSTRUCTION MINISTRIES", "designationCode": "C", "categoryCode": "09", "address": "BOX 23029", "city": "MEDICINE HAT", "province": "AB", "country": "CA", "postalCode": "T1B4C7", "twitter": "None", "instagram": "None", "facebook": "None", "youtube": "None", "website": "None", "summary": "None", "logo": "None", "latitude": 50.04107700000006, "longitude": -110.67813349999993}, "119053130RR0001": {"name": "NEIGHBOUR TO NEIGHBOUR CENTRE (HAMILTON)", "designationCode": "C", "categoryCode": "09", "address": "28 ATHENS ST", "city": "HAMILTON", "province": "ON", "country": "CA", "postalCode": "L9C3K9", "twitter": "None", "instagram": "None", "facebook": "None", "youtube": "None", "website": "None", "summary": "None", "logo": "None", "latitude": 43.228472416325204, "longitude": -79.88509569250945}, "130110935RR0001": {"name": "NEIGHBOURHOOD ACTION PROJECT OF SUDBURY", "designationCode": "C", "categoryCode": "59", "address": "569 ASH STREET", "city": "SUDBURY", "province": "ON", "country": "CA", "postalCode": "P3C2A5", "twitter": "None", "instagram": "None", "facebook": "None", "youtube": "None", "website": "None", "summary": "None", "logo": "None", "latitude": 46.494637513994036, "longitude": -81.01547036081135}, "865195234RR0001": {"name": "NEIGHBOURHOOD CHURCH", "designationCode": "C", "categoryCode": "34", "address": "4951 RUTHERFORD RD", "city": "NANAIMO", "province": "BC", "country": "CA", "postalCode": "V9T5P1", "twitter": "None", "instagram": "None", "facebook": "None", "youtube": "None", "website": "None", "summary": "None", "logo": "None", "latitude": 49.21864587064484, "longitude": -124.02299128596873}, "139711121RR0001": {"name": "NEIGHBOURHOOD HOUSING IN LINDSAY", "designationCode": "C", "categoryCode": "09", "address": "2 HAMILTON STREET             SUITE 19", "city": "LINDSAY", "province": "ON", "country": "CA", "postalCode": "K9V3E2", "twitter": "None", "instagram": "None", "facebook": "None", "youtube": "None", "website": "None", "summary": "None", "logo": "None", "latitude": 44.34914376389252, "longitude": -78.7392245289007}, "896110079RR0001": {"name": "NEIGHBOURHOOD HOUSING SOCIETY", "designationCode": "C", "categoryCode": "01", "address": "380 MAIN STREET", "city": "VANCOUVER", "province": "BC", "country": "CA", "postalCode": "V6A2T1", "twitter": "None", "instagram": "None", "facebook": "None", "youtube": "None", "website": "None", "summary": "None", "logo": "None", "latitude": 49.281686633360266, "longitude": -123.09961195444082}, "133544734RR0001": {"name": "NEIGHBOURHOOD INFORMATION CENTRE INC", "designationCode": "C", "categoryCode": "09", "address": "91 BARRINGTON AVENUE", "city": "EAST YORK", "province": "ON", "country": "CA", "postalCode": "M4C4Y9", "twitter": "None", "instagram": "None", "facebook": "None", "youtube": "None", "website": "None", "summary": "None", "logo": "None", "latitude": 43.69167327866575, "longitude": -79.30193096984848}, "137269411RR0001": {"name": "NEIGHBOURHOOD LINK HOMES", "designationCode": "C", "categoryCode": "01", "address": "3036 DANFORTH AVENUE", "city": "TORONTO", "province": "ON", "country": "CA", "postalCode": "M4C1N2", "twitter": "None", "instagram": "None", "facebook": "None", "youtube": "None", "website": "None", "summary": "None", "logo": "None", "latitude": 43.69094217236994, "longitude": -79.28967709423505}, "890834211RR0001": {"name": "NEIGHBOURHOOD POLICE COUNCIL INC.", "designationCode": "C", "categoryCode": "59", "address": "148 CLOVER CT.", "city": "SAINT JOHN", "province": "NB", "country": "CA", "postalCode": "E2M4M8", "twitter": "None", "instagram": "None", "facebook": "None", "youtube": "None", "website": "None", "summary": "None", "logo": "None", "latitude": 45.25521043242535, "longitude": -66.10693106509314}, "865336176RR0001": {"name": "NEIGHBOURHOOD UNITARIAN UNIVERSALIST CONGREGATION", "designationCode": "C", "categoryCode": "39", "address": "79 HIAWATHA ROAD", "city": "TORONTO", "province": "ON", "country": "CA", "postalCode": "M4L2X7", "twitter": "None", "instagram": "None", "facebook": "None", "youtube": "None", "website": "None", "summary": "None", "logo": "None", "latitude": 43.6708311962317, "longitude": -79.32236011001808}, "889842019RR0001": {"name": "NEIGHBOURHOOD WATCH LONDON", "designationCode": "C", "categoryCode": "59", "address": "652 ELIZABETH ST", "city": "LONDON", "province": "ON", "country": "CA", "postalCode": "N5Y6L3", "twitter": "None", "instagram": "None", "facebook": "None", "youtube": "None", "website": "None", "summary": "None", "logo": "None", "latitude": 42.997184588272, "longitude": -81.23272882449061}, "888672060RR0001": {"name": "NEIGHBOURLINK HEART OF YORK", "designationCode": "C", "categoryCode": "49", "address": "136 JOHN BOWSER CRESCENT", "city": "NEWMARKET", "province": "ON", "country": "CA", "postalCode": "L3Y7P1", "twitter": "None", "instagram": "None", "facebook": "None", "youtube": "None", "website": "None", "summary": "None", "logo": "None", "latitude": 44.05152978377298, "longitude": -79.48626543130017}, "890790793RR0001": {"name": "NEIGHBOURLINK NORTH YORK", "designationCode": "C", "categoryCode": "49", "address": "PO BOX 69507                  5845 YONGE ST.", "city": "NORTH YORK", "province": "ON", "country": "CA", "postalCode": "M2M4K3", "twitter": "None", "instagram": "None", "facebook": "None", "youtube": "None", "website": "None", "summary": "None", "logo": "None", "latitude": 43.78613214202448, "longitude": -79.41707514076265}, "894175975RR0001": {"name": "NEIGHBOURLINK OF CALGARY NORTH WEST AND BELTLINE INC.", "designationCode": "C", "categoryCode": "59", "address": "3751 21ST STREET NE", "city": "CALGARY", "province": "AB", "country": "CA", "postalCode": "T2E6T5", "twitter": "None", "instagram": "None", "facebook": "None", "youtube": "None", "website": "None", "summary": "None", "logo": "None", "latitude": 51.086124167638076, "longitude": -114.00836571746775}, "884452129RR0001": {"name": "NEIGHBOURLINK PARKLAND", "designationCode": "C", "categoryCode": "49", "address": "105 - 505 QUEEN ST", "city": "SPRUCE GROVE", "province": "AB", "country": "CA", "postalCode": "T7X2V2", "twitter": "None", "instagram": "None", "facebook": "None", "youtube": "None", "website": "None", "summary": "None", "logo": "None", "latitude": 53.545247497085825, "longitude": -113.90583821270631}, "892530171RR0001": {"name": "NEIGHBOURLINK SHUSWAP", "designationCode": "C", "categoryCode": "47", "address": "PO BOX 741", "city": "SALMON ARM", "province": "BC", "country": "CA", "postalCode": "V1E4N8", "twitter": "None", "instagram": "None", "facebook": "None", "youtube": "None", "website": "None", "summary": "None", "logo": "None", "latitude": 50.70318000000006, "longitude": -119.26884049999992}, "882147507RR0001": {"name": "NEIGHBOURLINK SUMMERLAND", "designationCode": "C", "categoryCode": "49", "address": "P.O. BOX 20031", "city": "SUMMERLAND", "province": "BC", "country": "CA", "postalCode": "V0H1Z0", "twitter": "None", "instagram": "None", "facebook": "None", "youtube": "None", "website": "None", "summary": "None", "logo": "None", "latitude": 49.60131900000006, "longitude": -119.67899299999993}, "886085190RR0001": {"name": "NEIGHBOURLINK VANDERHOOF", "designationCode": "C", "categoryCode": "49", "address": "BOX 2353", "city": "VANDERHOOF", "province": "BC", "country": "CA", "postalCode": "V0J3A0", "twitter": "None", "instagram": "None", "facebook": "None", "youtube": "None", "website": "None", "summary": "None", "logo": "None", "latitude": 54.01397400000006, "longitude": -124.01297449999993}, "140194234RR0001": {"name": "NEIGHBOURLINK VERNON AND AREA", "designationCode": "C", "categoryCode": "49", "address": "P.O. BOX 20033", "city": "VERNON", "province": "BC", "country": "CA", "postalCode": "V1T9L4", "twitter": "None", "instagram": "None", "facebook": "None", "youtube": "None", "website": "None", "summary": "None", "logo": "None", "latitude": 50.26567200000005, "longitude": -119.27378149999993}, "884417718RR0001": {"name": "NEIGHBOURS HELPING NEIGHBOURS FUND", "designationCode": "C", "categoryCode": "09", "address": "BOX 53", "city": "NORTH PORTAL", "province": "SK", "country": "CA", "postalCode": "S0C1W0", "twitter": "None", "instagram": "None", "facebook": "None", "youtube": "None", "website": "None", "summary": "None", "logo": "None", "latitude": 49.002350000000035, "longitude": -102.54839999999996}, "803679877RR0001": {"name": "NEIGHBOURS OUTREACH WETASKIWIN SOCIETY", "designationCode": "C", "categoryCode": "09", "address": "5009 48 AVE", "city": "WETASKIWIN", "province": "AB", "country": "CA", "postalCode": "T9A0N1", "twitter": "None", "instagram": "None", "facebook": "None", "youtube": "None", "website": "None", "summary": "None", "logo": "None", "latitude": 52.96798759391793, "longitude": -113.37639476992318}, "891156168RR0001": {"name": "NEIGHBOURS' ALLIANCE OF NORTH YORK (NANY)", "designationCode": "C", "categoryCode": "11", "address": "2306 ROUTE 105", "city": "LOWER QUEENSBURY", "province": "NB", "country": "CA", "postalCode": "E6L1G1", "twitter": "None", "instagram": "None", "facebook": "None", "youtube": "None", "website": "None", "summary": "None", "logo": "None", "latitude": 45.883565682433044, "longitude": -66.93640441743077}, "119053205RR0001": {"name": "NEIL ELLIS MEMORIAL SCHOLARSHIP FUND", "designationCode": "C", "categoryCode": "21", "address": "175 WILLIAM ST. S", "city": "GANANOQUE", "province": "ON", "country": "CA", "postalCode": "K7G1S8", "twitter": "None", "instagram": "None", "facebook": "None", "youtube": "None", "website": "None", "summary": "None", "logo": "None", "latitude": 44.3305253785571, "longitude": -76.15678756176989}, "889597167RR0001": {"name": "NEIL MURKAR CHARITABLE FOUNDATION", "designationCode": "C", "categoryCode": "09", "address": "511 BOND ST W.", "city": "OSHAWA", "province": "ON", "country": "CA", "postalCode": "L1J2M2", "twitter": "None", "instagram": "None", "facebook": "None", "youtube": "None", "website": "None", "summary": "None", "logo": "None", "latitude": 43.89412975823776, "longitude": -78.88274809893824}, "864366174RR0001": {"name": "NEIL SQUIRE SOCIETY", "designationCode": "C", "categoryCode": "09", "address": "400 - 3999 HENNING DR", "city": "BURNABY", "province": "BC", "country": "CA", "postalCode": "V5C6P9", "twitter": "None", "instagram": "None", "facebook": "None", "youtube": "None", "website": "None", "summary": "None", "logo": "None", "latitude": 49.26415126282534, "longitude": -123.01651095722033}, "119053148RR0001": {"name": "NEILBURG CHURCH OF GOD IN CHRIST (MENNONITE) INC.", "designationCode": "C", "categoryCode": "39", "address": "BOX 217", "city": "NEILBURG", "province": "SK", "country": "CA", "postalCode": "S0M2C0", "twitter": "None", "instagram": "None", "facebook": "None", "youtube": "None", "website": "None", "summary": "None", "logo": "None", "latitude": 52.83345000000003, "longitude": -109.63480999999996}, "890680374RR0001": {"name": "NEILBURG SENIORS INC", "designationCode": "C", "categoryCode": "09", "address": "BOX 203", "city": "NEILBURG", "province": "SK", "country": "CA", "postalCode": "S0M2C0", "twitter": "None", "instagram": "None", "facebook": "None", "youtube": "None", "website": "None", "summary": "None", "logo": "None", "latitude": 52.83345000000003, "longitude": -109.63480999999996}, "119053197RR0001": {"name": "NEILBURG UNITED CHURCH", "designationCode": "C", "categoryCode": "44", "address": "BOX 116", "city": "NEILBURG", "province": "SK", "country": "CA", "postalCode": "S0M2C0", "twitter": "None", "instagram": "None", "facebook": "None", "youtube": "None", "website": "None", "summary": "None", "logo": "None", "latitude": 52.83345000000003, "longitude": -109.63480999999996}, "864124243RR0001": {"name": "NEILSON STORE MUSEUM AND CULTURAL CENTRE", "designationCode": "C", "categoryCode": "50", "address": "5220 FRONT ROAD", "city": "STELLA", "province": "ON", "country": "CA", "postalCode": "K0H2S0", "twitter": "None", "instagram": "None", "facebook": "None", "youtube": "None", "website": "None", "summary": "None", "logo": "None", "latitude": 44.17165783126543, "longitude": -76.69557614905641}, "890080773RR0001": {"name": "NELL AND PAUL MARTIN CHARITABLE FOUNDATION", "designationCode": "B", "categoryCode": "05", "address": "759 RUE DU SQUARE-VICTORIA    BUREAU 300", "city": "MONTREAL", "province": "QC", "country": "CA", "postalCode": "H2Y2J7", "twitter": "None", "instagram": "None", "facebook": "None", "youtube": "None", "website": "None", "summary": "None", "logo": "None"}, "875106817RR0001": {"name": "NELLIE PHILANTHROPY FOUNDATION", "designationCode": "A", "categoryCode": "03", "address": "376 VICTORIA AVENUE           SUITE 240", "city": "WESTMOUNT", "province": "QC", "country": "CA", "postalCode": "H3Z1C3", "twitter": "None", "instagram": "None", "facebook": "None", "youtube": "None", "website": "None", "summary": "None", "logo": "None", "latitude": 45.478580847885176, "longitude": -73.602611935628}, "119053296RR0001": {"name": "NELSON & DISTRICT HOSPICE SOCIETY", "designationCode": "C", "categoryCode": "11", "address": "2331 GRANITE RD", "city": "NELSON", "province": "BC", "country": "CA", "postalCode": "V1L6T9", "twitter": "None", "instagram": "None", "facebook": "None", "youtube": "None", "website": "None", "summary": "None", "logo": "None", "latitude": 49.4856264070503, "longitude": -117.307776287662}, "866917297RR0001": {"name": "NELSON AND AREA FRIENDS OF THE FAMILY FOUNDATION", "designationCode": "C", "categoryCode": "19", "address": "204-518 LAKE ST", "city": "NELSON", "province": "BC", "country": "CA", "postalCode": "V1L4C6", "twitter": "None", "instagram": "None", "facebook": "None", "youtube": "None", "website": "None", "summary": "None", "logo": "None", "latitude": 49.493655112199875, "longitude": -117.2950185041709}, "107577017RR0001": {"name": "NELSON AND DISTRICT MUSEUM, ARCHIVES, ART GALLERY AND HISTORICAL SOCIETY", "designationCode": "C", "categoryCode": "50", "address": "502 VERNON ST", "city": "NELSON", "province": "BC", "country": "CA", "postalCode": "V1L4E7", "twitter": "None", "instagram": "None", "facebook": "None", "youtube": "None", "website": "None", "summary": "None", "logo": "None", "latitude": 49.492717024478075, "longitude": -117.2945615179956}, "865349518RR0001": {"name": "NELSON AND DISTRICT SENIORS COORDINATING SOCIETY", "designationCode": "C", "categoryCode": "09", "address": "719 VERNON STREET", "city": "NELSON", "province": "BC", "country": "CA", "postalCode": "V1L4G3", "twitter": "None", "instagram": "None", "facebook": "None", "youtube": "None", "website": "None", "summary": "None", "logo": "None", "latitude": 49.494052113851914, "longitude": -117.29175080856025}, "129910584RR0001": {"name": "NELSON AREA WALDORF SCHOOL ASSOCIATION", "designationCode": "C", "categoryCode": "20", "address": "PO BOX 165", "city": "NELSON", "province": "BC", "country": "CA", "postalCode": "V1L5P9", "twitter": "None", "instagram": "None", "facebook": "None", "youtube": "None", "website": "None", "summary": "None", "logo": "None", "latitude": 49.49754900000005, "longitude": -117.28882249999992}, "103850533RR0001": {"name": "NELSON ARTHUR HYLAND FOUNDATION", "designationCode": "B", "categoryCode": "03", "address": "45 ST-CLAIR AVENUE WEST       SUITE 200", "city": "TORONTO", "province": "ON", "country": "CA", "postalCode": "M4V1K9", "twitter": "None", "instagram": "None", "facebook": "None", "youtube": "None", "website": "None", "summary": "None", "logo": "None", "latitude": 43.68768979098635, "longitude": -79.3955475478678}, "118857150RR0001": {"name": "NELSON AVENUE COMMUNITY CHURCH", "designationCode": "C", "categoryCode": "39", "address": "5825 NELSON AVE", "city": "BURNABY", "province": "BC", "country": "CA", "postalCode": "V5H3H6", "twitter": "None", "instagram": "None", "facebook": "None", "youtube": "None", "website": "None", "summary": "None", "logo": "None", "latitude": 49.23166025716753, "longitude": -122.99420128583758}, "119288918RR1141": {"name": "NELSON B C CONGREGATION OF JEHOVAH'S WITNESSES", "designationCode": "C", "categoryCode": "61", "address": "527 HOUSTON ST W", "city": "NELSON", "province": "BC", "country": "CA", "postalCode": "V1L6C9", "twitter": "None", "instagram": "None", "facebook": "None", "youtube": "None", "website": "None", "summary": "None", "logo": "None", "latitude": 49.48055077990651, "longitude": -117.29930228143571}, "119053288RR0001": {"name": "NELSON CARES SOCIETY", "designationCode": "C", "categoryCode": "59", "address": "521 VERNON ST", "city": "NELSON", "province": "BC", "country": "CA", "postalCode": "V1L4E9", "twitter": "None", "instagram": "None", "facebook": "None", "youtube": "None", "website": "None", "summary": "None", "logo": "None", "latitude": 49.49305025663991, "longitude": -117.29447601438899}, "891731242RR0001": {"name": "NELSON CHORAL SOCIETY", "designationCode": "C", "categoryCode": "22", "address": "519A WASSON ST", "city": "NELSON", "province": "BC", "country": "CA", "postalCode": "V1L3G5", "twitter": "None", "instagram": "None", "facebook": "None", "youtube": "None", "website": "None", "summary": "None", "logo": "None", "latitude": 49.484009075660474, "longitude": -117.29860785009235}, "865883862RR0001": {"name": "NELSON CHRISTIAN SCHOOL SOCIETY", "designationCode": "C", "categoryCode": "20", "address": "810 10 STREET", "city": "NELSON", "province": "BC", "country": "CA", "postalCode": "V1L3C7", "twitter": "None", "instagram": "None", "facebook": "None", "youtube": "None", "website": "None", "summary": "None", "logo": "None", "latitude": 49.505892225878206, "longitude": -117.26885245896746}, "891105249RR0001": {"name": "NELSON CIRCLE FOUNDATION", "designationCode": "C", "categoryCode": "21", "address": "513 VICTORIA ST", "city": "NELSON", "province": "BC", "country": "CA", "postalCode": "V1L4K7", "twitter": "None", "instagram": "None", "facebook": "None", "youtube": "None", "website": "None", "summary": "None", "logo": "None", "latitude": 49.49137660793057, "longitude": -117.29310452170645}, "108094392RR0039": {"name": "NELSON DIOCESAN CHARISMATIC RENEWAL SERVICES", "designationCode": "C", "categoryCode": "49", "address": "22-2035 BOUCHERIE ROAD", "city": "WESTBANK", "province": "BC", "country": "CA", "postalCode": "V4T1Z6", "twitter": "None", "instagram": "None", "facebook": "None", "youtube": "None", "website": "None", "summary": "None", "logo": "None", "latitude": 49.82678092035917, "longitude": -119.60179923247345}, "887564060RR0001": {"name": "NELSON DISTRICT ROD & GUN CONSERVATION SOCIETY", "designationCode": "C", "categoryCode": "52", "address": "BOX 16", "city": "NELSON", "province": "BC", "country": "CA", "postalCode": "V1L5P7", "twitter": "None", "instagram": "None", "facebook": "None", "youtube": "None", "website": "None", "summary": "None", "logo": "None", "latitude": 49.49754900000005, "longitude": -117.28882249999992}, "126175132RR0001": {"name": "NELSON ELECTRIC TRAMWAY SOCIETY", "designationCode": "C", "categoryCode": "50", "address": "PO BOX 602", "city": "NELSON", "province": "BC", "country": "CA", "postalCode": "V1L5R4", "twitter": "None", "instagram": "None", "facebook": "None", "youtube": "None", "website": "None", "summary": "None", "logo": "None", "latitude": 49.49754900000005, "longitude": -117.28882249999992}, "829311471RR0001": {"name": "NELSON EVANGELICAL COVENANT CHURCH", "designationCode": "C", "categoryCode": "39", "address": "702 STANLEY ST", "city": "NELSON", "province": "BC", "country": "CA", "postalCode": "V1L1N5", "twitter": "None", "instagram": "None", "facebook": "None", "youtube": "None", "website": "None", "summary": "None", "logo": "None", "latitude": 49.48982221426297, "longitude": -117.29399312705698}, "865932669RR0001": {"name": "NELSON FINE ARTS CENTRE SOCIETY", "designationCode": "C", "categoryCode": "22", "address": "3-320 VERNON ST", "city": "NELSON", "province": "BC", "country": "CA", "postalCode": "V1L4E4", "twitter": "None", "instagram": "None", "facebook": "None", "youtube": "None", "website": "None", "summary": "None", "logo": "None", "latitude": 49.49181492571124, "longitude": -117.29708251249166}, "130630338RR0001": {"name": "NELSON HOUSE OF OTTAWA-CARLETON", "designationCode": "C", "categoryCode": "59", "address": "PO BOX 5381 MERIVALE DEPOT", "city": "NEPEAN", "province": "ON", "country": "CA", "postalCode": "K2C3H5", "twitter": "None", "instagram": "None", "facebook": "None", "youtube": "None", "website": "None", "summary": "None", "logo": "None", "latitude": 45.32581000000005, "longitude": -75.72397999999998}, "884117672RR0001": {"name": "NELSON JUBILEE MANOR/PLACE FOUNDATION", "designationCode": "A", "categoryCode": "01", "address": "500 WEST BEASLEY STREET", "city": "NELSON", "province": "BC", "country": "CA", "postalCode": "V1L6G9", "twitter": "None", "instagram": "None", "facebook": "None", "youtube": "None", "website": "None", "summary": "None", "logo": "None", "latitude": 49.47916762439847, "longitude": -117.29812233027279}, "130653256RR0001": {"name": "NELSON KIWANIS PROJECTS SOCIETY", "designationCode": "C", "categoryCode": "09", "address": "1-700 GORDON ROAD", "city": "NELSON", "province": "BC", "country": "CA", "postalCode": "V1L3L8", "twitter": "None", "instagram": "None", "facebook": "None", "youtube": "None", "website": "None", "summary": "None", "logo": "None", "latitude": 49.508082, "longitude": -117.27467553540107}, "119053338RR0001": {"name": "NELSON LAKE BIBLE CAMP", "designationCode": "C", "categoryCode": "56", "address": "PO BOX 291", "city": "PREECEVILLE", "province": "SK", "country": "CA", "postalCode": "S0A3B0", "twitter": "None", "instagram": "None", "facebook": "None", "youtube": "None", "website": "None", "summary": "None", "logo": "None", "latitude": 51.95420000000007, "longitude": -102.64748999999995}, "877501726RR0001": {"name": "NELSON MUSICAL FESTIVAL ASSOCIATION", "designationCode": "C", "categoryCode": "22", "address": "506 SECOND STREET", "city": "NELSON", "province": "BC", "country": "CA", "postalCode": "V1L2L5", "twitter": "None", "instagram": "None", "facebook": "None", "youtube": "None", "website": "None", "summary": "None", "logo": "None", "latitude": 49.50237879676351, "longitude": -117.28075527078342}, "129704805RR0001": {"name": "NELSON OVERTURE CONCERTS SOCIETY", "designationCode": "C", "categoryCode": "22", "address": "622 FRONT ST                  SUITE 2015", "city": "NELSON", "province": "BC", "country": "CA", "postalCode": "V1L4B7", "twitter": "None", "instagram": "None", "facebook": "None", "youtube": "None", "website": "None", "summary": "None", "logo": "None", "latitude": 49.49469012533041, "longitude": -117.29411154471408}, "891006975RR0001": {"name": "NELSON SEARCH AND RESCUE SOCIETY", "designationCode": "C", "categoryCode": "59", "address": "P.O.BOX 254", "city": "NELSON", "province": "BC", "country": "CA", "postalCode": "V1L5P9", "twitter": "None", "instagram": "None", "facebook": "None", "youtube": "None", "website": "None", "summary": "None", "logo": "None", "latitude": 49.49754900000005, "longitude": -117.28882249999992}, "118818491RR0023": {"name": "NELSON SEVENTH-DAY ADVENTIST CHURCH", "designationCode": "C", "categoryCode": "41", "address": "PO 1000", "city": "ABBOTSFORD", "province": "BC", "country": "CA", "postalCode": "V2S4P5", "twitter": "None", "instagram": "None", "facebook": "None", "youtube": "None", "website": "None", "summary": "None", "logo": "None", "latitude": 49.03851300000005, "longitude": -122.29441549999993}, "108037342RR0001": {"name": "NELSON UNITED CHURCH", "designationCode": "C", "categoryCode": "44", "address": "602 SILICA ST", "city": "NELSON", "province": "BC", "country": "CA", "postalCode": "V1L4N1", "twitter": "None", "instagram": "None", "facebook": "None", "youtube": "None", "website": "None", "summary": "None", "logo": "None", "latitude": 49.49095232217706, "longitude": -117.29125393724412}, "140728809RR0001": {"name": "NELSON UNITED CHURCH,", "designationCode": "C", "categoryCode": "44", "address": "164 GLENCAIRN AVE", "city": "HAMILTON", "province": "ON", "country": "CA", "postalCode": "L8K3N9", "twitter": "None", "instagram": "None", "facebook": "None", "youtube": "None", "website": "None", "summary": "None", "logo": "None", "latitude": 43.232281815713506, "longitude": -79.79486415003736}, "119053395RR0001": {"name": "NELSON YOUTH CENTRES", "designationCode": "C", "categoryCode": "59", "address": "4225 NEW STREET", "city": "BURLINGTON", "province": "ON", "country": "CA", "postalCode": "L7L1T3", "twitter": "None", "instagram": "None", "facebook": "None", "youtube": "None", "website": "None", "summary": "None", "logo": "None", "latitude": 43.35894714241996, "longitude": -79.76280042082593}, "119053403RR0001": {"name": "NEMEIBEN LAKE CANOE AND BIBLE CAMP INC.", "designationCode": "C", "categoryCode": "56", "address": "PO BOX 479", "city": "MARTENSVILLE", "province": "SK", "country": "CA", "postalCode": "S0K2T0", "twitter": "None", "instagram": "None", "facebook": "None", "youtube": "None", "website": "None", "summary": "None", "logo": "None", "latitude": 52.28949000000006, "longitude": -106.66201999999998}, "128319233RR0001": {"name": "NENQAYNI WELLNESS CENTRE SOCIETY", "designationCode": "C", "categoryCode": "57", "address": "PO BOX 2529", "city": "WILLIAMS LAKE", "province": "BC", "country": "CA", "postalCode": "V2G4P2", "twitter": "None", "instagram": "None", "facebook": "None", "youtube": "None", "website": "None", "summary": "None", "logo": "None", "latitude": 52.12864500000006, "longitude": -122.14108249999992}, "890027147RR0001": {"name": "NEPAL COMMUNITY DEVELOPMENT FOUNDATION", "designationCode": "C", "categoryCode": "09", "address": "700 QUEENS QUAY WEST", "city": "TORONTO", "province": "ON", "country": "CA", "postalCode": "M5V2Y8", "twitter": "None", "instagram": "None", "facebook": "None", "youtube": "None", "website": "None", "summary": "None", "logo": "None", "latitude": 43.634649561486476, "longitude": -79.4002759617115}, "848801189RR0001": {"name": "NEPAL HOUSE SOCIETY", "designationCode": "C", "categoryCode": "11", "address": "7711 147A ST", "city": "SURREY", "province": "BC", "country": "CA", "postalCode": "V3S8Z4", "twitter": "None", "instagram": "None", "facebook": "None", "youtube": "None", "website": "None", "summary": "None", "logo": "None", "latitude": 49.14311299417162, "longitude": -122.813914435628}, "884108705RR0001": {"name": "NEPAL LIBRARY FOUNDATION (N.L.F.)", "designationCode": "C", "categoryCode": "53", "address": "1426 CHAMBERLAIN DRIVE", "city": "NORTH VANCOUVER", "province": "BC", "country": "CA", "postalCode": "V7K1P6", "twitter": "None", "instagram": "None", "facebook": "None", "youtube": "None", "website": "None", "summary": "None", "logo": "None", "latitude": 49.34521444604402, "longitude": -123.03419969455825}, "119053411RR0001": {"name": "NEPAL SCHOOL PROJECTS", "designationCode": "C", "categoryCode": "09", "address": "PO BOX 1405", "city": "WATERDOWN", "province": "ON", "country": "CA", "postalCode": "L0R2H0", "twitter": "None", "instagram": "None", "facebook": "None", "youtube": "None", "website": "None", "summary": "None", "logo": "None"}, "107767675RR0001": {"name": "NEPEAN BAPTIST CHURCH", "designationCode": "C", "categoryCode": "31", "address": "135 WOODFIELD DR", "city": "NEPEAN", "province": "ON", "country": "CA", "postalCode": "K2G0A1", "twitter": "None", "instagram": "None", "facebook": "None", "youtube": "None", "website": "None", "summary": "None", "logo": "None", "latitude": 45.33434932835123, "longitude": -75.73732767182166}, "121396428RR0002": {"name": "NEPEAN COMMUNITY SUPPORT SERVICES", "designationCode": "C", "categoryCode": "59", "address": "240-1547, MERIVALE ROAD", "city": "NEPEAN", "province": "ON", "country": "CA", "postalCode": "K2G4V3", "twitter": "None", "instagram": "None", "facebook": "None", "youtube": "None", "website": "None", "summary": "None", "logo": "None", "latitude": 45.35401057429708, "longitude": -75.7352203893486}, "889919973RR0001": {"name": "NEPEAN CONCERT BAND", "designationCode": "C", "categoryCode": "22", "address": "11 - 35 STAFFORD ROAD", "city": "NEPEAN", "province": "ON", "country": "CA", "postalCode": "K2H8V8", "twitter": "None", "instagram": "None", "facebook": "None", "youtube": "None", "website": "None", "summary": "None", "logo": "None", "latitude": 45.329087005222796, "longitude": -75.82228283524746}, "894002666RR0001": {"name": "NEPEAN OUTREACH TO THE WORLD", "designationCode": "C", "categoryCode": "01", "address": "2 PEACE WAY", "city": "NEPEAN", "province": "ON", "country": "CA", "postalCode": "K2R1E3", "twitter": "None", "instagram": "None", "facebook": "None", "youtube": "None", "website": "None", "summary": "None", "logo": "None", "latitude": 45.26464342578891, "longitude": -75.82603365670245}, "107797383RR0038": {"name": "NEPEAN SEVENTH-DAY ADVENTIST CHURCH", "designationCode": "C", "categoryCode": "41", "address": "4010 STRANDHERD DRIVE", "city": "NEPEAN", "province": "ON", "country": "CA", "postalCode": "K2J4R8", "twitter": "None", "instagram": "None", "facebook": "None", "youtube": "None", "website": "None", "summary": "None", "logo": "None", "latitude": 45.26395914940218, "longitude": -75.75844165326959}, "119053502RR0001": {"name": "NEPTUNE THEATRE FOUNDATION", "designationCode": "C", "categoryCode": "22", "address": "1593 ARGYLE ST", "city": "HALIFAX", "province": "NS", "country": "CA", "postalCode": "B3J2B2", "twitter": "None", "instagram": "None", "facebook": "None", "youtube": "None", "website": "None", "summary": "None", "logo": "None", "latitude": 44.64574243963871, "longitude": -63.57406951191656}, "119071082RR0001": {"name": "NER DAVID EDUCATIONAL SCHOLARSHIP FUND OF OTTAWA", "designationCode": "C", "categoryCode": "21", "address": "1400 COLDREY AVENUE", "city": "OTTAWA", "province": "ON", "country": "CA", "postalCode": "K1Z7P9", "twitter": "None", "instagram": "None", "facebook": "None", "youtube": "None", "website": "None", "summary": "None", "logo": "None", "latitude": 45.38125917949732, "longitude": -75.73954371518873}, "119053536RR0001": {"name": "NER ISRAEL YESHIVAH WOMENS AUXILIARY", "designationCode": "C", "categoryCode": "19", "address": "3000 BATHURST ST              APT. 107", "city": "TORONTO", "province": "ON", "country": "CA", "postalCode": "M6B3B4", "twitter": "None", "instagram": "None", "facebook": "None", "youtube": "None", "website": "None", "summary": "None", "logo": "None", "latitude": 43.716839626695176, "longitude": -79.42922621916986}, "131167710RR0001": {"name": "NER ISRAEL-JOSEPH (J.T.) TANENBAUM YESHIVAH COLLEGE OF TORONTO", "designationCode": "C", "categoryCode": "20", "address": "250 BATHURST GLEN DR", "city": "THORNHILL", "province": "ON", "country": "CA", "postalCode": "L4J8A7", "twitter": "None", "instagram": "None", "facebook": "None", "youtube": "None", "website": "None", "summary": "None", "logo": "None", "latitude": 43.83954548014894, "longitude": -79.46382706013014}, "107767824RR0001": {"name": "NEREPIS UNITED BAPTIST CHURCH", "designationCode": "C", "categoryCode": "31", "address": "9 MACLEAN RD", "city": "GRAND BAY-WESTFIELD", "province": "NB", "country": "CA", "postalCode": "E5K3J9", "twitter": "None", "instagram": "None", "facebook": "None", "youtube": "None", "website": "None", "summary": "None", "logo": "None", "latitude": 45.362064919499204, "longitude": -66.24394632996734}, "843188327RR0001": {"name": "NESIKA CULTURAL AND HERITAGE SOCIETY", "designationCode": "C", "categoryCode": "50", "address": "5TH FL-342 WATER ST", "city": "VANCOUVER", "province": "BC", "country": "CA", "postalCode": "V6B1B6", "twitter": "None", "instagram": "None", "facebook": "None", "youtube": "None", "website": "None", "summary": "None", "logo": "None", "latitude": 49.284497725489175, "longitude": -123.10986536539897}, "119053569RR0001": {"name": "NESS AVENUE BAPTIST CHURCH", "designationCode": "C", "categoryCode": "31", "address": "2700 NESS AVENUE", "city": "WINNIPEG", "province": "MB", "country": "CA", "postalCode": "R3J1A7", "twitter": "None", "instagram": "None", "facebook": "None", "youtube": "None", "website": "None", "summary": "None", "logo": "None", "latitude": 49.886546984159644, "longitude": -97.26958789399262}, "857882005RR0001": {"name": "NEST SASKATOON", "designationCode": "C", "categoryCode": "09", "address": "1201 BROADWAY AVENUE", "city": "SASKATOON", "province": "SK", "country": "CA", "postalCode": "S7H2A4", "twitter": "None", "instagram": "None", "facebook": "None", "youtube": "None", "website": "None", "summary": "None", "logo": "None", "latitude": 52.113382994171616, "longitude": -106.65666926501844}, "874688427RR0001": {"name": "NESTOR FALLS SCHOOL ENDOWMENT FUND", "designationCode": "C", "categoryCode": "21", "address": "BOX 219                       SCHOOL ROAD", "city": "NESTOR FALLS", "province": "ON", "country": "CA", "postalCode": "P0X1K0", "twitter": "None", "instagram": "None", "facebook": "None", "youtube": "None", "website": "None", "summary": "None", "logo": "None", "latitude": 49.12637249823161, "longitude": -93.92832237707638}, "119053593RR0001": {"name": "NESTOR FALLS UNITED CHURCH", "designationCode": "C", "categoryCode": "44", "address": "1700 A HWY 71                 P.O. BOX 189", "city": "NESTOR FALLS", "province": "ON", "country": "CA", "postalCode": "P0X1K0", "twitter": "None", "instagram": "None", "facebook": "None", "youtube": "None", "website": "None", "summary": "None", "logo": "None", "latitude": 49.149025508764836, "longitude": -93.92401007385352}, "894116854RR0001": {"name": "NET MINISTRIES OF CANADA INC.", "designationCode": "C", "categoryCode": "49", "address": "1820 ST. JOSEPH BLVD.", "city": "OTTAWA", "province": "ON", "country": "CA", "postalCode": "K1C7C6", "twitter": "None", "instagram": "None", "facebook": "None", "youtube": "None", "website": "None", "summary": "None", "logo": "None", "latitude": 45.4619707981997, "longitude": -75.54576718997063}, "119053619RR0001": {"name": "NETHERHILL RECREATION ASSOCIATION", "designationCode": "C", "categoryCode": "56", "address": "PO BOX 1594", "city": "KINDERSLEY", "province": "SK", "country": "CA", "postalCode": "S0L1S0", "twitter": "None", "instagram": "None", "facebook": "None", "youtube": "None", "website": "None", "summary": "None", "logo": "None", "latitude": 51.46791900000005, "longitude": -109.15522999999993}, "119053650RR0001": {"name": "NETHERLANDS REFORMED CONGREGATION AT HAMILTON", "designationCode": "C", "categoryCode": "39", "address": "231 JERSEYVILLE RD.", "city": "BRANTFORD", "province": "ON", "country": "CA", "postalCode": "N3T5M1", "twitter": "None", "instagram": "None", "facebook": "None", "youtube": "None", "website": "None", "summary": "None", "logo": "None", "latitude": 43.18541024358083, "longitude": -80.16329393239762}, "107768160RR0001": {"name": "NETHERLANDS REFORMED CONGREGATION AT NORWICH", "designationCode": "C", "categoryCode": "39", "address": "45 MAIN ST E                  RR 3", "city": "NORWICH", "province": "ON", "country": "CA", "postalCode": "N0J1P0", "twitter": "None", "instagram": "None", "facebook": "None", "youtube": "None", "website": "None", "summary": "None", "logo": "None", "latitude": 42.98866731894484, "longitude": -80.59075608000987}, "899011449RR0001": {"name": "NETHERLANDS REFORMED CONGREGATION OF CHILLIWACK, BRITISH COLUMBIA", "designationCode": "C", "categoryCode": "39", "address": "8920 BROADWAY ST", "city": "CHILLIWACK", "province": "BC", "country": "CA", "postalCode": "V2P5W1", "twitter": "None", "instagram": "None", "facebook": "None", "youtube": "None", "website": "None", "summary": "None", "logo": "None", "latitude": 49.164334782277955, "longitude": -121.93476757389989}, "119053676RR0001": {"name": "NETHERLANDS REFORMED CONGREGATION OF FORT MACLEOD", "designationCode": "C", "categoryCode": "39", "address": "PO BOX 28", "city": "FORT MACLEOD", "province": "AB", "country": "CA", "postalCode": "T0L0Z0", "twitter": "None", "instagram": "None", "facebook": "None", "youtube": "None", "website": "None", "summary": "None", "logo": "None", "latitude": 49.72608000000008, "longitude": -113.39563999999996}, "119053668RR0001": {"name": "NETHERLANDS REFORMED CONGREGATION OF LETHBRIDGE", "designationCode": "C", "categoryCode": "39", "address": "48 - 90022 RANGE ROAD 211", "city": "LETHBRIDGE COUNTY", "province": "AB", "country": "CA", "postalCode": "T1J5N9", "twitter": "None", "instagram": "None", "facebook": "None", "youtube": "None", "website": "None", "summary": "None", "logo": "None", "latitude": 49.70263516930604, "longitude": -112.73907109699356}, "131849267RR0001": {"name": "NETHERLANDS REFORMED CONGREGATION OF MARKHAM", "designationCode": "C", "categoryCode": "39", "address": "859 OPMAR ROAD                RR #1", "city": "OAKWOOD", "province": "ON", "country": "CA", "postalCode": "K0M2M0", "twitter": "None", "instagram": "None", "facebook": "None", "youtube": "None", "website": "None", "summary": "None", "logo": "None", "latitude": 44.361045320763424, "longitude": -78.82692636314582}, "869557140RR0001": {"name": "NETHERLANDS REFORMED CONGREGATION OF PICTURE BUTTE", "designationCode": "C", "categoryCode": "39", "address": "BOX 1163", "city": "PICTURE BUTTE", "province": "AB", "country": "CA", "postalCode": "T0K1V0", "twitter": "None", "instagram": "None", "facebook": "None", "youtube": "None", "website": "None", "summary": "None", "logo": "None", "latitude": 49.87851001832194, "longitude": -112.77815001110848}, "140774456RR0001": {"name": "NETHERLANDS REFORMED CONGREGATIONS OF CANADA", "designationCode": "C", "categoryCode": "49", "address": "224001 OSTRANDER ROAD RR#7", "city": "TILLSONBURG", "province": "ON", "country": "CA", "postalCode": "N4G4H1", "twitter": "None", "instagram": "None", "facebook": "None", "youtube": "None", "website": "None", "summary": "None", "logo": "None", "latitude": 42.89994934390313, "longitude": -80.79080536678396}, "129950291RR0001": {"name": "NETIVOT HATORAH DAY SCHOOL", "designationCode": "C", "categoryCode": "20", "address": "18 ATKINSON AVENUE", "city": "THORNHILL", "province": "ON", "country": "CA", "postalCode": "L4J8C8", "twitter": "None", "instagram": "None", "facebook": "None", "youtube": "None", "website": "None", "summary": "None", "logo": "None", "latitude": 43.80931158866647, "longitude": -79.44270826319983}, "889169579RR0001": {"name": "NETIVOT HATORAH DAY SCHOOL PARENTS ASSOCIATION", "designationCode": "C", "categoryCode": "21", "address": "18 ATKINSON AVENUE", "city": "THORNHILL", "province": "ON", "country": "CA", "postalCode": "L4J8C8", "twitter": "None", "instagram": "None", "facebook": "None", "youtube": "None", "website": "None", "summary": "None", "logo": "None", "latitude": 43.80931158866647, "longitude": -79.44270826319983}, "862203312RR0001": {"name": "NETLEY CHARITABLE TRUST", "designationCode": "B", "categoryCode": "39", "address": "2500-201 PORTAGE AVENUE", "city": "WINNIPEG", "province": "MB", "country": "CA", "postalCode": "R3B3K6", "twitter": "None", "instagram": "None", "facebook": "None", "youtube": "None", "website": "None", "summary": "None", "logo": "None", "latitude": 49.895359615067065, "longitude": -97.13919299627776}, "884763517RR0001": {"name": "NETWORK OF INNER CITY COMMUNITY SERVICES SOCIETY", "designationCode": "C", "categoryCode": "09", "address": "309-877 HASTINGS ST E", "city": "VANCOUVER", "province": "BC", "country": "CA", "postalCode": "V6A3Y1", "twitter": "None", "instagram": "None", "facebook": "None", "youtube": "None", "website": "None", "summary": "None", "logo": "None", "latitude": 49.2811004787926, "longitude": -123.0855024970858}, "830797072RR0001": {"name": "NETWORK 4 CHANGE CORP.", "designationCode": "C", "categoryCode": "09", "address": "BOX 1698", "city": "BEAUSEJOUR", "province": "MB", "country": "CA", "postalCode": "R0E0R0", "twitter": "None", "instagram": "None", "facebook": "None", "youtube": "None", "website": "None", "summary": "None", "logo": "None", "latitude": 50.061750000000075, "longitude": -96.50519999999995}, "875669806RR0001": {"name": "NETWORKS ACTIVITY CENTRE SOCIETY OF ALBERTA", "designationCode": "C", "categoryCode": "09", "address": "214 BONNIE DOON SHOPPING      CENTRE NW", "city": "EDMONTON", "province": "AB", "country": "CA", "postalCode": "T6C4E3", "twitter": "None", "instagram": "None", "facebook": "None", "youtube": "None", "website": "None", "summary": "None", "logo": "None", "latitude": 53.521070000000066, "longitude": -113.45845999999995}, "893816512RR0001": {"name": "NEU MUEHL CHARITABLE TRUST", "designationCode": "B", "categoryCode": "39", "address": "3425 2 AVE S", "city": "LETHBRIDGE", "province": "AB", "country": "CA", "postalCode": "T1J4V1", "twitter": "None", "instagram": "None", "facebook": "None", "youtube": "None", "website": "None", "summary": "None", "logo": "None", "latitude": 49.696839530439966, "longitude": -112.78914308381903}, "119053726RR0001": {"name": "NEUANLAGE GRACE MENNONITE CHURCH", "designationCode": "C", "categoryCode": "34", "address": "50 PEMBROKE ROAD", "city": "NEUANLAGE", "province": "SK", "country": "CA", "postalCode": "S0K1X1", "twitter": "None", "instagram": "None", "facebook": "None", "youtube": "None", "website": "None", "summary": "None", "logo": "None", "latitude": 51.64601100000006, "longitude": -103.53376699999994}}