{"889472643RR0001": {"name": "THE BENNETT FAMILY FOUNDATION", "designationCode": "B", "categoryCode": "13", "address": "481 UNIVERSITY AVENUE,        SUITE 303", "city": "TORONTO", "province": "ON", "country": "CA", "postalCode": "M5G2E9", "twitter": "None", "instagram": "None", "facebook": "None", "youtube": "None", "website": "None", "summary": "None", "logo": "None", "latitude": 43.65511193617627, "longitude": -79.38824022170961}, "892749342RR0001": {"name": "THE BENSADOUN FAMILY FOUNDATION LA FONDATION DE LA FAMILLE BENSADOUN", "designationCode": "B", "categoryCode": "03", "address": "THE ALDO GROUP                2300 EMILE BELANGER", "city": "MONTREAL", "province": "QC", "country": "CA", "postalCode": "H4R3J4", "twitter": "None", "instagram": "None", "facebook": "None", "youtube": "None", "website": "None", "summary": "None", "logo": "None", "latitude": 45.50183000000004, "longitude": -73.72079999999994}, "141088294RR0001": {"name": "THE BENTLEY AND DISTRICT AGRICULTURAL SOCIETY", "designationCode": "C", "categoryCode": "59", "address": "BOX 611", "city": "BENTLEY", "province": "AB", "country": "CA", "postalCode": "T0C0J0", "twitter": "None", "instagram": "None", "facebook": "None", "youtube": "None", "website": "None", "summary": "None", "logo": "None", "latitude": 52.45537747553501, "longitude": -113.96484692260027}, "119215655RR0001": {"name": "THE BEQUIA MISSION", "designationCode": "C", "categoryCode": "47", "address": "529 - 8 TELEGRAM MEWS", "city": "TORONTO", "province": "ON", "country": "CA", "postalCode": "M5V3Z5", "twitter": "None", "instagram": "None", "facebook": "None", "youtube": "None", "website": "None", "summary": "None", "logo": "None", "latitude": 43.64054315875127, "longitude": -79.3945843615325}, "119215663RR0001": {"name": "THE BEREAVEMENT FOUNDATION OF SUDBURY", "designationCode": "C", "categoryCode": "09", "address": "PO BOX 2726", "city": "SUDBURY", "province": "ON", "country": "CA", "postalCode": "P3A5J2", "twitter": "None", "instagram": "None", "facebook": "None", "youtube": "None", "website": "None", "summary": "None", "logo": "None", "latitude": 46.48958700000006, "longitude": -80.99011249999994}, "119215671RR0001": {"name": "THE BERGTHALER MENNONITE CHURCH OF ROSENFELD", "designationCode": "C", "categoryCode": "34", "address": "BOX 217", "city": "ROSENFELD", "province": "MB", "country": "CA", "postalCode": "R0G1X0", "twitter": "None", "instagram": "None", "facebook": "None", "youtube": "None", "website": "None", "summary": "None", "logo": "None", "latitude": 49.198840000000075, "longitude": -97.54969999999997}, "891778045RR0001": {"name": "THE BERMUDIANA FOUNDATION OF CANADA", "designationCode": "C", "categoryCode": "22", "address": "2 LEAF WILLOWAY", "city": "NORTH YORK", "province": "ON", "country": "CA", "postalCode": "M2J2B2", "twitter": "None", "instagram": "None", "facebook": "None", "youtube": "None", "website": "None", "summary": "None", "logo": "None", "latitude": 43.777559598389985, "longitude": -79.36555065113386}, "119215697RR0001": {"name": "THE BERNARD BETEL CENTRE FOR CREATIVE LIVING", "designationCode": "C", "categoryCode": "09", "address": "1003 STEELES AVE W", "city": "TORONTO", "province": "ON", "country": "CA", "postalCode": "M2R3T6", "twitter": "None", "instagram": "None", "facebook": "None", "youtube": "None", "website": "None", "summary": "None", "logo": "None", "latitude": 43.79211791144912, "longitude": -79.44719470246412}, "890763378RR0001": {"name": "THE BERT MILLER NATURE CLUB OF FORT ERIE", "designationCode": "C", "categoryCode": "52", "address": "P.O. BOX 1088", "city": "RIDGEWAY", "province": "ON", "country": "CA", "postalCode": "L0S1N0", "twitter": "None", "instagram": "None", "facebook": "None", "youtube": "None", "website": "None", "summary": "None", "logo": "None", "latitude": 42.86752540440902, "longitude": -79.05886267228345}, "864798160RR0001": {"name": "THE BERTRAM LOEB ORGAN DONATION INSTITUTE", "designationCode": "B", "categoryCode": "15", "address": "56 MARSH SPARROW PVT", "city": "OTTAWA", "province": "ON", "country": "CA", "postalCode": "K2K3P2", "twitter": "None", "instagram": "None", "facebook": "None", "youtube": "None", "website": "None", "summary": "None", "logo": "None", "latitude": 45.34566035832985, "longitude": -75.90261325451551}, "889037396RR0001": {"name": "THE BERWYN LIBRARY BOARD", "designationCode": "C", "categoryCode": "50", "address": "BOX 89", "city": "BERWYN", "province": "AB", "country": "CA", "postalCode": "T0H0E0", "twitter": "None", "instagram": "None", "facebook": "None", "youtube": "None", "website": "None", "summary": "None", "logo": "None", "latitude": 56.148250000000075, "longitude": -117.72161999999997}, "119215770RR0001": {"name": "THE BETH JOSEPH ANSHAI NEW YORK SYNAGOGUE", "designationCode": "C", "categoryCode": "42", "address": "44 EDINBURGH DR", "city": "NORTH YORK", "province": "ON", "country": "CA", "postalCode": "M3H1B4", "twitter": "None", "instagram": "None", "facebook": "None", "youtube": "None", "website": "None", "summary": "None", "logo": "None", "latitude": 43.7419112051185, "longitude": -79.43470848488079}, "880881503RR0001": {"name": "THE BETH TIKVAH FOUNDATION", "designationCode": "A", "categoryCode": "55", "address": "3080 BAYVIEW AVENUE", "city": "TORONTO", "province": "ON", "country": "CA", "postalCode": "M2N5L3", "twitter": "None", "instagram": "None", "facebook": "None", "youtube": "None", "website": "None", "summary": "None", "logo": "None", "latitude": 43.77922612822437, "longitude": -79.39089948017758}, "824663595RR0001": {"name": "THE BETHANY BAPTIST CHURCH OF SAULT STE. MARIE", "designationCode": "C", "categoryCode": "31", "address": "126 QUEEN ST EAST", "city": "SAULT STE MARIE", "province": "ON", "country": "CA", "postalCode": "P6A1Y5", "twitter": "None", "instagram": "None", "facebook": "None", "youtube": "None", "website": "None", "summary": "None", "logo": "None", "latitude": 46.51618342798197, "longitude": -84.33898556313125}, "879456002RR0001": {"name": "THE BETHANY BARGAIN BIN SOCIETY", "designationCode": "C", "categoryCode": "09", "address": "125, 1ST AVENUE               P.O. BOX 762", "city": "DIGBY", "province": "NS", "country": "CA", "postalCode": "B0V1A0", "twitter": "None", "instagram": "None", "facebook": "None", "youtube": "None", "website": "None", "summary": "None", "logo": "None", "latitude": 44.622345195943254, "longitude": -65.75661591704635}, "876754102RR0001": {"name": "THE BETHANY CARE FOUNDATION", "designationCode": "A", "categoryCode": "03", "address": "1001 17TH STREET NW", "city": "CALGARY", "province": "AB", "country": "CA", "postalCode": "T2N2E5", "twitter": "None", "instagram": "None", "facebook": "None", "youtube": "None", "website": "None", "summary": "None", "logo": "None", "latitude": 51.06015967055225, "longitude": -114.10078623968477}, "106788078RR0001": {"name": "THE BETHANY EVANGELICAL LUTHERN CHURCH", "designationCode": "C", "categoryCode": "32", "address": "BOX 196", "city": "INGLIS", "province": "MB", "country": "CA", "postalCode": "R0J0X0", "twitter": "None", "instagram": "None", "facebook": "None", "youtube": "None", "website": "None", "summary": "None", "logo": "None", "latitude": 50.94838000000004, "longitude": -101.25137999999998}, "119215747RR0001": {"name": "THE BETHEL COMMUNITY GOSPEL CENTRE", "designationCode": "C", "categoryCode": "39", "address": "118 POWERLINE RD U#C44", "city": "BRANTFORD", "province": "ON", "country": "CA", "postalCode": "N3T5L8", "twitter": "None", "instagram": "None", "facebook": "None", "youtube": "None", "website": "None", "summary": "None", "logo": "None", "latitude": 43.197203738267106, "longitude": -80.2103289009498}, "119215762RR0001": {"name": "THE BETHESDA FOUNDATION INCORPORATED", "designationCode": "A", "categoryCode": "13", "address": "316 HENRY STREET", "city": "STEINBACH", "province": "MB", "country": "CA", "postalCode": "R5G0P9", "twitter": "None", "instagram": "None", "facebook": "None", "youtube": "None", "website": "None", "summary": "None", "logo": "None", "latitude": 49.52979556972012, "longitude": -96.67947928286685}, "856593132RR0001": {"name": "THE BETHESDA MISSION IN CANADA", "designationCode": "C", "categoryCode": "47", "address": "7339 GRAND STREET", "city": "MISSION", "province": "BC", "country": "CA", "postalCode": "V2V3R9", "twitter": "None", "instagram": "None", "facebook": "None", "youtube": "None", "website": "None", "summary": "None", "logo": "None", "latitude": 49.13514986955391, "longitude": -122.30957593952316}, "119215788RR0001": {"name": "THE BETHLEHEM BAPTIST CHURCH SCHOLARSHIP FUND", "designationCode": "B", "categoryCode": "21", "address": "P.O. BOX 606                  STN MAIN", "city": "NORTH BATTLEFORD", "province": "SK", "country": "CA", "postalCode": "S9A2Y7", "twitter": "None", "instagram": "None", "facebook": "None", "youtube": "None", "website": "None", "summary": "None", "logo": "None", "latitude": 52.77640200000006, "longitude": -108.29903299999994}, "119215796RR0001": {"name": "THE BETTY RECTOR MEMORIAL FUND", "designationCode": "C", "categoryCode": "21", "address": "OXFORD REGIONAL EDUCATION C.  P.O. BOX BOX 340", "city": "OXFORD", "province": "NS", "country": "CA", "postalCode": "B0M1P0", "twitter": "None", "instagram": "None", "facebook": "None", "youtube": "None", "website": "None", "summary": "None", "logo": "None", "latitude": 45.71312100000006, "longitude": -63.87830449999993}, "106790819RR0001": {"name": "THE BETTYE HYDE CO-OPERATIVE NURSERY SCHOOL", "designationCode": "C", "categoryCode": "20", "address": "43 BLACKBURN AVENUE", "city": "OTTAWA", "province": "ON", "country": "CA", "postalCode": "K1N8A4", "twitter": "None", "instagram": "None", "facebook": "None", "youtube": "None", "website": "None", "summary": "None", "logo": "None", "latitude": 45.42590484070047, "longitude": -75.67565974920673}, "888317047RR0001": {"name": "THE BEVERLEY AND SAMUEL H. COHEN FAMILY FOUNDATION", "designationCode": "B", "categoryCode": "23", "address": "5 CLARENCE SQUARE", "city": "TORONTO", "province": "ON", "country": "CA", "postalCode": "M5V1H1", "twitter": "None", "instagram": "None", "facebook": "None", "youtube": "None", "website": "None", "summary": "None", "logo": "None", "latitude": 43.64454725618895, "longitude": -79.39400776617228}, "119215812RR0001": {"name": "THE BEVERLY AUXILIARY", "designationCode": "C", "categoryCode": "11", "address": "1729 90 AVE SW", "city": "CALGARY", "province": "AB", "country": "CA", "postalCode": "T2V4S1", "twitter": "None", "instagram": "None", "facebook": "None", "youtube": "None", "website": "None", "summary": "None", "logo": "None", "latitude": 50.97215849956733, "longitude": -114.1018605}, "895759421RR0001": {"name": "THE BEYOND MULTIPLE SCLEROSIS ASSOCIATION OF CANADA", "designationCode": "C", "categoryCode": "11", "address": "605 - 540 THOMSON ST", "city": "OTTAWA", "province": "ON", "country": "CA", "postalCode": "K1K4B8", "twitter": "None", "instagram": "None", "facebook": "None", "youtube": "None", "website": "None", "summary": "None", "logo": "None", "latitude": 45.444437296987616, "longitude": -75.6415155587738}, "130336753RR0001": {"name": "THE BHARTIYA CULTURAL SOCIETY OF ALBERTA", "designationCode": "C", "categoryCode": "48", "address": "9507 39TH AVE", "city": "EDMONTON", "province": "AB", "country": "CA", "postalCode": "T6E5T3", "twitter": "None", "instagram": "None", "facebook": "None", "youtube": "None", "website": "None", "summary": "None", "logo": "None", "latitude": 53.47406952005355, "longitude": -113.476842}, "899759518RR0001": {"name": "THE BIBLE CHURCH OF GOD", "designationCode": "C", "categoryCode": "39", "address": "5 KESTEVEN CRESCENT", "city": "BRAMPTON", "province": "ON", "country": "CA", "postalCode": "L6W4E2", "twitter": "None", "instagram": "None", "facebook": "None", "youtube": "None", "website": "None", "summary": "None", "logo": "None", "latitude": 43.658173646113546, "longitude": -79.71464520165605}, "108103508RR0001": {"name": "THE BIBLE HILL VILLAGE PRESCHOOL SOCIETY", "designationCode": "C", "categoryCode": "20", "address": "312 UPPER BROOKSIDE ROAD", "city": "UPPER BROOKSIDE", "province": "NS", "country": "CA", "postalCode": "B6L2X4", "twitter": "None", "instagram": "None", "facebook": "None", "youtube": "None", "website": "None", "summary": "None", "logo": "None", "latitude": 45.41220202302506, "longitude": -63.222174631109915}, "108222084RR0001": {"name": "THE BIBLE LEAGUE OF CANADA", "designationCode": "C", "categoryCode": "47", "address": "PO BOX 368 STN MAIN", "city": "GRIMSBY", "province": "ON", "country": "CA", "postalCode": "L3M4H8", "twitter": "None", "instagram": "None", "facebook": "None", "youtube": "None", "website": "None", "summary": "None", "logo": "None", "latitude": 43.19482524483205, "longitude": -79.59732593798451}, "118919513RR0001": {"name": "THE BIBLE PENTECOSTAL CHURCH OF EDMONTON ALBERTA", "designationCode": "C", "categoryCode": "36", "address": "35 - 55517 RGE RD 240", "city": "STURGEON COUNTY", "province": "AB", "country": "CA", "postalCode": "T0A0K5", "twitter": "None", "instagram": "None", "facebook": "None", "youtube": "None", "website": "None", "summary": "None", "logo": "None", "latitude": 53.79795946840619, "longitude": -113.40249380682671}, "892461443RR0001": {"name": "THE BIBLIOGRAPHICAL SOCIETY OF CANADA/LA SOCIETE BIBLIGRAPHIQUE DU CANADA", "designationCode": "C", "categoryCode": "21", "address": "PO BOX 19035 WALMER           360 BLOOR STREET WEST", "city": "TORONTO", "province": "ON", "country": "CA", "postalCode": "M5S3C9", "twitter": "None", "instagram": "None", "facebook": "None", "youtube": "None", "website": "None", "summary": "None", "logo": "None", "latitude": 43.666463187373566, "longitude": -79.40494880573019}, "886907997RR0001": {"name": "THE BIERER FOUNDATION", "designationCode": "B", "categoryCode": "03", "address": "1628 DURHAM PL", "city": "WINDSOR", "province": "ON", "country": "CA", "postalCode": "N8W2Z8", "twitter": "None", "instagram": "None", "facebook": "None", "youtube": "None", "website": "None", "summary": "None", "logo": "None", "latitude": 42.30581698502502, "longitude": -83.00071393779238}, "119215952RR0001": {"name": "THE BIG VALLEY AGRICULTURAL SOCIETY", "designationCode": "C", "categoryCode": "56", "address": "BOX 7", "city": "BIG VALLEY", "province": "AB", "country": "CA", "postalCode": "T0J0G0", "twitter": "None", "instagram": "None", "facebook": "None", "youtube": "None", "website": "None", "summary": "None", "logo": "None", "latitude": 52.03473900000006, "longitude": -112.75278199999994}, "135405132RR0001": {"name": "THE BIGGAR CONGREGATION OF JEHOVAH'S WITNESSES INCORPORATED", "designationCode": "C", "categoryCode": "61", "address": "PO BOX 1764", "city": "BIGGAR", "province": "SK", "country": "CA", "postalCode": "S0K0M0", "twitter": "None", "instagram": "None", "facebook": "None", "youtube": "None", "website": "None", "summary": "None", "logo": "None", "latitude": 52.065150000000074, "longitude": -107.99375999999995}, "132279241RR0001": {"name": "THE BILL AND JUDITH RUBINSTEIN CHARITABLE FOUNDATION", "designationCode": "B", "categoryCode": "03", "address": "3625 DUFFERIN STREET, STE 500", "city": "DOWNSVIEW", "province": "ON", "country": "CA", "postalCode": "M3K1N4", "twitter": "None", "instagram": "None", "facebook": "None", "youtube": "None", "website": "None", "summary": "None", "logo": "None", "latitude": 43.73100228365742, "longitude": -79.458586237954}, "874233547RR0001": {"name": "THE BILL AND MARGARET FAST FAMILY FOUNDATION INC.", "designationCode": "B", "categoryCode": "03", "address": "9 HIGGINS AVE", "city": "WINNIPEG", "province": "MB", "country": "CA", "postalCode": "R3B0A3", "twitter": "None", "instagram": "None", "facebook": "None", "youtube": "None", "website": "None", "summary": "None", "logo": "None", "latitude": 49.90262414599798, "longitude": -97.11537304971412}, "119215994RR0001": {"name": "THE BILL SEVEN AWARD TRUST", "designationCode": "C", "categoryCode": "21", "address": "333 SHERBOURNE ST, 2ND FLOOR", "city": "TORONTO", "province": "ON", "country": "CA", "postalCode": "M5A2S5", "twitter": "None", "instagram": "None", "facebook": "None", "youtube": "None", "website": "None", "summary": "None", "logo": "None", "latitude": 43.662333414940214, "longitude": -79.37266783204481}, "125536813RR0001": {"name": "THE BINSCARTH PARK & POOL COMMITTEE", "designationCode": "C", "categoryCode": "56", "address": "PO BOX 205", "city": "BINSCARTH", "province": "MB", "country": "CA", "postalCode": "R0J0G0", "twitter": "None", "instagram": "None", "facebook": "None", "youtube": "None", "website": "None", "summary": "None", "logo": "None", "latitude": 50.624250000000075, "longitude": -101.28641999999996}, "888446465RR0001": {"name": "THE BIRCH HILLS AND AREA HEALTH CARE FOUNDATION INC", "designationCode": "A", "categoryCode": "13", "address": "PO BOX 578", "city": "BIRCH HILLS", "province": "SK", "country": "CA", "postalCode": "S0J0G0", "twitter": "None", "instagram": "None", "facebook": "None", "youtube": "None", "website": "None", "summary": "None", "logo": "None", "latitude": 56.325968466910076, "longitude": -103.2432009425047}, "119216026RR0001": {"name": "THE BIRCH HILLS COMBINED APPEAL", "designationCode": "C", "categoryCode": "05", "address": "BOX 177", "city": "BIRCH HILLS", "province": "SK", "country": "CA", "postalCode": "S0J0G0", "twitter": "None", "instagram": "None", "facebook": "None", "youtube": "None", "website": "None", "summary": "None", "logo": "None", "latitude": 56.325968466910076, "longitude": -103.2432009425047}, "119040996RR0001": {"name": "THE BIRCHY HEAD BAPTIST CHURCH", "designationCode": "C", "categoryCode": "31", "address": "147 PINETREE CRES.", "city": "HAMMONDS PLAIN", "province": "NS", "country": "CA", "postalCode": "B3Z1J7", "twitter": "None", "instagram": "None", "facebook": "None", "youtube": "None", "website": "None", "summary": "None", "logo": "None", "latitude": 44.718703060793985, "longitude": -63.825225373189255}, "119216034RR0001": {"name": "THE BIRKS FAMILY FOUNDATION", "designationCode": "B", "categoryCode": "03", "address": "1200-615 BL REN\u00c9-LEVESQUE O", "city": "MONTR\u00c9AL", "province": "QC", "country": "CA", "postalCode": "H3B1P5", "twitter": "None", "instagram": "None", "facebook": "None", "youtube": "None", "website": "None", "summary": "None", "logo": "None", "latitude": 45.50281258618496, "longitude": -73.56671187818093}, "861633915RR0001": {"name": "THE BIRNIE HODGETTS CHILDREN'S FUND", "designationCode": "C", "categoryCode": "56", "address": "202 BERKELEY ST", "city": "TORONTO", "province": "ON", "country": "CA", "postalCode": "M5A2X4", "twitter": "None", "instagram": "None", "facebook": "None", "youtube": "None", "website": "None", "summary": "None", "logo": "None", "latitude": 43.65719797807146, "longitude": -79.3665938334871}, "119216059RR0001": {"name": "THE BIRTLE DONOR'S CHOICE", "designationCode": "A", "categoryCode": "05", "address": "PO BOX 54", "city": "BIRTLE", "province": "MB", "country": "CA", "postalCode": "R0M0C0", "twitter": "None", "instagram": "None", "facebook": "None", "youtube": "None", "website": "None", "summary": "None", "logo": "None", "latitude": 50.422120000000064, "longitude": -101.04440999999997}, "131635419RR0001": {"name": "THE BISHOP BUDKA CHARITABLE SOCIETY", "designationCode": "C", "categoryCode": "47", "address": "98-52304, RR#233", "city": "SHERWOOD PARK", "province": "AB", "country": "CA", "postalCode": "T8B1C9", "twitter": "None", "instagram": "None", "facebook": "None", "youtube": "None", "website": "None", "summary": "None", "logo": "None", "latitude": 53.498022539529266, "longitude": -113.3308935}, "119216091RR0001": {"name": "THE BISHOP JOSEPH FRANCIS RYAN FOUNDATION", "designationCode": "B", "categoryCode": "25", "address": "700 KING STREET WEST", "city": "HAMILTON", "province": "ON", "country": "CA", "postalCode": "L8P1C7", "twitter": "None", "instagram": "None", "facebook": "None", "youtube": "None", "website": "None", "summary": "None", "logo": "None", "latitude": 43.26284446770546, "longitude": -79.89023923809737}, "859032302RR0001": {"name": "THE BISHOP OF THE RUSSO GREEK CATHOLIC ORTHODOX CHURCH", "designationCode": "C", "categoryCode": "39", "address": "PO BOX 824", "city": "SMOKY LAKE", "province": "AB", "country": "CA", "postalCode": "T0A3C0", "twitter": "None", "instagram": "None", "facebook": "None", "youtube": "None", "website": "None", "summary": "None", "logo": "None", "latitude": 54.113230000000044, "longitude": -112.47107999999997}, "129950804RR0001": {"name": "THE BISHOP OF VICTORIA", "designationCode": "C", "categoryCode": "38", "address": "1-4044 NELTHORPE ST", "city": "VICTORIA", "province": "BC", "country": "CA", "postalCode": "V8X2A1", "twitter": "None", "instagram": "None", "facebook": "None", "youtube": "None", "website": "None", "summary": "None", "logo": "None", "latitude": 48.47131038328815, "longitude": -123.37383839205938}, "863953394RR0001": {"name": "THE BISHOP SNELL FOUNDATION", "designationCode": "A", "categoryCode": "03", "address": "65 CHURCH STREET", "city": "TORONTO", "province": "ON", "country": "CA", "postalCode": "M5C2E9", "twitter": "None", "instagram": "None", "facebook": "None", "youtube": "None", "website": "None", "summary": "None", "logo": "None", "latitude": 43.65024376464307, "longitude": -79.37446907686548}, "108073495RR0001": {"name": "THE BISHOP STRACHAN SCHOOL", "designationCode": "C", "categoryCode": "20", "address": "298 LONSDALE RD", "city": "TORONTO", "province": "ON", "country": "CA", "postalCode": "M4V1X2", "twitter": "None", "instagram": "None", "facebook": "None", "youtube": "None", "website": "None", "summary": "None", "logo": "None", "latitude": 43.68956421406263, "longitude": -79.40896709481196}, "891036048RR0001": {"name": "THE BISHOP STRACHAN SCHOOL FOUNDATION", "designationCode": "C", "categoryCode": "21", "address": "298 LONSDALE ROAD", "city": "TORONTO", "province": "ON", "country": "CA", "postalCode": "M4V1X2", "twitter": "None", "instagram": "None", "facebook": "None", "youtube": "None", "website": "None", "summary": "None", "logo": "None", "latitude": 43.68956421406263, "longitude": -79.40896709481196}, "119216125RR0001": {"name": "THE BISHOP'S FUND", "designationCode": "C", "categoryCode": "49", "address": "10035 103 STREET", "city": "EDMONTON", "province": "AB", "country": "CA", "postalCode": "T5J0X5", "twitter": "None", "instagram": "None", "facebook": "None", "youtube": "None", "website": "None", "summary": "None", "logo": "None", "latitude": 53.540019, "longitude": -113.49735679623781}, "119216158RR0001": {"name": "THE BITOVE FOUNDATION", "designationCode": "B", "categoryCode": "23", "address": "99 BLUE JAYS WAY SUITE 300", "city": "TORONTO", "province": "ON", "country": "CA", "postalCode": "M5V9G9", "twitter": "None", "instagram": "None", "facebook": "None", "youtube": "None", "website": "None", "summary": "None", "logo": "None", "latitude": 43.645395845951946, "longitude": -79.39176650499166}, "108175910RR0001": {"name": "THE BITTERN LAKE ROSENROLL CEMETERY", "designationCode": "C", "categoryCode": "59", "address": "BOX 5", "city": "BITTERN LAKE", "province": "AB", "country": "CA", "postalCode": "T0C0L0", "twitter": "None", "instagram": "None", "facebook": "None", "youtube": "None", "website": "None", "summary": "None", "logo": "None", "latitude": 53.00759002553531, "longitude": -113.05874997446472}, "108073503RR0001": {"name": "THE BLACK BUSINESS AND PROFESSIONAL ASSOCIATION", "designationCode": "C", "categoryCode": "59", "address": "180 ELM ST", "city": "TORONTO", "province": "ON", "country": "CA", "postalCode": "M5T3M4", "twitter": "None", "instagram": "None", "facebook": "None", "youtube": "None", "website": "None", "summary": "None", "logo": "None", "latitude": 43.65606920511851, "longitude": -79.39084829462169}, "132219601RR0001": {"name": "THE BLACK COALITION FOR AIDS PREVENTION OF METROPOLITAN TORONTO", "designationCode": "C", "categoryCode": "09", "address": "20 VICTORIA STREET            4TH FLOOR", "city": "TORONTO", "province": "ON", "country": "CA", "postalCode": "M5C2N8", "twitter": "None", "instagram": "None", "facebook": "None", "youtube": "None", "website": "None", "summary": "None", "logo": "None", "latitude": 43.649998983899856, "longitude": -79.37701420442602}, "119216190RR0001": {"name": "THE BLACK CREEK PIONEER VILLAGE RELIEF SALE", "designationCode": "C", "categoryCode": "03", "address": "80 THIRTY SIXTH ST", "city": "ETOBICOKE", "province": "ON", "country": "CA", "postalCode": "M8W3L2", "twitter": "None", "instagram": "None", "facebook": "None", "youtube": "None", "website": "None", "summary": "None", "logo": "None", "latitude": 43.59266490462944, "longitude": -79.53661095021317}, "119216208RR0001": {"name": "THE BLACK FAMILY FOUNDATION", "designationCode": "B", "categoryCode": "03", "address": "1201 - 88 DAVENPORT RD", "city": "TORONTO", "province": "ON", "country": "CA", "postalCode": "M5R0A5", "twitter": "None", "instagram": "None", "facebook": "None", "youtube": "None", "website": "None", "summary": "None", "logo": "None", "latitude": 43.673055829880425, "longitude": -79.39043350484744}, "899357149RR0001": {"name": "THE BLACK WATCH OF CANADA FOUNDATION/ LA FONDATION BLACK WATCH DU CANADA", "designationCode": "A", "categoryCode": "51", "address": "2067 BLEURY STREET", "city": "MONTREAL", "province": "QC", "country": "CA", "postalCode": "H3A2K2", "twitter": "None", "instagram": "None", "facebook": "None", "youtube": "None", "website": "None", "summary": "None", "logo": "None", "latitude": 45.50773595172817, "longitude": -73.56990798193794}, "119216224RR0001": {"name": "THE BLACKHORSE VILLAGE PLAYERS", "designationCode": "C", "categoryCode": "22", "address": "PO BOX 548", "city": "TOTTENHAM", "province": "ON", "country": "CA", "postalCode": "L0G1W0", "twitter": "None", "instagram": "None", "facebook": "None", "youtube": "None", "website": "None", "summary": "None", "logo": "None", "latitude": 44.101466326769575, "longitude": -79.82930921542986}, "119216216RR0001": {"name": "THE BLAINE LAKE COMMUNITY FUND RAISING ORGANIZATION", "designationCode": "C", "categoryCode": "53", "address": "TREASURER                     P.O. BOX 313", "city": "BLAINE LAKE", "province": "SK", "country": "CA", "postalCode": "S0J0J0", "twitter": "None", "instagram": "None", "facebook": "None", "youtube": "None", "website": "None", "summary": "None", "logo": "None", "latitude": 52.83340000000004, "longitude": -106.90116999999998}, "887023612RR0001": {"name": "THE BLAIRMORE FOUNDATION/LA FONDATION BLAIRMORE", "designationCode": "B", "categoryCode": "03", "address": "1501 MCGILL COLLEGE           26E FLOOR", "city": "MONTREAL", "province": "QC", "country": "CA", "postalCode": "H3A3N9", "twitter": "None", "instagram": "None", "facebook": "None", "youtube": "None", "website": "None", "summary": "None", "logo": "None", "latitude": 45.50241910883465, "longitude": -73.57189910473797}, "867298952RR0001": {"name": "THE BLANDFORD AND AREA HISTORICAL SOCIETY", "designationCode": "C", "categoryCode": "50", "address": "PO BOX 25", "city": "BLANFORD", "province": "NS", "country": "CA", "postalCode": "B0J1C0", "twitter": "None", "instagram": "None", "facebook": "None", "youtube": "None", "website": "None", "summary": "None", "logo": "None", "latitude": 44.530102160868516, "longitude": -64.12382349835245}, "119869873RR0001": {"name": "THE BLANKENSTEIN FAMILY FOUNDATION", "designationCode": "B", "categoryCode": "03", "address": "10 KODIAK CRESCENT            SUITE 200", "city": "TORONTO", "province": "ON", "country": "CA", "postalCode": "M3J3G5", "twitter": "None", "instagram": "None", "facebook": "None", "youtube": "None", "website": "None", "summary": "None", "logo": "None", "latitude": 43.75254960202533, "longitude": -79.46610633461229}, "868221326RR0001": {"name": "THE BLEMA & ARNOLD STEINBERG FAMILY FOUNDATION/LA FONDATION DE LA FAMILLE BLEMA & ARNOLD STEINBERG", "designationCode": "B", "categoryCode": "03", "address": "3500 DE MAISONNEUVE BOULEVARD SUITE 900", "city": "MONTREAL", "province": "QC", "country": "CA", "postalCode": "H3Z3C1", "twitter": "None", "instagram": "None", "facebook": "None", "youtube": "None", "website": "None", "summary": "None", "logo": "None", "latitude": 45.486532048012016, "longitude": -73.58985195461369}, "870654738RR0001": {"name": "THE BLENNERHASSETT FAMILY FOUNDATION INC", "designationCode": "B", "categoryCode": "03", "address": "244 KINGSWAY", "city": "WINNIPEG", "province": "MB", "country": "CA", "postalCode": "R3M0H3", "twitter": "None", "instagram": "None", "facebook": "None", "youtube": "None", "website": "None", "summary": "None", "logo": "None", "latitude": 49.871252086300544, "longitude": -97.170231600179}, "838976181RR0001": {"name": "THE BLESSING Church", "designationCode": "C", "categoryCode": "39", "address": "904 - 7191 YONGE ST", "city": "THORNHILL", "province": "ON", "country": "CA", "postalCode": "L3T0C4", "twitter": "None", "instagram": "None", "facebook": "None", "youtube": "None", "website": "None", "summary": "None", "logo": "None", "latitude": 43.80370508130886, "longitude": -79.42151410208356}, "866496912RR0001": {"name": "THE BLIDNER FAMILY FOUNDATION", "designationCode": "B", "categoryCode": "03", "address": "18 SILVERWOOD AVENUE", "city": "TORONTO", "province": "ON", "country": "CA", "postalCode": "M5P1W4", "twitter": "None", "instagram": "None", "facebook": "None", "youtube": "None", "website": "None", "summary": "None", "logo": "None", "latitude": 43.69562719069178, "longitude": -79.41729653886541}, "133048769RR0001": {"name": "THE BLOCK CHARITABLE FOUNDATION", "designationCode": "B", "categoryCode": "03", "address": "3261 137A STREET", "city": "SURREY", "province": "BC", "country": "CA", "postalCode": "V4P2B5", "twitter": "None", "instagram": "None", "facebook": "None", "youtube": "None", "website": "None", "summary": "None", "logo": "None", "latitude": 49.06165441326678, "longitude": -122.84146246116323}, "140704701RR0001": {"name": "THE BLOODROOT FUND", "designationCode": "B", "categoryCode": "53", "address": "1477 LYNX CRESCENT", "city": "ORLEANS", "province": "ON", "country": "CA", "postalCode": "K4A3Z1", "twitter": "None", "instagram": "None", "facebook": "None", "youtube": "None", "website": "None", "summary": "None", "logo": "None", "latitude": 45.48172432889949, "longitude": -75.47252594434192}, "891199283RR0001": {"name": "THE BLUE COLLAR DANCE COMPANY", "designationCode": "C", "categoryCode": "22", "address": "622 15TH STREET NW", "city": "CALGARY", "province": "AB", "country": "CA", "postalCode": "T2N2A9", "twitter": "None", "instagram": "None", "facebook": "None", "youtube": "None", "website": "None", "summary": "None", "logo": "None", "latitude": 51.0571437485429, "longitude": -114.09623627142373}, "830670592RR0001": {"name": "THE BLUE DREAM PROJECT CANADIAN MARINE ENVIRONMENTAL ASSOCIATION.", "designationCode": "C", "categoryCode": "59", "address": "PO BOX 308", "city": "LUNENBURG", "province": "NS", "country": "CA", "postalCode": "B0J2C0", "twitter": "None", "instagram": "None", "facebook": "None", "youtube": "None", "website": "None", "summary": "None", "logo": "None", "latitude": 44.37886006217898, "longitude": -64.31792993782098}, "868835745RR0001": {"name": "THE BLUE HELMET FUND", "designationCode": "C", "categoryCode": "05", "address": "17 DEWITT ACRES", "city": "FREDERICTON", "province": "NB", "country": "CA", "postalCode": "E3A6S3", "twitter": "None", "instagram": "None", "facebook": "None", "youtube": "None", "website": "None", "summary": "None", "logo": "None", "latitude": 45.951609311125885, "longitude": -66.5946169428127}, "878052125RR0001": {"name": "THE BLUE LUPIN FOUNDATION", "designationCode": "B", "categoryCode": "03", "address": "1150 YONGE STREET", "city": "TORONTO", "province": "ON", "country": "CA", "postalCode": "M4W2M2", "twitter": "None", "instagram": "None", "facebook": "None", "youtube": "None", "website": "None", "summary": "None", "logo": "None", "latitude": 43.68010604801203, "longitude": -79.39086699544102}, "119216281RR0001": {"name": "THE BLUE MOUNTAIN FOUNDATION FOR THE ARTS", "designationCode": "C", "categoryCode": "23", "address": "BOX 581", "city": "COLLINGWOOD", "province": "ON", "country": "CA", "postalCode": "L9Y4E8", "twitter": "None", "instagram": "None", "facebook": "None", "youtube": "None", "website": "None", "summary": "None", "logo": "None", "latitude": 44.49987600000006, "longitude": -80.21683249999994}, "838042679RR0001": {"name": "THE BLUEWATER BENEVOLENCE FOUNDATION", "designationCode": "A", "categoryCode": "03", "address": "970 LAWRENCE AVE W #209", "city": "TORONTO", "province": "ON", "country": "CA", "postalCode": "M6A3B6", "twitter": "None", "instagram": "None", "facebook": "None", "youtube": "None", "website": "None", "summary": "None", "logo": "None", "latitude": 43.713688525679444, "longitude": -79.4586771542792}, "119216299RR0001": {"name": "THE BLUEWATER CHILDREN'S FOUNDATION", "designationCode": "C", "categoryCode": "01", "address": "161 KENDALL STREET", "city": "POINT EDWARD", "province": "ON", "country": "CA", "postalCode": "N7V4G6", "twitter": "None", "instagram": "None", "facebook": "None", "youtube": "None", "website": "None", "summary": "None", "logo": "None", "latitude": 42.993030491777034, "longitude": -82.40314220918746}, "890333420RR0001": {"name": "THE BLUEWATER EDUCATION FOUNDATION", "designationCode": "A", "categoryCode": "23", "address": "3092 BRUCE COUNTY ROAD 13     RR # 3", "city": "WIARTON", "province": "ON", "country": "CA", "postalCode": "N0H2T0", "twitter": "None", "instagram": "None", "facebook": "None", "youtube": "None", "website": "None", "summary": "None", "logo": "None", "latitude": 44.751031550806076, "longitude": -81.14311399719065}, "848000360RR0001": {"name": "THE BML WOLTHUIS CHARITABLE FOUNDATION", "designationCode": "B", "categoryCode": "23", "address": "55119 RGE RD 244", "city": "STURGEON COUNTY", "province": "AB", "country": "CA", "postalCode": "T8T0N2", "twitter": "None", "instagram": "None", "facebook": "None", "youtube": "None", "website": "None", "summary": "None", "logo": "None", "latitude": 53.73929632944774, "longitude": -113.52074652703577}, "138211552RR0001": {"name": "THE BNEI AKIVA BAYIT", "designationCode": "C", "categoryCode": "42", "address": "17 ERICA AVE", "city": "DOWNSVIEW", "province": "ON", "country": "CA", "postalCode": "M3H3H3", "twitter": "None", "instagram": "None", "facebook": "None", "youtube": "None", "website": "None", "summary": "None", "logo": "None", "latitude": 43.745064790986355, "longitude": -79.43997851511921}, "119216307RR0001": {"name": "THE BOAKE TRUST FUND", "designationCode": "C", "categoryCode": "09", "address": "65 CHURCH STREET", "city": "TORONTO", "province": "ON", "country": "CA", "postalCode": "M5C2E9", "twitter": "None", "instagram": "None", "facebook": "None", "youtube": "None", "website": "None", "summary": "None", "logo": "None", "latitude": 43.65024376464307, "longitude": -79.37446907686548}, "119216406RR0001": {"name": "THE BOARD OF DIRECTORS OF THE HUMMINGBIRD CENTRE FOR THE PERFORMING ARTS", "designationCode": "C", "categoryCode": "22", "address": "1 FRONT STREET EAST", "city": "TORONTO", "province": "ON", "country": "CA", "postalCode": "M5E1B2", "twitter": "None", "instagram": "None", "facebook": "None", "youtube": "None", "website": "None", "summary": "None", "logo": "None", "latitude": 43.64703404769491, "longitude": -79.37658906088087}, "814090874RR0001": {"name": "THE BOARD OF EDUCATION OF THE PRAIRIE SPIRIT SCHOOL DIVISION NO. 206", "designationCode": "C", "categoryCode": "20", "address": "BOX 809", "city": "WARMAN", "province": "SK", "country": "CA", "postalCode": "S0K4S0", "twitter": "None", "instagram": "None", "facebook": "None", "youtube": "None", "website": "None", "summary": "None", "logo": "None", "latitude": 52.31985000000006, "longitude": -106.58322349999993}, "866108145RR0001": {"name": "THE BOARD OF GOVERNORS OF NORQUEST COLLEGE", "designationCode": "C", "categoryCode": "20", "address": "10215 - 108 STREET", "city": "EDMONTON", "province": "AB", "country": "CA", "postalCode": "T5J1L6", "twitter": "None", "instagram": "None", "facebook": "None", "youtube": "None", "website": "None", "summary": "None", "logo": "None", "latitude": 53.54344062392522, "longitude": -113.50652495666252}, "122384506RR0001": {"name": "THE BOARD OF GOVERNORS OF RED RIVER COLLEGE", "designationCode": "C", "categoryCode": "20", "address": "C212-2055 NOTRE DAME AVE", "city": "WINNIPEG", "province": "MB", "country": "CA", "postalCode": "R3H0J9", "twitter": "None", "instagram": "None", "facebook": "None", "youtube": "None", "website": "None", "summary": "None", "logo": "None", "latitude": 49.91638885909885, "longitude": -97.20881436196207}, "119216398RR0001": {"name": "THE BOARD OF MANAGEMENT OF THE TORONTO ZOO", "designationCode": "C", "categoryCode": "50", "address": "361A OLD FINCH AVE", "city": "SCARBOROUGH", "province": "ON", "country": "CA", "postalCode": "M1B5K7", "twitter": "None", "instagram": "None", "facebook": "None", "youtube": "None", "website": "None", "summary": "None", "logo": "None", "latitude": 43.82502109253068, "longitude": -79.18890489633698}, "140673757RR0001": {"name": "THE BOARD OF TRUSTEES OF BUFFALO TRAIL REGIONAL DIVISION NO 28", "designationCode": "C", "categoryCode": "20", "address": "1041 10A ST", "city": "WAINWRIGHT", "province": "AB", "country": "CA", "postalCode": "T9W2R4", "twitter": "None", "instagram": "None", "facebook": "None", "youtube": "None", "website": "None", "summary": "None", "logo": "None", "latitude": 52.840693422323916, "longitude": -110.85353708926182}, "107396186RR0001": {"name": "THE BOARD OF TRUSTEES OF FORT VERMILION SCHOOL DIVISION NO. 52", "designationCode": "C", "categoryCode": "21", "address": "P O BAG 1", "city": "FORT VERMILION", "province": "AB", "country": "CA", "postalCode": "T0H1N0", "twitter": "None", "instagram": "None", "facebook": "None", "youtube": "None", "website": "None", "summary": "None", "logo": "None", "latitude": 58.387350000000026, "longitude": -116.01808999999997}, "107446817RR0002": {"name": "THE BOARD OF TRUSTEES OF GRANDE PRAIRIE ROMAN CATHOLIC SEPARATE SCHOOL DISTRICT NO. 28", "designationCode": "C", "categoryCode": "20", "address": "9902 101 ST", "city": "GRANDE PRAIRIE", "province": "AB", "country": "CA", "postalCode": "T8V2P4", "twitter": "None", "instagram": "None", "facebook": "None", "youtube": "None", "website": "None", "summary": "None", "logo": "None", "latitude": 55.16985516319323, "longitude": -118.79772012136316}, "108062647RR0001": {"name": "THE BOARD OF TRUSTEES OF HORIZON SCHOOL DIVISION NO. 67", "designationCode": "C", "categoryCode": "20", "address": "6302 56 ST", "city": "TABER", "province": "AB", "country": "CA", "postalCode": "T1G1Z9", "twitter": "None", "instagram": "None", "facebook": "None", "youtube": "None", "website": "None", "summary": "None", "logo": "None", "latitude": 49.79998833527614, "longitude": -112.1399040328928}, "887775468RR0001": {"name": "THE BOARD OF TRUSTEES OF LAKELAND ROMAN CATHOLIC SEPARATE SCHOOL DISTRICT NO 150", "designationCode": "C", "categoryCode": "20", "address": "4810-46 STREET", "city": "BONNYVILLE", "province": "AB", "country": "CA", "postalCode": "T9N2R2", "twitter": "None", "instagram": "None", "facebook": "None", "youtube": "None", "website": "None", "summary": "None", "logo": "None", "latitude": 54.266669580904846, "longitude": -110.73028054916587}, "861836591RR0001": {"name": "THE BOARD OF TRUSTEES OF LIVING WATERS CATHOLIC REGIONAL DIVISION NO. 42", "designationCode": "C", "categoryCode": "20", "address": "PO BOX 1949                   4204 KEPLER ST.", "city": "WHITECOURT", "province": "AB", "country": "CA", "postalCode": "T7S1P6", "twitter": "None", "instagram": "None", "facebook": "None", "youtube": "None", "website": "None", "summary": "None", "logo": "None", "latitude": 54.13134879178839, "longitude": -115.66873002883042}, "886441195RR0001": {"name": "THE BOARD OF TRUSTEES OF STURGEON SCHOOL DIVISION NO 24", "designationCode": "C", "categoryCode": "20", "address": "9820-104 STREET", "city": "MORINVILLE", "province": "AB", "country": "CA", "postalCode": "T8R1L8", "twitter": "None", "instagram": "None", "facebook": "None", "youtube": "None", "website": "None", "summary": "None", "logo": "None", "latitude": 53.799210236444374, "longitude": -113.65295395921598}, "130572589RR0001": {"name": "THE BOAT DAY CARE SOCIETY", "designationCode": "C", "categoryCode": "01", "address": "2908 VICTORIA DR", "city": "VANCOUVER", "province": "BC", "country": "CA", "postalCode": "V5N4L8", "twitter": "None", "instagram": "None", "facebook": "None", "youtube": "None", "website": "None", "summary": "None", "logo": "None", "latitude": 49.25838457507646, "longitude": -123.06592043280074}, "120262597RR0001": {"name": "THE BOB ADAMS FOUNDATION - A SASKATCHEWAN CO-OPERATIVE", "designationCode": "C", "categoryCode": "59", "address": "426 ELM ST", "city": "SASKATOON", "province": "SK", "country": "CA", "postalCode": "S7J0H3", "twitter": "None", "instagram": "None", "facebook": "None", "youtube": "None", "website": "None", "summary": "None", "logo": "None", "latitude": 52.10270851399403, "longitude": -106.66050299999999}, "892353962RR0001": {"name": "THE BOB AND VERA MARK CHARITABLE FOUNDATION", "designationCode": "B", "categoryCode": "05", "address": "1402 - 1 KING ST W", "city": "HAMILTON", "province": "ON", "country": "CA", "postalCode": "L8P1A4", "twitter": "None", "instagram": "None", "facebook": "None", "youtube": "None", "website": "None", "summary": "None", "logo": "None", "latitude": 43.26019321073324, "longitude": -79.88135629363086}, "131068215RR0001": {"name": "THE BOB RUMBALL ASSOCIATIONS FOR THE DEAF", "designationCode": "C", "categoryCode": "11", "address": "2395 BAYVIEW AVENUE", "city": "NORTH YORK", "province": "ON", "country": "CA", "postalCode": "M2L1A2", "twitter": "None", "instagram": "None", "facebook": "None", "youtube": "None", "website": "None", "summary": "None", "logo": "None", "latitude": 43.734641824600324, "longitude": -79.38153456526695}, "892423740RR0001": {"name": "THE BOB RUMBALL FOUNDATION FOR THE DEAF", "designationCode": "A", "categoryCode": "13", "address": "2395 BAYVIEW AVENUE", "city": "NORTH YORK", "province": "ON", "country": "CA", "postalCode": "M2L1A2", "twitter": "None", "instagram": "None", "facebook": "None", "youtube": "None", "website": "None", "summary": "None", "logo": "None", "latitude": 43.734641824600324, "longitude": -79.38153456526695}, "831191341RR0001": {"name": "THE BOBS & CROW LAKES FOUNDATION", "designationCode": "C", "categoryCode": "52", "address": "1262 GREEN BAY ROAD           R.R. 2", "city": "GODFREY", "province": "ON", "country": "CA", "postalCode": "K0H1T0", "twitter": "None", "instagram": "None", "facebook": "None", "youtube": "None", "website": "None", "summary": "None", "logo": "None", "latitude": 44.628078533961876, "longitude": -76.59373280545988}}