{"891808180RR0001": {"name": "GREEK ORTHODOX CHURCH OF ST CATHARINES AND DISTRICT", "designationCode": "C", "categoryCode": "39", "address": "585 NIAGARA ST", "city": "ST CATHARINES", "province": "ON", "country": "CA", "postalCode": "L2M3P6", "twitter": "None", "instagram": "None", "facebook": "None", "youtube": "None", "website": "None", "summary": "None", "logo": "None", "latitude": 43.199364382480105, "longitude": -79.22336905557115}, "890590797RR0001": {"name": "GREEK ORTHODOX CHURCH OF THREE HIERARCHS & ST. GEORGE", "designationCode": "C", "categoryCode": "39", "address": "2190 BRITANNIA ROAD WEST", "city": "MISSISSAUGA", "province": "ON", "country": "CA", "postalCode": "L5M1R2", "twitter": "None", "instagram": "None", "facebook": "None", "youtube": "None", "website": "None", "summary": "None", "logo": "None", "latitude": 43.58449379987315, "longitude": -79.72658305089756}, "131951451RR0001": {"name": "GREEK ORTHODOX CHURCH PARISH OF BANILLA", "designationCode": "C", "categoryCode": "39", "address": "BOX 271", "city": "WILLINGDON", "province": "AB", "country": "CA", "postalCode": "T0B4R0", "twitter": "None", "instagram": "None", "facebook": "None", "youtube": "None", "website": "None", "summary": "None", "logo": "None", "latitude": 53.83346000000006, "longitude": -112.13515999999998}, "118947225RR0001": {"name": "GREEK ORTHODOX COMMUNITY OF EAST VANCOUVER", "designationCode": "C", "categoryCode": "39", "address": "4641 BOUNDARY ROAD", "city": "VANCOUVER", "province": "BC", "country": "CA", "postalCode": "V5R2N5", "twitter": "None", "instagram": "None", "facebook": "None", "youtube": "None", "website": "None", "summary": "None", "logo": "None", "latitude": 49.24315741326677, "longitude": -123.02377560716121}, "801381914RR0001": {"name": "GREEK ORTHODOX COMMUNITY OF KAMLOOPS", "designationCode": "C", "categoryCode": "39", "address": "3497 NAVATANEE DRIVE", "city": "KAMLOOPS", "province": "BC", "country": "CA", "postalCode": "V2H1S1", "twitter": "None", "instagram": "None", "facebook": "None", "youtube": "None", "website": "None", "summary": "None", "logo": "None", "latitude": 50.66035736222499, "longitude": -120.00288796892485}, "889831590RR0001": {"name": "GREEK ORTHODOX COMMUNITY OF KITIMAT-TERRACE", "designationCode": "C", "categoryCode": "39", "address": "P.O. BOX 68", "city": "KITIMAT", "province": "BC", "country": "CA", "postalCode": "V8C2G6", "twitter": "None", "instagram": "None", "facebook": "None", "youtube": "None", "website": "None", "summary": "None", "logo": "None", "latitude": 54.05515800000006, "longitude": -128.65506199999993}, "889059499RR0001": {"name": "GREEK ORTHODOX COMMUNITY OF MISSISSAUGA", "designationCode": "C", "categoryCode": "39", "address": "1785 MATHESON BLVD", "city": "MISSISSAUGA", "province": "ON", "country": "CA", "postalCode": "L4W1V2", "twitter": "None", "instagram": "None", "facebook": "None", "youtube": "None", "website": "None", "summary": "None", "logo": "None", "latitude": 43.63918704584766, "longitude": -79.62132535218436}, "118947241RR0001": {"name": "GREEK ORTHODOX COMMUNITY OF PETERBOROUGH", "designationCode": "C", "categoryCode": "39", "address": "406 PARKHILL ROAD EAST", "city": "PETERBOROUGH", "province": "ON", "country": "CA", "postalCode": "K9L1C1", "twitter": "None", "instagram": "None", "facebook": "None", "youtube": "None", "website": "None", "summary": "None", "logo": "None", "latitude": 44.32158908696343, "longitude": -78.29640634586502}, "891493272RR0001": {"name": "GREEK ORTHODOX COMMUNITY OF PRINCE GEORGE", "designationCode": "C", "categoryCode": "39", "address": "511 TABOR BLVD", "city": "PRINCE GEORGE", "province": "BC", "country": "CA", "postalCode": "V2M6W7", "twitter": "None", "instagram": "None", "facebook": "None", "youtube": "None", "website": "None", "summary": "None", "logo": "None", "latitude": 53.920275988343235, "longitude": -122.8077694946043}, "892784398RR0001": {"name": "GREEK ORTHODOX COMMUNITY OF QUEBEC", "designationCode": "C", "categoryCode": "39", "address": "17 RENE LEVESQUE EST", "city": "QUEBEC", "province": "QC", "country": "CA", "postalCode": "G1R2A9", "twitter": "None", "instagram": "None", "facebook": "None", "youtube": "None", "website": "None", "summary": "None", "logo": "None", "latitude": 46.805179318050776, "longitude": -71.2250555570144}, "134825199RR0001": {"name": "GREEK ORTHODOX COMMUNITY OF SURREY AND FRASER VALLEY ASSOCIATION", "designationCode": "C", "categoryCode": "39", "address": "13181 96 AVE", "city": "SURREY", "province": "BC", "country": "CA", "postalCode": "V3V1Y2", "twitter": "None", "instagram": "None", "facebook": "None", "youtube": "None", "website": "None", "summary": "None", "logo": "None", "latitude": 49.17713550764605, "longitude": -122.85726202553522}, "886975994RR0001": {"name": "GREEK ORTHODOX COMMUNITY OF THE HOLY TRINITY (FORT WILLIAM-PORT ARTHUR)", "designationCode": "C", "categoryCode": "39", "address": "651 BEVERLY STREET", "city": "THUNDER BAY", "province": "ON", "country": "CA", "postalCode": "P7B6N2", "twitter": "None", "instagram": "None", "facebook": "None", "youtube": "None", "website": "None", "summary": "None", "logo": "None", "latitude": 48.42082971048555, "longitude": -89.25215821608278}, "118947258RR0001": {"name": "GREEK ORTHODOX COMMUNITY OF WINDSOR", "designationCode": "C", "categoryCode": "39", "address": "978 NOVA DR", "city": "WINDSOR", "province": "ON", "country": "CA", "postalCode": "N9G2S7", "twitter": "None", "instagram": "None", "facebook": "None", "youtube": "None", "website": "None", "summary": "None", "logo": "None", "latitude": 42.251560478792605, "longitude": -82.98252888481736}, "118947266RR0001": {"name": "GREEK ORTHODOX COMMUNITY OF YORKTON AND MELVILLE INC", "designationCode": "C", "categoryCode": "39", "address": "160 BETTS AVE", "city": "YORKTON", "province": "SK", "country": "CA", "postalCode": "S3N2V7", "twitter": "None", "instagram": "None", "facebook": "None", "youtube": "None", "website": "None", "summary": "None", "logo": "None", "latitude": 51.216191413266785, "longitude": -102.4641773457208}, "118947274RR0001": {"name": "GREEK ORTHODOX CONGREGATION OF HOLY TRINITY OF OLD WOSTOK", "designationCode": "C", "categoryCode": "39", "address": "PO BOX 39", "city": "ST MICHAEL", "province": "AB", "country": "CA", "postalCode": "T0B4B0", "twitter": "None", "instagram": "None", "facebook": "None", "youtube": "None", "website": "None", "summary": "None", "logo": "None", "latitude": 53.831800000000044, "longitude": -112.62430999999998}, "892744087RR0001": {"name": "GREEK ORTHODOX EDUCATION IN ONTARIO", "designationCode": "C", "categoryCode": "20", "address": "30 SCARSDALE RD", "city": "TORONTO", "province": "ON", "country": "CA", "postalCode": "M3B2R7", "twitter": "None", "instagram": "None", "facebook": "None", "youtube": "None", "website": "None", "summary": "None", "logo": "None", "latitude": 43.746651597005005, "longitude": -79.35432925636185}, "118947290RR0001": {"name": "GREEK ORTHODOX LADIES PHILOPTOCHOS SOCIETY OF HOLY CROSS GREEK ORTHODOX PARISH, WINDSOR", "designationCode": "C", "categoryCode": "09", "address": "65 ELLIS STREET EAST", "city": "WINDSOR", "province": "ON", "country": "CA", "postalCode": "N8Y2G5", "twitter": "None", "instagram": "None", "facebook": "None", "youtube": "None", "website": "None", "summary": "None", "logo": "None", "latitude": 42.302599399359664, "longitude": -83.02787366276196}, "118947282RR0001": {"name": "GREEK ORTHODOX METROPOLIS OF TORONTO (CANADA)", "designationCode": "C", "categoryCode": "39", "address": "1 PATRIARCH BARTHOLOMEW WAY   4TH FLOOR", "city": "TORONTO", "province": "ON", "country": "CA", "postalCode": "M4H1C6", "twitter": "None", "instagram": "None", "facebook": "None", "youtube": "None", "website": "None", "summary": "None", "logo": "None", "latitude": 43.7092628748054, "longitude": -79.34016703699044}, "887446284RR0001": {"name": "GREEK SENIOR CITIZENS SOCIETY", "designationCode": "C", "categoryCode": "01", "address": "2440 ALMA ST", "city": "VANCOUVER", "province": "BC", "country": "CA", "postalCode": "V6R3R7", "twitter": "None", "instagram": "None", "facebook": "None", "youtube": "None", "website": "None", "summary": "None", "logo": "None", "latitude": 49.26496792198551, "longitude": -123.18579202733228}, "107450413RR0001": {"name": "GREEK-CANADIAN COMMUNITY OF LONDON CITY AND VICINITY", "designationCode": "C", "categoryCode": "56", "address": "965 SARNIA RD", "city": "LONDON", "province": "ON", "country": "CA", "postalCode": "N6H5J9", "twitter": "None", "instagram": "None", "facebook": "None", "youtube": "None", "website": "None", "summary": "None", "logo": "None", "latitude": 42.989414937770775, "longitude": -81.31999891651485}, "879145308RR0001": {"name": "GREEN ACRES CHARITABLE TRUST", "designationCode": "B", "categoryCode": "43", "address": "3425-2 AVE S                  MEYERS NORRIS PENNY", "city": "LETHBRIDGE", "province": "AB", "country": "CA", "postalCode": "T1J4A1", "twitter": "None", "instagram": "None", "facebook": "None", "youtube": "None", "website": "None", "summary": "None", "logo": "None", "latitude": 49.66770300000006, "longitude": -112.90556149999993}, "889833596RR0001": {"name": "GREEN ACRES CHARITABLE TRUST", "designationCode": "B", "categoryCode": "39", "address": "1401 PRINCESS AVE", "city": "BRANDON", "province": "MB", "country": "CA", "postalCode": "R7A7L7", "twitter": "None", "instagram": "None", "facebook": "None", "youtube": "None", "website": "None", "summary": "None", "logo": "None", "latitude": 49.84694947489748, "longitude": -99.957294}, "132962861RR0001": {"name": "GREEN ACRES FOUNDATION", "designationCode": "C", "categoryCode": "09", "address": "122-5TH AVENUE SOUTH", "city": "LETHBRIDGE", "province": "AB", "country": "CA", "postalCode": "T1J0S9", "twitter": "None", "instagram": "None", "facebook": "None", "youtube": "None", "website": "None", "summary": "None", "logo": "None", "latitude": 49.692670823121574, "longitude": -112.8467392811644}, "107878415RR0001": {"name": "GREEN ACTION CENTRE, INC.", "designationCode": "C", "categoryCode": "53", "address": "3RD FLOOR                     303 PORTAGE AVE", "city": "WINNIPEG", "province": "MB", "country": "CA", "postalCode": "R3B2B4", "twitter": "None", "instagram": "None", "facebook": "None", "youtube": "None", "website": "None", "summary": "None", "logo": "None", "latitude": 49.89387673163469, "longitude": -97.14316980740362}, "107450710RR0001": {"name": "GREEN BAY BIBLE CAMP", "designationCode": "C", "categoryCode": "56", "address": "1449 GREEN BAY RD.", "city": "WEST KELOWNA", "province": "BC", "country": "CA", "postalCode": "V4T2B9", "twitter": "None", "instagram": "None", "facebook": "None", "youtube": "None", "website": "None", "summary": "None", "logo": "None", "latitude": 49.83572850503926, "longitude": -119.57742718240803}, "872499371RR0001": {"name": "GREEN BAY SOUTH PASTORAL CHARGE,", "designationCode": "C", "categoryCode": "44", "address": "BOX 281                       28 CRESCENT AVE.", "city": "ROBERTS ARM", "province": "NL", "country": "CA", "postalCode": "A0J1R0", "twitter": "None", "instagram": "None", "facebook": "None", "youtube": "None", "website": "None", "summary": "None", "logo": "None", "latitude": 49.481777858408826, "longitude": -55.82154434164696}, "813510344RR0001": {"name": "GREEN BUILDINGS FOUNDATION CANADA", "designationCode": "C", "categoryCode": "21", "address": "556 409 GRANVILLE ST", "city": "VANCOUVER", "province": "BC", "country": "CA", "postalCode": "V6C1T2", "twitter": "None", "instagram": "None", "facebook": "None", "youtube": "None", "website": "None", "summary": "None", "logo": "None", "latitude": 49.28514383654554, "longitude": -123.11419112049143}, "885359158RR0001": {"name": "GREEN CALGARY ASSOCIATION", "designationCode": "C", "categoryCode": "59", "address": "100 301 14TH ST. NW", "city": "CALGARY", "province": "AB", "country": "CA", "postalCode": "T2N2A1", "twitter": "None", "instagram": "None", "facebook": "None", "youtube": "None", "website": "None", "summary": "None", "logo": "None", "latitude": 51.05898103640699, "longitude": -114.09471}, "886699636RR0001": {"name": "GREEN DURHAM ASSOCIATION INC.", "designationCode": "C", "categoryCode": "59", "address": "3322 CONCESSION 9", "city": "ASHBURN", "province": "ON", "country": "CA", "postalCode": "L0B1A0", "twitter": "None", "instagram": "None", "facebook": "None", "youtube": "None", "website": "None", "summary": "None", "logo": "None", "latitude": 43.99077935868884, "longitude": -79.05106525470418}, "890951197RR0001": {"name": "GREEN FOOLS THEATRE SOCIETY", "designationCode": "C", "categoryCode": "22", "address": "2007 10TH AVE SW", "city": "CALGARY", "province": "AB", "country": "CA", "postalCode": "T3C0K4", "twitter": "None", "instagram": "None", "facebook": "None", "youtube": "None", "website": "None", "summary": "None", "logo": "None", "latitude": 51.044414042772615, "longitude": -114.10718541636719}, "130999253RR0001": {"name": "GREEN GROVE CAMP", "designationCode": "C", "categoryCode": "56", "address": "PO BOX 9657  STN MAIN", "city": "SASKATOON", "province": "SK", "country": "CA", "postalCode": "S7K7G5", "twitter": "None", "instagram": "None", "facebook": "None", "youtube": "None", "website": "None", "summary": "None", "logo": "None", "latitude": 52.13049000000005, "longitude": -106.65926449999994}, "889464996RR0001": {"name": "GREEN GROVE UNITED CHURCH", "designationCode": "C", "categoryCode": "44", "address": "BOX 163", "city": "NITON JUNCTION", "province": "AB", "country": "CA", "postalCode": "T0E1S0", "twitter": "None", "instagram": "None", "facebook": "None", "youtube": "None", "website": "None", "summary": "None", "logo": "None"}, "133000141RR0001": {"name": "GREEN HAVEN SHELTER FOR WOMEN", "designationCode": "C", "categoryCode": "01", "address": "P.O. BOX 612", "city": "ORILLIA", "province": "ON", "country": "CA", "postalCode": "L3V6K5", "twitter": "None", "instagram": "None", "facebook": "None", "youtube": "None", "website": "None", "summary": "None", "logo": "None", "latitude": 44.60657100000006, "longitude": -79.41824449999993}, "136212032RR0001": {"name": "GREEN KIDS INC", "designationCode": "C", "categoryCode": "21", "address": "162-2025 CORYDON AVE          SUITE 251", "city": "WINNIPEG", "province": "MB", "country": "CA", "postalCode": "R3P0N5", "twitter": "None", "instagram": "None", "facebook": "None", "youtube": "None", "website": "None", "summary": "None", "logo": "None", "latitude": 49.86654052322662, "longitude": -97.21201206688214}, "119288918RR0085": {"name": "GREEN MOUNTAIN CONGREGATION OF JEHOVAH'S WITNESSES, PENTICTON, BRITISH COLUMBIA", "designationCode": "C", "categoryCode": "61", "address": "2104 TYRONE PLACE", "city": "PENTICTON", "province": "BC", "country": "CA", "postalCode": "V2A8Z2", "twitter": "None", "instagram": "None", "facebook": "None", "youtube": "None", "website": "None", "summary": "None", "logo": "None", "latitude": 49.51650888874118, "longitude": -119.64120147310847}, "118947621RR0001": {"name": "GREEN PRAIRIE LODGE INC.", "designationCode": "C", "categoryCode": "01", "address": "BOX 7", "city": "RATHWELL", "province": "MB", "country": "CA", "postalCode": "R0G1S0", "twitter": "None", "instagram": "None", "facebook": "None", "youtube": "None", "website": "None", "summary": "None", "logo": "None", "latitude": 49.64718000000005, "longitude": -98.54594999999995}, "140449299RR0001": {"name": "GREEN RIDGE BAPTIST CHURCH OF LENNOXVILLE", "designationCode": "C", "categoryCode": "31", "address": "47 QUEEN STREET", "city": "SHERBROOKE", "province": "QC", "country": "CA", "postalCode": "J1M1J2", "twitter": "None", "instagram": "None", "facebook": "None", "youtube": "None", "website": "None", "summary": "None", "logo": "None", "latitude": 45.36164689454089, "longitude": -71.85690061076788}, "119288918RR1091": {"name": "GREEN TIMBERS CONGREGATION OF JEHOVAH'S WITNESSES", "designationCode": "C", "categoryCode": "61", "address": "18295 HUNTER PLACE", "city": "SURREY", "province": "BC", "country": "CA", "postalCode": "V3S5C6", "twitter": "None", "instagram": "None", "facebook": "None", "youtube": "None", "website": "None", "summary": "None", "logo": "None", "latitude": 49.112546489324195, "longitude": -122.71551219317328}, "131507675RR0001": {"name": "GREEN TIMBERS COVENANT CHURCH", "designationCode": "C", "categoryCode": "39", "address": "14219 88 AVE", "city": "SURREY", "province": "BC", "country": "CA", "postalCode": "V3W3L5", "twitter": "None", "instagram": "None", "facebook": "None", "youtube": "None", "website": "None", "summary": "None", "logo": "None", "latitude": 49.16290045268047, "longitude": -122.82842152553522}, "118947670RR0001": {"name": "GREEN VALLEY LUTHERAN CHURCH", "designationCode": "C", "categoryCode": "32", "address": "BOX 808", "city": "OUTLOOK", "province": "SK", "country": "CA", "postalCode": "S0L2N0", "twitter": "None", "instagram": "None", "facebook": "None", "youtube": "None", "website": "None", "summary": "None", "logo": "None", "latitude": 51.5306764246367, "longitude": -107.23731016398128}, "884435421RR0001": {"name": "GREEN'S HARBOUR PASTORAL CHARGE,", "designationCode": "C", "categoryCode": "44", "address": "GENERAL DELIVERY", "city": "CAVENDISH", "province": "NL", "country": "CA", "postalCode": "A0B1J0", "twitter": "None", "instagram": "None", "facebook": "None", "youtube": "None", "website": "None", "summary": "None", "logo": "None", "latitude": 47.72357700000006, "longitude": -53.492961499999936}, "891980666RR0001": {"name": "GREEN'S POINT LIGHT ASSOCIATION INC", "designationCode": "C", "categoryCode": "59", "address": "185 GREEN'S POINT ROAD", "city": "L'ETETE", "province": "NB", "country": "CA", "postalCode": "E5C2N5", "twitter": "None", "instagram": "None", "facebook": "None", "youtube": "None", "website": "None", "summary": "None", "logo": "None", "latitude": 45.04099613701775, "longitude": -66.8884287515341}, "141140590RR0001": {"name": "GREENBANK UNITED CHURCH", "designationCode": "C", "categoryCode": "44", "address": "19991 HIGHWAY 12", "city": "GREENBANK", "province": "ON", "country": "CA", "postalCode": "L0C1B0", "twitter": "None", "instagram": "None", "facebook": "None", "youtube": "None", "website": "None", "summary": "None", "logo": "None", "latitude": 44.15207665729094, "longitude": -79.01490109484213}, "118947381RR0001": {"name": "GREENBELT BAPTIST CHURCH", "designationCode": "C", "categoryCode": "31", "address": "100-839 SHEFFORD RD", "city": "GLOUCESTER", "province": "ON", "country": "CA", "postalCode": "K1J9K8", "twitter": "None", "instagram": "None", "facebook": "None", "youtube": "None", "website": "None", "summary": "None", "logo": "None", "latitude": 45.45541672052618, "longitude": -75.59113142694369}, "118947407RR0001": {"name": "GREENBOROUGH COMMUNITY CHURCH", "designationCode": "C", "categoryCode": "31", "address": "2000 KEELE ST", "city": "TORONTO", "province": "ON", "country": "CA", "postalCode": "M6M3Y4", "twitter": "None", "instagram": "None", "facebook": "None", "youtube": "None", "website": "None", "summary": "None", "logo": "None", "latitude": 43.69742370330085, "longitude": -79.47552829851682}, "889699443RR0001": {"name": "GREENBRIER PRESBYTERIAN CHURCH,", "designationCode": "C", "categoryCode": "37", "address": "11 WHITEOAKS AVE", "city": "BRANTFORD", "province": "ON", "country": "CA", "postalCode": "N3R5N8", "twitter": "None", "instagram": "None", "facebook": "None", "youtube": "None", "website": "None", "summary": "None", "logo": "None", "latitude": 43.17761292313454, "longitude": -80.27338070119471}, "864426721RR0001": {"name": "GREENDALE MENNONITE BRETHREN CHURCH", "designationCode": "C", "categoryCode": "34", "address": "6550 SUMAS PRAIRIE RD", "city": "CHILLIWACK", "province": "BC", "country": "CA", "postalCode": "V2R4K1", "twitter": "None", "instagram": "None", "facebook": "None", "youtube": "None", "website": "None", "summary": "None", "logo": "None", "latitude": 49.12053291618096, "longitude": -122.045490542155}, "888768413RR0001": {"name": "GREENEST CITY ENVIRONMENTAL ORGANIZATION", "designationCode": "C", "categoryCode": "59", "address": "220 COWAN AVENUE", "city": "TORONTO", "province": "ON", "country": "CA", "postalCode": "M6K2N6", "twitter": "None", "instagram": "None", "facebook": "None", "youtube": "None", "website": "None", "summary": "None", "logo": "None", "latitude": 43.64075508298232, "longitude": -79.43286997893684}, "118947456RR0001": {"name": "GREENFIELD CEMETERY", "designationCode": "C", "categoryCode": "59", "address": "P.O. BOX 454", "city": "ARTHUR", "province": "ON", "country": "CA", "postalCode": "N0G1A0", "twitter": "None", "instagram": "None", "facebook": "None", "youtube": "None", "website": "None", "summary": "None", "logo": "None", "latitude": 44.05516430804911, "longitude": -80.92867545949541}, "882401920RR0001": {"name": "GREENFIELD CEMETERY INC", "designationCode": "C", "categoryCode": "59", "address": "240 SIPPRELL ROAD", "city": "GREENFIELD", "province": "NB", "country": "CA", "postalCode": "E7L3B8", "twitter": "None", "instagram": "None", "facebook": "None", "youtube": "None", "website": "None", "summary": "None", "logo": "None", "latitude": 46.46390577266448, "longitude": -67.65093649679734}, "107450975RR0001": {"name": "GREENFIELD COMMUNITY NURSERY SCHOOL (GREENFIELD COMBINATION HOME - CENTRE PROGRAM )", "designationCode": "C", "categoryCode": "20", "address": "14907 45 AVE NW", "city": "EDMONTON", "province": "AB", "country": "CA", "postalCode": "T6H5K8", "twitter": "None", "instagram": "None", "facebook": "None", "youtube": "None", "website": "None", "summary": "None", "logo": "None", "latitude": 53.48379461945316, "longitude": -113.57993820886941}, "831144878RR0001": {"name": "GREENFIELD PARK CHRISTMAS BASKET ASSOCIATION/ASSOCIATION DU PANIER DE NOEL DE GREENFIELD PARK", "designationCode": "C", "categoryCode": "09", "address": "156 BOUL CHURCHILL", "city": "GREENFIELD PARK", "province": "QC", "country": "CA", "postalCode": "J4V2M3", "twitter": "None", "instagram": "None", "facebook": "None", "youtube": "None", "website": "None", "summary": "None", "logo": "None", "latitude": 45.491839499884435, "longitude": -73.48700773108642}, "119288918RR0226": {"name": "GREENFIELD PARK CONGREGATION OF JEHOVAH'S WITNESSES", "designationCode": "C", "categoryCode": "61", "address": "3268 RUE BOISMENU", "city": "LONGUEUIL", "province": "QC", "country": "CA", "postalCode": "J4M2X8", "twitter": "None", "instagram": "None", "facebook": "None", "youtube": "None", "website": "None", "summary": "None", "logo": "None"}, "107450991RR0001": {"name": "GREENFIELD PARK PENTECOSTAL CHURCH", "designationCode": "C", "categoryCode": "36", "address": "30 CHURCHILL BLVD", "city": "GREENFIELD PARK", "province": "QC", "country": "CA", "postalCode": "J4V2L7", "twitter": "None", "instagram": "None", "facebook": "None", "youtube": "None", "website": "None", "summary": "None", "logo": "None", "latitude": 45.489504006116846, "longitude": -73.49086684652886}, "107451007RR0001": {"name": "GREENFIELD PARK UNITED CHURCH", "designationCode": "C", "categoryCode": "44", "address": "335 AV. SPRINGFIELD", "city": "GREENFIELD PARK", "province": "QC", "country": "CA", "postalCode": "J4V1X7", "twitter": "None", "instagram": "None", "facebook": "None", "youtube": "None", "website": "None", "summary": "None", "logo": "None", "latitude": 45.490878283917226, "longitude": -73.48389732558127}, "119236081RR0001": {"name": "GREENFIELD SCHOOL AGE DAY CARE ASSOCIATION", "designationCode": "C", "categoryCode": "01", "address": "4716 115 ST", "city": "EDMONTON", "province": "AB", "country": "CA", "postalCode": "T6H3N8", "twitter": "None", "instagram": "None", "facebook": "None", "youtube": "None", "website": "None", "summary": "None", "logo": "None", "latitude": 53.48437138190317, "longitude": -113.52884011446055}, "889739173RR0001": {"name": "GREENFIELD UNITED BAPTIST CHURCH,", "designationCode": "C", "categoryCode": "31", "address": "4791 HWY 210 RR#1", "city": "GREENFIELD", "province": "NS", "country": "CA", "postalCode": "B0T1E0", "twitter": "None", "instagram": "None", "facebook": "None", "youtube": "None", "website": "None", "summary": "None", "logo": "None", "latitude": 44.283551380279754, "longitude": -64.83473078001471}, "889664769RR0001": {"name": "GREENHILL CEMETERY COMPANY", "designationCode": "C", "categoryCode": "59", "address": "3168 ROUTE 114", "city": "EDGETT'S LANDING", "province": "NB", "country": "CA", "postalCode": "E4H2G1", "twitter": "None", "instagram": "None", "facebook": "None", "youtube": "None", "website": "None", "summary": "None", "logo": "None"}, "119288918RR0949": {"name": "GREENHILL CONGREGATION OF JEHOVAH'S WITNESSES", "designationCode": "C", "categoryCode": "61", "address": "63 MOUNTAIN AVE N", "city": "STONEY CREEK", "province": "ON", "country": "CA", "postalCode": "L8G3N6", "twitter": "None", "instagram": "None", "facebook": "None", "youtube": "None", "website": "None", "summary": "None", "logo": "None", "latitude": 43.22140909270583, "longitude": -79.75477638415353}, "118947522RR0001": {"name": "GREENHILL-ALMA UNITED CHURCH", "designationCode": "C", "categoryCode": "44", "address": "RR 3", "city": "WESTVILLE", "province": "NS", "country": "CA", "postalCode": "B0K2A0", "twitter": "None", "instagram": "None", "facebook": "None", "youtube": "None", "website": "None", "summary": "None", "logo": "None", "latitude": 45.559140000000056, "longitude": -62.70123049999994}, "837695329RR0001": {"name": "GREENHOPE FOR CHILDREN", "designationCode": "C", "categoryCode": "21", "address": "1015 - 305 ROEHAMPTON AVE", "city": "TORONTO", "province": "ON", "country": "CA", "postalCode": "M4P0B2", "twitter": "None", "instagram": "None", "facebook": "None", "youtube": "None", "website": "None", "summary": "None", "logo": "None", "latitude": 43.70988281652159, "longitude": -79.38904840576495}, "845130327RR0001": {"name": "GREENLAND CEMETERY SOCIETY", "designationCode": "C", "categoryCode": "59", "address": "604 MIDDLESEX ROAD            RR 1", "city": "BEAR RIVER", "province": "NS", "country": "CA", "postalCode": "B0S1B0", "twitter": "None", "instagram": "None", "facebook": "None", "youtube": "None", "website": "None", "summary": "None", "logo": "None", "latitude": 44.58470935743582, "longitude": -65.60366593167555}, "131790065RR0001": {"name": "GREENLAND RECREATIONAL AFTER SCHOOL PROGRAM (GRASP)", "designationCode": "C", "categoryCode": "20", "address": "15 GREENLAND ROAD", "city": "NORTH YORK", "province": "ON", "country": "CA", "postalCode": "M3C1N1", "twitter": "None", "instagram": "None", "facebook": "None", "youtube": "None", "website": "None", "summary": "None", "logo": "None", "latitude": 43.73404292529891, "longitude": -79.33868570578234}, "892374760RR0001": {"name": "GREENLAWN CEMETERY COMPANY", "designationCode": "C", "categoryCode": "59", "address": "RR 1", "city": "TUSKET", "province": "NS", "country": "CA", "postalCode": "B0W3M0", "twitter": "None", "instagram": "None", "facebook": "None", "youtube": "None", "website": "None", "summary": "None", "logo": "None", "latitude": 43.92724200000005, "longitude": -65.89714399999993}, "821625274RR0001": {"name": "GREENMAR FAMILY FOUNDATION", "designationCode": "B", "categoryCode": "03", "address": "200-1060 7 STREET SW", "city": "CALGARY", "province": "AB", "country": "CA", "postalCode": "T2R0C4", "twitter": "None", "instagram": "None", "facebook": "None", "youtube": "None", "website": "None", "summary": "None", "logo": "None", "latitude": 51.04317535864494, "longitude": -114.07890722447821}, "118947589RR0001": {"name": "GREENMOUNT CHURCH OF CHRIST", "designationCode": "C", "categoryCode": "39", "address": "RR 1                          766 O'ROURKE RD", "city": "TIGNISH", "province": "PE", "country": "CA", "postalCode": "C0B2B0", "twitter": "None", "instagram": "None", "facebook": "None", "youtube": "None", "website": "None", "summary": "None", "logo": "None", "latitude": 46.87422153398935, "longitude": -64.00816497365672}, "118947597RR0001": {"name": "GREENOCK PRESBYTERIAN CHURCH", "designationCode": "C", "categoryCode": "37", "address": "146 MONTAGUE ST", "city": "ST ANDREWS", "province": "NB", "country": "CA", "postalCode": "E5B1H8", "twitter": "None", "instagram": "None", "facebook": "None", "youtube": "None", "website": "None", "summary": "None", "logo": "None", "latitude": 45.076650159328196, "longitude": -67.05374997333959}, "892320367RR0001": {"name": "GREENRIDGE CEMETERY ASSOCIATION", "designationCode": "C", "categoryCode": "59", "address": "P. O. BOX 22", "city": "GREENRIDGE", "province": "MB", "country": "CA", "postalCode": "R0A0P0", "twitter": "None", "instagram": "None", "facebook": "None", "youtube": "None", "website": "None", "summary": "None", "logo": "None", "latitude": 49.403007, "longitude": -96.8540985}, "131933517RR0001": {"name": "GREENRIDGE UNITED CHURCH", "designationCode": "C", "categoryCode": "44", "address": "BOX 7", "city": "CARLOWRIE", "province": "MB", "country": "CA", "postalCode": "R0A0G0", "twitter": "None", "instagram": "None", "facebook": "None", "youtube": "None", "website": "None", "summary": "None", "logo": "None", "latitude": 49.25325000000004, "longitude": -96.96189999999996}, "857932305RR0001": {"name": "GREENSTONE AREA SEARCH AND RESCUE", "designationCode": "C", "categoryCode": "59", "address": "BOX 507", "city": "GERALDTON", "province": "ON", "country": "CA", "postalCode": "P0T1M0", "twitter": "None", "instagram": "None", "facebook": "None", "youtube": "None", "website": "None", "summary": "None", "logo": "None", "latitude": 49.73012979055605, "longitude": -86.95068883318625}, "892133844RR0001": {"name": "GREENSTONE CHRISTIAN CENTER", "designationCode": "C", "categoryCode": "39", "address": "98 INDIAN ROAD                POST OFFICE BOX 847", "city": "LONGLAC", "province": "ON", "country": "CA", "postalCode": "P0T2A0", "twitter": "None", "instagram": "None", "facebook": "None", "youtube": "None", "website": "None", "summary": "None", "logo": "None", "latitude": 49.779653268053956, "longitude": -86.53222949881106}, "824214928RR0001": {"name": "GREENSTONE VICTIM SERVICES", "designationCode": "C", "categoryCode": "09", "address": "P O BOX 537", "city": "GERALDTON", "province": "ON", "country": "CA", "postalCode": "P0T1M0", "twitter": "None", "instagram": "None", "facebook": "None", "youtube": "None", "website": "None", "summary": "None", "logo": "None", "latitude": 49.73012979055605, "longitude": -86.95068883318625}, "864862420RR0001": {"name": "GREENSTREET RECREATION ASSOCIATION", "designationCode": "C", "categoryCode": "55", "address": "PO BOX 2683", "city": "LLOYDMINSTER", "province": "SK", "country": "CA", "postalCode": "S9V0Y3", "twitter": "None", "instagram": "None", "facebook": "None", "youtube": "None", "website": "None", "summary": "None", "logo": "None", "latitude": 53.274840000000054, "longitude": -109.99074949999994}, "118947704RR0001": {"name": "GREENVILLE UNITED BAPTIST CHURCH", "designationCode": "C", "categoryCode": "31", "address": "487 GREENVILLE ROAD", "city": "GREENVILLE", "province": "NS", "country": "CA", "postalCode": "B5A5J6", "twitter": "None", "instagram": "None", "facebook": "None", "youtube": "None", "website": "None", "summary": "None", "logo": "None", "latitude": 43.85820690365883, "longitude": -66.03536827159662}, "891492068RR0001": {"name": "GREENWALD CHARITABLE TRUST", "designationCode": "B", "categoryCode": "39", "address": "780 SASKATCHEWAN AVE W", "city": "PORTAGE LA PRAIRIE", "province": "MB", "country": "CA", "postalCode": "R1N0M7", "twitter": "None", "instagram": "None", "facebook": "None", "youtube": "None", "website": "None", "summary": "None", "logo": "None", "latitude": 49.97373494820344, "longitude": -98.30132080652011}, "119288918RR0915": {"name": "GREENWAY CONGREGATION OF JEHOVAH'S WITNESSES", "designationCode": "C", "categoryCode": "61", "address": "355 GAGE AVENUE", "city": "KITCHENER", "province": "ON", "country": "CA", "postalCode": "N2M5E1", "twitter": "None", "instagram": "None", "facebook": "None", "youtube": "None", "website": "None", "summary": "None", "logo": "None", "latitude": 43.44524710413147, "longitude": -80.52030736360997}, "133141747RR0001": {"name": "GREENWAY-CHAPLIN COMMUNITY CENTRE", "designationCode": "C", "categoryCode": "56", "address": "116 ROUSE AVE", "city": "CAMBRIDGE", "province": "ON", "country": "CA", "postalCode": "N1R4M8", "twitter": "None", "instagram": "None", "facebook": "None", "youtube": "None", "website": "None", "summary": "None", "logo": "None", "latitude": 43.38188768552723, "longitude": -80.31430826227714}, "118947720RR0001": {"name": "GREENWICH FIRE COMMISSIONERS", "designationCode": "C", "categoryCode": "59", "address": "PO BOX 2315", "city": "WOLFVILLE", "province": "NS", "country": "CA", "postalCode": "B4P2R2", "twitter": "None", "instagram": "None", "facebook": "None", "youtube": "None", "website": "None", "summary": "None", "logo": "None", "latitude": 45.069081000000054, "longitude": -64.39954849999994}, "107451593RR0001": {"name": "GREENWOOD AND DISTRICT PUBLIC LIBRARY ASSOCIATION", "designationCode": "C", "categoryCode": "50", "address": "BOX 279", "city": "GREENWOOD", "province": "BC", "country": "CA", "postalCode": "V0H1J0", "twitter": "None", "instagram": "None", "facebook": "None", "youtube": "None", "website": "None", "summary": "None", "logo": "None", "latitude": 49.09533000000005, "longitude": -118.67747999999995}, "107379760RR0001": {"name": "GREENWOOD AVENUE BAPTIST CHURCH", "designationCode": "C", "categoryCode": "31", "address": "235 ALBERT AVE", "city": "NORTH BAY", "province": "ON", "country": "CA", "postalCode": "P1B7J6", "twitter": "None", "instagram": "None", "facebook": "None", "youtube": "None", "website": "None", "summary": "None", "logo": "None", "latitude": 46.330931557851116, "longitude": -79.45578411226845}, "138350707RR0001": {"name": "GREENWOOD CEMETERY", "designationCode": "C", "categoryCode": "59", "address": "P.O. BOX 598                  60 STEPHENS ST", "city": "VANKLEEK HILL", "province": "ON", "country": "CA", "postalCode": "K0B1R0", "twitter": "None", "instagram": "None", "facebook": "None", "youtube": "None", "website": "None", "summary": "None", "logo": "None", "latitude": 45.52558300473185, "longitude": -74.64736628766813}, "118947753RR0001": {"name": "GREENWOOD CEMETERY COMPANY LIMITED", "designationCode": "C", "categoryCode": "59", "address": "2915 ROUTE 103", "city": "SIMONDS", "province": "NB", "country": "CA", "postalCode": "E7P2Y6", "twitter": "None", "instagram": "None", "facebook": "None", "youtube": "None", "website": "None", "summary": "None", "logo": "None", "latitude": 46.31318660394981, "longitude": -67.54929105259131}, "868540386RR0001": {"name": "GREENWOOD CHARITABLE TRUST", "designationCode": "B", "categoryCode": "03", "address": "3425 2 AVENUE SOUTH", "city": "LETHBRIDGE", "province": "AB", "country": "CA", "postalCode": "T1J4V1", "twitter": "None", "instagram": "None", "facebook": "None", "youtube": "None", "website": "None", "summary": "None", "logo": "None", "latitude": 49.696839530439966, "longitude": -112.78914308381903}, "873553317RR0001": {"name": "GREENWOOD COLLEGE SCHOOL", "designationCode": "C", "categoryCode": "20", "address": "443 MOUNT PLEASANT ROAD", "city": "TORONTO", "province": "ON", "country": "CA", "postalCode": "M4S2L8", "twitter": "None", "instagram": "None", "facebook": "None", "youtube": "None", "website": "None", "summary": "None", "logo": "None", "latitude": 43.700219119626034, "longitude": -79.38661003009419}, "860082247RR0001": {"name": "GREENWOOD COLLEGE SCHOOL FOUNDATION", "designationCode": "C", "categoryCode": "21", "address": "443 MOUNT PLEASANT ROAD", "city": "TORONTO", "province": "ON", "country": "CA", "postalCode": "M4S2L8", "twitter": "None", "instagram": "None", "facebook": "None", "youtube": "None", "website": "None", "summary": "None", "logo": "None", "latitude": 43.700219119626034, "longitude": -79.38661003009419}, "118947761RR0001": {"name": "GREENWOOD COMMUNITY ASSOCIATION", "designationCode": "C", "categoryCode": "56", "address": "PO BOX 556", "city": "GREENWOOD", "province": "BC", "country": "CA", "postalCode": "V0H1J0", "twitter": "None", "instagram": "None", "facebook": "None", "youtube": "None", "website": "None", "summary": "None", "logo": "None", "latitude": 49.09533000000005, "longitude": -118.67747999999995}, "870396819RR0001": {"name": "GREENWOOD EVANGEL CHAPEL", "designationCode": "C", "categoryCode": "39", "address": "P.O. BOX 551", "city": "GREENWOOD", "province": "BC", "country": "CA", "postalCode": "V0H1J0", "twitter": "None", "instagram": "None", "facebook": "None", "youtube": "None", "website": "None", "summary": "None", "logo": "None", "latitude": 49.09533000000005, "longitude": -118.67747999999995}, "118947787RR0001": {"name": "GREENWOOD GOSPEL CHAPEL", "designationCode": "C", "categoryCode": "39", "address": "949 GREENWOOD AVE", "city": "TORONTO", "province": "ON", "country": "CA", "postalCode": "M4J4C5", "twitter": "None", "instagram": "None", "facebook": "None", "youtube": "None", "website": "None", "summary": "None", "logo": "None", "latitude": 43.686077782964944, "longitude": -79.33427916400272}, "119288918RR0029": {"name": "GREENWOOD PARK CONGREGATION OF JEHOVAH'S WITNESSES, VANCOUVER, BRITISH COLUMBIA", "designationCode": "C", "categoryCode": "61", "address": "2626 MOUNTAIN HWY", "city": "NORTH VANCOUVER", "province": "BC", "country": "CA", "postalCode": "V7J2N5", "twitter": "None", "instagram": "None", "facebook": "None", "youtube": "None", "website": "None", "summary": "None", "logo": "None", "latitude": 49.33207674271452, "longitude": -123.03791035951328}, "889496790RR0001": {"name": "GREENWOOD UNITED CHURCH", "designationCode": "C", "categoryCode": "44", "address": "RR#3, 1187 WILSON RD", "city": "PEMBROKE", "province": "ON", "country": "CA", "postalCode": "K8A6W4", "twitter": "None", "instagram": "None", "facebook": "None", "youtube": "None", "website": "None", "summary": "None", "logo": "None", "latitude": 45.826884, "longitude": -77.0982705}, "891387581RR0001": {"name": "GREENWOOD UNITED CHURCH,", "designationCode": "C", "categoryCode": "44", "address": "2475 CON #6", "city": "GREENWOOD", "province": "ON", "country": "CA", "postalCode": "L0H1H0", "twitter": "None", "instagram": "None", "facebook": "None", "youtube": "None", "website": "None", "summary": "None", "logo": "None", "latitude": 43.91667592038627, "longitude": -79.06837776193146}, "107457731RR0001": {"name": "GREENWOODS ELDERCARE SOCIETY", "designationCode": "C", "categoryCode": "09", "address": "133 BLAIN RD", "city": "SALT SPRING ISLAND", "province": "BC", "country": "CA", "postalCode": "V8K1Z9", "twitter": "None", "instagram": "None", "facebook": "None", "youtube": "None", "website": "None", "summary": "None", "logo": "None", "latitude": 48.861744562990665, "longitude": -123.51087318776689}, "861287258RR0001": {"name": "GREENWOODS FOUNDATION", "designationCode": "A", "categoryCode": "09", "address": "133 BLAIN RD", "city": "SALT SPRING ISLAND", "province": "BC", "country": "CA", "postalCode": "V8K1Z9", "twitter": "None", "instagram": "None", "facebook": "None", "youtube": "None", "website": "None", "summary": "None", "logo": "None", "latitude": 48.861744562990665, "longitude": -123.51087318776689}, "859532111RR0001": {"name": "GREG COTTEN MINISTRIES INCORPORATED", "designationCode": "C", "categoryCode": "47", "address": "PO BOX 607", "city": "PORTUGAL COVE-ST PHILIPS", "province": "NL", "country": "CA", "postalCode": "A1M3R6", "twitter": "None", "instagram": "None", "facebook": "None", "youtube": "None", "website": "None", "summary": "None", "logo": "None", "latitude": 47.57393400000005, "longitude": -52.859023999999934}, "864793989RR0001": {"name": "GREG MOORE FOUNDATION", "designationCode": "A", "categoryCode": "03", "address": "1500 WEST GEORGIA STREET      SUITE 1250   BOX 62", "city": "VANCOUVER", "province": "BC", "country": "CA", "postalCode": "V6G2Z6", "twitter": "None", "instagram": "None", "facebook": "None", "youtube": "None", "website": "None", "summary": "None", "logo": "None", "latitude": 49.2900638104334, "longitude": -123.12989899362336}, "862250297RR0001": {"name": "GREG ROGERS SCHOLARSHIP FOUNDATION INC.", "designationCode": "C", "categoryCode": "21", "address": "145 MARTIN ST", "city": "KING CITY", "province": "ON", "country": "CA", "postalCode": "L7B1J5", "twitter": "None", "instagram": "None", "facebook": "None", "youtube": "None", "website": "None", "summary": "None", "logo": "None", "latitude": 43.931388563679505, "longitude": -79.5347830331526}, "858177033RR0001": {"name": "GREGG DISTRIBUTORS COMMUNITY ENHANCEMENT FOUNDATION", "designationCode": "A", "categoryCode": "03", "address": "16215-118 AVENUE", "city": "EDMONTON", "province": "AB", "country": "CA", "postalCode": "T5V1C7", "twitter": "None", "instagram": "None", "facebook": "None", "youtube": "None", "website": "None", "summary": "None", "logo": "None", "latitude": 53.57027983267471, "longitude": -113.60090429026918}, "118947837RR0001": {"name": "GREGORIANA INC.", "designationCode": "A", "categoryCode": "47", "address": "43 QUEENS PARK CRES. EAST", "city": "TORONTO", "province": "ON", "country": "CA", "postalCode": "M5S2C3", "twitter": "None", "instagram": "None", "facebook": "None", "youtube": "None", "website": "None", "summary": "None", "logo": "None", "latitude": 43.66441275021635, "longitude": -79.39092008350191}, "874011968RR0001": {"name": "GREGORY T GRAHAM FOUNDATION", "designationCode": "B", "categoryCode": "45", "address": "EXCHANGE TOWER                130 KING STREET WEST 20TH FLR", "city": "TORONTO", "province": "ON", "country": "CA", "postalCode": "M5X1K1", "twitter": "None", "instagram": "None", "facebook": "None", "youtube": "None", "website": "None", "summary": "None", "logo": "None", "latitude": 43.64798216515656, "longitude": -79.38336717805407}, "107452245RR0001": {"name": "GRENFEL UNITED CHURCH", "designationCode": "C", "categoryCode": "44", "address": "25 RIVER DR", "city": "ANGUS", "province": "ON", "country": "CA", "postalCode": "L0M1B2", "twitter": "None", "instagram": "None", "facebook": "None", "youtube": "None", "website": "None", "summary": "None", "logo": "None", "latitude": 44.322795501565466, "longitude": -79.8851136494391}}