{"831440631RR0001": {"name": "The Tamarack Charitable Foundation Inc.", "designationCode": "B", "categoryCode": "03", "address": "215 RANLEIGH AVENUE", "city": "TORONTO", "province": "ON", "country": "CA", "postalCode": "M4N1X3", "twitter": "None", "instagram": "None", "facebook": "None", "youtube": "None", "website": "None", "summary": "None", "logo": "None", "latitude": 43.72891180209485, "longitude": -79.39610598237063}, "839789336RR0001": {"name": "The Tamid Foundation", "designationCode": "B", "categoryCode": "03", "address": "201 BRIDGELAND AVENUE,", "city": "TORONTO", "province": "ON", "country": "CA", "postalCode": "M6A1Y7", "twitter": "None", "instagram": "None", "facebook": "None", "youtube": "None", "website": "None", "summary": "None", "logo": "None", "latitude": 43.724679896445465, "longitude": -79.46720435899367}, "831612981RR0001": {"name": "The Tango Foundation", "designationCode": "C", "categoryCode": "11", "address": "4900 44 ST", "city": "TABER", "province": "AB", "country": "CA", "postalCode": "T1G1G1", "twitter": "None", "instagram": "None", "facebook": "None", "youtube": "None", "website": "None", "summary": "None", "logo": "None", "latitude": 49.785970216058054, "longitude": -112.1631683381207}, "834304735RR0001": {"name": "The Tarija Foundation", "designationCode": "B", "categoryCode": "03", "address": "510 - 744 HASTINGS ST W", "city": "VANCOUVER", "province": "BC", "country": "CA", "postalCode": "V6C1A5", "twitter": "None", "instagram": "None", "facebook": "None", "youtube": "None", "website": "None", "summary": "None", "logo": "None", "latitude": 49.28583140186983, "longitude": -123.11473754374151}, "820490779RR0001": {"name": "The Tawse Family Charitable Foundation", "designationCode": "B", "categoryCode": "03", "address": "100 UNIVERSITY AVENUE         NORTH TOWER, SUITE 700", "city": "TORONTO", "province": "ON", "country": "CA", "postalCode": "M5J1V6", "twitter": "None", "instagram": "None", "facebook": "None", "youtube": "None", "website": "None", "summary": "None", "logo": "None", "latitude": 43.6473373941082, "longitude": -79.38469170624369}, "705698520RR0001": {"name": "The Taylor Family Foundation", "designationCode": "B", "categoryCode": "03", "address": "300 - 3 CHURCH ST", "city": "TORONTO", "province": "ON", "country": "CA", "postalCode": "M5E1M2", "twitter": "None", "instagram": "None", "facebook": "None", "youtube": "None", "website": "None", "summary": "None", "logo": "None", "latitude": 43.64754933833454, "longitude": -79.37337677765615}, "810513804RR0001": {"name": "The Taylor Family Foundation", "designationCode": "A", "categoryCode": "03", "address": "1401 HASTINGS CRESCENT SW", "city": "CALGARY", "province": "AB", "country": "CA", "postalCode": "T2G4C8", "twitter": "None", "instagram": "None", "facebook": "None", "youtube": "None", "website": "None", "summary": "None", "logo": "None", "latitude": 51.01214761887623, "longitude": -114.03085795914402}, "820745917RR0001": {"name": "The Tema Conter Memorial Trust", "designationCode": "C", "categoryCode": "11", "address": "387 MAPLEVIEW DR W", "city": "BARRIE", "province": "ON", "country": "CA", "postalCode": "L4N9G4", "twitter": "None", "instagram": "None", "facebook": "None", "youtube": "None", "website": "None", "summary": "None", "logo": "None", "latitude": 44.32823592587584, "longitude": -79.71676529058233}, "836040501RR0001": {"name": "The Tempo Educates Foundation Inc.", "designationCode": "C", "categoryCode": "22", "address": "1731 LAWRENCE AVENUE EAST,", "city": "TORONTO", "province": "ON", "country": "CA", "postalCode": "M1R2X7", "twitter": "None", "instagram": "None", "facebook": "None", "youtube": "None", "website": "None", "summary": "None", "logo": "None", "latitude": 43.742451827053145, "longitude": -79.30829461766415}, "843849811RR0001": {"name": "The Terry & Marion Poole Foundation", "designationCode": "B", "categoryCode": "03", "address": "1600-700 2ND STREET SW", "city": "CALGARY", "province": "AB", "country": "CA", "postalCode": "T2P2W1", "twitter": "None", "instagram": "None", "facebook": "None", "youtube": "None", "website": "None", "summary": "None", "logo": "None", "latitude": 51.04920186667524, "longitude": -114.0676309458328}, "853942597RR0001": {"name": "The Terry Fox Research Institute", "designationCode": "C", "categoryCode": "11", "address": "150 - 8960 UNIVERSITY HIGH ST", "city": "BURNABY", "province": "BC", "country": "CA", "postalCode": "V5A4Y6", "twitter": "None", "instagram": "None", "facebook": "None", "youtube": "None", "website": "None", "summary": "None", "logo": "None", "latitude": 49.278371410543215, "longitude": -122.91203999342841}, "801351750RR0001": {"name": "The Teslia and Turner Family Foundation", "designationCode": "B", "categoryCode": "03", "address": "P.O. BOX 70", "city": "CALEDON VILLAGE", "province": "ON", "country": "CA", "postalCode": "L7K3L3", "twitter": "None", "instagram": "None", "facebook": "None", "youtube": "None", "website": "None", "summary": "None", "logo": "None", "latitude": 43.86230700000006, "longitude": -79.99868149999993}, "857852412RR0001": {"name": "The Tessellate Institute", "designationCode": "C", "categoryCode": "29", "address": "2901 MULBERRY DRIVE", "city": "OAKVILLE", "province": "ON", "country": "CA", "postalCode": "L6J7H4", "twitter": "None", "instagram": "None", "facebook": "None", "youtube": "None", "website": "None", "summary": "None", "logo": "None", "latitude": 43.500460043857075, "longitude": -79.65691747336825}, "821425899RR0001": {"name": "The Themba Development Project Association", "designationCode": "C", "categoryCode": "09", "address": "412 - 530 STARBOARD DR", "city": "HALIFAX", "province": "NS", "country": "CA", "postalCode": "B3M0G9", "twitter": "None", "instagram": "None", "facebook": "None", "youtube": "None", "website": "None", "summary": "None", "logo": "None", "latitude": 44.697579152894235, "longitude": -63.68392245218951}, "826230328RR0001": {"name": "The Theotokos of the Life-Giving Spring Orthodox Mission Inc.", "designationCode": "C", "categoryCode": "39", "address": "104 YALE AVE", "city": "WINNIPEG", "province": "MB", "country": "CA", "postalCode": "R3M0L6", "twitter": "None", "instagram": "None", "facebook": "None", "youtube": "None", "website": "None", "summary": "None", "logo": "None", "latitude": 49.87143517733292, "longitude": -97.16359202065912}, "807540497RR0001": {"name": "The Thomas P. Jasinski Scholarship Fund for Business Students", "designationCode": "C", "categoryCode": "21", "address": "2438 NICHOLS DRIVE", "city": "OAKVILLE", "province": "ON", "country": "CA", "postalCode": "L6H6T2", "twitter": "None", "instagram": "None", "facebook": "None", "youtube": "None", "website": "None", "summary": "None", "logo": "None", "latitude": 43.4899308306885, "longitude": -79.70979809437928}, "824680342RR0001": {"name": "The Thompson T. Egbo-Egbo Arts Foundation", "designationCode": "A", "categoryCode": "23", "address": "904 - 40 UNIVERSITY AVE", "city": "TORONTO", "province": "ON", "country": "CA", "postalCode": "M5J1T1", "twitter": "None", "instagram": "None", "facebook": "None", "youtube": "None", "website": "None", "summary": "None", "logo": "None", "latitude": 43.646125516504206, "longitude": -79.3839709091405}, "886670488RR0001": {"name": "The Thorold Reed Band", "designationCode": "C", "categoryCode": "22", "address": "117 GLEN PARK DR", "city": "WELLAND", "province": "ON", "country": "CA", "postalCode": "L3C6N2", "twitter": "None", "instagram": "None", "facebook": "None", "youtube": "None", "website": "None", "summary": "None", "logo": "None", "latitude": 42.99963732558127, "longitude": -79.27268632638932}, "807239371RR0001": {"name": "The Three Churches Foundation", "designationCode": "C", "categoryCode": "43", "address": "120 EDGEWATER STREET", "city": "MAHONE BAY", "province": "NS", "country": "CA", "postalCode": "B0J2E0", "twitter": "None", "instagram": "None", "facebook": "None", "youtube": "None", "website": "None", "summary": "None", "logo": "None", "latitude": 44.45259669862992, "longitude": -64.38076281005787}, "841349582RR0001": {"name": "The Tiferes Yochanon Foundation", "designationCode": "B", "categoryCode": "03", "address": "65 REGINA AVENUE", "city": "TORONTO", "province": "ON", "country": "CA", "postalCode": "M6A1R4", "twitter": "None", "instagram": "None", "facebook": "None", "youtube": "None", "website": "None", "summary": "None", "logo": "None", "latitude": 43.72681480209486, "longitude": -79.43637631473257}, "869842831RR0001": {"name": "The Tillsonburg & District Historical Society", "designationCode": "C", "categoryCode": "50", "address": "30 TILLSON AVENUE", "city": "TILLSONBURG", "province": "ON", "country": "CA", "postalCode": "N4G2Z8", "twitter": "None", "instagram": "None", "facebook": "None", "youtube": "None", "website": "None", "summary": "None", "logo": "None", "latitude": 42.86210143297362, "longitude": -80.72249477087549}, "759797723RR0001": {"name": "The Tillsonburg Alliance Church of the Christian and Missionary", "designationCode": "C", "categoryCode": "39", "address": "270 QUARTER TOWN LINE", "city": "TILLSONBURG", "province": "ON", "country": "CA", "postalCode": "N4G4G8", "twitter": "None", "instagram": "None", "facebook": "None", "youtube": "None", "website": "None", "summary": "None", "logo": "None", "latitude": 42.873416403574794, "longitude": -80.75159938885086}, "841600414RR0001": {"name": "The Timber Ridge Charitable Foundation", "designationCode": "B", "categoryCode": "03", "address": "609,304-8TH AVE SW", "city": "CALGARY", "province": "AB", "country": "CA", "postalCode": "T2P1C2", "twitter": "None", "instagram": "None", "facebook": "None", "youtube": "None", "website": "None", "summary": "None", "logo": "None", "latitude": 51.04590663887669, "longitude": -114.07575818403993}, "833358484RR0001": {"name": "The Tiny Light Foundation", "designationCode": "C", "categoryCode": "19", "address": "1250-1500 GEORGIA W ST        BOX 62", "city": "VANCOUVER", "province": "BC", "country": "CA", "postalCode": "V6G2Z6", "twitter": "None", "instagram": "None", "facebook": "None", "youtube": "None", "website": "None", "summary": "None", "logo": "None", "latitude": 49.290187500000016, "longitude": -123.130035}, "815347620RR0001": {"name": "The Tisdale Enrichment Fund for Elementary Students, Inc.", "designationCode": "C", "categoryCode": "21", "address": "PO BOX 1505", "city": "TISDALE", "province": "SK", "country": "CA", "postalCode": "S0E1T0", "twitter": "None", "instagram": "None", "facebook": "None", "youtube": "None", "website": "None", "summary": "None", "logo": "None", "latitude": 52.84785000000005, "longitude": -104.04749999999996}, "854912664RR0001": {"name": "The Today Family Violence Help Centre", "designationCode": "C", "categoryCode": "09", "address": "#301, 11456 JASPER AVE", "city": "EDMONTON", "province": "AB", "country": "CA", "postalCode": "T5K0M1", "twitter": "None", "instagram": "None", "facebook": "None", "youtube": "None", "website": "None", "summary": "None", "logo": "None", "latitude": 53.540963515436324, "longitude": -113.5188225}, "851821017RR0001": {"name": "The Tom and Gail Kaneb Family Foundation", "designationCode": "B", "categoryCode": "03", "address": "P.O. BOX 635", "city": "CORNWALL", "province": "ON", "country": "CA", "postalCode": "K6H5T3", "twitter": "None", "instagram": "None", "facebook": "None", "youtube": "None", "website": "None", "summary": "None", "logo": "None", "latitude": 45.028419000000056, "longitude": -74.73569299999993}, "806314134RR0001": {"name": "The Tomlinson Family Foundation", "designationCode": "B", "categoryCode": "03", "address": "5597 POWER ROAD", "city": "OTTAWA", "province": "ON", "country": "CA", "postalCode": "K1G3N4", "twitter": "None", "instagram": "None", "facebook": "None", "youtube": "None", "website": "None", "summary": "None", "logo": "None", "latitude": 45.30219543883068, "longitude": -75.56132323123158}, "806760781RR0001": {"name": "The Toni Kohn-Woodward Foundation", "designationCode": "B", "categoryCode": "03", "address": "200 - 1029 17 AVE SW", "city": "CALGARY", "province": "AB", "country": "CA", "postalCode": "T2T0A9", "twitter": "None", "instagram": "None", "facebook": "None", "youtube": "None", "website": "None", "summary": "None", "logo": "None", "latitude": 51.03780053952925, "longitude": -114.08603302553523}, "830823415RR0001": {"name": "The Tooth Fairy Children's Foundation Ltd.", "designationCode": "C", "categoryCode": "11", "address": "215, 5112 - 47 STREET N.E.", "city": "CALGARY", "province": "AB", "country": "CA", "postalCode": "T3J4K3", "twitter": "None", "instagram": "None", "facebook": "None", "youtube": "None", "website": "None", "summary": "None", "logo": "None", "latitude": 51.098041562285815, "longitude": -113.9659425}, "108114299RR0001": {"name": "The Toronto Dance Foundation", "designationCode": "C", "categoryCode": "59", "address": "80 WINCHESTER STREET", "city": "TORONTO", "province": "ON", "country": "CA", "postalCode": "M4X1B2", "twitter": "None", "instagram": "None", "facebook": "None", "youtube": "None", "website": "None", "summary": "None", "logo": "None", "latitude": 43.66625313962134, "longitude": -79.3668887647873}, "856398557RR0001": {"name": "The Toronto Jewish Theatre", "designationCode": "C", "categoryCode": "22", "address": "107-121 PARKWAY FOREST DRIVE", "city": "TORONTO", "province": "ON", "country": "CA", "postalCode": "M2J5H4", "twitter": "None", "instagram": "None", "facebook": "None", "youtube": "None", "website": "None", "summary": "None", "logo": "None", "latitude": 43.774335369235885, "longitude": -79.34156972889431}, "808284442RR0001": {"name": "The Toronto Local Charity Foundation", "designationCode": "A", "categoryCode": "03", "address": "521-150 SUDBURY STREET", "city": "TORONTO", "province": "ON", "country": "CA", "postalCode": "M6J3S8", "twitter": "None", "instagram": "None", "facebook": "None", "youtube": "None", "website": "None", "summary": "None", "logo": "None", "latitude": 43.64117708523266, "longitude": -79.42364575898758}, "832781504RR0001": {"name": "The Toronto New Vision Church", "designationCode": "C", "categoryCode": "39", "address": "731 BLOOR ST WEST 2ND FLOOR", "city": "TORONTO", "province": "ON", "country": "CA", "postalCode": "M6G1L5", "twitter": "None", "instagram": "None", "facebook": "None", "youtube": "None", "website": "None", "summary": "None", "logo": "None", "latitude": 43.66351756534701, "longitude": -79.41821718525624}, "824216808RR0001": {"name": "The Toronto Sketch Comedy Festival Inc.", "designationCode": "C", "categoryCode": "22", "address": "19 ARGYLE CRES", "city": "PICTON", "province": "ON", "country": "CA", "postalCode": "K0K2T0", "twitter": "None", "instagram": "None", "facebook": "None", "youtube": "None", "website": "None", "summary": "None", "logo": "None", "latitude": 44.00446109351389, "longitude": -77.15645045948979}, "844213660RR0001": {"name": "The Tova and Alex Hartman Family Foundation", "designationCode": "B", "categoryCode": "03", "address": "2A JET COURT", "city": "RICHMOND HILL", "province": "ON", "country": "CA", "postalCode": "L4B2B4", "twitter": "None", "instagram": "None", "facebook": "None", "youtube": "None", "website": "None", "summary": "None", "logo": "None", "latitude": 43.8545819804246, "longitude": -79.40287046084917}, "873860894RR0001": {"name": "The Town of Bassano Library Board", "designationCode": "C", "categoryCode": "50", "address": "BOX 658", "city": "BASSANO", "province": "AB", "country": "CA", "postalCode": "T0J0B0", "twitter": "None", "instagram": "None", "facebook": "None", "youtube": "None", "website": "None", "summary": "None", "logo": "None", "latitude": 50.783420000000035, "longitude": -112.46853999999996}, "130491129RR0001": {"name": "The Town of High River Library", "designationCode": "C", "categoryCode": "50", "address": "909 1 ST SW", "city": "HIGH RIVER", "province": "AB", "country": "CA", "postalCode": "T1V1A5", "twitter": "None", "instagram": "None", "facebook": "None", "youtube": "None", "website": "None", "summary": "None", "logo": "None", "latitude": 50.57426805773555, "longitude": -113.87307132119518}, "107771479RR0001": {"name": "The Town of Newmarket Public Library Board", "designationCode": "C", "categoryCode": "50", "address": "438 PARK AVENUE", "city": "NEWMARKET", "province": "ON", "country": "CA", "postalCode": "L3Y1W1", "twitter": "None", "instagram": "None", "facebook": "None", "youtube": "None", "website": "None", "summary": "None", "logo": "None", "latitude": 44.05356185648353, "longitude": -79.45894596834793}, "808443402RR0001": {"name": "The Town of Rimbey Library Board", "designationCode": "C", "categoryCode": "50", "address": "PO BOX 1130", "city": "RIMBEY", "province": "AB", "country": "CA", "postalCode": "T0C2J0", "twitter": "None", "instagram": "None", "facebook": "None", "youtube": "None", "website": "None", "summary": "None", "logo": "None", "latitude": 52.63970000000006, "longitude": -114.23827999999997}, "862870136RR0001": {"name": "The Township of Cavan Monaghan Public Library Board", "designationCode": "C", "categoryCode": "50", "address": "1 DUFFERIN STREET", "city": "MILLBROOK", "province": "ON", "country": "CA", "postalCode": "L0A1G0", "twitter": "None", "instagram": "None", "facebook": "None", "youtube": "None", "website": "None", "summary": "None", "logo": "None", "latitude": 44.15023890365884, "longitude": -78.44500511474995}, "118799774RR0001": {"name": "The Township of Madawaska Valley Public Library", "designationCode": "C", "categoryCode": "50", "address": "BOX 970                       19474 OPENGO ST", "city": "BARRY'S BAY", "province": "ON", "country": "CA", "postalCode": "K0J1B0", "twitter": "None", "instagram": "None", "facebook": "None", "youtube": "None", "website": "None", "summary": "None", "logo": "None", "latitude": 45.48774445715253, "longitude": -77.67448961212422}, "756126694RR0001": {"name": "The Trauma Practice for Healthy Communities", "designationCode": "C", "categoryCode": "11", "address": "703 - 4789 YONGE ST", "city": "NORTH YORK", "province": "ON", "country": "CA", "postalCode": "M2N0G3", "twitter": "None", "instagram": "None", "facebook": "None", "youtube": "None", "website": "None", "summary": "None", "logo": "None", "latitude": 43.76126703081534, "longitude": -79.41082653990463}, "814255188RR0001": {"name": "The Tremblay/Guimaraes Family Foundation", "designationCode": "B", "categoryCode": "03", "address": "545 SPRINGFIELD ROAD", "city": "OTTAWA", "province": "ON", "country": "CA", "postalCode": "K1M2H1", "twitter": "None", "instagram": "None", "facebook": "None", "youtube": "None", "website": "None", "summary": "None", "logo": "None", "latitude": 45.45280013183106, "longitude": -75.6796251616941}, "823088430RR0001": {"name": "The Trends Cares Foundation", "designationCode": "A", "categoryCode": "03", "address": "3755 LAIRD ROAD               UNIT 3", "city": "MISSISSAUGA", "province": "ON", "country": "CA", "postalCode": "L5L0B3", "twitter": "None", "instagram": "None", "facebook": "None", "youtube": "None", "website": "None", "summary": "None", "logo": "None", "latitude": 43.52315588291278, "longitude": -79.710059627359}, "844264648RR0001": {"name": "The Tribute Foundation", "designationCode": "B", "categoryCode": "03", "address": "201 BRIDGELAND AVENUE,", "city": "TORONTO", "province": "ON", "country": "CA", "postalCode": "M6A1Y7", "twitter": "None", "instagram": "None", "facebook": "None", "youtube": "None", "website": "None", "summary": "None", "logo": "None", "latitude": 43.724679896445465, "longitude": -79.46720435899367}, "845304435RR0001": {"name": "The Trust for The Americas Canada", "designationCode": "C", "categoryCode": "09", "address": "5800 - 40 KING ST W", "city": "TORONTO", "province": "ON", "country": "CA", "postalCode": "M5H3S1", "twitter": "None", "instagram": "None", "facebook": "None", "youtube": "None", "website": "None", "summary": "None", "logo": "None", "latitude": 43.64813467004466, "longitude": -79.38254906728791}, "888667797RR0001": {"name": "The Trust Fund of the Board of Education of the North East School Division No. 200", "designationCode": "B", "categoryCode": "21", "address": "PO BOX 6000", "city": "MELFORT", "province": "SK", "country": "CA", "postalCode": "S0E1A0", "twitter": "None", "instagram": "None", "facebook": "None", "youtube": "None", "website": "None", "summary": "None", "logo": "None", "latitude": 52.85637, "longitude": -104.63436225000001}, "843034869RR0001": {"name": "The Trustees of Grace Presbyterian Church", "designationCode": "C", "categoryCode": "37", "address": "101 COBURG STREET", "city": "SAINT JOHN", "province": "NB", "country": "CA", "postalCode": "E2L3J8", "twitter": "None", "instagram": "None", "facebook": "None", "youtube": "None", "website": "None", "summary": "None", "logo": "None", "latitude": 45.27826564585376, "longitude": -66.0587814311846}, "822321485RR0001": {"name": "The Truth Centre", "designationCode": "C", "categoryCode": "36", "address": "13 BISSELL DR", "city": "BRAMPTON", "province": "ON", "country": "CA", "postalCode": "L7A3K1", "twitter": "None", "instagram": "None", "facebook": "None", "youtube": "None", "website": "None", "summary": "None", "logo": "None", "latitude": 43.72574384373024, "longitude": -79.81734952204411}, "835765199RR0001": {"name": "The Tuey Charitable Foundation", "designationCode": "B", "categoryCode": "03", "address": "901 - 1233 CORDOVA ST W", "city": "VANCOUVER", "province": "BC", "country": "CA", "postalCode": "V6C3R1", "twitter": "None", "instagram": "None", "facebook": "None", "youtube": "None", "website": "None", "summary": "None", "logo": "None", "latitude": 49.28950369167273, "longitude": -123.12270350663644}, "805819513RR0001": {"name": "The Tukia Foundation/La fondation Tukia", "designationCode": "C", "categoryCode": "09", "address": "4 FREDERICK PLACE", "city": "OTTAWA", "province": "ON", "country": "CA", "postalCode": "K1S3G2", "twitter": "None", "instagram": "None", "facebook": "None", "youtube": "None", "website": "None", "summary": "None", "logo": "None", "latitude": 45.39963652510253, "longitude": -75.70075043727279}, "846853919RR0001": {"name": "The Tullo Charitable Foundation", "designationCode": "B", "categoryCode": "05", "address": "22 SHAVER AVE NORTH", "city": "ETOBICOKE", "province": "ON", "country": "CA", "postalCode": "M9B4N4", "twitter": "None", "instagram": "None", "facebook": "None", "youtube": "None", "website": "None", "summary": "None", "logo": "None", "latitude": 43.63991363030185, "longitude": -79.54809490968876}, "888977790RR0001": {"name": "The Tumaini Children's Projects", "designationCode": "C", "categoryCode": "11", "address": "240 BEAUMONT CRES", "city": "KITCHENER", "province": "ON", "country": "CA", "postalCode": "N2A0A8", "twitter": "None", "instagram": "None", "facebook": "None", "youtube": "None", "website": "None", "summary": "None", "logo": "None", "latitude": 43.43896454342439, "longitude": -80.41896330544174}, "856804695RR0001": {"name": "The Twelve Pillars Inc.", "designationCode": "C", "categoryCode": "39", "address": "87 BUNN'S GROVE", "city": "WINNIPEG", "province": "MB", "country": "CA", "postalCode": "R2G3M5", "twitter": "None", "instagram": "None", "facebook": "None", "youtube": "None", "website": "None", "summary": "None", "logo": "None"}, "817783061RR0001": {"name": "The Twenty Theatre Company", "designationCode": "C", "categoryCode": "22", "address": "66 LESMILL ROAD", "city": "TORONTO", "province": "ON", "country": "CA", "postalCode": "M3B2T5", "twitter": "None", "instagram": "None", "facebook": "None", "youtube": "None", "website": "None", "summary": "None", "logo": "None", "latitude": 43.75803082595663, "longitude": -79.3564773381034}, "733477327RR0001": {"name": "The Twinkie Foundation", "designationCode": "C", "categoryCode": "01", "address": "27 PLUMMER COURT", "city": "SAULT STE. MARIE", "province": "ON", "country": "CA", "postalCode": "P6B6E4", "twitter": "None", "instagram": "None", "facebook": "None", "youtube": "None", "website": "None", "summary": "None", "logo": "None", "latitude": 46.532248007790294, "longitude": -84.29930845715252}, "850798448RR0001": {"name": "The TRH Foundation", "designationCode": "B", "categoryCode": "05", "address": "403-1169 WEST CORDOVA STREET", "city": "VANCOUVER", "province": "BC", "country": "CA", "postalCode": "V6C3T1", "twitter": "None", "instagram": "None", "facebook": "None", "youtube": "None", "website": "None", "summary": "None", "logo": "None"}, "813022373RR0001": {"name": "The Uganda Partnership Soicety", "designationCode": "C", "categoryCode": "49", "address": "1043 ST. PATRICK ST", "city": "VICTORIA", "province": "BC", "country": "CA", "postalCode": "V8S4Y2", "twitter": "None", "instagram": "None", "facebook": "None", "youtube": "None", "website": "None", "summary": "None", "logo": "None", "latitude": 48.42099916763806, "longitude": -123.31167257392264}, "868728999RR0001": {"name": "The Ukrainian Catholic Parish of the Holy Cross", "designationCode": "C", "categoryCode": "39", "address": "PO BOX 43", "city": "HAY LAKES", "province": "AB", "country": "CA", "postalCode": "T0B1W0", "twitter": "None", "instagram": "None", "facebook": "None", "youtube": "None", "website": "None", "summary": "None", "logo": "None", "latitude": 53.30343927264969, "longitude": -113.17427122370117}, "108148263RR0145": {"name": "The Ukrainian Greek Orthodox Congregation of All Saints", "designationCode": "C", "categoryCode": "39", "address": "5402-53 STREET", "city": "CAMROSE", "province": "AB", "country": "CA", "postalCode": "T4V1Z7", "twitter": "None", "instagram": "None", "facebook": "None", "youtube": "None", "website": "None", "summary": "None", "logo": "None", "latitude": 53.02902552844941, "longitude": -112.83071720532006}, "825287097RR0001": {"name": "The Ulmer Charitable Foundation", "designationCode": "B", "categoryCode": "03", "address": "1602 - 200 KING ST W", "city": "TORONTO", "province": "ON", "country": "CA", "postalCode": "M5H3T4", "twitter": "None", "instagram": "None", "facebook": "None", "youtube": "None", "website": "None", "summary": "None", "logo": "None", "latitude": 43.64813467004466, "longitude": -79.38254906728791}, "735637126RR0001": {"name": "The Ulnooweg Indigenous Communities Foundation", "designationCode": "A", "categoryCode": "03", "address": "835 WILLOW STREET", "city": "TRURO", "province": "NS", "country": "CA", "postalCode": "B2N6N8", "twitter": "None", "instagram": "None", "facebook": "None", "youtube": "None", "website": "None", "summary": "None", "logo": "None", "latitude": 45.333174341392976, "longitude": -63.29189049731694}, "119260412RR0001": {"name": "The United Church Congregation of the Ardoise Union Church", "designationCode": "C", "categoryCode": "44", "address": "181 LAKEWOOD DRIVE            RR3", "city": "NEWPORT", "province": "NS", "country": "CA", "postalCode": "B0N2A0", "twitter": "None", "instagram": "None", "facebook": "None", "youtube": "None", "website": "None", "summary": "None", "logo": "None", "latitude": 44.99938220566678, "longitude": -64.01362582607221}, "806608212RR0001": {"name": "The United Church Health Services Society", "designationCode": "C", "categoryCode": "11", "address": "P.O BOX.999", "city": "HAZELTON", "province": "BC", "country": "CA", "postalCode": "V0J1Y0", "twitter": "None", "instagram": "None", "facebook": "None", "youtube": "None", "website": "None", "summary": "None", "logo": "None", "latitude": 55.2675692820996, "longitude": -127.62287325854736}, "119147726RR0001": {"name": "The United Churches of Langley", "designationCode": "C", "categoryCode": "44", "address": "21562 OLD YALE RD", "city": "LANGLEY", "province": "BC", "country": "CA", "postalCode": "V3A4M8", "twitter": "None", "instagram": "None", "facebook": "None", "youtube": "None", "website": "None", "summary": "None", "logo": "None", "latitude": 49.08997271241878, "longitude": -122.62596266602195}, "108162025RR0001": {"name": "The University of New Brunswick", "designationCode": "C", "categoryCode": "20", "address": "ROOM 107 8 BAILEY DR", "city": "FREDRICTON", "province": "NB", "country": "CA", "postalCode": "E3B5A3", "twitter": "None", "instagram": "None", "facebook": "None", "youtube": "None", "website": "None", "summary": "None", "logo": "None", "latitude": 45.94786147654226, "longitude": -66.6408916305903}, "108162587RR0001": {"name": "The University of Western Ontario", "designationCode": "C", "categoryCode": "20", "address": "6100-1393 WESTERN RD          SUPPORT SERVICES BUILDING", "city": "LONDON", "province": "ON", "country": "CA", "postalCode": "N6A3K7", "twitter": "None", "instagram": "None", "facebook": "None", "youtube": "None", "website": "None", "summary": "None", "logo": "None", "latitude": 43.00933200000006, "longitude": -81.26167399999993}, "828563890RR0001": {"name": "The Unlocking Potential Society of Calgary and Area", "designationCode": "A", "categoryCode": "03", "address": "707  10TH AVENUE SOUTH WEST   SUITE 250", "city": "CALGARY", "province": "AB", "country": "CA", "postalCode": "T2R0B3", "twitter": "None", "instagram": "None", "facebook": "None", "youtube": "None", "website": "None", "summary": "None", "logo": "None", "latitude": 51.04368149956731, "longitude": -114.0774019730798}, "108102906RR0001": {"name": "The Upper Room Hospitality Ministery Inc.", "designationCode": "C", "categoryCode": "09", "address": "33 BELMONT ST", "city": "CHARLOTTETOWN", "province": "PE", "country": "CA", "postalCode": "C1A5G9", "twitter": "None", "instagram": "None", "facebook": "None", "youtube": "None", "website": "None", "summary": "None", "logo": "None", "latitude": 46.244969308904174, "longitude": -63.12138098265909}, "808510127RR0001": {"name": "The Upper Room Presbyterian Church", "designationCode": "C", "categoryCode": "37", "address": "PO BOX 338 ROCKLAND STATION   MAIN", "city": "ROCKLAND", "province": "ON", "country": "CA", "postalCode": "K4K1K4", "twitter": "None", "instagram": "None", "facebook": "None", "youtube": "None", "website": "None", "summary": "None", "logo": "None", "latitude": 45.54602700000005, "longitude": -75.29304049999993}, "870129350RR0001": {"name": "The Upper Skeena Development Centre Society", "designationCode": "C", "categoryCode": "59", "address": "PO BOX 336", "city": "HAZELTON", "province": "BC", "country": "CA", "postalCode": "V0J1Y0", "twitter": "None", "instagram": "None", "facebook": "None", "youtube": "None", "website": "None", "summary": "None", "logo": "None", "latitude": 55.2675692820996, "longitude": -127.62287325854736}, "119246635RR0090": {"name": "The Upper Trinity South Navy League", "designationCode": "C", "categoryCode": "29", "address": "POST OFFICE BOX 253", "city": "DILDO", "province": "NL", "country": "CA", "postalCode": "A0B1P0", "twitter": "None", "instagram": "None", "facebook": "None", "youtube": "None", "website": "None", "summary": "None", "logo": "None", "latitude": 47.56281000000007, "longitude": -53.54854999999998}, "855630836RR0001": {"name": "The Upper Valley Autism Resource Centre Inc.", "designationCode": "C", "categoryCode": "09", "address": "PO BOX 4159", "city": "PERTH-ANDOVER", "province": "NB", "country": "CA", "postalCode": "E7H1Z1", "twitter": "None", "instagram": "None", "facebook": "None", "youtube": "None", "website": "None", "summary": "None", "logo": "None", "latitude": 46.72904100000005, "longitude": -67.71135499999993}, "821249976RR0001": {"name": "The Upside Down Tree Inc.", "designationCode": "B", "categoryCode": "03", "address": "1 LOMBARD PL, SUITE 2300", "city": "WINNIPEG", "province": "MB", "country": "CA", "postalCode": "R3B0X6", "twitter": "None", "instagram": "None", "facebook": "None", "youtube": "None", "website": "None", "summary": "None", "logo": "None", "latitude": 49.895687601816974, "longitude": -97.13720600433791}, "845283241RR0001": {"name": "The Upside Foundation of Canada", "designationCode": "A", "categoryCode": "03", "address": "200 - 129 SPADINA AVE", "city": "TORONTO", "province": "ON", "country": "CA", "postalCode": "M5V2L3", "twitter": "None", "instagram": "None", "facebook": "None", "youtube": "None", "website": "None", "summary": "None", "logo": "None", "latitude": 43.64744256425642, "longitude": -79.39568697082943}, "818632911RR0001": {"name": "The V Foundation canada/La Fonation V Canada", "designationCode": "B", "categoryCode": "03", "address": "226 MACLAREN ST", "city": "OTTAWA", "province": "ON", "country": "CA", "postalCode": "K2P0L6", "twitter": "None", "instagram": "None", "facebook": "None", "youtube": "None", "website": "None", "summary": "None", "logo": "None", "latitude": 45.416585673033765, "longitude": -75.69119006007281}, "824621841RR0001": {"name": "The V-42 Foundation", "designationCode": "C", "categoryCode": "09", "address": "700-505 CONSUMERS RD", "city": "NORTH YORK", "province": "ON", "country": "CA", "postalCode": "M2J4V8", "twitter": "None", "instagram": "None", "facebook": "None", "youtube": "None", "website": "None", "summary": "None", "logo": "None", "latitude": 43.77121033498767, "longitude": -79.3243361956548}, "848463790RR0001": {"name": "The Valerie, Ruth & Pamela Dudoward Foundation", "designationCode": "C", "categoryCode": "23", "address": "#PH5 - 2505 EAST BROADWAY", "city": "VANCOUVER", "province": "BC", "country": "CA", "postalCode": "V5M1Y4", "twitter": "None", "instagram": "None", "facebook": "None", "youtube": "None", "website": "None", "summary": "None", "logo": "None", "latitude": 49.26203449711447, "longitude": -123.05426319317328}, "853663664RR0001": {"name": "The Valley Refuge Association", "designationCode": "C", "categoryCode": "59", "address": "437 MAIN STREET", "city": "KENTVILLE", "province": "NS", "country": "CA", "postalCode": "B4N1K9", "twitter": "None", "instagram": "None", "facebook": "None", "youtube": "None", "website": "None", "summary": "None", "logo": "None", "latitude": 45.07742003535454, "longitude": -64.49745928987058}, "824563936RR0001": {"name": "The Van Horne Institute Foundation", "designationCode": "C", "categoryCode": "21", "address": "2500 UNIVERSITY DRIVE N.W.", "city": "CALGARY", "province": "AB", "country": "CA", "postalCode": "T2N1N4", "twitter": "None", "instagram": "None", "facebook": "None", "youtube": "None", "website": "None", "summary": "None", "logo": "None", "latitude": 51.074918604189705, "longitude": -114.1284997045416}, "898961180RR0001": {"name": "The Vancouver Book and Magazine Fair", "designationCode": "C", "categoryCode": "22", "address": "901-207 WEST HASTINGS STREET", "city": "VANCOUVER", "province": "BC", "country": "CA", "postalCode": "V6B1H7", "twitter": "None", "instagram": "None", "facebook": "None", "youtube": "None", "website": "None", "summary": "None", "logo": "None", "latitude": 49.282745342777936, "longitude": -123.10981369856898}, "858484199RR0001": {"name": "The Vancouver Classic Guitar Society", "designationCode": "C", "categoryCode": "22", "address": "201 - 8231 GRANVILLE AVE", "city": "RICHMOND", "province": "BC", "country": "CA", "postalCode": "V6Y3A4", "twitter": "None", "instagram": "None", "facebook": "None", "youtube": "None", "website": "None", "summary": "None", "logo": "None", "latitude": 49.16281248268774, "longitude": -123.13310391618097}, "807382221RR0001": {"name": "The Vancouver Education Foundation", "designationCode": "C", "categoryCode": "21", "address": "2665 RENFREW ST", "city": "VANCOUVER", "province": "BC", "country": "CA", "postalCode": "V5M0A7", "twitter": "None", "instagram": "None", "facebook": "None", "youtube": "None", "website": "None", "summary": "None", "logo": "None", "latitude": 49.26020395377281, "longitude": -123.04435344048582}, "844656330RR0001": {"name": "The Vancouver Enchor Choir Society", "designationCode": "C", "categoryCode": "22", "address": "2800 - 666 BURRARD ST", "city": "VANCOUVER", "province": "BC", "country": "CA", "postalCode": "V6C2Z7", "twitter": "None", "instagram": "None", "facebook": "None", "youtube": "None", "website": "None", "summary": "None", "logo": "None", "latitude": 49.28527682817835, "longitude": -123.11971421339973}, "829982529RR0001": {"name": "The Vancouver International Song Institute Society for Innovation in Song Studies", "designationCode": "C", "categoryCode": "22", "address": "PO BOX 71015", "city": "VANCOUVER", "province": "BC", "country": "CA", "postalCode": "V6N4J9", "twitter": "None", "instagram": "None", "facebook": "None", "youtube": "None", "website": "None", "summary": "None", "logo": "None", "latitude": 49.22892600000006, "longitude": -123.18645949999993}, "847678281RR0001": {"name": "The Vancouver Israeli Folk Dance Society", "designationCode": "C", "categoryCode": "22", "address": "2121-11871 HORSESHOE WAY", "city": "RICHMOND", "province": "BC", "country": "CA", "postalCode": "V7A5H5", "twitter": "None", "instagram": "None", "facebook": "None", "youtube": "None", "website": "None", "summary": "None", "logo": "None", "latitude": 49.126254798281394, "longitude": -123.09597821190819}, "809345853RR0001": {"name": "The Vancouver Shepherd's House Society", "designationCode": "C", "categoryCode": "47", "address": "17 - 7374 194A ST", "city": "SURREY", "province": "BC", "country": "CA", "postalCode": "V4N6P8", "twitter": "None", "instagram": "None", "facebook": "None", "youtube": "None", "website": "None", "summary": "None", "logo": "None", "latitude": 49.13621367405697, "longitude": -122.68367600280601}, "807554704RR0001": {"name": "The Vancouver West Pentecostals Church", "designationCode": "C", "categoryCode": "39", "address": "1250 CORDOVA ST W", "city": "VANCOUVER", "province": "BC", "country": "CA", "postalCode": "V6C3R4", "twitter": "None", "instagram": "None", "facebook": "None", "youtube": "None", "website": "None", "summary": "None", "logo": "None", "latitude": 49.28951521177628, "longitude": -123.12304629348141}, "868580499RR0001": {"name": "The Varshney Family Charitable Foundation", "designationCode": "B", "categoryCode": "53", "address": "2050-1055 GEORGIA ST W        PO 11121 ROYAL CENTER", "city": "VANCOUVER", "province": "BC", "country": "CA", "postalCode": "V6E3P3", "twitter": "None", "instagram": "None", "facebook": "None", "youtube": "None", "website": "None", "summary": "None", "logo": "None", "latitude": 49.28667362057004, "longitude": -123.12466569892877}, "119261352RR0001": {"name": "The Velan Foundation / La fondation Velan", "designationCode": "B", "categoryCode": "03", "address": "7007 COTE DE LIESSE", "city": "ST LAURENT", "province": "QC", "country": "CA", "postalCode": "H4T1G2", "twitter": "None", "instagram": "None", "facebook": "None", "youtube": "None", "website": "None", "summary": "None", "logo": "None", "latitude": 45.48123265837589, "longitude": -73.6979679649428}, "824476634RR0001": {"name": "The Venema Foundation", "designationCode": "B", "categoryCode": "03", "address": "26972 28 AVE", "city": "LANGLEY", "province": "BC", "country": "CA", "postalCode": "V4W3A2", "twitter": "None", "instagram": "None", "facebook": "None", "youtube": "None", "website": "None", "summary": "None", "logo": "None", "latitude": 49.05302952452562, "longitude": -122.47718319317329}, "822843629RR0001": {"name": "The Verna J. Kirkness Education Foundation", "designationCode": "C", "categoryCode": "21", "address": "220 - 1500 MARINE DR", "city": "NORTH VANCOUVER", "province": "BC", "country": "CA", "postalCode": "V7P1T7", "twitter": "None", "instagram": "None", "facebook": "None", "youtube": "None", "website": "None", "summary": "None", "logo": "None", "latitude": 49.323955471579254, "longitude": -123.1151397485429}, "135773497RR0001": {"name": "The Victoria Korean Presbyterian Church", "designationCode": "C", "categoryCode": "37", "address": "661 AGNES ST", "city": "VICTORIA", "province": "BC", "country": "CA", "postalCode": "V8Z2E7", "twitter": "None", "instagram": "None", "facebook": "None", "youtube": "None", "website": "None", "summary": "None", "logo": "None", "latitude": 48.47271919661252, "longitude": -123.38604951046248}, "849918685RR0001": {"name": "The Victoria Stroke Recovery Association", "designationCode": "C", "categoryCode": "11", "address": "2964 RICHMOND RD", "city": "VICTORIA", "province": "BC", "country": "CA", "postalCode": "V8R4V1", "twitter": "None", "instagram": "None", "facebook": "None", "youtube": "None", "website": "None", "summary": "None", "logo": "None", "latitude": 48.44362073550118, "longitude": -123.32712028674449}, "802512640RR0001": {"name": "The Victoria Youth Clinic Society", "designationCode": "C", "categoryCode": "11", "address": "301 - 818 DOUGLAS ST", "city": "VICTORIA", "province": "BC", "country": "CA", "postalCode": "V8W2B6", "twitter": "None", "instagram": "None", "facebook": "None", "youtube": "None", "website": "None", "summary": "None", "logo": "None", "latitude": 48.42274358534825, "longitude": -123.36590104097155}, "852623040RR0001": {"name": "The Village", "designationCode": "C", "categoryCode": "39", "address": "22 HARNESS RIDGE DR", "city": "WHITBY", "province": "ON", "country": "CA", "postalCode": "L1R2P4", "twitter": "None", "instagram": "None", "facebook": "None", "youtube": "None", "website": "None", "summary": "None", "logo": "None", "latitude": 43.9068810824054, "longitude": -78.95830022635455}, "888947975RR0001": {"name": "The Village of Carbon Library", "designationCode": "C", "categoryCode": "50", "address": "BOX 70", "city": "CARBON", "province": "AB", "country": "CA", "postalCode": "T0M0L0", "twitter": "None", "instagram": "None", "facebook": "None", "youtube": "None", "website": "None", "summary": "None", "logo": "None", "latitude": 51.485250000000065, "longitude": -113.14202999999998}, "835825399RR0001": {"name": "The Village of Hope", "designationCode": "C", "categoryCode": "09", "address": "3831 VICTORIA AVE", "city": "VINELAND", "province": "ON", "country": "CA", "postalCode": "L0R2C0", "twitter": "None", "instagram": "None", "facebook": "None", "youtube": "None", "website": "None", "summary": "None", "logo": "None", "latitude": 43.14737748182238, "longitude": -79.39254447345517}, "830328308RR0001": {"name": "The Village of McAdam Rockland Cemetery Company Inc.", "designationCode": "C", "categoryCode": "59", "address": "209 SAUNDERS RD", "city": "MCADAM", "province": "NB", "country": "CA", "postalCode": "E6J1M3", "twitter": "None", "instagram": "None", "facebook": "None", "youtube": "None", "website": "None", "summary": "None", "logo": "None", "latitude": 45.59816937719997, "longitude": -67.32633095674849}}