{"119256907RR0001": {"name": "THE SPIRITUAL ASSEMBLY OF THE BAHA'IS OF SIDNEY", "designationCode": "B", "categoryCode": "33", "address": "P.O. BOX 2652 STN. MAIN", "city": "SIDNEY", "province": "BC", "country": "CA", "postalCode": "V8L4C1", "twitter": "None", "instagram": "None", "facebook": "None", "youtube": "None", "website": "None", "summary": "None", "logo": "None", "latitude": 48.65020800000005, "longitude": -123.39842299999994}, "891431017RR0001": {"name": "THE SPIRITUAL ASSEMBLY OF THE BAHA'IS OF SOOKE", "designationCode": "B", "categoryCode": "33", "address": "6846 ROSE LEE PL", "city": "SOOKE", "province": "BC", "country": "CA", "postalCode": "V9Z0N9", "twitter": "None", "instagram": "None", "facebook": "None", "youtube": "None", "website": "None", "summary": "None", "logo": "None", "latitude": 48.37118291717302, "longitude": -123.73052798315939}, "890612195RR0001": {"name": "THE SPIRITUAL ASSEMBLY OF THE BAHA'IS OF SPRUCE GROVE", "designationCode": "B", "categoryCode": "33", "address": "16 HALE PLACE", "city": "SPRUCE GROVE", "province": "AB", "country": "CA", "postalCode": "T7X2V8", "twitter": "None", "instagram": "None", "facebook": "None", "youtube": "None", "website": "None", "summary": "None", "logo": "None", "latitude": 53.55873293311787, "longitude": -113.89350396999272}, "858604648RR0001": {"name": "THE SPIRITUAL ASSEMBLY OF THE BAHA'IS OF SQUAMISH", "designationCode": "B", "categoryCode": "33", "address": "PO BOX 2426", "city": "SQUAMISH", "province": "BC", "country": "CA", "postalCode": "V8B0B6", "twitter": "None", "instagram": "None", "facebook": "None", "youtube": "None", "website": "None", "summary": "None", "logo": "None"}, "119256436RR0001": {"name": "THE SPIRITUAL ASSEMBLY OF THE BAHA'IS OF ST ALBERT", "designationCode": "C", "categoryCode": "33", "address": "PO BOX 87", "city": "ST ALBERT", "province": "AB", "country": "CA", "postalCode": "T8N1N2", "twitter": "None", "instagram": "None", "facebook": "None", "youtube": "None", "website": "None", "summary": "None", "logo": "None"}, "869012898RR0001": {"name": "THE SPIRITUAL ASSEMBLY OF THE BAHA'IS OF ST ANDREWS", "designationCode": "B", "categoryCode": "33", "address": "P.O. BOX 400", "city": "PETERSFIELD", "province": "MB", "country": "CA", "postalCode": "R0C2L0", "twitter": "None", "instagram": "None", "facebook": "None", "youtube": "None", "website": "None", "summary": "None", "logo": "None", "latitude": 50.305500000000016, "longitude": -96.96204}, "119255214RR0001": {"name": "THE SPIRITUAL ASSEMBLY OF THE BAHA'IS OF ST JOHN'S", "designationCode": "B", "categoryCode": "33", "address": "P.O. BOX 91", "city": "ST. JOHN'S", "province": "NL", "country": "CA", "postalCode": "A1C5H5", "twitter": "None", "instagram": "None", "facebook": "None", "youtube": "None", "website": "None", "summary": "None", "logo": "None", "latitude": 47.56082100000006, "longitude": -52.71219349999993}, "139419618RR0001": {"name": "THE SPIRITUAL ASSEMBLY OF THE BAHA'IS OF ST MARYS", "designationCode": "C", "categoryCode": "33", "address": "PO.BOX 5", "city": "ST.MARYS", "province": "ON", "country": "CA", "postalCode": "N4X1A9", "twitter": "None", "instagram": "None", "facebook": "None", "youtube": "None", "website": "None", "summary": "None", "logo": "None", "latitude": 43.25948700000005, "longitude": -81.14143399999993}, "891619538RR0001": {"name": "THE SPIRITUAL ASSEMBLY OF THE BAHA'IS OF ST. THOMAS", "designationCode": "B", "categoryCode": "33", "address": "27 VANIER PL", "city": "ST THOMAS", "province": "ON", "country": "CA", "postalCode": "N5R5L2", "twitter": "None", "instagram": "None", "facebook": "None", "youtube": "None", "website": "None", "summary": "None", "logo": "None", "latitude": 42.758141827847176, "longitude": -81.17131629804703}, "119255701RR0001": {"name": "THE SPIRITUAL ASSEMBLY OF THE BAHA'IS OF ST.CATHARINES", "designationCode": "C", "categoryCode": "33", "address": "61 ROYAL HENLEY BLVD.", "city": "ST. CATHARINES", "province": "ON", "country": "CA", "postalCode": "L2N6L6", "twitter": "None", "instagram": "None", "facebook": "None", "youtube": "None", "website": "None", "summary": "None", "logo": "None", "latitude": 43.192017680824044, "longitude": -79.26825509723615}, "868407347RR0001": {"name": "THE SPIRITUAL ASSEMBLY OF THE BAHA'IS OF STIRLING-RAWDON", "designationCode": "C", "categoryCode": "33", "address": "231 FRANKFORD ROAD", "city": "STIRLING", "province": "ON", "country": "CA", "postalCode": "K0K3E0", "twitter": "None", "instagram": "None", "facebook": "None", "youtube": "None", "website": "None", "summary": "None", "logo": "None", "latitude": 44.28774172773956, "longitude": -77.55403197039675}, "119256055RR0001": {"name": "THE SPIRITUAL ASSEMBLY OF THE BAHA'IS OF STRATFORD", "designationCode": "C", "categoryCode": "33", "address": "PO BOX 21082", "city": "STRATFORD", "province": "ON", "country": "CA", "postalCode": "N5A7V4", "twitter": "None", "instagram": "None", "facebook": "None", "youtube": "None", "website": "None", "summary": "None", "logo": "None", "latitude": 43.37013300000005, "longitude": -80.98191349999993}, "119256501RR0001": {"name": "THE SPIRITUAL ASSEMBLY OF THE BAHA'IS OF SUMMERLAND", "designationCode": "B", "categoryCode": "33", "address": "2320 JOHNSON ST.", "city": "SUMMERLAND", "province": "BC", "country": "CA", "postalCode": "V0H1Z4", "twitter": "None", "instagram": "None", "facebook": "None", "youtube": "None", "website": "None", "summary": "None", "logo": "None", "latitude": 49.57174554661263, "longitude": -119.63341235212084}, "119256816RR0001": {"name": "THE SPIRITUAL ASSEMBLY OF THE BAHA'IS OF SURREY", "designationCode": "C", "categoryCode": "33", "address": "PO BOX 526", "city": "SURREY", "province": "BC", "country": "CA", "postalCode": "V3T2B7", "twitter": "None", "instagram": "None", "facebook": "None", "youtube": "None", "website": "None", "summary": "None", "logo": "None", "latitude": 49.19529300000005, "longitude": -122.86756699999994}, "119255347RR0001": {"name": "THE SPIRITUAL ASSEMBLY OF THE BAHA'IS OF SUSSEX", "designationCode": "C", "categoryCode": "33", "address": "31 NELSON ST", "city": "SUSSEX", "province": "NB", "country": "CA", "postalCode": "E4E1V4", "twitter": "None", "instagram": "None", "facebook": "None", "youtube": "None", "website": "None", "summary": "None", "logo": "None", "latitude": 45.72080956789177, "longitude": -65.51335351889878}, "889012399RR0001": {"name": "THE SPIRITUAL ASSEMBLY OF THE BAHA'IS OF SWIFT CURRENT", "designationCode": "C", "categoryCode": "33", "address": "BOX 1613", "city": "SWIFT CURRENT", "province": "SK", "country": "CA", "postalCode": "S9H4G5", "twitter": "None", "instagram": "None", "facebook": "None", "youtube": "None", "website": "None", "summary": "None", "logo": "None", "latitude": 50.292744000000056, "longitude": -107.80056349999994}, "891846644RR0001": {"name": "THE SPIRITUAL ASSEMBLY OF THE BAHA'IS OF TERRACE", "designationCode": "C", "categoryCode": "33", "address": "5043 AGAR AVE", "city": "TERRACE", "province": "BC", "country": "CA", "postalCode": "V8G1H9", "twitter": "None", "instagram": "None", "facebook": "None", "youtube": "None", "website": "None", "summary": "None", "logo": "None", "latitude": 54.51107450894504, "longitude": -128.6170039118818}, "119255628RR0001": {"name": "THE SPIRITUAL ASSEMBLY OF THE BAHA'IS OF THE TOWN OF LINCOLN", "designationCode": "C", "categoryCode": "33", "address": "4386 ADRIANA AVE", "city": "BEAMSVILLE", "province": "ON", "country": "CA", "postalCode": "L0R1B6", "twitter": "None", "instagram": "None", "facebook": "None", "youtube": "None", "website": "None", "summary": "None", "logo": "None", "latitude": 43.16995155785112, "longitude": -79.46674188481735}, "119159572RR0001": {"name": "THE SPIRITUAL ASSEMBLY OF THE BAHA'IS OF THUNDER BAY", "designationCode": "C", "categoryCode": "33", "address": "387 NORTH CUMBERLAND STREET", "city": "THUNDER BAY", "province": "ON", "country": "CA", "postalCode": "P7A4P6", "twitter": "None", "instagram": "None", "facebook": "None", "youtube": "None", "website": "None", "summary": "None", "logo": "None", "latitude": 48.446211008309874, "longitude": -89.20284006284278}, "119255602RR0001": {"name": "THE SPIRITUAL ASSEMBLY OF THE BAHA'IS OF TINY TOWNSHIP", "designationCode": "B", "categoryCode": "33", "address": "P.O. BOX 1212", "city": "TINY", "province": "ON", "country": "CA", "postalCode": "L0L2J0", "twitter": "None", "instagram": "None", "facebook": "None", "youtube": "None", "website": "None", "summary": "None", "logo": "None", "latitude": 44.740230000000054, "longitude": -79.95576499999993}, "119255909RR0001": {"name": "THE SPIRITUAL ASSEMBLY OF THE BAHA'IS OF TORONTO", "designationCode": "C", "categoryCode": "33", "address": "288 BLOOR STREET WEST", "city": "TORONTO", "province": "ON", "country": "CA", "postalCode": "M5S1V8", "twitter": "None", "instagram": "None", "facebook": "None", "youtube": "None", "website": "None", "summary": "None", "logo": "None", "latitude": 43.6672411906918, "longitude": -79.40119978740832}, "119159648RR0001": {"name": "THE SPIRITUAL ASSEMBLY OF THE BAHA'IS OF TOWN OF MOUNT ROYAL", "designationCode": "A", "categoryCode": "33", "address": "627 MITCHELL AVENUE", "city": "TOWN OF MOUNT ROYAL", "province": "QC", "country": "CA", "postalCode": "H3R1L5", "twitter": "None", "instagram": "None", "facebook": "None", "youtube": "None", "website": "None", "summary": "None", "logo": "None", "latitude": 45.506519580356596, "longitude": -73.65635118653685}, "893381962RR0001": {"name": "THE SPIRITUAL ASSEMBLY OF THE BAHA'IS OF TRAIL", "designationCode": "B", "categoryCode": "33", "address": "317 SYLVIA CRES", "city": "TRAIL", "province": "BC", "country": "CA", "postalCode": "V1R1A4", "twitter": "None", "instagram": "None", "facebook": "None", "youtube": "None", "website": "None", "summary": "None", "logo": "None", "latitude": 49.11507642986016, "longitude": -117.71681537166823}, "119159788RR0001": {"name": "THE SPIRITUAL ASSEMBLY OF THE BAHA'IS OF UXBRIDGE", "designationCode": "C", "categoryCode": "33", "address": "15 THIRD AVE. S", "city": "UXBRIDGE", "province": "ON", "country": "CA", "postalCode": "L9P1K5", "twitter": "None", "instagram": "None", "facebook": "None", "youtube": "None", "website": "None", "summary": "None", "logo": "None", "latitude": 44.11009358840668, "longitude": -79.11541955366752}, "123529810RR0001": {"name": "THE SPIRITUAL ASSEMBLY OF THE BAHA'IS OF VANCOUVER", "designationCode": "C", "categoryCode": "33", "address": "5880 MAIN ST", "city": "VANCOUVER", "province": "BC", "country": "CA", "postalCode": "V5W2S8", "twitter": "None", "instagram": "None", "facebook": "None", "youtube": "None", "website": "None", "summary": "None", "logo": "None", "latitude": 49.23145697307981, "longitude": -123.10141044001409}, "119255842RR0001": {"name": "THE SPIRITUAL ASSEMBLY OF THE BAHA'IS OF VAUGHAN", "designationCode": "C", "categoryCode": "33", "address": "P.O. BOX 927                  STATION PROMENADE", "city": "THORNHILL", "province": "ON", "country": "CA", "postalCode": "L4J8G7", "twitter": "None", "instagram": "None", "facebook": "None", "youtube": "None", "website": "None", "summary": "None", "logo": "None", "latitude": 43.80693000000008, "longitude": -79.45160999999996}, "132329475RR0001": {"name": "THE SPIRITUAL ASSEMBLY OF THE BAHA'IS OF VERNON", "designationCode": "C", "categoryCode": "33", "address": "PO BOX 44", "city": "VERNON", "province": "BC", "country": "CA", "postalCode": "V1T6M1", "twitter": "None", "instagram": "None", "facebook": "None", "youtube": "None", "website": "None", "summary": "None", "logo": "None", "latitude": 50.26567200000005, "longitude": -119.27378149999993}, "133276600RR0001": {"name": "THE SPIRITUAL ASSEMBLY OF THE BAHA'IS OF VIEW ROYAL E", "designationCode": "C", "categoryCode": "33", "address": "#6 ADKIN PL", "city": "VICTORIA", "province": "BC", "country": "CA", "postalCode": "V9B6A5", "twitter": "None", "instagram": "None", "facebook": "None", "youtube": "None", "website": "None", "summary": "None", "logo": "None", "latitude": 48.458898554273105, "longitude": -123.45643687220831}, "119159945RR0001": {"name": "THE SPIRITUAL ASSEMBLY OF THE BAHA'IS OF WATERLOO", "designationCode": "C", "categoryCode": "33", "address": "256 KING STREET NORTH         P.O. BOX 38032", "city": "WATERLOO", "province": "ON", "country": "CA", "postalCode": "N2J2Y9", "twitter": "None", "instagram": "None", "facebook": "None", "youtube": "None", "website": "None", "summary": "None", "logo": "None", "latitude": 43.47661886594724, "longitude": -80.5250263011139}, "890929573RR0001": {"name": "THE SPIRITUAL ASSEMBLY OF THE BAHA'IS OF WELLAND", "designationCode": "B", "categoryCode": "33", "address": "7 ROSEMOUNT CIRCLE", "city": "WELLAND", "province": "ON", "country": "CA", "postalCode": "L3C4L5", "twitter": "None", "instagram": "None", "facebook": "None", "youtube": "None", "website": "None", "summary": "None", "logo": "None", "latitude": 42.99781249624909, "longitude": -79.2651128652834}, "132288564RR0001": {"name": "THE SPIRITUAL ASSEMBLY OF THE BAHA'IS OF WEST HANTS", "designationCode": "C", "categoryCode": "33", "address": "80 MASTERS RD.", "city": "SUMMERVILLE", "province": "NS", "country": "CA", "postalCode": "B0N2K0", "twitter": "None", "instagram": "None", "facebook": "None", "youtube": "None", "website": "None", "summary": "None", "logo": "None", "latitude": 45.09644479819971, "longitude": -64.16681846404877}, "119256683RR0001": {"name": "THE SPIRITUAL ASSEMBLY OF THE BAHA'IS OF WEST KELOWNA", "designationCode": "C", "categoryCode": "33", "address": "103 - 2417 MAIN STREET", "city": "WEST KELOWNA", "province": "BC", "country": "CA", "postalCode": "V4T2H8", "twitter": "None", "instagram": "None", "facebook": "None", "youtube": "None", "website": "None", "summary": "None", "logo": "None", "latitude": 49.8295013553538, "longitude": -119.62635929300284}, "119255677RR0001": {"name": "THE SPIRITUAL ASSEMBLY OF THE BAHA'IS OF WHITBY", "designationCode": "C", "categoryCode": "33", "address": "P.O. BOX 40023                BROCK & TAUNTON RPO", "city": "WHITBY", "province": "ON", "country": "CA", "postalCode": "L1R0G2", "twitter": "None", "instagram": "None", "facebook": "None", "youtube": "None", "website": "None", "summary": "None", "logo": "None", "latitude": 43.915329, "longitude": -78.95754899999999}, "119256824RR0001": {"name": "THE SPIRITUAL ASSEMBLY OF THE BAHA'IS OF WHITE ROCK", "designationCode": "C", "categoryCode": "33", "address": "P.O.BOX 71593                 HILLCREST RPO", "city": "WHITE ROCK", "province": "BC", "country": "CA", "postalCode": "V4B5J5", "twitter": "None", "instagram": "None", "facebook": "None", "youtube": "None", "website": "None", "summary": "None", "logo": "None", "latitude": 49.02391500000006, "longitude": -122.79679099999993}, "119256105RR0001": {"name": "THE SPIRITUAL ASSEMBLY OF THE BAHA'IS OF WINDSOR, ONTARIO", "designationCode": "C", "categoryCode": "33", "address": "1771 SOUTHDALE DR.", "city": "WINDSOR", "province": "ON", "country": "CA", "postalCode": "N8W4X7", "twitter": "None", "instagram": "None", "facebook": "None", "youtube": "None", "website": "None", "summary": "None", "logo": "None", "latitude": 42.287778953921205, "longitude": -82.99172216821498}, "119256469RR0001": {"name": "THE SPIRITUAL ASSEMBLY OF THE BAHA'IS OF WOOD BUFFALO", "designationCode": "C", "categoryCode": "33", "address": "P.O. BOX 23046", "city": "FORT MCMURRAY", "province": "AB", "country": "CA", "postalCode": "T9H5B7", "twitter": "None", "instagram": "None", "facebook": "None", "youtube": "None", "website": "None", "summary": "None", "logo": "None", "latitude": 56.72719500000005, "longitude": -111.38028199999994}, "119257129RR0001": {"name": "THE SPIRITUAL ASSEMBLY OF THE BAHA'IS OF WOODSTOCK", "designationCode": "C", "categoryCode": "33", "address": "P.O. BOX 20165", "city": "WOODSTOCK", "province": "ON", "country": "CA", "postalCode": "N4S8X8", "twitter": "None", "instagram": "None", "facebook": "None", "youtube": "None", "website": "None", "summary": "None", "logo": "None", "latitude": 43.13010300000006, "longitude": -80.75657149999994}, "889140448RR0001": {"name": "THE SPIRITUAL ASSEMBLY OF THE BAHA'S OF NELSON", "designationCode": "C", "categoryCode": "33", "address": "510-622 FRONT ST", "city": "NELSON", "province": "BC", "country": "CA", "postalCode": "V1L4B7", "twitter": "None", "instagram": "None", "facebook": "None", "youtube": "None", "website": "None", "summary": "None", "logo": "None", "latitude": 49.49469012533041, "longitude": -117.29411154471408}, "890518392RR0001": {"name": "THE SPIRITUAL ASSEMBLY OF THE BAHAI'S OF QUISPAMSIS", "designationCode": "C", "categoryCode": "33", "address": "2 RUTH AVENUE", "city": "QUISPAMSIS", "province": "NB", "country": "CA", "postalCode": "E2E4N7", "twitter": "None", "instagram": "None", "facebook": "None", "youtube": "None", "website": "None", "summary": "None", "logo": "None", "latitude": 45.412367824052055, "longitude": -65.9637885556294}, "119256071RR0001": {"name": "THE SPIRITUAL ASSEMBLY OF THE BAHAIS OF LONDON", "designationCode": "C", "categoryCode": "33", "address": "PO BOX 471, STN B", "city": "LONDON", "province": "ON", "country": "CA", "postalCode": "N6A4W8", "twitter": "None", "instagram": "None", "facebook": "None", "youtube": "None", "website": "None", "summary": "None", "logo": "None", "latitude": 42.98689500000006, "longitude": -81.24624349999993}, "119256592RR0001": {"name": "THE SPIRITUAL ASSEMBLYOF THE BAHA'IS OF COWICHAN VALLEY B", "designationCode": "C", "categoryCode": "33", "address": "PO BOX 68", "city": "SHAWINIGAN LAKE", "province": "BC", "country": "CA", "postalCode": "V0R2W0", "twitter": "None", "instagram": "None", "facebook": "None", "youtube": "None", "website": "None", "summary": "None", "logo": "None", "latitude": 48.614505759762736, "longitude": -123.62673621698342}, "888992443RR0001": {"name": "THE SPIRITUAL ASSEMBLYOF THE BAHA'IS OF LANGFORD B", "designationCode": "C", "categoryCode": "33", "address": "2122 NICKLAUS DR", "city": "VICTORIA", "province": "BC", "country": "CA", "postalCode": "V9B6T3", "twitter": "None", "instagram": "None", "facebook": "None", "youtube": "None", "website": "None", "summary": "None", "logo": "None", "latitude": 48.473103907582626, "longitude": -123.52641045755655}, "124781238RR0001": {"name": "THE SPIRITUALIST YOGA FELLOWSHIP / L'ASSOCIATION DU YOGA SPIRITUALISTE", "designationCode": "C", "categoryCode": "19", "address": "1974 DE MAISONNEUVE BLVD WEST", "city": "MONTREAL", "province": "QC", "country": "CA", "postalCode": "H3H1K5", "twitter": "None", "instagram": "None", "facebook": "None", "youtube": "None", "website": "None", "summary": "None", "logo": "None", "latitude": 45.49278445017031, "longitude": -73.58258979903643}, "119257178RR0001": {"name": "THE SPORT FOR EVERY CHILD CLUB", "designationCode": "C", "categoryCode": "56", "address": "7 RIVER HEIGHTS DRIVE N.W.", "city": "EDMONTON", "province": "AB", "country": "CA", "postalCode": "T6M2R1", "twitter": "None", "instagram": "None", "facebook": "None", "youtube": "None", "website": "None", "summary": "None", "logo": "None", "latitude": 53.457651527843844, "longitude": -113.6384505}, "125753327RR0001": {"name": "THE SPORTS RECREATION ASSOCIATION OF TIGNISH", "designationCode": "C", "categoryCode": "56", "address": "207 PHILLIP ST", "city": "TIGNISH", "province": "PE", "country": "CA", "postalCode": "C0B2B0", "twitter": "None", "instagram": "None", "facebook": "None", "youtube": "None", "website": "None", "summary": "None", "logo": "None", "latitude": 46.94971171106246, "longitude": -64.03425556189048}, "863586640RR0001": {"name": "THE SPO7EZ CULTURAL CENTRE AND COMMUNITY SOCIETY", "designationCode": "C", "categoryCode": "50", "address": "4584 BLACKCOMB WAY", "city": "WHISTLER", "province": "BC", "country": "CA", "postalCode": "V0N1B4", "twitter": "None", "instagram": "None", "facebook": "None", "youtube": "None", "website": "None", "summary": "None", "logo": "None", "latitude": 50.11865210271656, "longitude": -122.94617535484117}, "119257202RR0001": {"name": "THE SPRINGRIDGE EARLY CHILDHOOD CENTRE SOCIETY", "designationCode": "C", "categoryCode": "01", "address": "1222 GLADSTONE AVE", "city": "VICTORIA", "province": "BC", "country": "CA", "postalCode": "V8T1G6", "twitter": "None", "instagram": "None", "facebook": "None", "youtube": "None", "website": "None", "summary": "None", "logo": "None", "latitude": 48.430666486005975, "longitude": -123.34882224992788}, "122988504RR0001": {"name": "THE SPROTT FOUNDATION", "designationCode": "B", "categoryCode": "23", "address": "109 THOMAS ST.                P.O. BOX 69540", "city": "OAKVILLE", "province": "ON", "country": "CA", "postalCode": "L6J7R4", "twitter": "None", "instagram": "None", "facebook": "None", "youtube": "None", "website": "None", "summary": "None", "logo": "None", "latitude": 43.44513056869984, "longitude": -79.66950799832655}, "865154991RR0001": {"name": "THE SPRUCE COULEE CEMETERY COMPANY", "designationCode": "C", "categoryCode": "59", "address": "RR #1", "city": "DONALDA", "province": "AB", "country": "CA", "postalCode": "T0B1H0", "twitter": "None", "instagram": "None", "facebook": "None", "youtube": "None", "website": "None", "summary": "None", "logo": "None", "latitude": 52.58341500000006, "longitude": -112.57523449999994}, "871349239RR0001": {"name": "THE SPRUCE GROVE AND DISTRICT AGRICULTURAL SOCIETY", "designationCode": "C", "categoryCode": "59", "address": "PO BOX 3012", "city": "SPRUCE GROVE", "province": "AB", "country": "CA", "postalCode": "T7X3A4", "twitter": "None", "instagram": "None", "facebook": "None", "youtube": "None", "website": "None", "summary": "None", "logo": "None", "latitude": 53.544624000000056, "longitude": -113.90185249999993}, "889484978RR0001": {"name": "THE SPRUCE LODGE FOUNDATION", "designationCode": "A", "categoryCode": "13", "address": "643 WEST GORE STREET", "city": "STRATFORD", "province": "ON", "country": "CA", "postalCode": "N5A1L4", "twitter": "None", "instagram": "None", "facebook": "None", "youtube": "None", "website": "None", "summary": "None", "logo": "None", "latitude": 43.368050472857504, "longitude": -80.99903109589285}, "108001074RR0001": {"name": "THE SPRUCE VIEW & DISTRICT AGRICULTURAL SOCIETY", "designationCode": "C", "categoryCode": "56", "address": "BOX 62", "city": "SPRUCEVIEW", "province": "AB", "country": "CA", "postalCode": "T0M1V0", "twitter": "None", "instagram": "None", "facebook": "None", "youtube": "None", "website": "None", "summary": "None", "logo": "None", "latitude": 52.08588000000003, "longitude": -114.3085600116854}, "135226900RR0001": {"name": "THE SPRUCE VIEW COMMUNITY ASSOCIATION", "designationCode": "C", "categoryCode": "56", "address": "PO BOX 117", "city": "SPRUCE VIEW", "province": "AB", "country": "CA", "postalCode": "T0M1V0", "twitter": "None", "instagram": "None", "facebook": "None", "youtube": "None", "website": "None", "summary": "None", "logo": "None", "latitude": 51.98923333840575, "longitude": -114.89338336150753}, "899689012RR0001": {"name": "THE SQUAMISH TRAILS SOCIETY", "designationCode": "C", "categoryCode": "59", "address": "PO BOX 1990,                  GARIBOLDI HIGHLANDS", "city": "SQUAMISH", "province": "BC", "country": "CA", "postalCode": "V0N1T0", "twitter": "None", "instagram": "None", "facebook": "None", "youtube": "None", "website": "None", "summary": "None", "logo": "None", "latitude": 49.742860000000064, "longitude": -123.11049999999994}, "897175469RR0001": {"name": "THE SQUIRRELS' NEST CHILD CARE CENTRE", "designationCode": "C", "categoryCode": "01", "address": "1305 ELLESMERE RD", "city": "SCARBOROUGH", "province": "ON", "country": "CA", "postalCode": "M1P2Y2", "twitter": "None", "instagram": "None", "facebook": "None", "youtube": "None", "website": "None", "summary": "None", "logo": "None", "latitude": 43.76937483037139, "longitude": -79.26441638063376}, "119257319RR0001": {"name": "THE ST ALBERT LIBRARY BOARD", "designationCode": "C", "categoryCode": "50", "address": "5 ST ANNE STREET", "city": "ST ALBERT", "province": "AB", "country": "CA", "postalCode": "T8N3Z9", "twitter": "None", "instagram": "None", "facebook": "None", "youtube": "None", "website": "None", "summary": "None", "logo": "None", "latitude": 53.633477871487166, "longitude": -113.62738026983627}, "889036836RR0001": {"name": "THE ST ANDREW'S CHARITABLE FOUNDATION", "designationCode": "A", "categoryCode": "65", "address": "3 BAYVIEW WOOD", "city": "TORONTO", "province": "ON", "country": "CA", "postalCode": "M4N1R8", "twitter": "None", "instagram": "None", "facebook": "None", "youtube": "None", "website": "None", "summary": "None", "logo": "None", "latitude": 43.72747887480539, "longitude": -79.38585379349651}, "119257384RR0001": {"name": "THE ST ANDREW'S RIVER HEIGHTS UNITED CHURCH FOUNDATION", "designationCode": "A", "categoryCode": "43", "address": "255 OAK STREET", "city": "WINNIPEG", "province": "MB", "country": "CA", "postalCode": "R3M3P7", "twitter": "None", "instagram": "None", "facebook": "None", "youtube": "None", "website": "None", "summary": "None", "logo": "None", "latitude": 49.87072057146977, "longitude": -97.18124279701628}, "123612921RR0001": {"name": "THE ST ANDREW'S SOCIETY OF WINNIPEG TRUST FUND", "designationCode": "C", "categoryCode": "22", "address": "PO BOX 596 STN MAIN", "city": "WINNIPEG", "province": "MB", "country": "CA", "postalCode": "R3C2J3", "twitter": "None", "instagram": "None", "facebook": "None", "youtube": "None", "website": "None", "summary": "None", "logo": "None", "latitude": 49.886161958421624, "longitude": -97.13345310241456}, "119257368RR0001": {"name": "THE ST ANDREWS CEMETARY BEAUTIFICATION COMMITTEE", "designationCode": "C", "categoryCode": "59", "address": "R.R. #1", "city": "BADDECK", "province": "NS", "country": "CA", "postalCode": "B0E1B0", "twitter": "None", "instagram": "None", "facebook": "None", "youtube": "None", "website": "None", "summary": "None", "logo": "None", "latitude": 46.10506971211886, "longitude": -60.7643291591795}, "891061749RR0001": {"name": "THE ST ANDREWS HISTORICAL SOCIETY 1936", "designationCode": "C", "categoryCode": "52", "address": "5609 52 AVE", "city": "VERMILION", "province": "AB", "country": "CA", "postalCode": "T9X1V6", "twitter": "None", "instagram": "None", "facebook": "None", "youtube": "None", "website": "None", "summary": "None", "logo": "None", "latitude": 53.35609755785113, "longitude": -110.8696366408621}, "129864674RR0001": {"name": "THE ST BARNABAS DAY CARE SOCIETY", "designationCode": "C", "categoryCode": "01", "address": "1005 NAPANEE STREET", "city": "NEW WESTMINSTER", "province": "BC", "country": "CA", "postalCode": "V3M5Y2", "twitter": "None", "instagram": "None", "facebook": "None", "youtube": "None", "website": "None", "summary": "None", "logo": "None", "latitude": 49.20784001131262, "longitude": -122.9247471871995}, "868620832RR0001": {"name": "THE ST CATHARINES GENERAL HOSPITAL AUXILIARY", "designationCode": "C", "categoryCode": "19", "address": "1200 FOURTH AVE", "city": "ST.CATHARINES", "province": "ON", "country": "CA", "postalCode": "L2S0A9", "twitter": "None", "instagram": "None", "facebook": "None", "youtube": "None", "website": "None", "summary": "None", "logo": "None", "latitude": 43.15496838780776, "longitude": -79.27985352023887}, "130485907RR0001": {"name": "THE ST CATHARINES, THOROLD AND DISTRICT BIG BROTHERS, BIG SISTERS ASSOCIATION INCORPORATED", "designationCode": "C", "categoryCode": "09", "address": "428 NIAGARA ST", "city": "ST CATHARINES", "province": "ON", "country": "CA", "postalCode": "L2M4W3", "twitter": "None", "instagram": "None", "facebook": "None", "youtube": "None", "website": "None", "summary": "None", "logo": "None", "latitude": 43.189128314184295, "longitude": -79.2258144551333}, "867566796RR0001": {"name": "THE ST CATHERINE'S PIONEER CEMETERY INC", "designationCode": "C", "categoryCode": "59", "address": "51 CLYDE RIVER RD             ROUTE 247", "city": "CLYDE RIVER", "province": "PE", "country": "CA", "postalCode": "C0A1H1", "twitter": "None", "instagram": "None", "facebook": "None", "youtube": "None", "website": "None", "summary": "None", "logo": "None", "latitude": 46.203034986409996, "longitude": -63.28439074799465}, "119257525RR0001": {"name": "THE ST CHRISTOPHER HOUSE", "designationCode": "C", "categoryCode": "01", "address": "588 QUEEN ST. W               2ND FLOOR", "city": "TORONTO", "province": "ON", "country": "CA", "postalCode": "M6J1E3", "twitter": "None", "instagram": "None", "facebook": "None", "youtube": "None", "website": "None", "summary": "None", "logo": "None", "latitude": 43.64719420901364, "longitude": -79.40413697766742}, "119257541RR0001": {"name": "THE ST CYPRIAN THEOLOGICAL EDUCATIONAL TRUST", "designationCode": "C", "categoryCode": "21", "address": "2828 19 ST NW", "city": "CALGARY", "province": "AB", "country": "CA", "postalCode": "T2M3V8", "twitter": "None", "instagram": "None", "facebook": "None", "youtube": "None", "website": "None", "summary": "None", "logo": "None", "latitude": 51.077491575076465, "longitude": -114.10625837356463}, "119257558RR0001": {"name": "THE ST DAVID'S AUXILIARY OF THE ATLANTIC MISSION SOCIETY, THE PRESBYTERIAN CHURCH IN CANADA", "designationCode": "C", "categoryCode": "47", "address": "98 ELIZABETH AVE", "city": "ST.JOHN'S", "province": "NL", "country": "CA", "postalCode": "A1B1R8", "twitter": "None", "instagram": "None", "facebook": "None", "youtube": "None", "website": "None", "summary": "None", "logo": "None", "latitude": 47.58119199226703, "longitude": -52.714563359974626}, "887367993RR0001": {"name": "THE ST GEORGE LADIES AUXILIARY", "designationCode": "C", "categoryCode": "47", "address": "78 HIGHFIELD PL", "city": "EAST ST PAUL", "province": "MB", "country": "CA", "postalCode": "R2E0G3", "twitter": "None", "instagram": "None", "facebook": "None", "youtube": "None", "website": "None", "summary": "None", "logo": "None", "latitude": 49.974411487390945, "longitude": -96.99184249068051}, "891461766RR0001": {"name": "THE ST JOHN'S CANADIAN PROGRESS CLUB FOUNDATION FOR THE MENTALLY HANDICAPPED, INC", "designationCode": "C", "categoryCode": "13", "address": "BOX 78, ATLANTIC PLACE", "city": "ST. JOHN'S", "province": "NL", "country": "CA", "postalCode": "A1C6C9", "twitter": "None", "instagram": "None", "facebook": "None", "youtube": "None", "website": "None", "summary": "None", "logo": "None", "latitude": 47.56360200000006, "longitude": -52.70749099999993}, "882053424RR0001": {"name": "THE ST KITTS & NEVIS HURRICANE DISASTER RELIEF COMMITTEE", "designationCode": "C", "categoryCode": "02", "address": "133 RICHMOND STREET W", "city": "TORONTO", "province": "ON", "country": "CA", "postalCode": "M5H2L3", "twitter": "None", "instagram": "None", "facebook": "None", "youtube": "None", "website": "None", "summary": "None", "logo": "None", "latitude": 43.65035575823779, "longitude": -79.3848452694905}, "870875036RR0001": {"name": "THE ST OLAF EVANGELICAL LUTHERAN CONGREGATION", "designationCode": "C", "categoryCode": "32", "address": "665 CENTRAL AVE N", "city": "SWIFT CURRENT", "province": "SK", "country": "CA", "postalCode": "S9H0M2", "twitter": "None", "instagram": "None", "facebook": "None", "youtube": "None", "website": "None", "summary": "None", "logo": "None", "latitude": 50.29236112101103, "longitude": -107.80038764568086}, "119257921RR0001": {"name": "THE ST PAUL DAY CARE SOCIETY", "designationCode": "C", "categoryCode": "01", "address": "5201 50 STREET", "city": "ST. PAUL", "province": "AB", "country": "CA", "postalCode": "T0A3A1", "twitter": "None", "instagram": "None", "facebook": "None", "youtube": "None", "website": "None", "summary": "None", "logo": "None", "latitude": 53.99352832944774, "longitude": -111.29701325336168}, "119257954RR0001": {"name": "THE ST PETER'S & DISTRICT VOLUNTEER FIRE DEPARTMENT", "designationCode": "C", "categoryCode": "55", "address": "22 TOULOUSE ST. P.O.BOX 221", "city": "ST.PETER'S", "province": "NS", "country": "CA", "postalCode": "B0E3B0", "twitter": "None", "instagram": "None", "facebook": "None", "youtube": "None", "website": "None", "summary": "None", "logo": "None", "latitude": 45.65567428642737, "longitude": -60.872658954786594}, "134127000RR0001": {"name": "THE ST THOMAS YOUTH CHOIR", "designationCode": "C", "categoryCode": "22", "address": "22 REGENT ST", "city": "ST THOMAS", "province": "ON", "country": "CA", "postalCode": "N5R2A2", "twitter": "None", "instagram": "None", "facebook": "None", "youtube": "None", "website": "None", "summary": "None", "logo": "None", "latitude": 42.77105521496987, "longitude": -81.19679089723581}, "889078747RR0001": {"name": "THE ST VINCENT DE PAUL SOCIETY HOLY ROSARY CONFERENCE", "designationCode": "C", "categoryCode": "09", "address": "354 ST CLAIR AVENUE WEST", "city": "TORONTO", "province": "ON", "country": "CA", "postalCode": "M5P1N4", "twitter": "None", "instagram": "None", "facebook": "None", "youtube": "None", "website": "None", "summary": "None", "logo": "None", "latitude": 43.68415519790516, "longitude": -79.4137890431646}, "108002551RR0001": {"name": "THE ST. ALBERT PUBLIC SCHOOL DISTRICT NO. 5565", "designationCode": "C", "categoryCode": "20", "address": "60 SIR WINSTON CHURCHILL AVE", "city": "ST ALBERT", "province": "AB", "country": "CA", "postalCode": "T8N0G4", "twitter": "None", "instagram": "None", "facebook": "None", "youtube": "None", "website": "None", "summary": "None", "logo": "None", "latitude": 53.636638060826655, "longitude": -113.6084717862707}, "131485567RR0001": {"name": "THE ST. ANDREWS NIAGARA HOUSING DEVELOPMENT CORPORATION", "designationCode": "C", "categoryCode": "01", "address": "3568 MONTROSE ROAD UNIT 110", "city": "NIAGARA FALLS", "province": "ON", "country": "CA", "postalCode": "L2E6S4", "twitter": "None", "instagram": "None", "facebook": "None", "youtube": "None", "website": "None", "summary": "None", "logo": "None", "latitude": 43.12076414654623, "longitude": -79.12498447230132}, "890870793RR0001": {"name": "THE ST. CATHARINES ARTILLERY FOUNDATION", "designationCode": "C", "categoryCode": "53", "address": "25 WOLSELEY AVE", "city": "ST CATHARINES", "province": "ON", "country": "CA", "postalCode": "L2R4T4", "twitter": "None", "instagram": "None", "facebook": "None", "youtube": "None", "website": "None", "summary": "None", "logo": "None", "latitude": 43.169948214265105, "longitude": -79.24241056318856}, "894903012RR0001": {"name": "THE ST. CECILIA CONCERT SOCIETY", "designationCode": "C", "categoryCode": "22", "address": "6199 CHEBUCTO ROAD", "city": "HALIFAX", "province": "NS", "country": "CA", "postalCode": "B3L1K7", "twitter": "None", "instagram": "None", "facebook": "None", "youtube": "None", "website": "None", "summary": "None", "logo": "None", "latitude": 44.64993414351647, "longitude": -63.59753741799863}, "108084658RR0106": {"name": "THE ST. GEORGE'S PARISH OF CAMPBELL'S BAY", "designationCode": "C", "categoryCode": "30", "address": "BOX 115", "city": "BRYSON", "province": "QC", "country": "CA", "postalCode": "J0X1H0", "twitter": "None", "instagram": "None", "facebook": "None", "youtube": "None", "website": "None", "summary": "None", "logo": "None", "latitude": 45.66212000000007, "longitude": -76.62007999999997}, "108020827RR0001": {"name": "THE ST. JAMES-ASSINIBOIA PIONEER ASSOCIATION INC.", "designationCode": "C", "categoryCode": "52", "address": "PO BOX 48065 RPO LAKEWOOD", "city": "WINNIPEG", "province": "MB", "country": "CA", "postalCode": "R2J4A3", "twitter": "None", "instagram": "None", "facebook": "None", "youtube": "None", "website": "None", "summary": "None", "logo": "None", "latitude": 49.851379434602556, "longitude": -97.07791124848828}, "108020835RR0001": {"name": "THE ST. JAMES-ASSINIBOIA SCHOOL DIVISION", "designationCode": "C", "categoryCode": "20", "address": "2574 PORTAGE AVENUE", "city": "WINNIPEG", "province": "MB", "country": "CA", "postalCode": "R3J0H8", "twitter": "None", "instagram": "None", "facebook": "None", "youtube": "None", "website": "None", "summary": "None", "logo": "None", "latitude": 49.87535094636207, "longitude": -97.26330934837519}, "873792568RR0001": {"name": "THE ST. JOHN'S CITIZENS' CRIME PREVENTION COMMITTEE INCORPORATED", "designationCode": "C", "categoryCode": "59", "address": "14 KENAI CRES", "city": "ST. JOHN'S", "province": "NL", "country": "CA", "postalCode": "A1H0J1", "twitter": "None", "instagram": "None", "facebook": "None", "youtube": "None", "website": "None", "summary": "None", "logo": "None", "latitude": 47.48733182237863, "longitude": -52.82003571997791}, "119257772RR0001": {"name": "THE ST. JOHN'S NATIVE FRIENDSHIP CENTRE ASSOCIATION", "designationCode": "C", "categoryCode": "09", "address": "716 WATER STREET", "city": "ST JOHN'S", "province": "NL", "country": "CA", "postalCode": "A1E1C1", "twitter": "None", "instagram": "None", "facebook": "None", "youtube": "None", "website": "None", "summary": "None", "logo": "None", "latitude": 47.54912066558925, "longitude": -52.71930109553311}, "107833394RR0120": {"name": "THE ST. JOHN'S WEST WORSHIP CENTRE", "designationCode": "C", "categoryCode": "36", "address": "UNIT 50, HAMLYN ROAD PLAZA    SUITE 464", "city": "ST. JOHN'S", "province": "NL", "country": "CA", "postalCode": "A1E5X7", "twitter": "None", "instagram": "None", "facebook": "None", "youtube": "None", "website": "None", "summary": "None", "logo": "None", "latitude": 47.53518198820831, "longitude": -52.7539585943009}, "871077608RR0001": {"name": "THE ST. JOSEPH FAMILY OF COMPANIES FOUNDATION", "designationCode": "B", "categoryCode": "47", "address": "50 MACINTOSH BLVD", "city": "CONCORD", "province": "ON", "country": "CA", "postalCode": "L4K4P3", "twitter": "None", "instagram": "None", "facebook": "None", "youtube": "None", "website": "None", "summary": "None", "logo": "None", "latitude": 43.80364437838249, "longitude": -79.52296424398392}, "108025230RR0001": {"name": "THE ST. JOSEPH ISLAND MUSEUM", "designationCode": "C", "categoryCode": "50", "address": "RR 2", "city": "RICHARDS LANDING", "province": "ON", "country": "CA", "postalCode": "P0R1J0", "twitter": "None", "instagram": "None", "facebook": "None", "youtube": "None", "website": "None", "summary": "None", "logo": "None", "latitude": 46.29075000000006, "longitude": -84.03105999999997}, "890542780RR0001": {"name": "THE ST. LEONARD'S SOCIETY OF NORTH VANCOUVER", "designationCode": "C", "categoryCode": "59", "address": "312 BEWICKE AVE", "city": "NORTH VANCOUVER", "province": "BC", "country": "CA", "postalCode": "V7M3B7", "twitter": "None", "instagram": "None", "facebook": "None", "youtube": "None", "website": "None", "summary": "None", "logo": "None", "latitude": 49.32020107737808, "longitude": -123.09133837262526}, "125973503RR0001": {"name": "THE ST. LINA AND DISTRICT COMMUNITY AND AGRICULTURAL SOCIETY", "designationCode": "C", "categoryCode": "56", "address": "P.O. BOX 16", "city": "ST LINA", "province": "AB", "country": "CA", "postalCode": "T0A2Z0", "twitter": "None", "instagram": "None", "facebook": "None", "youtube": "None", "website": "None", "summary": "None", "logo": "None", "latitude": 54.26776000000007, "longitude": -111.47967999999997}, "891423394RR0001": {"name": "THE ST. NORBERT FOUNDATION INC.", "designationCode": "C", "categoryCode": "51", "address": "P. O. BOX 75", "city": "ST. NORBERT", "province": "MB", "country": "CA", "postalCode": "R3V1L5", "twitter": "None", "instagram": "None", "facebook": "None", "youtube": "None", "website": "None", "summary": "None", "logo": "None", "latitude": 49.765360077182656, "longitude": -97.15356999826922}, "105048391RR0001": {"name": "THE ST. STEPHEN'S-BROADWAY FOUNDATION INC.", "designationCode": "C", "categoryCode": "43", "address": "396 BROADWAY AVE", "city": "WINNIPEG", "province": "MB", "country": "CA", "postalCode": "R3C0V6", "twitter": "None", "instagram": "None", "facebook": "None", "youtube": "None", "website": "None", "summary": "None", "logo": "None", "latitude": 49.88640476545115, "longitude": -97.14513477517464}, "898076682RR0001": {"name": "THE ST. VITAL HISTORICAL SOCIETY INC.", "designationCode": "C", "categoryCode": "50", "address": "600 ST MARY'S RD", "city": "WINNIPEG", "province": "MB", "country": "CA", "postalCode": "R2M3L5", "twitter": "None", "instagram": "None", "facebook": "None", "youtube": "None", "website": "None", "summary": "None", "logo": "None", "latitude": 49.863166624205384, "longitude": -97.11141287615443}, "898331178RR0001": {"name": "THE STAIRS FOUNDATION/LA FONDATION STAIRS", "designationCode": "B", "categoryCode": "03", "address": "P.O BOX 130                   1217 GREENE AVE", "city": "WESTMOUNT", "province": "QC", "country": "CA", "postalCode": "H3Z2T1", "twitter": "None", "instagram": "None", "facebook": "None", "youtube": "None", "website": "None", "summary": "None", "logo": "None", "latitude": 45.48637429032252, "longitude": -73.58829231972423}, "119257327RR0001": {"name": "THE STANBURY CEMETERY COMPANY", "designationCode": "C", "categoryCode": "59", "address": "12 CHEMIN MAGENTA", "city": "FARNHAM", "province": "QC", "country": "CA", "postalCode": "J2N1C5", "twitter": "None", "instagram": "None", "facebook": "None", "youtube": "None", "website": "None", "summary": "None", "logo": "None", "latitude": 45.28718254284749, "longitude": -72.95569336219633}, "883003949RR0001": {"name": "THE STANDING WAVE SOCIETY", "designationCode": "C", "categoryCode": "22", "address": "410-111 HASTINGS ST W", "city": "VANCOUVER", "province": "BC", "country": "CA", "postalCode": "V6B1H4", "twitter": "None", "instagram": "None", "facebook": "None", "youtube": "None", "website": "None", "summary": "None", "logo": "None", "latitude": 49.282138914441255, "longitude": -123.10753795129177}, "860835818RR0001": {"name": "THE STANJEAN FOUNDATION", "designationCode": "B", "categoryCode": "03", "address": "11TH FLOOR 1050 WEST PENDER ST", "city": "VANCOUVER", "province": "BC", "country": "CA", "postalCode": "V6E3S7", "twitter": "None", "instagram": "None", "facebook": "None", "youtube": "None", "website": "None", "summary": "None", "logo": "None", "latitude": 49.28718300579972, "longitude": -123.11934992342299}, "896515087RR0001": {"name": "THE STANLEY THEATRE SOCIETY", "designationCode": "C", "categoryCode": "22", "address": "203 - 162 1ST AVE W", "city": "VANCOUVER", "province": "BC", "country": "CA", "postalCode": "V5Y0H6", "twitter": "None", "instagram": "None", "facebook": "None", "youtube": "None", "website": "None", "summary": "None", "logo": "None", "latitude": 49.27014921211808, "longitude": -123.1083731451992}, "889994398RR0001": {"name": "THE STAR OF HOPE SPIRITUALIST CHURCH", "designationCode": "C", "categoryCode": "39", "address": "359 MASSON ST", "city": "OSHAWA", "province": "ON", "country": "CA", "postalCode": "L1G4Z5", "twitter": "None", "instagram": "None", "facebook": "None", "youtube": "None", "website": "None", "summary": "None", "logo": "None", "latitude": 43.907144479052405, "longitude": -78.86628806477601}, "862204898RR0001": {"name": "THE STARFISH FOUNDATION", "designationCode": "B", "categoryCode": "23", "address": "530 BRANT ST", "city": "BURLINGTON", "province": "ON", "country": "CA", "postalCode": "L7R2G7", "twitter": "None", "instagram": "None", "facebook": "None", "youtube": "None", "website": "None", "summary": "None", "logo": "None", "latitude": 43.32812851705246, "longitude": -79.80148075287075}}