{"139311492RR0001": {"name": "YWAM-ASSOCIATES INTERNATIONAL SOCIETY", "designationCode": "C", "categoryCode": "49", "address": "335-29 RIVER RIDGE DR. NW", "city": "MEDICINE HAT", "province": "AB", "country": "CA", "postalCode": "T1A8V3", "twitter": "None", "instagram": "None", "facebook": "None", "youtube": "None", "website": "None", "summary": "None", "logo": "None", "latitude": 50.04474900000005, "longitude": -110.71689199999993}, "108227935RR0001": {"name": "YWCA Edmonton", "designationCode": "C", "categoryCode": "49", "address": "400-10080 JASPER AVE NW", "city": "EDMONTON", "province": "AB", "country": "CA", "postalCode": "T5J1V9", "twitter": "None", "instagram": "None", "facebook": "None", "youtube": "None", "website": "None", "summary": "None", "logo": "None", "latitude": 53.541053453257376, "longitude": -113.49320496878062}, "119307411RR0001": {"name": "YWCA NWT", "designationCode": "C", "categoryCode": "49", "address": "BOX 1679", "city": "YELLOWKNIFE", "province": "NT", "country": "CA", "postalCode": "X1A2P3", "twitter": "None", "instagram": "None", "facebook": "None", "youtube": "None", "website": "None", "summary": "None", "logo": "None", "latitude": 62.45446200000005, "longitude": -114.37092349999993}, "108227901RR0001": {"name": "YWCA Saskatoon Inc.", "designationCode": "C", "categoryCode": "49", "address": "510-25TH STREET EAST", "city": "SASKATOON", "province": "SK", "country": "CA", "postalCode": "S7K4A7", "twitter": "None", "instagram": "None", "facebook": "None", "youtube": "None", "website": "None", "summary": "None", "logo": "None", "latitude": 52.13243331620354, "longitude": -106.65559525780507}, "820356236RR0001": {"name": "YWCA St. John's Inc.", "designationCode": "C", "categoryCode": "21", "address": "217-31 PEET STREET", "city": "ST. JOHN'S", "province": "NL", "country": "CA", "postalCode": "A1B3W8", "twitter": "None", "instagram": "None", "facebook": "None", "youtube": "None", "website": "None", "summary": "None", "logo": "None", "latitude": 47.55933102746848, "longitude": -52.76067346880928}, "105782429RR0001": {"name": "YYZ ARTISTS' OUTLET", "designationCode": "C", "categoryCode": "22", "address": "140-401 RICHMOND ST W", "city": "TORONTO", "province": "ON", "country": "CA", "postalCode": "M5V3A8", "twitter": "None", "instagram": "None", "facebook": "None", "youtube": "None", "website": "None", "summary": "None", "logo": "None", "latitude": 43.64792255983254, "longitude": -79.39538964100468}, "747475499RR0001": {"name": "Zaad-Ul-Hujjaj Foundation", "designationCode": "B", "categoryCode": "49", "address": "12787 SOUTHRIDGE DR", "city": "SURREY", "province": "BC", "country": "CA", "postalCode": "V3X3C7", "twitter": "None", "instagram": "None", "facebook": "None", "youtube": "None", "website": "None", "summary": "None", "logo": "None", "latitude": 49.09934118457495, "longitude": -122.86800073163468}, "801057951RR0001": {"name": "Zadok Ministries International", "designationCode": "C", "categoryCode": "47", "address": "45 MEEKINGS DRIVE", "city": "AJAX", "province": "ON", "country": "CA", "postalCode": "L1T3N2", "twitter": "None", "instagram": "None", "facebook": "None", "youtube": "None", "website": "None", "summary": "None", "logo": "None", "latitude": 43.86264172107443, "longitude": -79.05729552550656}, "825396344RR0001": {"name": "Zahrah Islamic Community Centre", "designationCode": "C", "categoryCode": "60", "address": "7 JACINTA COURT", "city": "RICHMOND HILL", "province": "ON", "country": "CA", "postalCode": "L4E3J1", "twitter": "None", "instagram": "None", "facebook": "None", "youtube": "None", "website": "None", "summary": "None", "logo": "None", "latitude": 43.94463836332152, "longitude": -79.44106599774963}, "822492419RR0001": {"name": "Zak Foundation", "designationCode": "B", "categoryCode": "03", "address": "6400 LLOYDTOWN AURORA ROAD", "city": "SCHOMBERG", "province": "ON", "country": "CA", "postalCode": "L0G1T0", "twitter": "None", "instagram": "None", "facebook": "None", "youtube": "None", "website": "None", "summary": "None", "logo": "None", "latitude": 43.99013422026545, "longitude": -79.685819245282}, "816650188RR0001": {"name": "Zamcog Canada", "designationCode": "C", "categoryCode": "20", "address": "6200-100 KING STREET WEST     1 FIRST CANADIAN PLACE", "city": "TORONTO", "province": "ON", "country": "CA", "postalCode": "M5X1B8", "twitter": "None", "instagram": "None", "facebook": "None", "youtube": "None", "website": "None", "summary": "None", "logo": "None", "latitude": 43.64837001558063, "longitude": -79.38150001500362}, "833118664RR0001": {"name": "Zana Fund", "designationCode": "B", "categoryCode": "20", "address": "167 SANDRINGHAM RD NW", "city": "CALGARY", "province": "AB", "country": "CA", "postalCode": "T3K3Y6", "twitter": "None", "instagram": "None", "facebook": "None", "youtube": "None", "website": "None", "summary": "None", "logo": "None", "latitude": 51.13589617929483, "longitude": -114.10563474326278}, "833373558RR0001": {"name": "Zancana Community Center", "designationCode": "C", "categoryCode": "60", "address": "32 RIVER STREET", "city": "TORONTO", "province": "ON", "country": "CA", "postalCode": "M5A3N9", "twitter": "None", "instagram": "None", "facebook": "None", "youtube": "None", "website": "None", "summary": "None", "logo": "None", "latitude": 43.6580795903399, "longitude": -79.35687487636325}, "818828212RR0001": {"name": "Zanele Poverty Relief Effort", "designationCode": "C", "categoryCode": "01", "address": "110 - 717 EGLINTON AVE W", "city": "TORONTO", "province": "ON", "country": "CA", "postalCode": "M5N1C9", "twitter": "None", "instagram": "None", "facebook": "None", "youtube": "None", "website": "None", "summary": "None", "logo": "None", "latitude": 43.70173684205681, "longitude": -79.42186729349652}, "845641893RR0001": {"name": "Zawadi Foundation", "designationCode": "A", "categoryCode": "03", "address": "4C 215, 2 STREET NORTH EAST", "city": "CALGARY", "province": "AB", "country": "CA", "postalCode": "T2E2W8", "twitter": "None", "instagram": "None", "facebook": "None", "youtube": "None", "website": "None", "summary": "None", "logo": "None", "latitude": 51.05401482122477, "longitude": -114.05772513754387}, "835457318RR0001": {"name": "Zawiya Fellowship", "designationCode": "C", "categoryCode": "60", "address": "53 VICTORIA AVE", "city": "CAMBRIDGE", "province": "ON", "country": "CA", "postalCode": "N1S1X2", "twitter": "None", "instagram": "None", "facebook": "None", "youtube": "None", "website": "None", "summary": "None", "logo": "None", "latitude": 43.35135873270254, "longitude": -80.31992637884476}, "899830129RR0001": {"name": "Zealand Community Cemetery Ltd", "designationCode": "C", "categoryCode": "59", "address": "32 SHERRY'S LANE", "city": "FREDERICTON", "province": "NB", "country": "CA", "postalCode": "E3C1L8", "twitter": "None", "instagram": "None", "facebook": "None", "youtube": "None", "website": "None", "summary": "None", "logo": "None", "latitude": 45.963506629753596, "longitude": -66.72867361809682}, "815788252RR0001": {"name": "Zebras Care Charities", "designationCode": "B", "categoryCode": "09", "address": "6279 DUVAL RD", "city": "VANKLEEK HILL", "province": "ON", "country": "CA", "postalCode": "K0B1R0", "twitter": "None", "instagram": "None", "facebook": "None", "youtube": "None", "website": "None", "summary": "None", "logo": "None", "latitude": 45.516635999162624, "longitude": -74.67055172102334}, "849427604RR0001": {"name": "Zechariah Youth Project", "designationCode": "C", "categoryCode": "09", "address": "20 BAMBURGH CIRCLE            SUITE 200", "city": "SCARBOROUGH", "province": "ON", "country": "CA", "postalCode": "M1W3Y5", "twitter": "None", "instagram": "None", "facebook": "None", "youtube": "None", "website": "None", "summary": "None", "logo": "None", "latitude": 43.816179351116496, "longitude": -79.32523670206008}, "808980213RR0001": {"name": "Zechariah 4:6 Ministries Inc.", "designationCode": "C", "categoryCode": "49", "address": "306 - 575 PARK RD N", "city": "BRANTFORD", "province": "ON", "country": "CA", "postalCode": "N3R0A7", "twitter": "None", "instagram": "None", "facebook": "None", "youtube": "None", "website": "None", "summary": "None", "logo": "None", "latitude": 43.18485887071994, "longitude": -80.25103577712693}, "836096420RR0001": {"name": "Zeezee Theatre Society", "designationCode": "C", "categoryCode": "22", "address": "202-739 GORE AVENUE", "city": "VANCOUVER", "province": "BC", "country": "CA", "postalCode": "V6A2Z9", "twitter": "None", "instagram": "None", "facebook": "None", "youtube": "None", "website": "None", "summary": "None", "logo": "None", "latitude": 49.2778654365803, "longitude": -123.09704293701299}, "832044838RR0001": {"name": "Zendeh (Living) Church", "designationCode": "C", "categoryCode": "39", "address": "PO BOX 54659 RPO HIGHGATE", "city": "BURNABY", "province": "BC", "country": "CA", "postalCode": "V5E4J6", "twitter": "None", "instagram": "None", "facebook": "None", "youtube": "None", "website": "None", "summary": "None", "logo": "None", "latitude": 49.218853499999994, "longitude": -122.9562045}, "119285443RR0001": {"name": "Zenwest Buddhist Society", "designationCode": "C", "categoryCode": "39", "address": "4970 NAGLE RD", "city": "SOOKE", "province": "BC", "country": "CA", "postalCode": "V9Z1C7", "twitter": "None", "instagram": "None", "facebook": "None", "youtube": "None", "website": "None", "summary": "None", "logo": "None", "latitude": 48.38638879291273, "longitude": -123.62261279428208}, "883363616RR0001": {"name": "Zera Word Ministries", "designationCode": "C", "categoryCode": "39", "address": "185 DEVONSLEIGH BLVD", "city": "RICHMOND HILL", "province": "ON", "country": "CA", "postalCode": "L4S1G4", "twitter": "None", "instagram": "None", "facebook": "None", "youtube": "None", "website": "None", "summary": "None", "logo": "None", "latitude": 43.90735855176294, "longitude": -79.43212288299968}, "842381600RR0001": {"name": "Zhou Enlai Foundation", "designationCode": "C", "categoryCode": "21", "address": "35 STONEHEATH CRES", "city": "MARKHAM", "province": "ON", "country": "CA", "postalCode": "L6C2K9", "twitter": "None", "instagram": "None", "facebook": "None", "youtube": "None", "website": "None", "summary": "None", "logo": "None", "latitude": 43.88044422344037, "longitude": -79.36633856618965}, "735511925RR0001": {"name": "Zichron Chaim Charity", "designationCode": "A", "categoryCode": "05", "address": "6288 CH DEACON", "city": "MONTREAL", "province": "QC", "country": "CA", "postalCode": "H3S2P5", "twitter": "None", "instagram": "None", "facebook": "None", "youtube": "None", "website": "None", "summary": "None", "logo": "None", "latitude": 45.513714721594035, "longitude": -73.62384589093419}, "802543041RR0001": {"name": "Zihua Roofs Society", "designationCode": "C", "categoryCode": "09", "address": "2600 26 ST", "city": "VERNON", "province": "BC", "country": "CA", "postalCode": "V1T4T5", "twitter": "None", "instagram": "None", "facebook": "None", "youtube": "None", "website": "None", "summary": "None", "logo": "None", "latitude": 50.261102664723865, "longitude": -119.26536698920862}, "838230308RR0001": {"name": "Zimbabwe Project Society", "designationCode": "C", "categoryCode": "21", "address": "545 B X RD", "city": "VERNON", "province": "BC", "country": "CA", "postalCode": "V1B3J3", "twitter": "None", "instagram": "None", "facebook": "None", "youtube": "None", "website": "None", "summary": "None", "logo": "None", "latitude": 50.280738000000056, "longitude": -119.22911449999994}, "839737863RR0001": {"name": "Zimbabwe United Methodist Church in Canada", "designationCode": "C", "categoryCode": "39", "address": "140 SOVEREIGN'S GATE", "city": "BARRIE", "province": "ON", "country": "CA", "postalCode": "L4M0A3", "twitter": "None", "instagram": "None", "facebook": "None", "youtube": "None", "website": "None", "summary": "None", "logo": "None", "latitude": 44.362946366928185, "longitude": -79.61145178380164}, "804331635RR0001": {"name": "Zimele Community Canada", "designationCode": "C", "categoryCode": "59", "address": "15-80 ESNA PARK DRIVE", "city": "MARKHAM", "province": "ON", "country": "CA", "postalCode": "L3R2R6", "twitter": "None", "instagram": "None", "facebook": "None", "youtube": "None", "website": "None", "summary": "None", "logo": "None", "latitude": 43.82736020904232, "longitude": -79.339668338133}, "794166082RR0001": {"name": "Zion Assembly Church of God", "designationCode": "C", "categoryCode": "39", "address": "33 RIVERTON DR", "city": "NORTH YORK", "province": "ON", "country": "CA", "postalCode": "M9L2N8", "twitter": "None", "instagram": "None", "facebook": "None", "youtube": "None", "website": "None", "summary": "None", "logo": "None", "latitude": 43.75697165251886, "longitude": -79.57421167274529}, "777556523RR0001": {"name": "Zion Faith Hill Tabernacle", "designationCode": "C", "categoryCode": "09", "address": "13 NEWBURY CRES", "city": "BRAMPTON", "province": "ON", "country": "CA", "postalCode": "L6S5L8", "twitter": "None", "instagram": "None", "facebook": "None", "youtube": "None", "website": "None", "summary": "None", "logo": "None", "latitude": 43.73196048762208, "longitude": -79.7536158087313}, "837093228RR0001": {"name": "Zion House of Worship Inc.", "designationCode": "C", "categoryCode": "49", "address": "14 UNION ST", "city": "ST STEPHEN", "province": "NB", "country": "CA", "postalCode": "E3L1T1", "twitter": "None", "instagram": "None", "facebook": "None", "youtube": "None", "website": "None", "summary": "None", "logo": "None", "latitude": 45.194304637775, "longitude": -67.27662391785441}, "119308807RR0001": {"name": "Zion Lutheran Church of Flowing Well, Saskatchewan", "designationCode": "C", "categoryCode": "32", "address": "BOX 25", "city": "MORSE", "province": "SK", "country": "CA", "postalCode": "S0H3C0", "twitter": "None", "instagram": "None", "facebook": "None", "youtube": "None", "website": "None", "summary": "None", "logo": "None", "latitude": 50.45771029269995, "longitude": -105.87074662359227}, "844196048RR0001": {"name": "Zion Mennonite Church Inc.", "designationCode": "C", "categoryCode": "39", "address": "208 HESPELER AVENUE EAST", "city": "SCHANZENFELD", "province": "MB", "country": "CA", "postalCode": "R6W1K3", "twitter": "None", "instagram": "None", "facebook": "None", "youtube": "None", "website": "None", "summary": "None", "logo": "None", "latitude": 49.133297697566114, "longitude": -97.9324419293322}, "827087081RR0001": {"name": "Zion Pentecostal Ministries", "designationCode": "C", "categoryCode": "45", "address": "55 TARQUINI CRESCENT", "city": "BOLTON", "province": "ON", "country": "CA", "postalCode": "L4L4A3", "twitter": "None", "instagram": "None", "facebook": "None", "youtube": "None", "website": "None", "summary": "None", "logo": "None", "latitude": 43.87156268192055, "longitude": -79.765968710774}, "830617361RR0001": {"name": "Zion Temple Celebration Centre of Edmonton, Alberta", "designationCode": "C", "categoryCode": "39", "address": "4104 32 AVE NW", "city": "EDMONTON", "province": "AB", "country": "CA", "postalCode": "T6L3W6", "twitter": "None", "instagram": "None", "facebook": "None", "youtube": "None", "website": "None", "summary": "None", "logo": "None"}, "119309235RR0001": {"name": "Zion United Baptist Church", "designationCode": "C", "categoryCode": "31", "address": "454 PRINCE ST", "city": "TRURO", "province": "NS", "country": "CA", "postalCode": "B2N1E7", "twitter": "None", "instagram": "None", "facebook": "None", "youtube": "None", "website": "None", "summary": "None", "logo": "None", "latitude": 45.366027582809416, "longitude": -63.28929352138028}, "119309490RR0001": {"name": "Zion United Church", "designationCode": "C", "categoryCode": "44", "address": "BOX 72", "city": "SILVERTON", "province": "BC", "country": "CA", "postalCode": "V0G2B0", "twitter": "None", "instagram": "None", "facebook": "None", "youtube": "None", "website": "None", "summary": "None", "logo": "None", "latitude": 49.068424739590974, "longitude": -117.79352667184062}, "812184091RR0001": {"name": "Zion's Glory Church", "designationCode": "C", "categoryCode": "39", "address": "P.O. BOX 340, STATION MAIN", "city": "SURREY", "province": "BC", "country": "CA", "postalCode": "V3T5B6", "twitter": "None", "instagram": "None", "facebook": "None", "youtube": "None", "website": "None", "summary": "None", "logo": "None", "latitude": 49.19164800000006, "longitude": -122.85002149999994}, "888705449RR0001": {"name": "Zion's Reign Apostolic Centre", "designationCode": "C", "categoryCode": "39", "address": "PO BOX 388", "city": "RAINY RIVER", "province": "ON", "country": "CA", "postalCode": "P0W1L0", "twitter": "None", "instagram": "None", "facebook": "None", "youtube": "None", "website": "None", "summary": "None", "logo": "None", "latitude": 48.72217200000006, "longitude": -94.56111349999993}, "809341993RR0001": {"name": "Zoe Aionios Ministries", "designationCode": "C", "categoryCode": "47", "address": "26 HUGHES ST", "city": "GANDER", "province": "NL", "country": "CA", "postalCode": "A1V0J1", "twitter": "None", "instagram": "None", "facebook": "None", "youtube": "None", "website": "None", "summary": "None", "logo": "None", "latitude": 48.97185900000005, "longitude": -54.61436149999993}, "830544938RR0001": {"name": "Zoe's Animal Rescue Society", "designationCode": "C", "categoryCode": "54", "address": "POST OFFICE BOX 4942          SOUTH EDMONTON", "city": "EDMONTON", "province": "AB", "country": "CA", "postalCode": "T6E5G8", "twitter": "None", "instagram": "None", "facebook": "None", "youtube": "None", "website": "None", "summary": "None", "logo": "None", "latitude": 53.499354000000054, "longitude": -113.46577549999994}, "856759766RR0001": {"name": "Zone d'impact Canada / Impact Zone Canada", "designationCode": "C", "categoryCode": "47", "address": "560 RUE JUSTIN", "city": "LAVAL", "province": "QC", "country": "CA", "postalCode": "H7P5R2", "twitter": "None", "instagram": "None", "facebook": "None", "youtube": "None", "website": "None", "summary": "None", "logo": "None", "latitude": 45.570823263037205, "longitude": -73.8200666828207}, "816152698RR0001": {"name": "Zonta Club of Halifax Education Fund", "designationCode": "C", "categoryCode": "21", "address": "32 HUGH ALLEN DR", "city": "DARTMOUTH", "province": "NS", "country": "CA", "postalCode": "B2W2K8", "twitter": "None", "instagram": "None", "facebook": "None", "youtube": "None", "website": "None", "summary": "None", "logo": "None", "latitude": 44.67485801664843, "longitude": -63.4959267623058}, "835770058RR0001": {"name": "Zorianna and Eugene Hyworon Foundation Inc.", "designationCode": "B", "categoryCode": "03", "address": "201-52 DONALD STREET", "city": "WINNIPEG", "province": "MB", "country": "CA", "postalCode": "R3C1L6", "twitter": "None", "instagram": "None", "facebook": "None", "youtube": "None", "website": "None", "summary": "None", "logo": "None", "latitude": 49.88843520049917, "longitude": -97.14066570027227}, "811497783RR0001": {"name": "Zoroastrian Fire Temple of Calgary", "designationCode": "C", "categoryCode": "39", "address": "210 ASPEN GLEN PL SW", "city": "CALGARY", "province": "AB", "country": "CA", "postalCode": "T3H0E8", "twitter": "None", "instagram": "None", "facebook": "None", "youtube": "None", "website": "None", "summary": "None", "logo": "None", "latitude": 51.03922583442241, "longitude": -114.2056682122202}, "119309813RR0001": {"name": "Zoryan Institute of Canada Inc. / Institut Zoryan du Canada Inc.", "designationCode": "C", "categoryCode": "29", "address": "255 DUNCAN MILL ROAD          SUITE 310", "city": "TORONTO", "province": "ON", "country": "CA", "postalCode": "M3B3H9", "twitter": "None", "instagram": "None", "facebook": "None", "youtube": "None", "website": "None", "summary": "None", "logo": "None", "latitude": 43.761635677736955, "longitude": -79.35168847183904}, "846357630RR0001": {"name": "Zwart Hielema Family Foundation", "designationCode": "B", "categoryCode": "03", "address": "34 RATHNELLY AVENUE", "city": "TORONTO", "province": "ON", "country": "CA", "postalCode": "M4V2M3", "twitter": "None", "instagram": "None", "facebook": "None", "youtube": "None", "website": "None", "summary": "None", "logo": "None", "latitude": 43.678323964193005, "longitude": -79.40084349544102}, "891538217RR0001": {"name": "ZAFAR SULTAN MEMORIAL TRUST INC.", "designationCode": "C", "categoryCode": "09", "address": "1658 SIR MONTY'S DR", "city": "MISSISSAUGA", "province": "ON", "country": "CA", "postalCode": "L5N4R4", "twitter": "None", "instagram": "None", "facebook": "None", "youtube": "None", "website": "None", "summary": "None", "logo": "None", "latitude": 43.59784530500904, "longitude": -79.72040296531817}, "860392877RR0001": {"name": "ZAJAC RANCH SOCIETY", "designationCode": "C", "categoryCode": "56", "address": "300-2006 10TH AVE W", "city": "VANCOUVER", "province": "BC", "country": "CA", "postalCode": "V6J2B3", "twitter": "None", "instagram": "None", "facebook": "None", "youtube": "None", "website": "None", "summary": "None", "logo": "None", "latitude": 49.26280554674261, "longitude": -123.15105305398464}, "845641299RR0001": {"name": "ZAKA FOUNDATION", "designationCode": "A", "categoryCode": "03", "address": "99 BURNCREST DRIVE", "city": "TORONTO", "province": "ON", "country": "CA", "postalCode": "M5M2Z6", "twitter": "None", "instagram": "None", "facebook": "None", "youtube": "None", "website": "None", "summary": "None", "logo": "None", "latitude": 43.7369749114491, "longitude": -79.43060778628315}, "835170168RR0001": {"name": "ZAKUTA FAMILY FOUNDATION", "designationCode": "B", "categoryCode": "03", "address": "90 MORGAN ROAD #200", "city": "BAIE D'URFE", "province": "QC", "country": "CA", "postalCode": "H9X3A8", "twitter": "None", "instagram": "None", "facebook": "None", "youtube": "None", "website": "None", "summary": "None", "logo": "None", "latitude": 45.41736088816071, "longitude": -73.91664668421424}, "874254428RR0001": {"name": "ZALKOW FOUNDATION", "designationCode": "B", "categoryCode": "03", "address": "1655 DERWENT WAY              ANNACIS ISLAND", "city": "DELTA", "province": "BC", "country": "CA", "postalCode": "V3M6K8", "twitter": "None", "instagram": "None", "facebook": "None", "youtube": "None", "website": "None", "summary": "None", "logo": "None", "latitude": 49.16163519027894, "longitude": -122.96919300989931}, "869164178RR0001": {"name": "ZAMBIA MISSION FUND - CANADA", "designationCode": "B", "categoryCode": "09", "address": "4368 LOCHSIDE DRIVE", "city": "VICTORIA", "province": "BC", "country": "CA", "postalCode": "V8X2C9", "twitter": "None", "instagram": "None", "facebook": "None", "youtube": "None", "website": "None", "summary": "None", "logo": "None", "latitude": 48.489862231985725, "longitude": -123.36038596180896}, "126462332RR0001": {"name": "ZAREINU EDUCATIONAL CENTRE OF METROPOLITAN TORONTO", "designationCode": "C", "categoryCode": "20", "address": "36 ATKINSON AVE", "city": "THORNHILL", "province": "ON", "country": "CA", "postalCode": "L4J8C9", "twitter": "None", "instagram": "None", "facebook": "None", "youtube": "None", "website": "None", "summary": "None", "logo": "None", "latitude": 43.81007098361139, "longitude": -79.44289897957107}, "823775143RR0001": {"name": "ZATA OMM DANCE PROJECTS", "designationCode": "C", "categoryCode": "22", "address": "312 - 51 TROLLEY CRES", "city": "TORONTO", "province": "ON", "country": "CA", "postalCode": "M5A0E9", "twitter": "None", "instagram": "None", "facebook": "None", "youtube": "None", "website": "None", "summary": "None", "logo": "None", "latitude": 43.657019071418986, "longitude": -79.355152880652}, "818706343RR0001": {"name": "ZAWIYAH FOUNDATION", "designationCode": "C", "categoryCode": "60", "address": "8165 MAIN ST                  BOX 75044", "city": "VANCOUVER", "province": "BC", "country": "CA", "postalCode": "V5X4V7", "twitter": "None", "instagram": "None", "facebook": "None", "youtube": "None", "website": "None", "summary": "None", "logo": "None", "latitude": 49.21185752861617, "longitude": -123.1022156005453}, "107669848RR0014": {"name": "ZEALAND SEVENTH-DAY ADVENTIST CHURCH", "designationCode": "C", "categoryCode": "41", "address": "121 SALISBURY ROAD", "city": "MONCTON", "province": "NB", "country": "CA", "postalCode": "E1E1A6", "twitter": "None", "instagram": "None", "facebook": "None", "youtube": "None", "website": "None", "summary": "None", "logo": "None", "latitude": 46.0711640413756, "longitude": -64.82144086984238}, "133760132RR0001": {"name": "ZEBEDEO SOCIETY", "designationCode": "C", "categoryCode": "11", "address": "817 - 15910 FRASER HWY", "city": "SURREY", "province": "BC", "country": "CA", "postalCode": "V4N0X9", "twitter": "None", "instagram": "None", "facebook": "None", "youtube": "None", "website": "None", "summary": "None", "logo": "None", "latitude": 49.15837132160014, "longitude": -122.7817819063992}, "881461818RR0001": {"name": "ZEBRA CHILD PROTECTION CENTRE SOCIETY", "designationCode": "C", "categoryCode": "59", "address": "SUITE 700, 10909 JASPER AVE", "city": "EDMONTON", "province": "AB", "country": "CA", "postalCode": "T5J3L9", "twitter": "None", "instagram": "None", "facebook": "None", "youtube": "None", "website": "None", "summary": "None", "logo": "None", "latitude": 53.54089147778393, "longitude": -113.50943099999999}, "816604276RR0001": {"name": "ZELDIE & JOE LESTER FOUNDATION FONDATION ZELDIE & JOE LESTER", "designationCode": "B", "categoryCode": "03", "address": "56 ALBION STREET", "city": "HAMPSTEAD", "province": "QC", "country": "CA", "postalCode": "H3X3M2", "twitter": "None", "instagram": "None", "facebook": "None", "youtube": "None", "website": "None", "summary": "None", "logo": "None", "latitude": 45.47808652936019, "longitude": -73.646851993034}, "105787881RR0001": {"name": "ZELLER FAMILY FOUNDATION", "designationCode": "B", "categoryCode": "03", "address": "1002 SHERBROOKE ST W, STE 540", "city": "MONTREAL", "province": "QC", "country": "CA", "postalCode": "H3A3L6", "twitter": "None", "instagram": "None", "facebook": "None", "youtube": "None", "website": "None", "summary": "None", "logo": "None", "latitude": 45.502789852876845, "longitude": -73.57558716772498}, "889931796RR0001": {"name": "ZELLERS INC EMPLOYEES'CHARITABLE FUND", "designationCode": "B", "categoryCode": "75", "address": "698 LAWRENCE AVENUE WEST      3RD FLOOR", "city": "TORONTO", "province": "ON", "country": "CA", "postalCode": "M6A3A5", "twitter": "None", "instagram": "None", "facebook": "None", "youtube": "None", "website": "None", "summary": "None", "logo": "None"}, "888049194RR0001": {"name": "ZELMA UNITED CHURCH,", "designationCode": "C", "categoryCode": "44", "address": "122 OVERHOLT CRES", "city": "SASKATOON", "province": "SK", "country": "CA", "postalCode": "S7N4S9", "twitter": "None", "instagram": "None", "facebook": "None", "youtube": "None", "website": "None", "summary": "None", "logo": "None", "latitude": 52.134353697184, "longitude": -106.58242092050881}, "887459063RR0001": {"name": "ZEN CENTRE OF VANCOUVER", "designationCode": "C", "categoryCode": "39", "address": "5505 SHERBROOKE ST", "city": "VANCOUVER", "province": "BC", "country": "CA", "postalCode": "V5W3M7", "twitter": "None", "instagram": "None", "facebook": "None", "youtube": "None", "website": "None", "summary": "None", "logo": "None", "latitude": 49.23461627699231, "longitude": -123.08116311105634}, "856202569RR0001": {"name": "ZENZELE DEVELOPMENT ORGANIZATION", "designationCode": "C", "categoryCode": "09", "address": "75 WYNFORD HEIGHTS CRES       SUITE 1705", "city": "TORONTO", "province": "ON", "country": "CA", "postalCode": "M3C3H9", "twitter": "None", "instagram": "None", "facebook": "None", "youtube": "None", "website": "None", "summary": "None", "logo": "None", "latitude": 43.72767351327196, "longitude": -79.326171}, "119308211RR0001": {"name": "ZEPHYR MOUNT PLEASANT MISSIONARY CHURCH", "designationCode": "C", "categoryCode": "39", "address": "14209 DURHAM REG RD 39        RR#1", "city": "ZEPHYR", "province": "ON", "country": "CA", "postalCode": "L0E1T0", "twitter": "None", "instagram": "None", "facebook": "None", "youtube": "None", "website": "None", "summary": "None", "logo": "None", "latitude": 44.19198070143494, "longitude": -79.26127856946407}, "130529019RR0001": {"name": "ZEPHYR UNITED CHURCH,", "designationCode": "C", "categoryCode": "44", "address": "PO BOX 75", "city": "ZEPHYR", "province": "ON", "country": "CA", "postalCode": "L0E1T0", "twitter": "None", "instagram": "None", "facebook": "None", "youtube": "None", "website": "None", "summary": "None", "logo": "None", "latitude": 44.19800629731621, "longitude": -79.27837070297906}, "889243853RR0001": {"name": "ZERF PRODUCTIONS", "designationCode": "C", "categoryCode": "22", "address": "4015 HARVARD AVENUE", "city": "MONTREAL", "province": "QC", "country": "CA", "postalCode": "H4A2W8", "twitter": "None", "instagram": "None", "facebook": "None", "youtube": "None", "website": "None", "summary": "None", "logo": "None", "latitude": 45.47273522482536, "longitude": -73.6198681337643}, "108230392RR0001": {"name": "ZERIN DEVELOPMENT CORPORATION", "designationCode": "C", "categoryCode": "59", "address": "180 SHERIDAN AVE.", "city": "TORONTO", "province": "ON", "country": "CA", "postalCode": "M6K3C7", "twitter": "None", "instagram": "None", "facebook": "None", "youtube": "None", "website": "None", "summary": "None", "logo": "None", "latitude": 43.65163812600267, "longitude": -79.43442429214019}, "891350126RR0001": {"name": "ZHR POLISH SCOUTS OF CANADA", "designationCode": "C", "categoryCode": "29", "address": "107 ISAAC MURRAY AVE", "city": "MAPLE", "province": "ON", "country": "CA", "postalCode": "L6A2S8", "twitter": "None", "instagram": "None", "facebook": "None", "youtube": "None", "website": "None", "summary": "None", "logo": "None", "latitude": 43.869357545646096, "longitude": -79.52634873478002}, "747492122RR0001": {"name": "ZICHRON BINYOMIN CHARITY FOUNDATION", "designationCode": "A", "categoryCode": "03", "address": "P.O BOX 54085                 LAWRENCE PLAZA POST OFFICE", "city": "TORONTO", "province": "ON", "country": "CA", "postalCode": "M6A3B7", "twitter": "None", "instagram": "None", "facebook": "None", "youtube": "None", "website": "None", "summary": "None", "logo": "None", "latitude": 43.719130000000064, "longitude": -79.43049999999994}, "119308260RR0001": {"name": "ZICHRON DAVID AND PESIE GRUNBERGER FUND", "designationCode": "B", "categoryCode": "45", "address": "1826 AV LAJOIE", "city": "MONTREAL", "province": "QC", "country": "CA", "postalCode": "H2V1S3", "twitter": "None", "instagram": "None", "facebook": "None", "youtube": "None", "website": "None", "summary": "None", "logo": "None", "latitude": 45.51290341075662, "longitude": -73.61769568800874}, "892038043RR0001": {"name": "ZICHRON MOSHE SYNAGOGUE", "designationCode": "C", "categoryCode": "42", "address": "6249 DE VIMY", "city": "MONTREAL", "province": "QC", "country": "CA", "postalCode": "H3S2R4", "twitter": "None", "instagram": "None", "facebook": "None", "youtube": "None", "website": "None", "summary": "None", "logo": "None", "latitude": 45.514003042760564, "longitude": -73.62197022618166}, "894945633RR0016": {"name": "ZION ALLIANCE CHURCH OF THE CHRISTIAN AND MISSIONARY ALLIANCE IN CANADA", "designationCode": "C", "categoryCode": "39", "address": "P.O.BOX 56539                 8601 WARDEN AVE", "city": "MARKHAM", "province": "ON", "country": "CA", "postalCode": "L3R0M6", "twitter": "None", "instagram": "None", "facebook": "None", "youtube": "None", "website": "None", "summary": "None", "logo": "None", "latitude": 43.858237493767604, "longitude": -79.33453422860585}, "886663996RR0002": {"name": "ZION ANGLICAN CHURCH", "designationCode": "C", "categoryCode": "30", "address": "307 ONEIDA RD", "city": "SOUTHWOLD", "province": "ON", "country": "CA", "postalCode": "N0L2G0", "twitter": "None", "instagram": "None", "facebook": "None", "youtube": "None", "website": "None", "summary": "None", "logo": "None", "latitude": 42.75467590128493, "longitude": -81.33007324632608}, "888886595RR0001": {"name": "ZION APOSTOLIC ARK PENTECOSTAL CHURCH OF EDMONTON", "designationCode": "B", "categoryCode": "39", "address": "17604 57 AVE NW", "city": "EDMONTON", "province": "AB", "country": "CA", "postalCode": "T6M1G7", "twitter": "None", "instagram": "None", "facebook": "None", "youtube": "None", "website": "None", "summary": "None", "logo": "None", "latitude": 53.493912521812966, "longitude": -113.62681477269314}, "119308294RR0001": {"name": "ZION APOSTOLIC CHURCH OF JESUS CHRIST", "designationCode": "C", "categoryCode": "39", "address": "111 SUNRISE AVE", "city": "TORONTO", "province": "ON", "country": "CA", "postalCode": "M4A1A9", "twitter": "None", "instagram": "None", "facebook": "None", "youtube": "None", "website": "None", "summary": "None", "logo": "None", "latitude": 43.71784184537503, "longitude": -79.30915544281271}, "108230525RR0001": {"name": "ZION APOSTOLIC CHURCH OF WINNIPEG INC.", "designationCode": "C", "categoryCode": "36", "address": "305 MACHRAY AVE", "city": "WINNIPEG", "province": "MB", "country": "CA", "postalCode": "R2W1A3", "twitter": "None", "instagram": "None", "facebook": "None", "youtube": "None", "website": "None", "summary": "None", "logo": "None", "latitude": 49.92464084820231, "longitude": -97.13118238147048}, "866931876RR0001": {"name": "ZION APOSTOLIC MINISTRIES INTERNATIONAL EDMONTON", "designationCode": "C", "categoryCode": "39", "address": "12418 18 A AVENUE", "city": "EDMONTON", "province": "AB", "country": "CA", "postalCode": "T6W1V9", "twitter": "None", "instagram": "None", "facebook": "None", "youtube": "None", "website": "None", "summary": "None", "logo": "None", "latitude": 53.41800151843144, "longitude": -113.60041446469081}, "119308310RR0001": {"name": "ZION BAPTIST CHURCH", "designationCode": "C", "categoryCode": "31", "address": "25 RAYMOND STREET", "city": "ST CATHARINES", "province": "ON", "country": "CA", "postalCode": "L2R2T3", "twitter": "None", "instagram": "None", "facebook": "None", "youtube": "None", "website": "None", "summary": "None", "logo": "None", "latitude": 43.162406318079434, "longitude": -79.2471920377689}, "863809349RR0001": {"name": "ZION BAPTIST CHURCH OF KENSINGTON (SOCIETY)", "designationCode": "C", "categoryCode": "31", "address": "11908-132 AVE", "city": "EDMONTON", "province": "AB", "country": "CA", "postalCode": "T5E1A9", "twitter": "None", "instagram": "None", "facebook": "None", "youtube": "None", "website": "None", "summary": "None", "logo": "None", "latitude": 53.59229346047076, "longitude": -113.52757041618096}, "119308344RR0001": {"name": "ZION BAPTIST CHURCH,", "designationCode": "C", "categoryCode": "31", "address": "2911 SOUTH SPARKS ST", "city": "TERRACE", "province": "BC", "country": "CA", "postalCode": "V8G2T4", "twitter": "None", "instagram": "None", "facebook": "None", "youtube": "None", "website": "None", "summary": "None", "logo": "None", "latitude": 54.5125543266778, "longitude": -128.59305081173147}, "889749842RR0001": {"name": "ZION BAPTIST CHURCH,", "designationCode": "C", "categoryCode": "31", "address": "P.O. BOX 3008", "city": "DRUMHELLER", "province": "AB", "country": "CA", "postalCode": "T0J0Y0", "twitter": "None", "instagram": "None", "facebook": "None", "youtube": "None", "website": "None", "summary": "None", "logo": "None", "latitude": 51.46154700000005, "longitude": -112.70878099999993}, "131214785RR0001": {"name": "ZION BAPTIST COMMUNITY CHURCH OF EDMONTON", "designationCode": "C", "categoryCode": "31", "address": "9802-76 AVENUE", "city": "EDMONTON", "province": "AB", "country": "CA", "postalCode": "T6E1K5", "twitter": "None", "instagram": "None", "facebook": "None", "youtube": "None", "website": "None", "summary": "None", "logo": "None", "latitude": 53.51230647879262, "longitude": -113.48352}, "879588911RR0001": {"name": "ZION CEMETERY FUND", "designationCode": "B", "categoryCode": "59", "address": "BOX 24", "city": "FOXWARREN", "province": "MB", "country": "CA", "postalCode": "R0J0R0", "twitter": "None", "instagram": "None", "facebook": "None", "youtube": "None", "website": "None", "summary": "None", "logo": "None", "latitude": 50.520740000000046, "longitude": -101.15296999999998}, "119308351RR0001": {"name": "ZION CHAPEL,", "designationCode": "C", "categoryCode": "36", "address": "P.O. BOX 246", "city": "FORT JAINT JAMES", "province": "BC", "country": "CA", "postalCode": "V0J1P0", "twitter": "None", "instagram": "None", "facebook": "None", "youtube": "None", "website": "None", "summary": "None", "logo": "None", "latitude": 54.44540000000006, "longitude": -124.25099999999998}, "108230616RR0001": {"name": "ZION CHINESE CHRISTIAN REFORMED CHURCH OF ABBOTSFORD. B.C.", "designationCode": "C", "categoryCode": "39", "address": "35199 DELAIR RD", "city": "ABBOTSFORD", "province": "BC", "country": "CA", "postalCode": "V3G2E2", "twitter": "None", "instagram": "None", "facebook": "None", "youtube": "None", "website": "None", "summary": "None", "logo": "None", "latitude": 49.035006027525775, "longitude": -122.2499102086096}, "133968628RR0001": {"name": "ZION CHRISTIAN CHURCH", "designationCode": "C", "categoryCode": "49", "address": "820 PARK AVE W", "city": "CHATHAM", "province": "ON", "country": "CA", "postalCode": "N7M0M9", "twitter": "None", "instagram": "None", "facebook": "None", "youtube": "None", "website": "None", "summary": "None", "logo": "None", "latitude": 42.37966849483546, "longitude": -82.20217414400742}, "868488297RR0001": {"name": "ZION CHRISTIAN FELLOWSHIP", "designationCode": "C", "categoryCode": "39", "address": "BOX 15 SITE 7 RR #1", "city": "PONOKA", "province": "AB", "country": "CA", "postalCode": "T4J1R1", "twitter": "None", "instagram": "None", "facebook": "None", "youtube": "None", "website": "None", "summary": "None", "logo": "None", "latitude": 52.67526900000006, "longitude": -113.58076399999993}, "119308385RR0001": {"name": "ZION CHRISTIAN REFORMED CHURCH OF OSHAWA", "designationCode": "C", "categoryCode": "39", "address": "409 ADELAIDE AVE E", "city": "OSHAWA", "province": "ON", "country": "CA", "postalCode": "L1G2A2", "twitter": "None", "instagram": "None", "facebook": "None", "youtube": "None", "website": "None", "summary": "None", "logo": "None", "latitude": 43.907642343009094, "longitude": -78.85242691294965}, "108230624RR0001": {"name": "ZION CHRISTIAN REFORMED CHURCH OF PEMBROKE", "designationCode": "C", "categoryCode": "39", "address": "BOX 664", "city": "PEMBROKE", "province": "ON", "country": "CA", "postalCode": "K8A6X9", "twitter": "None", "instagram": "None", "facebook": "None", "youtube": "None", "website": "None", "summary": "None", "logo": "None", "latitude": 45.826494000000054, "longitude": -77.11217449999994}, "888995842RR0001": {"name": "ZION CHURCH OF GOD IN CHRIST", "designationCode": "C", "categoryCode": "39", "address": "3100 RIDGEWAY DRIVE #36", "city": "MISSISSAUGA", "province": "ON", "country": "CA", "postalCode": "L5L5M5", "twitter": "None", "instagram": "None", "facebook": "None", "youtube": "None", "website": "None", "summary": "None", "logo": "None", "latitude": 43.5184784878819, "longitude": -79.69164210935425}, "865721559RR0001": {"name": "ZION EMC FELLOWSHIP, DIDSBURY", "designationCode": "C", "categoryCode": "39", "address": "BOX 686", "city": "DIDSBURY", "province": "AB", "country": "CA", "postalCode": "T0M0W0", "twitter": "None", "instagram": "None", "facebook": "None", "youtube": "None", "website": "None", "summary": "None", "logo": "None", "latitude": 51.666270000000054, "longitude": -114.13792999999998}, "108230640RR0001": {"name": "ZION EVANGELICAL LUTHERAN CHURCH", "designationCode": "C", "categoryCode": "32", "address": "208 ERIE STREET", "city": "STRATFORD", "province": "ON", "country": "CA", "postalCode": "N5A2M8", "twitter": "None", "instagram": "None", "facebook": "None", "youtube": "None", "website": "None", "summary": "None", "logo": "None", "latitude": 43.367180667468396, "longitude": -80.98648667244939}, "108230707RR0001": {"name": "ZION EVANGELICAL LUTHERAN CHURCH", "designationCode": "C", "categoryCode": "32", "address": "5417-40 AVENUE", "city": "WETASKIWIN", "province": "AB", "country": "CA", "postalCode": "T9A0A7", "twitter": "None", "instagram": "None", "facebook": "None", "youtube": "None", "website": "None", "summary": "None", "logo": "None", "latitude": 52.95976849899041, "longitude": -113.38679347446477}, "108230806RR0001": {"name": "ZION EVANGELICAL LUTHERAN CHURCH", "designationCode": "C", "categoryCode": "32", "address": "1105 SCOTT ST", "city": "FORT FRANCES", "province": "ON", "country": "CA", "postalCode": "P9A1J7", "twitter": "None", "instagram": "None", "facebook": "None", "youtube": "None", "website": "None", "summary": "None", "logo": "None", "latitude": 48.609948603401435, "longitude": -93.37422150312376}, "119308526RR0001": {"name": "ZION EVANGELICAL LUTHERAN CHURCH", "designationCode": "C", "categoryCode": "32", "address": "144-7TH ST", "city": "MORDEN", "province": "MB", "country": "CA", "postalCode": "R6M1E2", "twitter": "None", "instagram": "None", "facebook": "None", "youtube": "None", "website": "None", "summary": "None", "logo": "None", "latitude": 49.190429959452125, "longitude": -98.10040512348523}, "130153307RR0001": {"name": "ZION EVANGELICAL LUTHERAN CHURCH", "designationCode": "C", "categoryCode": "32", "address": "323 4TH AVENUE SOUTH", "city": "SASKATOON", "province": "SK", "country": "CA", "postalCode": "S7K1N3", "twitter": "None", "instagram": "None", "facebook": "None", "youtube": "None", "website": "None", "summary": "None", "logo": "None", "latitude": 52.12414786317729, "longitude": -106.66237315782763}}