{"140755919RR0001": {"name": "THE BROCKVILLE COMMUNITY CHOIR", "designationCode": "C", "categoryCode": "22", "address": "PO BOX 1754", "city": "BROCKVILLE", "province": "ON", "country": "CA", "postalCode": "K6V6K8", "twitter": "None", "instagram": "None", "facebook": "None", "youtube": "None", "website": "None", "summary": "None", "logo": "None", "latitude": 44.59037100000006, "longitude": -75.68301049999994}, "889092284RR0001": {"name": "THE BROCKVILLE COMMUNITY FOUNDATION", "designationCode": "A", "categoryCode": "03", "address": "P.O. BOX 155", "city": "BROCKVILLE", "province": "ON", "country": "CA", "postalCode": "K6V5V2", "twitter": "None", "instagram": "None", "facebook": "None", "youtube": "None", "website": "None", "summary": "None", "logo": "None", "latitude": 44.59037100000006, "longitude": -75.68301049999994}, "886415017RR0001": {"name": "THE BROCKVILLE CONCERT BAND", "designationCode": "C", "categoryCode": "22", "address": "PO BOX 192", "city": "MAITLAND", "province": "ON", "country": "CA", "postalCode": "K0E1P0", "twitter": "None", "instagram": "None", "facebook": "None", "youtube": "None", "website": "None", "summary": "None", "logo": "None", "latitude": 44.639343438512455, "longitude": -75.61185487672552}, "119217438RR0001": {"name": "THE BROCKVILLE ROWING CLUB INCORPORATED", "designationCode": "C", "categoryCode": "56", "address": "P.O.BOX 112", "city": "BROCKVILLE", "province": "ON", "country": "CA", "postalCode": "K6V5T7", "twitter": "None", "instagram": "None", "facebook": "None", "youtube": "None", "website": "None", "summary": "None", "logo": "None", "latitude": 44.59037100000006, "longitude": -75.68301049999994}, "118819713RR0001": {"name": "THE BROCKVILLE THEATRE GUILD", "designationCode": "C", "categoryCode": "22", "address": "P.O. BOX 474", "city": "BROCKVILLE", "province": "ON", "country": "CA", "postalCode": "K6V5V6", "twitter": "None", "instagram": "None", "facebook": "None", "youtube": "None", "website": "None", "summary": "None", "logo": "None", "latitude": 44.59037100000006, "longitude": -75.68301049999994}, "888786241RR0001": {"name": "THE BRONTE HISTORICAL SOCIETY", "designationCode": "C", "categoryCode": "52", "address": "7 WEST RIVER ST", "city": "OAKVILLE", "province": "ON", "country": "CA", "postalCode": "L6L6N9", "twitter": "None", "instagram": "None", "facebook": "None", "youtube": "None", "website": "None", "summary": "None", "logo": "None", "latitude": 43.39007192091284, "longitude": -79.71096467539968}, "887638484RR0001": {"name": "THE BROOKE FOUNDATION", "designationCode": "B", "categoryCode": "05", "address": "1610 - 365 BLOOR ST E", "city": "TORONTO", "province": "ON", "country": "CA", "postalCode": "M4W3L4", "twitter": "None", "instagram": "None", "facebook": "None", "youtube": "None", "website": "None", "summary": "None", "logo": "None", "latitude": 43.67244585876691, "longitude": -79.37634608562912}, "106814015RR0001": {"name": "THE BROOKS PUBLIC LIBRARY BOARD", "designationCode": "C", "categoryCode": "50", "address": "PO BOX 1149", "city": "BROOKS", "province": "AB", "country": "CA", "postalCode": "T1R1B9", "twitter": "None", "instagram": "None", "facebook": "None", "youtube": "None", "website": "None", "summary": "None", "logo": "None", "latitude": 50.56584900000006, "longitude": -111.89848399999994}, "806457149RR0001": {"name": "THE BROPHY FAMILY FOUNDATION", "designationCode": "B", "categoryCode": "05", "address": "1600 JALNA AVENUE", "city": "MISSISSAUGA", "province": "ON", "country": "CA", "postalCode": "L5J1S7", "twitter": "None", "instagram": "None", "facebook": "None", "youtube": "None", "website": "None", "summary": "None", "logo": "None", "latitude": 43.52562621507318, "longitude": -79.62642177430926}, "867574337RR0001": {"name": "THE BROSSARD EVANGELISTIC CENTRE", "designationCode": "C", "categoryCode": "36", "address": "2540, RUE AUBRY", "city": "BROSSARD", "province": "QC", "country": "CA", "postalCode": "J4Z3N5", "twitter": "None", "instagram": "None", "facebook": "None", "youtube": "None", "website": "None", "summary": "None", "logo": "None", "latitude": 45.47709830945246, "longitude": -73.45157119069178}, "892315961RR0001": {"name": "THE BROTHERHOOD CHRISTIAN CENTRE OF SCARBOROUGH", "designationCode": "C", "categoryCode": "09", "address": "212 ANNE ST N", "city": "BARRIE", "province": "ON", "country": "CA", "postalCode": "L4N2C2", "twitter": "None", "instagram": "None", "facebook": "None", "youtube": "None", "website": "None", "summary": "None", "logo": "None", "latitude": 44.393898615038424, "longitude": -79.7151242714524}, "108074196RR0001": {"name": "THE BROTHERHOOD OF UKRAINIAN CATHOLICS OF CANADA (ALBERTA BRANCH)", "designationCode": "C", "categoryCode": "09", "address": "201 - 9645 108 AVE NW", "city": "EDMONTON", "province": "AB", "country": "CA", "postalCode": "T5H1A3", "twitter": "None", "instagram": "None", "facebook": "None", "youtube": "None", "website": "None", "summary": "None", "logo": "None", "latitude": 53.55374847463607, "longitude": -113.49006750552942}, "106814411RR0001": {"name": "THE BROTHERS OF THE CHRISTIAN SCHOOLS OF ONTARIO", "designationCode": "C", "categoryCode": "46", "address": "101 MASON BLVD", "city": "TORONTO", "province": "ON", "country": "CA", "postalCode": "M5M3E2", "twitter": "None", "instagram": "None", "facebook": "None", "youtube": "None", "website": "None", "summary": "None", "logo": "None", "latitude": 43.74092769917456, "longitude": -79.41138910886426}, "893019760RR0001": {"name": "THE BROWNING WATT FOUNDATION", "designationCode": "B", "categoryCode": "03", "address": "130 KING ST. WEST, 20TH FLOOR BOX 430 STN FIRST CANADIAN PL", "city": "TORONTO", "province": "ON", "country": "CA", "postalCode": "M5X1K1", "twitter": "None", "instagram": "None", "facebook": "None", "youtube": "None", "website": "None", "summary": "None", "logo": "None"}, "888364064RR0001": {"name": "THE BRUCE CEMETERY COMMITTEE", "designationCode": "C", "categoryCode": "49", "address": "NEW PRESIDENT                 BOX 41", "city": "BRUCE", "province": "AB", "country": "CA", "postalCode": "T0B0R0", "twitter": "None", "instagram": "None", "facebook": "None", "youtube": "None", "website": "None", "summary": "None", "logo": "None", "latitude": 53.172816000000054, "longitude": -112.03916299999993}, "119217529RR0001": {"name": "THE BRUCE CONGREGATION OF JEHOVAH'S WITNESSES", "designationCode": "C", "categoryCode": "61", "address": "BOX 32", "city": "BRUCE", "province": "AB", "country": "CA", "postalCode": "T0B0R0", "twitter": "None", "instagram": "None", "facebook": "None", "youtube": "None", "website": "None", "summary": "None", "logo": "None", "latitude": 53.17282000000006, "longitude": -112.03915999999998}, "119217537RR0001": {"name": "THE BRUCE COUNTY HISTORICAL SOCIETY", "designationCode": "C", "categoryCode": "52", "address": "PO BOX 51", "city": "TIVERTON", "province": "ON", "country": "CA", "postalCode": "N0G2T0", "twitter": "None", "instagram": "None", "facebook": "None", "youtube": "None", "website": "None", "summary": "None", "logo": "None", "latitude": 44.267900000000054, "longitude": -81.54410999999999}, "119217578RR0001": {"name": "THE BRUCE TRAIL CONSERVANCY", "designationCode": "C", "categoryCode": "56", "address": "PO BOX 857", "city": "HAMILTON", "province": "ON", "country": "CA", "postalCode": "L8N3N9", "twitter": "None", "instagram": "None", "facebook": "None", "youtube": "None", "website": "None", "summary": "None", "logo": "None", "latitude": 43.261962000000054, "longitude": -79.88800399999994}, "892926643RR0001": {"name": "THE BRUENDL FOUNDATION", "designationCode": "B", "categoryCode": "03", "address": "1346 CAMBRIDGE ROAD", "city": "WEST VANCOUVER", "province": "BC", "country": "CA", "postalCode": "V7S2M8", "twitter": "None", "instagram": "None", "facebook": "None", "youtube": "None", "website": "None", "summary": "None", "logo": "None", "latitude": 49.34697322119002, "longitude": -123.15870413390853}, "883422123RR0001": {"name": "THE BRUMARA FOUNDATION", "designationCode": "B", "categoryCode": "03", "address": "98 WOODSTONE AVE.", "city": "RICHMOND HILL", "province": "ON", "country": "CA", "postalCode": "L4S1G8", "twitter": "None", "instagram": "None", "facebook": "None", "youtube": "None", "website": "None", "summary": "None", "logo": "None", "latitude": 43.908317988631694, "longitude": -79.43391148087007}, "891027948RR0001": {"name": "THE BUCHAN FAMILY FOUNDATION", "designationCode": "B", "categoryCode": "03", "address": "77 KING STREET WEST           PO BOX 157, SUITE 310", "city": "TORONTO", "province": "ON", "country": "CA", "postalCode": "M5K1H1", "twitter": "None", "instagram": "None", "facebook": "None", "youtube": "None", "website": "None", "summary": "None", "logo": "None", "latitude": 43.648190845375034, "longitude": -79.38214471980503}, "889077046RR0001": {"name": "THE BUCHANAN MANOR SOCIETY", "designationCode": "C", "categoryCode": "09", "address": "11910-40 STREET", "city": "EDMONTON", "province": "AB", "country": "CA", "postalCode": "T5W2K9", "twitter": "None", "instagram": "None", "facebook": "None", "youtube": "None", "website": "None", "summary": "None", "logo": "None", "latitude": 53.572068, "longitude": -113.40304774372413}, "877333625RR0001": {"name": "THE BUCKINGHAM CHARITABLE FOUNDATION", "designationCode": "B", "categoryCode": "03", "address": "467 LYTTON BLVD.", "city": "TORONTO", "province": "ON", "country": "CA", "postalCode": "M5N1S5", "twitter": "None", "instagram": "None", "facebook": "None", "youtube": "None", "website": "None", "summary": "None", "logo": "None", "latitude": 43.71100578377299, "longitude": -79.42572693130018}, "878899004RR0001": {"name": "THE BUCKLAND CO-OPERATIVE VOLUNTEER FIREFIGHTERS", "designationCode": "C", "categoryCode": "59", "address": "BOX 823", "city": "PRINCE ALBERT", "province": "SK", "country": "CA", "postalCode": "S6V5S4", "twitter": "None", "instagram": "None", "facebook": "None", "youtube": "None", "website": "None", "summary": "None", "logo": "None", "latitude": 53.199456000000055, "longitude": -105.74863099999993}, "891120545RR0001": {"name": "THE BUDD SUGARMAN FOUNDATION", "designationCode": "B", "categoryCode": "05", "address": "125 DUNVEGAN RD", "city": "TORONTO", "province": "ON", "country": "CA", "postalCode": "M4V2R2", "twitter": "None", "instagram": "None", "facebook": "None", "youtube": "None", "website": "None", "summary": "None", "logo": "None", "latitude": 43.692997169311504, "longitude": -79.40758091156466}, "118820745RR0001": {"name": "THE BUDDHIST ASSOCIATION OF CANADA", "designationCode": "C", "categoryCode": "43", "address": "7254 BAYVIEW AVE.", "city": "THORNHILL", "province": "ON", "country": "CA", "postalCode": "L3T2R6", "twitter": "None", "instagram": "None", "facebook": "None", "youtube": "None", "website": "None", "summary": "None", "logo": "None", "latitude": 43.809355362744604, "longitude": -79.39895868269902}, "878348960RR0001": {"name": "THE BUDDHIST MEDITATION SOCIETY OF NORTHERN BRITISH COLUMBIA", "designationCode": "C", "categoryCode": "35", "address": "13455 SCOTT ROAD", "city": "PRINCE GEORGE", "province": "BC", "country": "CA", "postalCode": "V2N6A8", "twitter": "None", "instagram": "None", "facebook": "None", "youtube": "None", "website": "None", "summary": "None", "logo": "None", "latitude": 53.803845266372896, "longitude": -122.55830955565246}, "119217610RR0001": {"name": "THE BUELAH HOUSE OF GOD", "designationCode": "B", "categoryCode": "39", "address": "120 DIGBY CRESCENT", "city": "MARKHAM", "province": "ON", "country": "CA", "postalCode": "L3R7H1", "twitter": "None", "instagram": "None", "facebook": "None", "youtube": "None", "website": "None", "summary": "None", "logo": "None", "latitude": 43.83315280930823, "longitude": -79.29179729211153}, "884815028RR0001": {"name": "THE BUILDERS CHURCH", "designationCode": "C", "categoryCode": "31", "address": "629 MARKHAM RD. PO BOX 55512", "city": "SCARBOROUGH", "province": "ON", "country": "CA", "postalCode": "M1H3G7", "twitter": "None", "instagram": "None", "facebook": "None", "youtube": "None", "website": "None", "summary": "None", "logo": "None", "latitude": 43.7604403748056, "longitude": -79.22549703623059}, "889724969RR0001": {"name": "THE BUILDING MAINTENANCE FUND OF CONGREGATION BETHEL", "designationCode": "A", "categoryCode": "45", "address": "2525 MARK AVENUE", "city": "WINDSOR", "province": "ON", "country": "CA", "postalCode": "N9E2W2", "twitter": "None", "instagram": "None", "facebook": "None", "youtube": "None", "website": "None", "summary": "None", "logo": "None", "latitude": 42.27383457034461, "longitude": -83.03426057761529}, "865247332RR0001": {"name": "THE BULKLEY VALLEY BRAIN INJURY ASSOCIATION", "designationCode": "C", "categoryCode": "11", "address": "BOX 634", "city": "SMITHERS", "province": "BC", "country": "CA", "postalCode": "V0J2N0", "twitter": "None", "instagram": "None", "facebook": "None", "youtube": "None", "website": "None", "summary": "None", "logo": "None", "latitude": 54.78190002943043, "longitude": -127.16272999999995}, "106817661RR0001": {"name": "THE BULKLEY VALLEY CHILD DEVELOPMENT CENTRE SOCIETY", "designationCode": "C", "categoryCode": "11", "address": "BOX 995", "city": "SMITHERS", "province": "BC", "country": "CA", "postalCode": "V0J2N0", "twitter": "None", "instagram": "None", "facebook": "None", "youtube": "None", "website": "None", "summary": "None", "logo": "None", "latitude": 54.78190002943043, "longitude": -127.16272999999995}, "890408867RR0001": {"name": "THE BULLER FOUNDATION INC", "designationCode": "B", "categoryCode": "43", "address": "7 THYME ROAD", "city": "WINNIPEG", "province": "MB", "country": "CA", "postalCode": "R2E1J7", "twitter": "None", "instagram": "None", "facebook": "None", "youtube": "None", "website": "None", "summary": "None", "logo": "None", "latitude": 49.967317542847496, "longitude": -97.02563842186511}, "890800741RR0001": {"name": "THE BUNKER MILITARY MUSEUM OF COBALT", "designationCode": "C", "categoryCode": "50", "address": "24 PROSPECT STREET            POST OFFICE BOX 848", "city": "COBALT", "province": "ON", "country": "CA", "postalCode": "P0J1C0", "twitter": "None", "instagram": "None", "facebook": "None", "youtube": "None", "website": "None", "summary": "None", "logo": "None", "latitude": 47.39626912149362, "longitude": -79.68618782488544}, "108104340RR0001": {"name": "THE BUNKER YOUTH MINISTRY INC.", "designationCode": "C", "categoryCode": "59", "address": "PO BOX 1633", "city": "WINKLER", "province": "MB", "country": "CA", "postalCode": "R6W4B5", "twitter": "None", "instagram": "None", "facebook": "None", "youtube": "None", "website": "None", "summary": "None", "logo": "None", "latitude": 49.17773400000006, "longitude": -97.93841299999994}, "139006605RR0001": {"name": "THE BURGESS SHALE GEOSCIENCE FOUNDATION", "designationCode": "C", "categoryCode": "20", "address": "BOX 148", "city": "FIELD", "province": "BC", "country": "CA", "postalCode": "V0A1G0", "twitter": "None", "instagram": "None", "facebook": "None", "youtube": "None", "website": "None", "summary": "None", "logo": "None", "latitude": 51.38917995140029, "longitude": -116.4925305}, "130489073RR0001": {"name": "THE BURLINGTON CHRISTIAN REFORMED CHURCH", "designationCode": "C", "categoryCode": "39", "address": "3416 NEW STREET", "city": "BURLINGTON", "province": "ON", "country": "CA", "postalCode": "L7N1N3", "twitter": "None", "instagram": "None", "facebook": "None", "youtube": "None", "website": "None", "summary": "None", "logo": "None", "latitude": 43.34942993476265, "longitude": -79.77315097818702}, "119217693RR0001": {"name": "THE BURLINGTON HISTORICAL SOCIETY", "designationCode": "C", "categoryCode": "50", "address": "PO BOX 93164                  1450 HEADON ROAD", "city": "BURLINGTON", "province": "ON", "country": "CA", "postalCode": "L7M4A3", "twitter": "None", "instagram": "None", "facebook": "None", "youtube": "None", "website": "None", "summary": "None", "logo": "None", "latitude": 43.373694794593035, "longitude": -79.8093847315191}, "129535118RR0001": {"name": "THE BURNABY HISTORICAL SOCIETY", "designationCode": "C", "categoryCode": "52", "address": "6501 DEER LAKE AVE", "city": "BURNABY", "province": "BC", "country": "CA", "postalCode": "V5G3T6", "twitter": "None", "instagram": "None", "facebook": "None", "youtube": "None", "website": "None", "summary": "None", "logo": "None", "latitude": 49.24045040466602, "longitude": -122.96802652596055}, "130514839RR0001": {"name": "THE BURNABY MULTICULTURAL SOCIETY", "designationCode": "C", "categoryCode": "21", "address": "6255 NELSON AVE", "city": "BURNABY", "province": "BC", "country": "CA", "postalCode": "V5H4T5", "twitter": "None", "instagram": "None", "facebook": "None", "youtube": "None", "website": "None", "summary": "None", "logo": "None", "latitude": 49.22745660964899, "longitude": -122.99432181509881}, "887429595RR0001": {"name": "THE BURNABY WRITERS' SOCIETY", "designationCode": "C", "categoryCode": "22", "address": "6584 DEER LAKE AVENUE", "city": "BURNABY", "province": "BC", "country": "CA", "postalCode": "V5G3T7", "twitter": "None", "instagram": "None", "facebook": "None", "youtube": "None", "website": "None", "summary": "None", "logo": "None", "latitude": 49.23858407959151, "longitude": -122.96783321624007}, "129252847RR0001": {"name": "THE BURNS MEMORIAL FUND FOR CHILDREN", "designationCode": "B", "categoryCode": "09", "address": "1120-105 12 AVE SE", "city": "CALGARY", "province": "AB", "country": "CA", "postalCode": "T2G1A1", "twitter": "None", "instagram": "None", "facebook": "None", "youtube": "None", "website": "None", "summary": "None", "logo": "None", "latitude": 51.04112640495218, "longitude": -114.05409219389539}, "888445046RR0001": {"name": "THE BURNS MEMORIAL TRUST", "designationCode": "B", "categoryCode": "05", "address": "2300 - 335 8 AVE SW", "city": "CALGARY", "province": "AB", "country": "CA", "postalCode": "T2P1C9", "twitter": "None", "instagram": "None", "facebook": "None", "youtube": "None", "website": "None", "summary": "None", "logo": "None", "latitude": 51.04590663887669, "longitude": -114.07575818403993}, "882474422RR0001": {"name": "THE BURROWS COLDEN FAMILY FOUNDATION", "designationCode": "B", "categoryCode": "03", "address": "49 PENNY LANE                 RR 4", "city": "BELLEVILLE", "province": "ON", "country": "CA", "postalCode": "K8N4Z4", "twitter": "None", "instagram": "None", "facebook": "None", "youtube": "None", "website": "None", "summary": "None", "logo": "None", "latitude": 44.17336002582368, "longitude": -77.32276092501044}, "120645940RR0001": {"name": "THE BURROWS TRAIL ARTS COUNCIL INC", "designationCode": "C", "categoryCode": "22", "address": "BOX 29", "city": "MCCREARY", "province": "MB", "country": "CA", "postalCode": "R0J1B0", "twitter": "None", "instagram": "None", "facebook": "None", "youtube": "None", "website": "None", "summary": "None", "logo": "None", "latitude": 50.772380000000055, "longitude": -99.49212999999997}, "133752444RR0001": {"name": "THE BURTON CHARITABLE FOUNDATION", "designationCode": "B", "categoryCode": "03", "address": "26 SWANHURST BLVD.", "city": "MISSISSAUGA", "province": "ON", "country": "CA", "postalCode": "L5N1B7", "twitter": "None", "instagram": "None", "facebook": "None", "youtube": "None", "website": "None", "summary": "None", "logo": "None", "latitude": 43.59155942659698, "longitude": -79.72370107060439}, "884149600RR0001": {"name": "THE BUTT UGLY ANTI-TOBACCO PROGRAM SOCIETY", "designationCode": "C", "categoryCode": "57", "address": "B 102-109, 5212 48TH STREET", "city": "RED DEER", "province": "AB", "country": "CA", "postalCode": "T4N7C3", "twitter": "None", "instagram": "None", "facebook": "None", "youtube": "None", "website": "None", "summary": "None", "logo": "None", "latitude": 52.26715747489748, "longitude": -113.81868}, "897779518RR0001": {"name": "THE BUTTERFLY LEARNING CENTRE", "designationCode": "C", "categoryCode": "20", "address": "30 BATHURST DRIVE", "city": "WATERLOO", "province": "ON", "country": "CA", "postalCode": "N2V1V6", "twitter": "None", "instagram": "None", "facebook": "None", "youtube": "None", "website": "None", "summary": "None", "logo": "None", "latitude": 43.50642208018369, "longitude": -80.53654349255548}, "119108934RR0001": {"name": "THE BUXTON HISTORICAL SOCIETY", "designationCode": "C", "categoryCode": "50", "address": "21975 A.D. SHADD ROAD", "city": "NORTH BUXTON", "province": "ON", "country": "CA", "postalCode": "N0P1Y0", "twitter": "None", "instagram": "None", "facebook": "None", "youtube": "None", "website": "None", "summary": "None", "logo": "None", "latitude": 42.31795766459305, "longitude": -82.2343492604846}, "891608069RR0001": {"name": "THE BYEMOOR LADIES HOME CIRCLE CLUB", "designationCode": "C", "categoryCode": "59", "address": "BOX 61", "city": "BYEMOOR", "province": "AB", "country": "CA", "postalCode": "T0J0L0", "twitter": "None", "instagram": "None", "facebook": "None", "youtube": "None", "website": "None", "summary": "None", "logo": "None", "latitude": 51.98075000000006, "longitude": -112.28824999999995}, "893038240RR0001": {"name": "THE BYRON CRAIG STEEVES MULTIPLE SCLEROSIS SCHOLARSHIP FUND", "designationCode": "C", "categoryCode": "21", "address": "134 NATHALIE STREET", "city": "DIEPPE", "province": "NB", "country": "CA", "postalCode": "E1A8T9", "twitter": "None", "instagram": "None", "facebook": "None", "youtube": "None", "website": "None", "summary": "None", "logo": "None", "latitude": 46.08048252013954, "longitude": -64.6905702846097}, "124729898RR0001": {"name": "THE BYTOWN FIRE BRIGADE", "designationCode": "C", "categoryCode": "50", "address": "1-2880 SHEFFIELD ROAD", "city": "OTTAWA", "province": "ON", "country": "CA", "postalCode": "K1B1A4", "twitter": "None", "instagram": "None", "facebook": "None", "youtube": "None", "website": "None", "summary": "None", "logo": "None", "latitude": 45.396462091580666, "longitude": -75.60154067309107}, "119217834RR0001": {"name": "THE BYTOWN GUNNERS ORDER", "designationCode": "C", "categoryCode": "51", "address": "16 EDGEBROOK RD", "city": "NEPEAN", "province": "ON", "country": "CA", "postalCode": "K2H6C3", "twitter": "None", "instagram": "None", "facebook": "None", "youtube": "None", "website": "None", "summary": "None", "logo": "None", "latitude": 45.3216774360034, "longitude": -75.82445979182307}, "867207201RR0001": {"name": "THE BYTOWN MUSEUM", "designationCode": "C", "categoryCode": "50", "address": "P.O. BOX 523                  STATION B", "city": "OTTAWA", "province": "ON", "country": "CA", "postalCode": "K1P5P6", "twitter": "None", "instagram": "None", "facebook": "None", "youtube": "None", "website": "None", "summary": "None", "logo": "None", "latitude": 45.42177300000006, "longitude": -75.69115999999994}, "119221489RR0001": {"name": "THE C DENNIS FLYNN FOUNDATION", "designationCode": "A", "categoryCode": "03", "address": "MARY FLYNN-GUGLIETTI          17 KINGSBOROUGH CRESCENT", "city": "TORONTO", "province": "ON", "country": "CA", "postalCode": "M9R2T8", "twitter": "None", "instagram": "None", "facebook": "None", "youtube": "None", "website": "None", "summary": "None", "logo": "None", "latitude": 43.6800589114491, "longitude": -79.55035711864508}, "119221737RR0001": {"name": "THE C G I T BOARD OF EDMONTON SOCIETY", "designationCode": "C", "categoryCode": "56", "address": "PO BOX 66067", "city": "EDMONTON", "province": "AB", "country": "CA", "postalCode": "T6J6T4", "twitter": "None", "instagram": "None", "facebook": "None", "youtube": "None", "website": "None", "summary": "None", "logo": "None", "latitude": 53.45952900000006, "longitude": -113.52241249999994}, "889674990RR0001": {"name": "THE C G JUNG SOCIETY OF ALBERTA IN CALGARY", "designationCode": "C", "categoryCode": "20", "address": "23 GRAFTON DR SW", "city": "CALGARY", "province": "AB", "country": "CA", "postalCode": "T3E4W1", "twitter": "None", "instagram": "None", "facebook": "None", "youtube": "None", "website": "None", "summary": "None", "logo": "None", "latitude": 51.014802510675814, "longitude": -114.142842}, "119221745RR0001": {"name": "THE C G JUNG SOCIETY OF VANCOUVER", "designationCode": "C", "categoryCode": "21", "address": "PO BOX 219                    1917 W 4TH AVE", "city": "VANCOUVER", "province": "BC", "country": "CA", "postalCode": "V6J1M7", "twitter": "None", "instagram": "None", "facebook": "None", "youtube": "None", "website": "None", "summary": "None", "logo": "None"}, "119229185RR0001": {"name": "THE C S R TRUSTEES", "designationCode": "C", "categoryCode": "51", "address": "15-3958 CEDAR HILL RD", "city": "VICTORIA", "province": "BC", "country": "CA", "postalCode": "V8N3B8", "twitter": "None", "instagram": "None", "facebook": "None", "youtube": "None", "website": "None", "summary": "None", "logo": "None", "latitude": 48.469256672767386, "longitude": -123.33527309736381}, "119217859RR0001": {"name": "THE CABRI AND DISTRICT DONORS CHOICE COMBINED APPEAL", "designationCode": "C", "categoryCode": "05", "address": "BOX 131", "city": "PENNANT", "province": "SK", "country": "CA", "postalCode": "S0N1X0", "twitter": "None", "instagram": "None", "facebook": "None", "youtube": "None", "website": "None", "summary": "None", "logo": "None", "latitude": 50.53293000000008, "longitude": -108.22744999999998}, "119217875RR0001": {"name": "THE CADOGAN AGRICULTURAL SOCIETY", "designationCode": "C", "categoryCode": "56", "address": "BOX 28", "city": "CADOGAN", "province": "AB", "country": "CA", "postalCode": "T0B0T0", "twitter": "None", "instagram": "None", "facebook": "None", "youtube": "None", "website": "None", "summary": "None", "logo": "None", "latitude": 52.31970000000007, "longitude": -110.45016999999996}, "818683146RR0001": {"name": "THE CAIA CONNECTION", "designationCode": "C", "categoryCode": "01", "address": "560 BOBLAW PL", "city": "VICTORIA", "province": "BC", "country": "CA", "postalCode": "V9C3Z1", "twitter": "None", "instagram": "None", "facebook": "None", "youtube": "None", "website": "None", "summary": "None", "logo": "None", "latitude": 48.359213642148134, "longitude": -123.5477710670412}, "872125273RR0001": {"name": "THE CAIRNS FAMILY CHARITABLE FOUNDATION", "designationCode": "B", "categoryCode": "03", "address": "385 GEORGE STREET NORTH       UNIT 1", "city": "CAMBRIDGE", "province": "ON", "country": "CA", "postalCode": "N1S4X5", "twitter": "None", "instagram": "None", "facebook": "None", "youtube": "None", "website": "None", "summary": "None", "logo": "None", "latitude": 43.37452120901364, "longitude": -80.33119434748114}, "865331573RR0001": {"name": "THE CALABOGIE BIBLE FELLOWSHIP", "designationCode": "C", "categoryCode": "39", "address": "P O BOX 149", "city": "CALABOGIE", "province": "ON", "country": "CA", "postalCode": "K0J1H0", "twitter": "None", "instagram": "None", "facebook": "None", "youtube": "None", "website": "None", "summary": "None", "logo": "None", "latitude": 45.390308555409, "longitude": -76.57315519536785}, "844329961RR0001": {"name": "THE CALDWELL FOUNDATION", "designationCode": "B", "categoryCode": "05", "address": "150 KING STREET W., SUITE 1710CALDWELL SECURITIES LTD", "city": "TORONTO", "province": "ON", "country": "CA", "postalCode": "M5H1J9", "twitter": "None", "instagram": "None", "facebook": "None", "youtube": "None", "website": "None", "summary": "None", "logo": "None", "latitude": 43.64784614741163, "longitude": -79.38401990787108}, "119217891RR0001": {"name": "THE CALDWELL RESIDENCES/LES RESIDENCES CALDWELL", "designationCode": "C", "categoryCode": "01", "address": "5750 LEMIEUX AVENUE           SUITE 116", "city": "MONTR\u00c9AL", "province": "QC", "country": "CA", "postalCode": "H3W3G1", "twitter": "None", "instagram": "None", "facebook": "None", "youtube": "None", "website": "None", "summary": "None", "logo": "None", "latitude": 45.49104186620705, "longitude": -73.63544286193653}, "133564096RR0001": {"name": "THE CALEDON INSTITUTE OF SOCIAL POLICY", "designationCode": "C", "categoryCode": "21", "address": "1600 - 77 BLOOR ST W", "city": "TORONTO", "province": "ON", "country": "CA", "postalCode": "M5S1M2", "twitter": "None", "instagram": "None", "facebook": "None", "youtube": "None", "website": "None", "summary": "None", "logo": "None", "latitude": 43.667372648743196, "longitude": -79.40049643191246}, "890669799RR0001": {"name": "THE CALEDON TOWNHALL PLAYERS", "designationCode": "C", "categoryCode": "22", "address": "18365 HURONTARIO ST", "city": "CALEDON", "province": "ON", "country": "CA", "postalCode": "L7K0X7", "twitter": "None", "instagram": "None", "facebook": "None", "youtube": "None", "website": "None", "summary": "None", "logo": "None", "latitude": 43.85880818604591, "longitude": -79.99387189234784}, "890753577RR0001": {"name": "THE CALEDONIAN ORCHESTRA SOCIETY", "designationCode": "C", "categoryCode": "22", "address": "3980 ALTON RD", "city": "ALTON", "province": "NS", "country": "CA", "postalCode": "B0N2J0", "twitter": "None", "instagram": "None", "facebook": "None", "youtube": "None", "website": "None", "summary": "None", "logo": "None", "latitude": 45.19038367251415, "longitude": -63.30410320990861}, "119217925RR0001": {"name": "THE CALGARY BETWEEN FRIENDS CLUB-FUN AND FELLOWSHIP FOR DISABLED YOUTH", "designationCode": "C", "categoryCode": "56", "address": "205-8989 MACLEOD TRAIL SW", "city": "CALGARY", "province": "AB", "country": "CA", "postalCode": "T2H0M2", "twitter": "None", "instagram": "None", "facebook": "None", "youtube": "None", "website": "None", "summary": "None", "logo": "None", "latitude": 50.99439991848855, "longitude": -114.0716953460148}, "106830128RR0002": {"name": "THE CALGARY BOARD OF EDUCATION", "designationCode": "C", "categoryCode": "20", "address": "THE CALGARY BOARD OF EDUCATION1221-8 TH ST SW", "city": "CALGARY", "province": "AB", "country": "CA", "postalCode": "T2R0L4", "twitter": "None", "instagram": "None", "facebook": "None", "youtube": "None", "website": "None", "summary": "None", "logo": "None", "latitude": 51.041022000000055, "longitude": -114.08188399999993}, "106830169RR0001": {"name": "THE CALGARY BOYS' CHOIR", "designationCode": "C", "categoryCode": "22", "address": "2820 18 ST NW", "city": "CALGARY", "province": "AB", "country": "CA", "postalCode": "T2M3V1", "twitter": "None", "instagram": "None", "facebook": "None", "youtube": "None", "website": "None", "summary": "None", "logo": "None", "latitude": 51.0773778753823, "longitude": -114.1050104862371}, "893743971RR0001": {"name": "THE CALGARY BRIDGE FOUNDATION FOR YOUTHS", "designationCode": "C", "categoryCode": "09", "address": "620 - 5920 MACLEOD TRAIL SW", "city": "CALGARY", "province": "AB", "country": "CA", "postalCode": "T2H0K2", "twitter": "None", "instagram": "None", "facebook": "None", "youtube": "None", "website": "None", "summary": "None", "logo": "None", "latitude": 51.000507, "longitude": -114.0714373168683}, "106830300RR0001": {"name": "THE CALGARY CHINESE EVANGELICAL FREE CHURCH", "designationCode": "C", "categoryCode": "39", "address": "1706 20 AVE N W", "city": "CALGARY", "province": "AB", "country": "CA", "postalCode": "T2M1H1", "twitter": "None", "instagram": "None", "facebook": "None", "youtube": "None", "website": "None", "summary": "None", "logo": "None", "latitude": 51.0704894787926, "longitude": -114.10005180391252}, "118823327RR0001": {"name": "THE CALGARY CHINESE PUBLIC SCHOOL SOCIETY", "designationCode": "C", "categoryCode": "20", "address": "126 2 AVE SW", "city": "CALGARY", "province": "AB", "country": "CA", "postalCode": "T2P0B9", "twitter": "None", "instagram": "None", "facebook": "None", "youtube": "None", "website": "None", "summary": "None", "logo": "None", "latitude": 51.0512664532574, "longitude": -114.06411055536961}, "106830342RR0001": {"name": "THE CALGARY CHURCH OF CHRIST", "designationCode": "C", "categoryCode": "39", "address": "4030-MARYVALE DRIVE NE", "city": "CALGARY", "province": "AB", "country": "CA", "postalCode": "T2A2S8", "twitter": "None", "instagram": "None", "facebook": "None", "youtube": "None", "website": "None", "summary": "None", "logo": "None", "latitude": 51.05624146378896, "longitude": -113.97621116472388}, "871579629RR0001": {"name": "THE CALGARY CIVIC TRUST SOCIETY", "designationCode": "C", "categoryCode": "52", "address": "1929 5A ST SW", "city": "CALGARY", "province": "AB", "country": "CA", "postalCode": "T2S2G2", "twitter": "None", "instagram": "None", "facebook": "None", "youtube": "None", "website": "None", "summary": "None", "logo": "None", "latitude": 51.0358594467352, "longitude": -114.07557542784186}, "875054223RR0001": {"name": "THE CALGARY CONSTRUCTION ASSOCIATION EDUCATION FUND", "designationCode": "C", "categoryCode": "21", "address": "2725 12 ST NE", "city": "CALGARY", "province": "AB", "country": "CA", "postalCode": "T2E7J2", "twitter": "None", "instagram": "None", "facebook": "None", "youtube": "None", "website": "None", "summary": "None", "logo": "None", "latitude": 51.076584, "longitude": -114.02535769582768}, "132709833RR0001": {"name": "THE CALGARY FIDDLERS ASSOCIATION", "designationCode": "C", "categoryCode": "22", "address": "P.O.BOX 74086 STRATHCONA SW", "city": "CALGARY", "province": "AB", "country": "CA", "postalCode": "T3H3B6", "twitter": "None", "instagram": "None", "facebook": "None", "youtube": "None", "website": "None", "summary": "None", "logo": "None", "latitude": 51.042402459677376, "longitude": -114.1750524072577}, "895538809RR0001": {"name": "THE CALGARY FIRST SPIRITUALIST CHURCH", "designationCode": "C", "categoryCode": "39", "address": "1603 6 AVE NW", "city": "CALGARY", "province": "AB", "country": "CA", "postalCode": "T2N0W1", "twitter": "None", "instagram": "None", "facebook": "None", "youtube": "None", "website": "None", "summary": "None", "logo": "None"}, "119218006RR0001": {"name": "THE CALGARY FOLK CLUB", "designationCode": "C", "categoryCode": "22", "address": "305 - 4625 VARSITY DRIVE NW   SUITE 85", "city": "CALGARY", "province": "AB", "country": "CA", "postalCode": "T3A0Z9", "twitter": "None", "instagram": "None", "facebook": "None", "youtube": "None", "website": "None", "summary": "None", "logo": "None", "latitude": 51.09301869274061, "longitude": -114.1530987305095}, "108074436RR0001": {"name": "THE CALGARY FOUNDATION", "designationCode": "A", "categoryCode": "03", "address": "1180 - 105 12 AVE SE", "city": "CALGARY", "province": "AB", "country": "CA", "postalCode": "T2G1A1", "twitter": "None", "instagram": "None", "facebook": "None", "youtube": "None", "website": "None", "summary": "None", "logo": "None", "latitude": 51.04112640495218, "longitude": -114.05409219389539}, "106830797RR0001": {"name": "THE CALGARY JEWISH ACADEMY", "designationCode": "C", "categoryCode": "20", "address": "6700 KOOTENAY STREET S. W.", "city": "CALGARY", "province": "AB", "country": "CA", "postalCode": "T2V1P7", "twitter": "None", "instagram": "None", "facebook": "None", "youtube": "None", "website": "None", "summary": "None", "logo": "None", "latitude": 50.993743306134235, "longitude": -114.09332950747317}, "107542441RR0001": {"name": "THE CALGARY JOHN HOWARD SOCIETY", "designationCode": "C", "categoryCode": "59", "address": "917 9 AVE SE", "city": "CALGARY", "province": "AB", "country": "CA", "postalCode": "T2G0S5", "twitter": "None", "instagram": "None", "facebook": "None", "youtube": "None", "website": "None", "summary": "None", "logo": "None", "latitude": 51.04299783484343, "longitude": -114.04018106301567}, "880249503RR0001": {"name": "THE CALGARY JOY OF LIFE CENTRE FOR SPIRITUAL LIVING", "designationCode": "C", "categoryCode": "39", "address": "15411 DEER SIDE RD SE", "city": "CALGARY", "province": "AB", "country": "CA", "postalCode": "T2J5N1", "twitter": "None", "instagram": "None", "facebook": "None", "youtube": "None", "website": "None", "summary": "None", "logo": "None", "latitude": 50.917104502914185, "longitude": -114.00569704982969}, "119218063RR0001": {"name": "THE CALGARY KOREAN SCHOOL", "designationCode": "C", "categoryCode": "20", "address": "19 COPPERFIELD CLOSE SE", "city": "CALGARY", "province": "AB", "country": "CA", "postalCode": "T2Z4L2", "twitter": "None", "instagram": "None", "facebook": "None", "youtube": "None", "website": "None", "summary": "None", "logo": "None", "latitude": 50.91029052899766, "longitude": -113.9426145313636}, "863841219RR0001": {"name": "THE CALGARY MINERVA FUNDRAISING FOUNDATION", "designationCode": "A", "categoryCode": "03", "address": "5000 PETRO-CANADA CENTRE      150 - 6TH AVE SW", "city": "CALGARY", "province": "AB", "country": "CA", "postalCode": "T2P3Y7", "twitter": "None", "instagram": "None", "facebook": "None", "youtube": "None", "website": "None", "summary": "None", "logo": "None", "latitude": 51.04749000000004, "longitude": -114.06435999999997}, "887392462RR0001": {"name": "THE CALGARY NEW-CHURCH SOCIETY (SWEDENBORGIAN)", "designationCode": "C", "categoryCode": "39", "address": "17 ROYAL BIRCH WAY N.W.", "city": "CALGARY", "province": "AB", "country": "CA", "postalCode": "T3G5X5", "twitter": "None", "instagram": "None", "facebook": "None", "youtube": "None", "website": "None", "summary": "None", "logo": "None", "latitude": 51.14624412600268, "longitude": -114.22119578963003}, "119218071RR0001": {"name": "THE CALGARY OSTOMY SOCIETY", "designationCode": "C", "categoryCode": "11", "address": "305-4625 VARSITY DRIVE N.W.   SUITE 110", "city": "CALGARY", "province": "AB", "country": "CA", "postalCode": "T3A0Z9", "twitter": "None", "instagram": "None", "facebook": "None", "youtube": "None", "website": "None", "summary": "None", "logo": "None", "latitude": 51.092843117052894, "longitude": -114.15194516644627}, "119218089RR0001": {"name": "THE CALGARY PHILHARMONIC ORCHESTRA FOUNDATION", "designationCode": "A", "categoryCode": "23", "address": "450 - 700 4 AVE SW", "city": "CALGARY", "province": "AB", "country": "CA", "postalCode": "T2P3J4", "twitter": "None", "instagram": "None", "facebook": "None", "youtube": "None", "website": "None", "summary": "None", "logo": "None", "latitude": 51.04975949321932, "longitude": -114.0768341194818}, "795078492RR0001": {"name": "THE CALGARY RENAISSANCE SINGERS AND PLAYERS", "designationCode": "C", "categoryCode": "22", "address": "119 DALMENY BAY NW", "city": "CALGARY", "province": "AB", "country": "CA", "postalCode": "T3A1V2", "twitter": "None", "instagram": "None", "facebook": "None", "youtube": "None", "website": "None", "summary": "None", "logo": "None", "latitude": 51.11490034413427, "longitude": -114.1574303134918}, "119218097RR0001": {"name": "THE CALGARY ROTARY CLUBS FOUNDATION", "designationCode": "A", "categoryCode": "63", "address": "305 - 105 12 AVE SE", "city": "CALGARY", "province": "AB", "country": "CA", "postalCode": "T2G1A1", "twitter": "None", "instagram": "None", "facebook": "None", "youtube": "None", "website": "None", "summary": "None", "logo": "None", "latitude": 51.04136053621104, "longitude": -114.06274186372553}, "122451768RR0001": {"name": "THE CALGARY SENIOR HIGH SCHOOL ATHLETIC ASSOCIATION", "designationCode": "C", "categoryCode": "21", "address": "ST. PAUL CENTER               124 24TH AVE NE", "city": "CALGARY", "province": "AB", "country": "CA", "postalCode": "T2E1W6", "twitter": "None", "instagram": "None", "facebook": "None", "youtube": "None", "website": "None", "summary": "None", "logo": "None", "latitude": 51.07432826714324, "longitude": -114.06180126426914}, "108074469RR0001": {"name": "THE CALGARY SOCIETY FOR CHRISTIAN EDUCATION", "designationCode": "C", "categoryCode": "20", "address": "5029 26 AVE SW", "city": "CALGARY", "province": "AB", "country": "CA", "postalCode": "T3E0R5", "twitter": "None", "instagram": "None", "facebook": "None", "youtube": "None", "website": "None", "summary": "None", "logo": "None", "latitude": 51.03049952842075, "longitude": -114.15920408381903}, "106831209RR0001": {"name": "THE CALGARY SOCIETY FOR EFFECTIVE EDUCATION OF LEARNING DISABLED", "designationCode": "C", "categoryCode": "20", "address": "1677 - 93 STREET SW", "city": "CALGARY", "province": "AB", "country": "CA", "postalCode": "T3H0R3", "twitter": "None", "instagram": "None", "facebook": "None", "youtube": "None", "website": "None", "summary": "None", "logo": "None", "latitude": 51.04104520038664, "longitude": -114.22264617750581}, "129948709RR0001": {"name": "THE CALGARY SOCIETY OF COMMUNITY OPPORTUNITIES", "designationCode": "C", "categoryCode": "59", "address": "102, 2616-18 STREET NE", "city": "CALGARY", "province": "AB", "country": "CA", "postalCode": "T2E7R1", "twitter": "None", "instagram": "None", "facebook": "None", "youtube": "None", "website": "None", "summary": "None", "logo": "None", "latitude": 51.07572916763806, "longitude": -114.01451973478001}, "893345777RR0001": {"name": "THE CALGARY ST. MARIA GORETTI EDUCATIONAL SOCIETY", "designationCode": "C", "categoryCode": "21", "address": "375 HAWKSTONE DRIVE NW        ST. MARIA GORETTI SCHOOL", "city": "CALGARY", "province": "AB", "country": "CA", "postalCode": "T3G3T7", "twitter": "None", "instagram": "None", "facebook": "None", "youtube": "None", "website": "None", "summary": "None", "logo": "None", "latitude": 51.13494994503449, "longitude": -114.17819004385704}, "892147661RR0001": {"name": "THE CALGARY VIETNAMESE SCHOOL ASSOCIATION", "designationCode": "C", "categoryCode": "20", "address": "511 TEMPLEBY PL NE", "city": "CALGARY", "province": "AB", "country": "CA", "postalCode": "T1Y5M3", "twitter": "None", "instagram": "None", "facebook": "None", "youtube": "None", "website": "None", "summary": "None", "logo": "None", "latitude": 51.0932726183853, "longitude": -113.93819063959268}, "896403029RR0001": {"name": "THE CALGARY VIETNAMESE VETERANS IMMIGRANTS AID ASSOCIATION", "designationCode": "C", "categoryCode": "09", "address": "313-4909-17 AVE SE", "city": "CALGARY", "province": "AB", "country": "CA", "postalCode": "T2A0V5", "twitter": "None", "instagram": "None", "facebook": "None", "youtube": "None", "website": "None", "summary": "None", "logo": "None", "latitude": 51.03780850288554, "longitude": -113.96366983236193}, "891341588RR0001": {"name": "THE CALGARY WOMEN'S EMERGENCY SHELTER ENDOWMENT FUND TRUST", "designationCode": "C", "categoryCode": "09", "address": "500 - 1509 CENTRE ST SW", "city": "CALGARY", "province": "AB", "country": "CA", "postalCode": "T2G2E6", "twitter": "None", "instagram": "None", "facebook": "None", "youtube": "None", "website": "None", "summary": "None", "logo": "None", "latitude": 51.009760371867955, "longitude": -114.06503213338193}}