{"866244106RR0001": {"name": "ROBERT L. CONCONI FOUNDATION", "designationCode": "B", "categoryCode": "03", "address": "380 - 1050 HOMER ST", "city": "VANCOUVER", "province": "BC", "country": "CA", "postalCode": "V6B2W9", "twitter": "None", "instagram": "None", "facebook": "None", "youtube": "None", "website": "None", "summary": "None", "logo": "None", "latitude": 49.27681162057832, "longitude": -123.12082530402809}, "870384278RR0001": {"name": "ROBERT LAGORE MINISTRIES INTERNATIONAL ASSOCIATION", "designationCode": "C", "categoryCode": "39", "address": "BOX 315 - 17750 #10 HWY", "city": "CLOVERDALE", "province": "BC", "country": "CA", "postalCode": "V3S1K4", "twitter": "None", "instagram": "None", "facebook": "None", "youtube": "None", "website": "None", "summary": "None", "logo": "None", "latitude": 49.104070526930414, "longitude": -122.73066407233846}, "131903536RR0001": {"name": "ROBERT MCCLURE UNITED CHURCH", "designationCode": "C", "categoryCode": "44", "address": "5510 26 AVE NE", "city": "CALGARY", "province": "AB", "country": "CA", "postalCode": "T1Y6S1", "twitter": "None", "instagram": "None", "facebook": "None", "youtube": "None", "website": "None", "summary": "None", "logo": "None", "latitude": 51.07670961117193, "longitude": -113.95418513018627}, "893654269RR0001": {"name": "ROBERT S. MARTIN MEMORIAL FUND", "designationCode": "B", "categoryCode": "21", "address": "BOX 1065", "city": "ATIKOKAN", "province": "ON", "country": "CA", "postalCode": "P0T1C0", "twitter": "None", "instagram": "None", "facebook": "None", "youtube": "None", "website": "None", "summary": "None", "logo": "None", "latitude": 48.78243202695454, "longitude": -91.62784818644623}, "892760042RR0001": {"name": "ROBERTS CREEK CHILDCARE SOCIETY", "designationCode": "C", "categoryCode": "20", "address": "PO BOX 146", "city": "ROBERTS CREEK", "province": "BC", "country": "CA", "postalCode": "V0N2W0", "twitter": "None", "instagram": "None", "facebook": "None", "youtube": "None", "website": "None", "summary": "None", "logo": "None", "latitude": 49.425676460142746, "longitude": -123.65009264505608}, "107805723RR0001": {"name": "ROBERTS/SMART CENTRE", "designationCode": "C", "categoryCode": "09", "address": "302 - 250 CITY CENTRE AVE", "city": "OTTAWA", "province": "ON", "country": "CA", "postalCode": "K1R6K7", "twitter": "None", "instagram": "None", "facebook": "None", "youtube": "None", "website": "None", "summary": "None", "logo": "None", "latitude": 45.408701589214715, "longitude": -75.71772291222757}, "890248594RR0001": {"name": "ROBERTSON AUXILIARY WMS", "designationCode": "C", "categoryCode": "47", "address": "170 MAIN ST E", "city": "MILTON", "province": "ON", "country": "CA", "postalCode": "L9T1N8", "twitter": "None", "instagram": "None", "facebook": "None", "youtube": "None", "website": "None", "summary": "None", "logo": "None", "latitude": 43.51218214236265, "longitude": -79.88415191309389}, "888634664RR0001": {"name": "ROBERTSON CEMETERY COMPANY", "designationCode": "C", "categoryCode": "59", "address": "14 TERRY RD", "city": "WINDSOR JUNCTION", "province": "NS", "country": "CA", "postalCode": "B2T1G4", "twitter": "None", "instagram": "None", "facebook": "None", "youtube": "None", "website": "None", "summary": "None", "logo": "None", "latitude": 44.791435454642375, "longitude": -63.66670148516924}, "107905275RR0001": {"name": "ROBERTSON WESLEY UNITED CHURCH", "designationCode": "C", "categoryCode": "44", "address": "10209-123 STREET", "city": "EDMONTON", "province": "AB", "country": "CA", "postalCode": "T5N1N3", "twitter": "None", "instagram": "None", "facebook": "None", "youtube": "None", "website": "None", "summary": "None", "logo": "None", "latitude": 53.54327674854292, "longitude": -113.53407779234267}, "889683975RR0001": {"name": "ROBERTSON-WESLEY MUSIC SOCIETY", "designationCode": "C", "categoryCode": "22", "address": "10209 - 123 STREET", "city": "EDMONTON", "province": "AB", "country": "CA", "postalCode": "T5N1N3", "twitter": "None", "instagram": "None", "facebook": "None", "youtube": "None", "website": "None", "summary": "None", "logo": "None", "latitude": 53.54327674854292, "longitude": -113.53407779234267}, "894502418RR0001": {"name": "ROBIN CROSBY EVANGELISTIC ASSOCIATION", "designationCode": "C", "categoryCode": "36", "address": "7 LICK POND WAY", "city": "WHITBY", "province": "ON", "country": "CA", "postalCode": "L1N9K5", "twitter": "None", "instagram": "None", "facebook": "None", "youtube": "None", "website": "None", "summary": "None", "logo": "None", "latitude": 43.88500391450753, "longitude": -78.90617554480937}, "107906091RR0001": {"name": "ROBIN HOOD ASSOCIATION FOR THE HANDICAPPED", "designationCode": "C", "categoryCode": "11", "address": "141 BROADWAY BLVD", "city": "SHERWOOD PARK", "province": "AB", "country": "CA", "postalCode": "T8H2A4", "twitter": "None", "instagram": "None", "facebook": "None", "youtube": "None", "website": "None", "summary": "None", "logo": "None", "latitude": 53.54324910825775, "longitude": -113.31108903869253}, "863917423RR0001": {"name": "ROBINSONVILLE INTERDENOMINATIONAL CEMETERY INC.", "designationCode": "C", "categoryCode": "59", "address": "141 ROBINSONVILLE RD.", "city": "ROBINSONVILLE", "province": "NB", "country": "CA", "postalCode": "E3N6J7", "twitter": "None", "instagram": "None", "facebook": "None", "youtube": "None", "website": "None", "summary": "None", "logo": "None", "latitude": 47.865488877604, "longitude": -66.93896319842474}, "119121713RR0001": {"name": "ROBLIN & DISTRICT CEMETERY COMMITTEE INC.", "designationCode": "C", "categoryCode": "59", "address": "P O BOX 887", "city": "ROBLIN", "province": "MB", "country": "CA", "postalCode": "R0L1P0", "twitter": "None", "instagram": "None", "facebook": "None", "youtube": "None", "website": "None", "summary": "None", "logo": "None", "latitude": 51.22816000000006, "longitude": -101.35248999999999}, "120708359RR0001": {"name": "ROBLIN & DISTRICT COMMUNITY HELP CENTRE INCORPORATED", "designationCode": "C", "categoryCode": "09", "address": "BOX 1417", "city": "ROBLIN", "province": "MB", "country": "CA", "postalCode": "R0L1P0", "twitter": "None", "instagram": "None", "facebook": "None", "youtube": "None", "website": "None", "summary": "None", "logo": "None", "latitude": 51.22816000000006, "longitude": -101.35248999999999}, "868492919RR0001": {"name": "ROBLIN AND DISTRICT DONOR'S CHOICE", "designationCode": "A", "categoryCode": "05", "address": "PO BOX 593", "city": "ROBLIN", "province": "MB", "country": "CA", "postalCode": "R0L1P0", "twitter": "None", "instagram": "None", "facebook": "None", "youtube": "None", "website": "None", "summary": "None", "logo": "None", "latitude": 51.22816000000006, "longitude": -101.35248999999999}, "866292220RR0001": {"name": "ROBLIN CHILDREN'S CENTER INCORPORATED", "designationCode": "C", "categoryCode": "01", "address": "BOX 1360, 128 THIRD AVE N.", "city": "ROBLIN", "province": "MB", "country": "CA", "postalCode": "R0L1P0", "twitter": "None", "instagram": "None", "facebook": "None", "youtube": "None", "website": "None", "summary": "None", "logo": "None", "latitude": 52.106386397180735, "longitude": -101.27287754570501}, "808403893RR0001": {"name": "ROBLIN CHURCH OF GOD IN CHRIST MENNONITE INC.", "designationCode": "C", "categoryCode": "34", "address": "BOX 179", "city": "ROBLIN", "province": "MB", "country": "CA", "postalCode": "R0L1P0", "twitter": "None", "instagram": "None", "facebook": "None", "youtube": "None", "website": "None", "summary": "None", "logo": "None", "latitude": 51.22816000000006, "longitude": -101.35248999999999}, "119288918RR1205": {"name": "ROBLIN CONGREGATION OF JEHOVAH'S WITNESSES", "designationCode": "C", "categoryCode": "61", "address": "BOX 748", "city": "ROBLIN", "province": "MB", "country": "CA", "postalCode": "R0L1P0", "twitter": "None", "instagram": "None", "facebook": "None", "youtube": "None", "website": "None", "summary": "None", "logo": "None", "latitude": 51.22816000000006, "longitude": -101.35248999999999}, "119720357RR0001": {"name": "ROBLIN DAY NURSERY INCORPORATED", "designationCode": "C", "categoryCode": "01", "address": "P O BOX 269", "city": "ROBLIN", "province": "MB", "country": "CA", "postalCode": "R0L1P0", "twitter": "None", "instagram": "None", "facebook": "None", "youtube": "None", "website": "None", "summary": "None", "logo": "None", "latitude": 51.22816000000006, "longitude": -101.35248999999999}, "870483609RR0001": {"name": "ROBLIN DISTRICT COMMUNITY FOUNDATION INC.", "designationCode": "A", "categoryCode": "03", "address": "P.O. BOX 1599", "city": "ROBLIN", "province": "MB", "country": "CA", "postalCode": "R0L1P0", "twitter": "None", "instagram": "None", "facebook": "None", "youtube": "None", "website": "None", "summary": "None", "logo": "None", "latitude": 51.22816000000006, "longitude": -101.35248999999999}, "104586128RR0001": {"name": "ROBLIN EVANGELICAL MISSION CHURCH INC.", "designationCode": "C", "categoryCode": "39", "address": "BOX 359", "city": "ROBLIN", "province": "MB", "country": "CA", "postalCode": "R0L1P0", "twitter": "None", "instagram": "None", "facebook": "None", "youtube": "None", "website": "None", "summary": "None", "logo": "None", "latitude": 51.22816000000006, "longitude": -101.35248999999999}, "889897666RR0001": {"name": "ROBLIN FOOD BANK", "designationCode": "C", "categoryCode": "09", "address": "BOX 219", "city": "ROBLIN", "province": "MB", "country": "CA", "postalCode": "R0L1P0", "twitter": "None", "instagram": "None", "facebook": "None", "youtube": "None", "website": "None", "summary": "None", "logo": "None", "latitude": 51.22816000000006, "longitude": -101.35248999999999}, "107406316RR0012": {"name": "ROBLIN FREE METHODIST CHURCH", "designationCode": "C", "categoryCode": "39", "address": "HIGHWAY 5 WEST                BOX 1400", "city": "ROBLIN", "province": "MB", "country": "CA", "postalCode": "R0L1P0", "twitter": "None", "instagram": "None", "facebook": "None", "youtube": "None", "website": "None", "summary": "None", "logo": "None", "latitude": 51.22818070923082, "longitude": -101.35990469693093}, "119121754RR0001": {"name": "ROBLIN HOLINESS CAMP", "designationCode": "C", "categoryCode": "56", "address": "590 ROBLIN RD", "city": "ROBLIN", "province": "ON", "country": "CA", "postalCode": "K0K2W0", "twitter": "None", "instagram": "None", "facebook": "None", "youtube": "None", "website": "None", "summary": "None", "logo": "None", "latitude": 44.36320039923626, "longitude": -77.04772732321737}, "119121770RR0001": {"name": "ROBLIN PASTORAL CHARGE", "designationCode": "C", "categoryCode": "44", "address": "BOX 156", "city": "ROBLIN", "province": "MB", "country": "CA", "postalCode": "R0L1P0", "twitter": "None", "instagram": "None", "facebook": "None", "youtube": "None", "website": "None", "summary": "None", "logo": "None", "latitude": 51.22816000000006, "longitude": -101.35248999999999}, "119121796RR0001": {"name": "ROBLIN WESLEYAN CHURCH", "designationCode": "C", "categoryCode": "39", "address": "308 SALMON RIVER ROAD", "city": "ROBLIN", "province": "ON", "country": "CA", "postalCode": "K0K2W0", "twitter": "None", "instagram": "None", "facebook": "None", "youtube": "None", "website": "None", "summary": "None", "logo": "None", "latitude": 44.34810725813399, "longitude": -77.02642805691349}, "888579463RR0001": {"name": "ROBSON COMMUNITY MEMORIAL CHURCH", "designationCode": "C", "categoryCode": "59", "address": "2953 WALDIE AVE PO BOX 21", "city": "ROBSON", "province": "BC", "country": "CA", "postalCode": "V0G1X0", "twitter": "None", "instagram": "None", "facebook": "None", "youtube": "None", "website": "None", "summary": "None", "logo": "None", "latitude": 49.33297045569725, "longitude": -117.69161961885224}, "119121820RR0001": {"name": "ROBSON VALLEY SHARED MINISTRY", "designationCode": "C", "categoryCode": "44", "address": "PO BOX 284", "city": "MCBRIDE", "province": "BC", "country": "CA", "postalCode": "V0J2E0", "twitter": "None", "instagram": "None", "facebook": "None", "youtube": "None", "website": "None", "summary": "None", "logo": "None", "latitude": 54.383929956832056, "longitude": -128.54401829340847}, "107906638RR0001": {"name": "ROCANVILLE AND DISTRICT MUSEUM SOCIETY INC.", "designationCode": "C", "categoryCode": "50", "address": "BOX 490", "city": "ROCANVILLE", "province": "SK", "country": "CA", "postalCode": "S0A3L0", "twitter": "None", "instagram": "None", "facebook": "None", "youtube": "None", "website": "None", "summary": "None", "logo": "None", "latitude": 50.377500000000055, "longitude": -101.68600999999995}, "119121846RR0001": {"name": "ROCANVILLE DONORS CHOICE APPEAL", "designationCode": "C", "categoryCode": "05", "address": "PO BOX 52", "city": "ROCANVILLE", "province": "SK", "country": "CA", "postalCode": "S0A3L0", "twitter": "None", "instagram": "None", "facebook": "None", "youtube": "None", "website": "None", "summary": "None", "logo": "None", "latitude": 50.377500000000055, "longitude": -101.68600999999995}, "107906661RR0001": {"name": "ROCANVILLE PASTORAL CHARGE", "designationCode": "C", "categoryCode": "44", "address": "BOX 307", "city": "ROCANVILLE", "province": "SK", "country": "CA", "postalCode": "S0A3L0", "twitter": "None", "instagram": "None", "facebook": "None", "youtube": "None", "website": "None", "summary": "None", "logo": "None", "latitude": 50.377500000000055, "longitude": -101.68600999999995}, "890070378RR0001": {"name": "ROCHESTER GOLDEN AGE CLUB", "designationCode": "C", "categoryCode": "09", "address": "BOX 183", "city": "ROCHESTER", "province": "AB", "country": "CA", "postalCode": "T0G1Z0", "twitter": "None", "instagram": "None", "facebook": "None", "youtube": "None", "website": "None", "summary": "None", "logo": "None", "latitude": 54.36954000000003, "longitude": -113.46327999999994}, "864021118RR0001": {"name": "ROCK AND RIVER CONGREGATION", "designationCode": "C", "categoryCode": "39", "address": "4651 FULL MOONN CIRCLE", "city": "MISSISSAUGA", "province": "ON", "country": "CA", "postalCode": "L4Z2N7", "twitter": "None", "instagram": "None", "facebook": "None", "youtube": "None", "website": "None", "summary": "None", "logo": "None", "latitude": 43.61744342604873, "longitude": -79.637824185383}, "119121903RR0001": {"name": "ROCK CHAPEL UNITED CHURCH", "designationCode": "C", "categoryCode": "44", "address": "451 ROCK CHAPEL RD.", "city": "DUNDAS", "province": "ON", "country": "CA", "postalCode": "L9H5E2", "twitter": "None", "instagram": "None", "facebook": "None", "youtube": "None", "website": "None", "summary": "None", "logo": "None", "latitude": 43.30097656396795, "longitude": -79.93472789970542}, "107906851RR0001": {"name": "ROCK CHURCH CHRISTIAN ASSOCIATION", "designationCode": "C", "categoryCode": "36", "address": "222 SACKVILLE DR", "city": "LOWER SACKVILLE", "province": "NS", "country": "CA", "postalCode": "B4C2R4", "twitter": "None", "instagram": "None", "facebook": "None", "youtube": "None", "website": "None", "summary": "None", "logo": "None", "latitude": 44.75890307536585, "longitude": -63.66925115531653}, "874003643RR0001": {"name": "ROCK COMMUNITY CHURCH", "designationCode": "C", "categoryCode": "39", "address": "249 CLARANCE STREET", "city": "WOODBRIDGE", "province": "ON", "country": "CA", "postalCode": "L4L1L6", "twitter": "None", "instagram": "None", "facebook": "None", "youtube": "None", "website": "None", "summary": "None", "logo": "None", "latitude": 43.792138570921516, "longitude": -79.59457747983181}, "107906893RR0001": {"name": "ROCK CREEK COMMUNITY MEDICAL SOCIETY", "designationCode": "C", "categoryCode": "11", "address": "BOX 9", "city": "ROCK CREEK", "province": "BC", "country": "CA", "postalCode": "V0H1Y0", "twitter": "None", "instagram": "None", "facebook": "None", "youtube": "None", "website": "None", "summary": "None", "logo": "None", "latitude": 49.053038092516516, "longitude": -118.99762108325375}, "898006937RR0001": {"name": "ROCK GLEN CATHOLIC CEMETERY COMMITTEE", "designationCode": "B", "categoryCode": "59", "address": "P.O. BOX 351", "city": "ROCK GLEN", "province": "SK", "country": "CA", "postalCode": "S0H3R0", "twitter": "None", "instagram": "None", "facebook": "None", "youtube": "None", "website": "None", "summary": "None", "logo": "None", "latitude": 50.736974774431054, "longitude": -106.02213165407463}, "893023077RR0001": {"name": "ROCK LAKE CHARITABLE TRUST", "designationCode": "B", "categoryCode": "39", "address": "3425 2 AVENUE SOUTH", "city": "LETHBRIDGE", "province": "AB", "country": "CA", "postalCode": "T1J4V1", "twitter": "None", "instagram": "None", "facebook": "None", "youtube": "None", "website": "None", "summary": "None", "logo": "None", "latitude": 49.696839530439966, "longitude": -112.78914308381903}, "133374108RR0001": {"name": "ROCK LAKE FESTIVAL OF THE ARTS INCORPORATED", "designationCode": "C", "categoryCode": "22", "address": "PO BOX 447", "city": "PILOT MOUND", "province": "MB", "country": "CA", "postalCode": "R0G1P0", "twitter": "None", "instagram": "None", "facebook": "None", "youtube": "None", "website": "None", "summary": "None", "logo": "None", "latitude": 49.20280000000008, "longitude": -98.89433999999994}, "131308082RR0001": {"name": "ROCK LAKE FUNTOWN INC", "designationCode": "C", "categoryCode": "20", "address": "DIRECTOR                      BOX 429", "city": "PILOT MOUND", "province": "MB", "country": "CA", "postalCode": "R0G1P0", "twitter": "None", "instagram": "None", "facebook": "None", "youtube": "None", "website": "None", "summary": "None", "logo": "None", "latitude": 49.20237600000006, "longitude": -98.89607149999993}, "120563879RR0001": {"name": "ROCK LAKE HANDY VAN SERVICE INC", "designationCode": "C", "categoryCode": "09", "address": "PO BOX 310", "city": "CRYSTAL CITY", "province": "MB", "country": "CA", "postalCode": "R0K0N0", "twitter": "None", "instagram": "None", "facebook": "None", "youtube": "None", "website": "None", "summary": "None", "logo": "None", "latitude": 49.146274354951295, "longitude": -98.94961515158063}, "129862686RR0001": {"name": "ROCK LAKE HEALTH DISTRICT", "designationCode": "C", "categoryCode": "10", "address": "BOX 130", "city": "CRYSTAL CITY", "province": "MB", "country": "CA", "postalCode": "R0K0N0", "twitter": "None", "instagram": "None", "facebook": "None", "youtube": "None", "website": "None", "summary": "None", "logo": "None", "latitude": 49.146274354951295, "longitude": -98.94961515158063}, "898711460RR0001": {"name": "ROCK LAKE HEALTH DISTRICT FOUNDATION INC.", "designationCode": "A", "categoryCode": "13", "address": "POST OFFICE BOX 130", "city": "CRYSTAL CITY", "province": "MB", "country": "CA", "postalCode": "R0K0N0", "twitter": "None", "instagram": "None", "facebook": "None", "youtube": "None", "website": "None", "summary": "None", "logo": "None", "latitude": 49.146274354951295, "longitude": -98.94961515158063}, "119122000RR0001": {"name": "ROCK LAKE UNITED CHURCH CAMP INC.", "designationCode": "C", "categoryCode": "47", "address": "BOX 395", "city": "CRYSTAL CITY", "province": "MB", "country": "CA", "postalCode": "R0K0N0", "twitter": "None", "instagram": "None", "facebook": "None", "youtube": "None", "website": "None", "summary": "None", "logo": "None", "latitude": 49.146274354951295, "longitude": -98.94961515158063}, "107907156RR0001": {"name": "ROCK MILLS FELLOWSHIP BAPTIST CHURCH", "designationCode": "C", "categoryCode": "31", "address": "314009 SIDEROAD 35  R.R.#1", "city": "FLESHERTON", "province": "ON", "country": "CA", "postalCode": "N0C1E0", "twitter": "None", "instagram": "None", "facebook": "None", "youtube": "None", "website": "None", "summary": "None", "logo": "None", "latitude": 44.30319000000006, "longitude": -80.51740549999994}, "107907164RR0001": {"name": "ROCK OF AGES LUTHERAN BRETHREN CHURCH", "designationCode": "C", "categoryCode": "32", "address": "130 KINGSMERE PL", "city": "SASKATOON", "province": "SK", "country": "CA", "postalCode": "S7J3V7", "twitter": "None", "instagram": "None", "facebook": "None", "youtube": "None", "website": "None", "summary": "None", "logo": "None", "latitude": 52.103110475965316, "longitude": -106.59776592509643}, "131910580RR0001": {"name": "ROCK OF HELP CHRISTIAN CENTRE", "designationCode": "C", "categoryCode": "39", "address": "43 FOX ST", "city": "ESSEX", "province": "ON", "country": "CA", "postalCode": "N8M2S1", "twitter": "None", "instagram": "None", "facebook": "None", "youtube": "None", "website": "None", "summary": "None", "logo": "None", "latitude": 42.175063885105835, "longitude": -82.82128997997603}, "863698544RR0001": {"name": "ROCK OF THE VALLEY COMMUNITY CHURCH INC.", "designationCode": "C", "categoryCode": "36", "address": "PO BOX 336", "city": "LUMSDEN", "province": "SK", "country": "CA", "postalCode": "S0G3C0", "twitter": "None", "instagram": "None", "facebook": "None", "youtube": "None", "website": "None", "summary": "None", "logo": "None", "latitude": 50.64512000000008, "longitude": -104.86806999999999}, "816897946RR0001": {"name": "ROCK SOLID REFUGE INC.", "designationCode": "C", "categoryCode": "57", "address": "PO BOX 1622", "city": "SHAUNAVON", "province": "SK", "country": "CA", "postalCode": "S0N2M0", "twitter": "None", "instagram": "None", "facebook": "None", "youtube": "None", "website": "None", "summary": "None", "logo": "None", "latitude": 49.64645000000007, "longitude": -108.41961999999995}, "889836748RR0001": {"name": "ROCK UNION CHURCH", "designationCode": "C", "categoryCode": "39", "address": "109 MAPLE RIDGE ROAD          R.R.#2", "city": "OWEN SOUND", "province": "ON", "country": "CA", "postalCode": "N4K5N4", "twitter": "None", "instagram": "None", "facebook": "None", "youtube": "None", "website": "None", "summary": "None", "logo": "None", "latitude": 44.59050600000006, "longitude": -80.94473449999994}, "119121887RR0001": {"name": "ROCKBURN PRESBYTERIAN CHURCH", "designationCode": "C", "categoryCode": "37", "address": "1965 ROUTE 202", "city": "HINCHINBROOKE", "province": "QC", "country": "CA", "postalCode": "J0S1A0", "twitter": "None", "instagram": "None", "facebook": "None", "youtube": "None", "website": "None", "summary": "None", "logo": "None", "latitude": 45.02276040183134, "longitude": -74.0370315505263}, "822298196RR0001": {"name": "ROCKCLIFFE PENTECOSTAL CHURCH", "designationCode": "C", "categoryCode": "36", "address": "P.O. BOX 726                  10-4TH AVENUE WEST", "city": "OWEN SOUND", "province": "ON", "country": "CA", "postalCode": "N4K5W9", "twitter": "None", "instagram": "None", "facebook": "None", "youtube": "None", "website": "None", "summary": "None", "logo": "None"}, "119121960RR0001": {"name": "ROCKINGHAM PASTORAL CHARGE", "designationCode": "C", "categoryCode": "44", "address": "12 FLAMINGO DRIVE", "city": "HALIFAX", "province": "NS", "country": "CA", "postalCode": "B3M1S5", "twitter": "None", "instagram": "None", "facebook": "None", "youtube": "None", "website": "None", "summary": "None", "logo": "None", "latitude": 44.67495152842075, "longitude": -63.6492700269202}, "119288918RR0612": {"name": "ROCKLAND CONGREGATION OF JEHOVAH'S WITNESSES", "designationCode": "C", "categoryCode": "61", "address": "32 - 1160 SHELLBOURNE BLVD", "city": "CAMPBELL RIVER", "province": "BC", "country": "CA", "postalCode": "V9W5G5", "twitter": "None", "instagram": "None", "facebook": "None", "youtube": "None", "website": "None", "summary": "None", "logo": "None", "latitude": 49.986851093692415, "longitude": -125.2366856474748}, "107907115RR0001": {"name": "ROCKLAND DRIVE UNITED BAPTIST CHURCH", "designationCode": "C", "categoryCode": "31", "address": "32 ROCKLAND DRIVE", "city": "MCADAM", "province": "NB", "country": "CA", "postalCode": "E6J1V4", "twitter": "None", "instagram": "None", "facebook": "None", "youtube": "None", "website": "None", "summary": "None", "logo": "None", "latitude": 45.59318463613023, "longitude": -67.32850930723073}, "889495370RR0001": {"name": "ROCKLAND HELP CENTRE / CENTRE D'AIDE DE ROCKLAND", "designationCode": "C", "categoryCode": "09", "address": "2815 CHAMBERLAND              B.P 625", "city": "ROCKLAND", "province": "ON", "country": "CA", "postalCode": "K4K1K6", "twitter": "None", "instagram": "None", "facebook": "None", "youtube": "None", "website": "None", "summary": "None", "logo": "None", "latitude": 45.542317773459374, "longitude": -75.30329733194087}, "119122034RR0001": {"name": "ROCKLEY CEMETERY COMPANY", "designationCode": "C", "categoryCode": "59", "address": "16 ROSE LANE", "city": "PORT HOWE", "province": "NS", "country": "CA", "postalCode": "B0K1K0", "twitter": "None", "instagram": "None", "facebook": "None", "youtube": "None", "website": "None", "summary": "None", "logo": "None", "latitude": 45.87442972217097, "longitude": -63.75256682445609}, "129828257RR0001": {"name": "ROCKPOINTE CHURCH", "designationCode": "C", "categoryCode": "39", "address": "255024 LOCHEND ROAD", "city": "CALGARY", "province": "AB", "country": "CA", "postalCode": "T3L2R2", "twitter": "None", "instagram": "None", "facebook": "None", "youtube": "None", "website": "None", "summary": "None", "logo": "None", "latitude": 51.172649211011006, "longitude": -114.32717822003316}, "141049593RR0001": {"name": "ROCKPORT CHARITABLE TRUST", "designationCode": "B", "categoryCode": "39", "address": "3425 2 AVENUE SOUTH", "city": "LETHBRIDGE", "province": "AB", "country": "CA", "postalCode": "T1J4V1", "twitter": "None", "instagram": "None", "facebook": "None", "youtube": "None", "website": "None", "summary": "None", "logo": "None", "latitude": 49.696839530439966, "longitude": -112.78914308381903}, "867045387RR0001": {"name": "ROCKPORT PROTESTANT CEMETERY ASSOCIATION", "designationCode": "C", "categoryCode": "59", "address": "BOX B1", "city": "ROCKPORT", "province": "ON", "country": "CA", "postalCode": "K0E1V0", "twitter": "None", "instagram": "None", "facebook": "None", "youtube": "None", "website": "None", "summary": "None", "logo": "None", "latitude": 44.38167000000006, "longitude": -75.93426799999993}, "119122059RR0001": {"name": "ROCKTON AGRICULTURAL SOCIETY", "designationCode": "C", "categoryCode": "56", "address": "812 OLD HIGHWAY #8", "city": "ROCKTON", "province": "ON", "country": "CA", "postalCode": "L0R1X0", "twitter": "None", "instagram": "None", "facebook": "None", "youtube": "None", "website": "None", "summary": "None", "logo": "None", "latitude": 43.301340766026655, "longitude": -80.1281450713843}, "119122067RR0001": {"name": "ROCKTON UNITED CHURCH", "designationCode": "C", "categoryCode": "44", "address": "792 OLD HWY 8", "city": "ROCKTON", "province": "ON", "country": "CA", "postalCode": "L0R1X0", "twitter": "None", "instagram": "None", "facebook": "None", "youtube": "None", "website": "None", "summary": "None", "logo": "None", "latitude": 43.30079518587414, "longitude": -80.12655414152844}, "869702274RR0001": {"name": "ROCKWALK PARK INC.", "designationCode": "C", "categoryCode": "50", "address": "BOX 586,", "city": "HAILEYBURY", "province": "ON", "country": "CA", "postalCode": "P0J1K0", "twitter": "None", "instagram": "None", "facebook": "None", "youtube": "None", "website": "None", "summary": "None", "logo": "None", "latitude": 47.449380000000076, "longitude": -79.63766999999996}, "889611562RR0001": {"name": "ROCKWAY CEMETERY BOARD", "designationCode": "C", "categoryCode": "59", "address": "213 RYKERT STREET", "city": "ST. CATHARINES", "province": "ON", "country": "CA", "postalCode": "L2S2B5", "twitter": "None", "instagram": "None", "facebook": "None", "youtube": "None", "website": "None", "summary": "None", "logo": "None", "latitude": 43.13666626836533, "longitude": -79.26861395807614}, "863404406RR0001": {"name": "ROCKWAY MENNONITE CHURCH", "designationCode": "C", "categoryCode": "34", "address": "47 ONWARD AVE", "city": "KITCHENER", "province": "ON", "country": "CA", "postalCode": "N2H3J8", "twitter": "None", "instagram": "None", "facebook": "None", "youtube": "None", "website": "None", "summary": "None", "logo": "None", "latitude": 43.44351722341171, "longitude": -80.47165914123747}, "119122091RR0001": {"name": "ROCKWAY MENNONITE COLLEGIATE INC.", "designationCode": "C", "categoryCode": "20", "address": "110 DOON ROAD", "city": "KITCHENER", "province": "ON", "country": "CA", "postalCode": "N2G3C8", "twitter": "None", "instagram": "None", "facebook": "None", "youtube": "None", "website": "None", "summary": "None", "logo": "None", "latitude": 43.4355827632581, "longitude": -80.46294026902821}, "890981640RR0001": {"name": "ROCKWAY PRESBYTERIAN CHURCH,", "designationCode": "C", "categoryCode": "37", "address": "1226 ST. PAUL ST.W.", "city": "ST CATHARINES", "province": "ON", "country": "CA", "postalCode": "L2R6P7", "twitter": "None", "instagram": "None", "facebook": "None", "youtube": "None", "website": "None", "summary": "None", "logo": "None", "latitude": 43.141775651624805, "longitude": -79.27977873576097}, "858659733RR0001": {"name": "ROCKWOOD AGRICULTURAL SOCIETY", "designationCode": "C", "categoryCode": "56", "address": "BOX 428", "city": "STONEWALL", "province": "MB", "country": "CA", "postalCode": "R0C2Z0", "twitter": "None", "instagram": "None", "facebook": "None", "youtube": "None", "website": "None", "summary": "None", "logo": "None", "latitude": 50.36947800000006, "longitude": -96.84479599999993}, "119122158RR0001": {"name": "ROCKWOOD PRESBYTERIAN CHURCH", "designationCode": "C", "categoryCode": "37", "address": "PO BOX 669", "city": "ROCKWOOD", "province": "ON", "country": "CA", "postalCode": "N0B2K0", "twitter": "None", "instagram": "None", "facebook": "None", "youtube": "None", "website": "None", "summary": "None", "logo": "None", "latitude": 43.61851000000007, "longitude": -80.14375999999999}, "119122166RR0001": {"name": "ROCKWOOD UNITED CHURCH", "designationCode": "C", "categoryCode": "44", "address": "119 HARRIS STREET", "city": "ROCKWOOD", "province": "ON", "country": "CA", "postalCode": "N0B2K0", "twitter": "None", "instagram": "None", "facebook": "None", "youtube": "None", "website": "None", "summary": "None", "logo": "None", "latitude": 43.61422876158466, "longitude": -80.13615684595194}, "899556070RR0001": {"name": "ROCKY & DISTRICT VICTIM SERVICES UNIT SOCIETY", "designationCode": "C", "categoryCode": "59", "address": "4428 45TH STREET", "city": "ROCKY MOUNTAIN HOUSE", "province": "AB", "country": "CA", "postalCode": "T4T1P3", "twitter": "None", "instagram": "None", "facebook": "None", "youtube": "None", "website": "None", "summary": "None", "logo": "None", "latitude": 52.36748153482607, "longitude": -114.90924705444598}, "891234643RR0001": {"name": "ROCKY LANE SCHOOL SOCIETY SCHOLARSHIP FUND", "designationCode": "C", "categoryCode": "21", "address": "ROCKY LANE SCHOOL BOX 70", "city": "FORT VERMILION", "province": "AB", "country": "CA", "postalCode": "T0H1N0", "twitter": "None", "instagram": "None", "facebook": "None", "youtube": "None", "website": "None", "summary": "None", "logo": "None", "latitude": 58.387344000000056, "longitude": -116.01809449999993}, "119122216RR0001": {"name": "ROCKY MOUNTAIN ALLIANCE CHURCH", "designationCode": "C", "categoryCode": "39", "address": "5304 57 STREET", "city": "ROCKY MOUNTAIN HOUSE", "province": "AB", "country": "CA", "postalCode": "T4T1H5", "twitter": "None", "instagram": "None", "facebook": "None", "youtube": "None", "website": "None", "summary": "None", "logo": "None", "latitude": 52.37991676824976, "longitude": -114.93000095850884}, "892483371RR0001": {"name": "ROCKY MOUNTAIN ALLIANCE CHURCH", "designationCode": "C", "categoryCode": "39", "address": "BOX 1217", "city": "GOLDEN", "province": "BC", "country": "CA", "postalCode": "V0A1H0", "twitter": "None", "instagram": "None", "facebook": "None", "youtube": "None", "website": "None", "summary": "None", "logo": "None", "latitude": 51.30019925579286, "longitude": -117.05412925860504}, "864396932RR0001": {"name": "ROCKY MOUNTAIN BOOK AWARD: AN ALBERTA CHILDREN'S CHOICE BOOK AWARD SOCIETY", "designationCode": "C", "categoryCode": "21", "address": "P O BOX 42", "city": "LETHBRIDGE", "province": "AB", "country": "CA", "postalCode": "T1J3Y3", "twitter": "None", "instagram": "None", "facebook": "None", "youtube": "None", "website": "None", "summary": "None", "logo": "None", "latitude": 49.69383000000006, "longitude": -112.83373249999994}, "139219687RR0001": {"name": "ROCKY MOUNTAIN BUSINESS SEMINAR", "designationCode": "C", "categoryCode": "21", "address": "2-02 FACULTY OF BUSINESS BLDG UNIVERSITY OF ALBERTA", "city": "EDMONTON", "province": "AB", "country": "CA", "postalCode": "T6G2R6", "twitter": "None", "instagram": "None", "facebook": "None", "youtube": "None", "website": "None", "summary": "None", "logo": "None", "latitude": 53.52503000000007, "longitude": -113.52540999999997}, "134961671RR0001": {"name": "ROCKY MOUNTAIN CALVARY CHAPEL", "designationCode": "C", "categoryCode": "39", "address": "8241 31 STREET SE", "city": "CALGARY", "province": "AB", "country": "CA", "postalCode": "T2C1H9", "twitter": "None", "instagram": "None", "facebook": "None", "youtube": "None", "website": "None", "summary": "None", "logo": "None", "latitude": 50.98012646295224, "longitude": -113.98835319513519}, "866967086RR0001": {"name": "ROCKY MOUNTAIN CHURCH OF CHRIST", "designationCode": "C", "categoryCode": "39", "address": "17 MCKINLEY BAY S.E.", "city": "CALGARY", "province": "AB", "country": "CA", "postalCode": "T2Z1V4", "twitter": "None", "instagram": "None", "facebook": "None", "youtube": "None", "website": "None", "summary": "None", "logo": "None", "latitude": 50.90269709547579, "longitude": -113.98909497322403}, "132455411RR0001": {"name": "ROCKY MOUNTAIN COLLEGE: A CENTRE FOR BIBLICAL STUDIES", "designationCode": "C", "categoryCode": "20", "address": "4039 BRENTWOOD ROAD N.W.", "city": "CALGARY", "province": "AB", "country": "CA", "postalCode": "T2L1L1", "twitter": "None", "instagram": "None", "facebook": "None", "youtube": "None", "website": "None", "summary": "None", "logo": "None", "latitude": 51.08883299945175, "longitude": -114.13259956165933}, "866555683RR0001": {"name": "ROCKY MOUNTAIN EAGLE RESEARCH FOUNDATION", "designationCode": "C", "categoryCode": "23", "address": "P.O. BOX 63154, STATION RPO", "city": "CALGARY", "province": "AB", "country": "CA", "postalCode": "T2N4S5", "twitter": "None", "instagram": "None", "facebook": "None", "youtube": "None", "website": "None", "summary": "None", "logo": "None", "latitude": 51.065529000000055, "longitude": -114.12679849999994}, "871282364RR0001": {"name": "ROCKY MOUNTAIN EVANGELICAL LUTHERAN CHURCH", "designationCode": "C", "categoryCode": "32", "address": "5015 49 ST", "city": "ROCKY MOUNTAIN HOUSE", "province": "AB", "country": "CA", "postalCode": "T4T1C1", "twitter": "None", "instagram": "None", "facebook": "None", "youtube": "None", "website": "None", "summary": "None", "logo": "None", "latitude": 52.37498641326678, "longitude": -114.91767600360667}, "871542585RR0001": {"name": "ROCKY MOUNTAIN HERITAGE FOUNDATION", "designationCode": "C", "categoryCode": "52", "address": "101 11111 82 AVE", "city": "EDMONTON", "province": "AB", "country": "CA", "postalCode": "T6G0T3", "twitter": "None", "instagram": "None", "facebook": "None", "youtube": "None", "website": "None", "summary": "None", "logo": "None", "latitude": 53.5180314884588, "longitude": -113.5182825}, "797613916RR0001": {"name": "ROCKY MOUNTAIN HOUSE AND AREA HEALTH SERVICES FOUNDATION", "designationCode": "A", "categoryCode": "13", "address": "5016 52 AVE", "city": "ROCKY MOUNTAIN HOUSE", "province": "AB", "country": "CA", "postalCode": "T4T1T2", "twitter": "None", "instagram": "None", "facebook": "None", "youtube": "None", "website": "None", "summary": "None", "logo": "None", "latitude": 52.37769055541606, "longitude": -114.9197085}, "131814568RR0001": {"name": "ROCKY MOUNTAIN HOUSE AND DISTRICT WEST COUNTRY FAMILY SERVICE ASSOCIATION", "designationCode": "C", "categoryCode": "09", "address": "BOX 646", "city": "ROCKY MOUNTAIN HOUSE", "province": "AB", "country": "CA", "postalCode": "T4T1A5", "twitter": "None", "instagram": "None", "facebook": "None", "youtube": "None", "website": "None", "summary": "None", "logo": "None", "latitude": 52.37758500000005, "longitude": -114.93030049999993}, "889799748RR0001": {"name": "ROCKY MOUNTAIN HOUSE BAND PARENTS ASSOCIATION", "designationCode": "C", "categoryCode": "22", "address": "BOX 1198", "city": "ROCKY MOUNTAIN HOUSE", "province": "AB", "country": "CA", "postalCode": "T4T1A8", "twitter": "None", "instagram": "None", "facebook": "None", "youtube": "None", "website": "None", "summary": "None", "logo": "None", "latitude": 52.37758500000005, "longitude": -114.93030049999993}, "871747945RR0001": {"name": "ROCKY MOUNTAIN HOUSE PENTECOSTAL ASSEMBLY", "designationCode": "C", "categoryCode": "36", "address": "12140 103 ST NW", "city": "EDMONTON", "province": "AB", "country": "CA", "postalCode": "T5G2J9", "twitter": "None", "instagram": "None", "facebook": "None", "youtube": "None", "website": "None", "summary": "None", "logo": "None", "latitude": 53.575749, "longitude": -113.49743926319982}, "132350554RR0001": {"name": "ROCKY MOUNTAIN HOUSE REUNION HISTORICAL SOCIETY", "designationCode": "C", "categoryCode": "50", "address": "BOX 1508", "city": "ROCKY MOUNTAIN HOUSE", "province": "AB", "country": "CA", "postalCode": "T4T1B2", "twitter": "None", "instagram": "None", "facebook": "None", "youtube": "None", "website": "None", "summary": "None", "logo": "None", "latitude": 52.37758500000005, "longitude": -114.93030049999993}, "119122265RR0001": {"name": "ROCKY MOUNTAIN HOUSE SEVENTH-DAY ADVENTIST CHURCH", "designationCode": "C", "categoryCode": "41", "address": "5816 HIGHWAY 2A", "city": "LACOMBE", "province": "AB", "country": "CA", "postalCode": "T4L2G5", "twitter": "None", "instagram": "None", "facebook": "None", "youtube": "None", "website": "None", "summary": "None", "logo": "None", "latitude": 52.474063600197404, "longitude": -113.71692568401835}, "892405044RR0001": {"name": "ROCKY MOUNTAIN HOUSE VOLUNTEER SEARCH AND RESCUE SOCIETY", "designationCode": "C", "categoryCode": "59", "address": "BOX 1888", "city": "ROCKY MOUNTAIN", "province": "AB", "country": "CA", "postalCode": "T4T1B4", "twitter": "None", "instagram": "None", "facebook": "None", "youtube": "None", "website": "None", "summary": "None", "logo": "None", "latitude": 52.37758500000005, "longitude": -114.93030049999993}, "132962507RR0001": {"name": "ROCKY MOUNTAIN RAIL SOCIETY", "designationCode": "C", "categoryCode": "52", "address": "PO BOX 81076-6060 BPO", "city": "CALGARY", "province": "AB", "country": "CA", "postalCode": "T2J7C9", "twitter": "None", "instagram": "None", "facebook": "None", "youtube": "None", "website": "None", "summary": "None", "logo": "None", "latitude": 51.04531500000006, "longitude": -114.06301099999993}, "119229516RR0001": {"name": "ROCKY MOUNTAIN SCHOOL DISTRICT BURSARY AND SCHOLARSHIP FUND", "designationCode": "C", "categoryCode": "21", "address": "BOX 430", "city": "INVERMERE", "province": "BC", "country": "CA", "postalCode": "V0A1K0", "twitter": "None", "instagram": "None", "facebook": "None", "youtube": "None", "website": "None", "summary": "None", "logo": "None", "latitude": 50.50916700000006, "longitude": -116.03037049999993}, "868247750RR0001": {"name": "ROCKY MOUNTAIN TRENCH NATURAL RESOURCES SOCIETY", "designationCode": "C", "categoryCode": "52", "address": "PO BOX 151", "city": "KIMBERLY", "province": "BC", "country": "CA", "postalCode": "V1A2Y2", "twitter": "None", "instagram": "None", "facebook": "None", "youtube": "None", "website": "None", "summary": "None", "logo": "None", "latitude": 49.69205700000006, "longitude": -115.98492499999993}, "119259265RR0001": {"name": "ROCKY MOUNTAIN VILLAGE AUXILIARY SOCIETY", "designationCode": "C", "categoryCode": "19", "address": "ROCKY MOUNTAIN VILLAGE        55 COKATO ROAD", "city": "FERNIE", "province": "BC", "country": "CA", "postalCode": "V0B1M4", "twitter": "None", "instagram": "None", "facebook": "None", "youtube": "None", "website": "None", "summary": "None", "logo": "None", "latitude": 49.49096565338771, "longitude": -115.06604081365496}, "123788853RR0001": {"name": "ROCKY NATIVE FRIENDSHIP CENTRE SOCIETY", "designationCode": "C", "categoryCode": "59", "address": "PO BOX 1927", "city": "ROCKY MOUNTAIN HOUSE", "province": "AB", "country": "CA", "postalCode": "T4T1B4", "twitter": "None", "instagram": "None", "facebook": "None", "youtube": "None", "website": "None", "summary": "None", "logo": "None", "latitude": 52.37758500000005, "longitude": -114.93030049999993}, "869770123RR0001": {"name": "ROCKY POINT BIRD OBSERVATORY SOCIETY", "designationCode": "C", "categoryCode": "52", "address": "170 1581-H HILLSIDE AVE.", "city": "VICTORIA", "province": "BC", "country": "CA", "postalCode": "V8T2C1", "twitter": "None", "instagram": "None", "facebook": "None", "youtube": "None", "website": "None", "summary": "None", "logo": "None", "latitude": 48.44002860505139, "longitude": -123.35437274363011}, "119122273RR0001": {"name": "ROCKY RIDGE RANCH", "designationCode": "C", "categoryCode": "56", "address": "10486 - 5TH LINE              R.R. #2", "city": "ROCKWOOD", "province": "ON", "country": "CA", "postalCode": "N0B2K0", "twitter": "None", "instagram": "None", "facebook": "None", "youtube": "None", "website": "None", "summary": "None", "logo": "None", "latitude": 43.589940000000055, "longitude": -80.08728199999993}, "129759676RR0001": {"name": "ROCKY SENIOR HOUSING COUNCIL", "designationCode": "C", "categoryCode": "01", "address": "5427 52 AVENUE", "city": "ROCKY MOUNTAIN HOUSE", "province": "AB", "country": "CA", "postalCode": "T4T1S9", "twitter": "None", "instagram": "None", "facebook": "None", "youtube": "None", "website": "None", "summary": "None", "logo": "None", "latitude": 52.37749444460297, "longitude": -114.92537755539702}, "118880087RR0001": {"name": "ROCKY VIEW REGIONAL HANDIBUS SOCIETY", "designationCode": "C", "categoryCode": "09", "address": "PO BOX 10203", "city": "AIRDRIE", "province": "AB", "country": "CA", "postalCode": "T4A0H5", "twitter": "None", "instagram": "None", "facebook": "None", "youtube": "None", "website": "None", "summary": "None", "logo": "None", "latitude": 51.28868400000006, "longitude": -114.01344349999994}}