{"119127504RR0001": {"name": "THE ROYAL CANADIAN LEGION HILLSBORO BRANCH NB NO. 32 BRANCH POPPY FUND", "designationCode": "C", "categoryCode": "09", "address": "31 LEGION STREET", "city": "HILLSBOROUGH", "province": "NB", "country": "CA", "postalCode": "E4H2W7", "twitter": "None", "instagram": "None", "facebook": "None", "youtube": "None", "website": "None", "summary": "None", "logo": "None", "latitude": 45.92380683484343, "longitude": -64.6444242352127}, "889106688RR0001": {"name": "THE ROYAL CANADIAN LEGION KITCHENER WATERLOO POPPY FUND", "designationCode": "C", "categoryCode": "09", "address": "PO BOX 37 STN WATERLOO", "city": "WATERLOO", "province": "ON", "country": "CA", "postalCode": "N2J3Z6", "twitter": "None", "instagram": "None", "facebook": "None", "youtube": "None", "website": "None", "summary": "None", "logo": "None", "latitude": 43.46338200000005, "longitude": -80.52075349999993}, "893157768RR0001": {"name": "THE ROYAL CANADIAN LEGION LANCASTER BR NB NO 69 BRANCH POPPY FUND", "designationCode": "C", "categoryCode": "09", "address": "P.O.BOX 27052 RPO LANCASTER", "city": "SAINT JOHN", "province": "NB", "country": "CA", "postalCode": "E2M5S8", "twitter": "None", "instagram": "None", "facebook": "None", "youtube": "None", "website": "None", "summary": "None", "logo": "None", "latitude": 45.25450857224876, "longitude": -66.0716152398723}, "107933426RR0001": {"name": "THE ROYAL CANADIAN LEGION LR SOUTHHAMPTON BRANCH N.B. NO. 27 BRANCH POPPY FUND", "designationCode": "C", "categoryCode": "09", "address": "UNIT 2, 134 OTIS DR", "city": "NACKAWIC", "province": "NB", "country": "CA", "postalCode": "E6G1G9", "twitter": "None", "instagram": "None", "facebook": "None", "youtube": "None", "website": "None", "summary": "None", "logo": "None", "latitude": 45.99558640161001, "longitude": -67.23545616244391}, "887494474RR0001": {"name": "THE ROYAL CANADIAN LEGION MIDDLETON BRANCH NO 001 POPPY FUND", "designationCode": "C", "categoryCode": "05", "address": "BOX 497", "city": "MIDDLETON", "province": "NS", "country": "CA", "postalCode": "B0S1P0", "twitter": "None", "instagram": "None", "facebook": "None", "youtube": "None", "website": "None", "summary": "None", "logo": "None", "latitude": 45.01449600000005, "longitude": -65.06449099999993}, "119127827RR0001": {"name": "THE ROYAL CANADIAN LEGION MILLBROOK ONT. BRANCH NO. 402 POPPY FUND", "designationCode": "C", "categoryCode": "09", "address": "9 KING STREET E.              BOX 205", "city": "MILLBROOK", "province": "ON", "country": "CA", "postalCode": "L0A1G0", "twitter": "None", "instagram": "None", "facebook": "None", "youtube": "None", "website": "None", "summary": "None", "logo": "None", "latitude": 44.150506973628055, "longitude": -78.44858719233657}, "119127835RR0001": {"name": "THE ROYAL CANADIAN LEGION MILLTOWN, N.B. BRANCH #48 POPPY FUND", "designationCode": "A", "categoryCode": "09", "address": "PO BOX 09", "city": "ST. STEPHEN", "province": "NB", "country": "CA", "postalCode": "E3L2W9", "twitter": "None", "instagram": "None", "facebook": "None", "youtube": "None", "website": "None", "summary": "None", "logo": "None", "latitude": 45.19456800000006, "longitude": -67.27532299999993}, "119127934RR0001": {"name": "THE ROYAL CANADIAN LEGION NORMANDY BRANCH NB NO. 78 BRANCH POPPY FUND", "designationCode": "C", "categoryCode": "09", "address": "6101 ROUTE 8", "city": "BOIESTOWN", "province": "NB", "country": "CA", "postalCode": "E6A1M8", "twitter": "None", "instagram": "None", "facebook": "None", "youtube": "None", "website": "None", "summary": "None", "logo": "None", "latitude": 46.454277982997624, "longitude": -66.42110796700739}, "119128080RR0001": {"name": "THE ROYAL CANADIAN LEGION ONT. NO. 52 BRANCH POPPY FUND", "designationCode": "C", "categoryCode": "09", "address": "1550 LANSDOWNE ST W", "city": "PETERBOROUGH", "province": "ON", "country": "CA", "postalCode": "K9J2A2", "twitter": "None", "instagram": "None", "facebook": "None", "youtube": "None", "website": "None", "summary": "None", "logo": "None", "latitude": 44.27750007917316, "longitude": -78.36390759342697}, "119128122RR0001": {"name": "THE ROYAL CANADIAN LEGION OROMOCTO N.B. NO. 93 BRANCH POPPY FUND", "designationCode": "C", "categoryCode": "09", "address": "284 RESTIGOUCHE RD", "city": "OROMOCTO", "province": "NB", "country": "CA", "postalCode": "E2V2H5", "twitter": "None", "instagram": "None", "facebook": "None", "youtube": "None", "website": "None", "summary": "None", "logo": "None", "latitude": 45.842686469069086, "longitude": -66.50327344933358}, "119128130RR0001": {"name": "THE ROYAL CANADIAN LEGION OSGOODE ONT. NO. 589 BRANCH POPPY FUND", "designationCode": "C", "categoryCode": "09", "address": "PO BOX 159", "city": "OSGOODE", "province": "ON", "country": "CA", "postalCode": "K0A2W0", "twitter": "None", "instagram": "None", "facebook": "None", "youtube": "None", "website": "None", "summary": "None", "logo": "None", "latitude": 45.14356518086365, "longitude": -75.59063555322211}, "865796577RR0001": {"name": "THE ROYAL CANADIAN LEGION PORT BURWELL-BAYHAM BR 524 POPPY FUND", "designationCode": "C", "categoryCode": "09", "address": "P O BOX 171", "city": "PORT BURWELL", "province": "ON", "country": "CA", "postalCode": "N0J1T0", "twitter": "None", "instagram": "None", "facebook": "None", "youtube": "None", "website": "None", "summary": "None", "logo": "None", "latitude": 42.64570000000003, "longitude": -80.80595999999997}, "119128262RR0001": {"name": "THE ROYAL CANADIAN LEGION PRESTON (ONT. NO. 126) BRANCH POPPY FUND", "designationCode": "A", "categoryCode": "09", "address": "334 WESTMINSTER DR", "city": "CAMBRIDGE", "province": "ON", "country": "CA", "postalCode": "N3H1S5", "twitter": "None", "instagram": "None", "facebook": "None", "youtube": "None", "website": "None", "summary": "None", "logo": "None", "latitude": 43.39823522372884, "longitude": -80.35610329369806}, "870773538RR0001": {"name": "THE ROYAL CANADIAN LEGION RICHMOND HILL BRANCH (ONT NO 375) BRANCH POPPY FUND", "designationCode": "C", "categoryCode": "09", "address": "233 CENTRE STREET EAST", "city": "RICHMOND HILL", "province": "ON", "country": "CA", "postalCode": "L4C1A7", "twitter": "None", "instagram": "None", "facebook": "None", "youtube": "None", "website": "None", "summary": "None", "logo": "None", "latitude": 43.87750115852013, "longitude": -79.42706568194922}, "871852760RR0001": {"name": "THE ROYAL CANADIAN LEGION RIDGETOWN (ONT NO 243) BRANCH POPPY FUND", "designationCode": "C", "categoryCode": "09", "address": "P.O. BOX 458", "city": "RIDGETOWN", "province": "ON", "country": "CA", "postalCode": "N0P2C0", "twitter": "None", "instagram": "None", "facebook": "None", "youtube": "None", "website": "None", "summary": "None", "logo": "None", "latitude": 42.42687003390246, "longitude": -81.90498998889144}, "119128338RR0001": {"name": "THE ROYAL CANADIAN LEGION ROGERSVILLE BRANCH NB NO. 38 BRANCCH POPPY FUND", "designationCode": "C", "categoryCode": "09", "address": "11127 RUE PRINCIPALE", "city": "ROGERSVILLE", "province": "NB", "country": "CA", "postalCode": "E4Y2N4", "twitter": "None", "instagram": "None", "facebook": "None", "youtube": "None", "website": "None", "summary": "None", "logo": "None", "latitude": 46.73310643603206, "longitude": -65.4280058465002}, "119128353RR0001": {"name": "THE ROYAL CANADIAN LEGION SACKVILLE BRANCH NB NO. 26 BRANCH POPPY FUND", "designationCode": "C", "categoryCode": "09", "address": "15 LORNE ST.", "city": "SACKVILLE", "province": "NB", "country": "CA", "postalCode": "E4L3Z6", "twitter": "None", "instagram": "None", "facebook": "None", "youtube": "None", "website": "None", "summary": "None", "logo": "None", "latitude": 45.89576500222171, "longitude": -64.36661253179629}, "891610867RR0001": {"name": "THE ROYAL CANADIAN LEGION SARNIA ONT NO 62 BRANCH POPPY FUND", "designationCode": "C", "categoryCode": "09", "address": "286 FRONT STREET N", "city": "SARNIA", "province": "ON", "country": "CA", "postalCode": "N7T5S7", "twitter": "None", "instagram": "None", "facebook": "None", "youtube": "None", "website": "None", "summary": "None", "logo": "None", "latitude": 42.97486585630405, "longitude": -82.40739470417192}, "119128445RR0001": {"name": "THE ROYAL CANADIAN LEGION ST. CROIX BRANCH NB NO. 9 BRANCH POPPY FUND", "designationCode": "C", "categoryCode": "09", "address": "43 QUEEN ST W", "city": "ST. STEPHEN", "province": "NB", "country": "CA", "postalCode": "E3L2K2", "twitter": "None", "instagram": "None", "facebook": "None", "youtube": "None", "website": "None", "summary": "None", "logo": "None", "latitude": 45.19846042382701, "longitude": -67.27928874118531}, "108075433RR0001": {"name": "THE ROYAL CANADIAN LEGION SUDBURY ONT. NO. 76 BRANCH POPPY FUND", "designationCode": "C", "categoryCode": "05", "address": "1553 WELLER ST", "city": "SUDBURY", "province": "ON", "country": "CA", "postalCode": "P3B1K9", "twitter": "None", "instagram": "None", "facebook": "None", "youtube": "None", "website": "None", "summary": "None", "logo": "None", "latitude": 46.48999745202797, "longitude": -80.94863564531241}, "119128502RR0001": {"name": "THE ROYAL CANADIAN LEGION SUSSEX BRANCH NB. NO. 20 BRANCH POPPY FUND", "designationCode": "C", "categoryCode": "09", "address": "66 MAGNOLIA AVENUE", "city": "SUSSEX", "province": "NB", "country": "CA", "postalCode": "E4E2H2", "twitter": "None", "instagram": "None", "facebook": "None", "youtube": "None", "website": "None", "summary": "None", "logo": "None", "latitude": 45.72059174770619, "longitude": -65.50572505046486}, "119128510RR0001": {"name": "THE ROYAL CANADIAN LEGION SUTTON & DISTRICT (ONT. NO. 356) BRANCH POPPY FUND", "designationCode": "C", "categoryCode": "09", "address": "PO 521                        21 EAST ST", "city": "SUTTON WEST", "province": "ON", "country": "CA", "postalCode": "L0E1R0", "twitter": "None", "instagram": "None", "facebook": "None", "youtube": "None", "website": "None", "summary": "None", "logo": "None", "latitude": 44.30096598915131, "longitude": -79.35246096748256}, "893190777RR0001": {"name": "THE ROYAL CANADIAN LEGION THESSALON (ONT. NO 182) BRANCH POPPY FUND", "designationCode": "C", "categoryCode": "09", "address": "18 ALGOMA STREET              PO BOX 232", "city": "THESSALON", "province": "ON", "country": "CA", "postalCode": "P0R1L0", "twitter": "None", "instagram": "None", "facebook": "None", "youtube": "None", "website": "None", "summary": "None", "logo": "None", "latitude": 46.25569320804434, "longitude": -83.55771285557928}, "119128585RR0001": {"name": "THE ROYAL CANADIAN LEGION TRENTON (ONT. NO. 110) BRANCH POPPY FUND", "designationCode": "C", "categoryCode": "09", "address": "19 QUINTE STREET", "city": "TRENTON", "province": "ON", "country": "CA", "postalCode": "K8V3S7", "twitter": "None", "instagram": "None", "facebook": "None", "youtube": "None", "website": "None", "summary": "None", "logo": "None", "latitude": 44.100137297218765, "longitude": -77.57525203468182}, "891608663RR0001": {"name": "THE ROYAL CANADIAN LEGION WELLAND (ONT NO. 04) BRANCH POPPY FUND", "designationCode": "C", "categoryCode": "09", "address": "383 MORNINGSTAR AVENUE", "city": "WELLAND", "province": "ON", "country": "CA", "postalCode": "L3B5B5", "twitter": "None", "instagram": "None", "facebook": "None", "youtube": "None", "website": "None", "summary": "None", "logo": "None", "latitude": 42.97674654948392, "longitude": -79.23710241618096}, "119128718RR0001": {"name": "THE ROYAL CANADIAN LEGION WILBERFORCE (ONT. NO. 624) BRANCH POPPY FUND", "designationCode": "C", "categoryCode": "09", "address": "P.O. BOX 171", "city": "WILBERFORCE", "province": "ON", "country": "CA", "postalCode": "K0L3C0", "twitter": "None", "instagram": "None", "facebook": "None", "youtube": "None", "website": "None", "summary": "None", "logo": "None", "latitude": 44.99796121193059, "longitude": -78.21053236882112}, "892476979RR0001": {"name": "THE ROYAL CANADIAN LEGION, BRANCH #33 POPPY FUND", "designationCode": "C", "categoryCode": "09", "address": "PO BOX 674", "city": "BRIDGETOWN ANNA CO", "province": "NS", "country": "CA", "postalCode": "B0S1C0", "twitter": "None", "instagram": "None", "facebook": "None", "youtube": "None", "website": "None", "summary": "None", "logo": "None", "latitude": 44.85015000000004, "longitude": -65.29881999999998}, "891171860RR0001": {"name": "THE ROYAL CANADIAN LEGION, BRANCH #372 POPPY FUND, L T H RUSSELL", "designationCode": "C", "categoryCode": "09", "address": "PO BOX 188                    24 LEGION LANE", "city": "RUSSELL", "province": "ON", "country": "CA", "postalCode": "K4R1C9", "twitter": "None", "instagram": "None", "facebook": "None", "youtube": "None", "website": "None", "summary": "None", "logo": "None", "latitude": 45.25962066389115, "longitude": -75.35822213942997}, "890760861RR0001": {"name": "THE ROYAL CANADIAN LEGION, BRANCH #84, CENTERVILLE, POPPY FUND", "designationCode": "C", "categoryCode": "09", "address": "104B SMITH ROAD               BOX 9", "city": "SUMMERFIELD CARLETON", "province": "NB", "country": "CA", "postalCode": "E7K3A1", "twitter": "None", "instagram": "None", "facebook": "None", "youtube": "None", "website": "None", "summary": "None", "logo": "None", "latitude": 46.32045503802145, "longitude": -67.63781931682784}, "869725697RR0001": {"name": "THE ROYAL CANADIAN LEGION, BRANCH 153, POPPY FUND", "designationCode": "A", "categoryCode": "09", "address": "16 DURHAM ST", "city": "TILLSONBURG", "province": "ON", "country": "CA", "postalCode": "N4G1V7", "twitter": "None", "instagram": "None", "facebook": "None", "youtube": "None", "website": "None", "summary": "None", "logo": "None", "latitude": 42.86433240550517, "longitude": -80.72711592936695}, "119252930RR0001": {"name": "THE ROYAL CANADIAN LEGION, CALLANDER (ONTARIO NO 445) BRANCH POPPY FUND", "designationCode": "C", "categoryCode": "09", "address": "PO BOX 312", "city": "CALLANDER", "province": "ON", "country": "CA", "postalCode": "P0H1H0", "twitter": "None", "instagram": "None", "facebook": "None", "youtube": "None", "website": "None", "summary": "None", "logo": "None", "latitude": 46.19345100000005, "longitude": -79.50537799999994}, "888929791RR0001": {"name": "THE ROYAL CANADIAN LEGION, DISTRICT 'A', HOSPITAL TRUST FUND, (ONTARIO)", "designationCode": "A", "categoryCode": "15", "address": "44 MULBERRY CRT", "city": "CHATHAM", "province": "ON", "country": "CA", "postalCode": "N7M6H8", "twitter": "None", "instagram": "None", "facebook": "None", "youtube": "None", "website": "None", "summary": "None", "logo": "None", "latitude": 42.38883534222969, "longitude": -82.18431384191257}, "893194779RR0001": {"name": "THE ROYAL CANADIAN LEGION, DUNSDON BRANCH #461 POPPY FUND", "designationCode": "C", "categoryCode": "09", "address": "9 TOLLGATE ROAD", "city": "BRANTFORD", "province": "ON", "country": "CA", "postalCode": "N3R4Z4", "twitter": "None", "instagram": "None", "facebook": "None", "youtube": "None", "website": "None", "summary": "None", "logo": "None", "latitude": 43.16827847013696, "longitude": -80.27727291618096}, "119127223RR0001": {"name": "THE ROYAL CANADIAN LEGION, ELMVALE (ONTARIO NO 262) BRANCH POPPY FUND", "designationCode": "C", "categoryCode": "05", "address": "7 JOHN ST", "city": "ELMVALE", "province": "ON", "country": "CA", "postalCode": "L0L1P0", "twitter": "None", "instagram": "None", "facebook": "None", "youtube": "None", "website": "None", "summary": "None", "logo": "None", "latitude": 44.581678919181535, "longitude": -79.86494531424954}, "890587132RR0001": {"name": "THE ROYAL CANADIAN LEGION, ESTEVAN BRANCH NO 60 POPPY FUND", "designationCode": "C", "categoryCode": "09", "address": "1317-4TH STREET", "city": "ESTEVAN", "province": "SK", "country": "CA", "postalCode": "S4A0X1", "twitter": "None", "instagram": "None", "facebook": "None", "youtube": "None", "website": "None", "summary": "None", "logo": "None", "latitude": 49.14151482666029, "longitude": -102.99767996626937}, "888926995RR0001": {"name": "THE ROYAL CANADIAN LEGION, GENERAL WINGATE (ONTARIO NO 256) BRANCH POPPY FUND", "designationCode": "C", "categoryCode": "09", "address": "3560 BATHURST ST", "city": "NORTH YORK", "province": "ON", "country": "CA", "postalCode": "M6A2E1", "twitter": "None", "instagram": "None", "facebook": "None", "youtube": "None", "website": "None", "summary": "None", "logo": "None", "latitude": 43.730265584771324, "longitude": -79.43232918168847}, "119127363RR0001": {"name": "THE ROYAL CANADIAN LEGION, GLADSTONE BRANCH #55, BRANCH POPPY FUND", "designationCode": "C", "categoryCode": "09", "address": "159 SUNBURY DRIVE", "city": "FREDERICTON JUNCTION", "province": "NB", "country": "CA", "postalCode": "E5L1R5", "twitter": "None", "instagram": "None", "facebook": "None", "youtube": "None", "website": "None", "summary": "None", "logo": "None", "latitude": 45.666116794967465, "longitude": -66.62273343819642}, "119127389RR0001": {"name": "THE ROYAL CANADIAN LEGION, GRAND FALLS (NFLD NO. 12) BRANCH POPPY FUND", "designationCode": "C", "categoryCode": "09", "address": "PO BOX 152", "city": "GRAND FALLS - WINDSOR", "province": "NL", "country": "CA", "postalCode": "A2A2J4", "twitter": "None", "instagram": "None", "facebook": "None", "youtube": "None", "website": "None", "summary": "None", "logo": "None", "latitude": 48.927786000000054, "longitude": -55.65881149999993}, "891561540RR0001": {"name": "THE ROYAL CANADIAN LEGION, HARRY WRAY (ONTARIO NO 302) BRANCH POPPY FUND", "designationCode": "C", "categoryCode": "09", "address": "290 VETERANS WAY", "city": "GRAVENHURST", "province": "ON", "country": "CA", "postalCode": "P1P1K2", "twitter": "None", "instagram": "None", "facebook": "None", "youtube": "None", "website": "None", "summary": "None", "logo": "None", "latitude": 44.913849000000056, "longitude": -79.37148949999994}, "107932493RR0001": {"name": "THE ROYAL CANADIAN LEGION, HAVELOCK-BELMONT (ONTARIO NO. 389) BRANCH POPPY FUND", "designationCode": "C", "categoryCode": "09", "address": "PO BOX 309", "city": "HAVELOCK", "province": "ON", "country": "CA", "postalCode": "K0L1Z0", "twitter": "None", "instagram": "None", "facebook": "None", "youtube": "None", "website": "None", "summary": "None", "logo": "None", "latitude": 44.321131016013254, "longitude": -77.79993987356778}, "119127520RR0001": {"name": "THE ROYAL CANADIAN LEGION, HUNTINGDON (QUE. NO. 81) BRANCH POPPY FUND", "designationCode": "C", "categoryCode": "09", "address": "108 F. CLEYN STREET", "city": "HUNTINGDON", "province": "QC", "country": "CA", "postalCode": "J0S1H0", "twitter": "None", "instagram": "None", "facebook": "None", "youtube": "None", "website": "None", "summary": "None", "logo": "None", "latitude": 45.092869710254405, "longitude": -74.17560419980973}, "893377366RR0001": {"name": "THE ROYAL CANADIAN LEGION, JOHN MAGRATH BRANCH 441 POPPY FUND", "designationCode": "C", "categoryCode": "09", "address": "BOX 12", "city": "KINMOUNT", "province": "ON", "country": "CA", "postalCode": "K0M2A0", "twitter": "None", "instagram": "None", "facebook": "None", "youtube": "None", "website": "None", "summary": "None", "logo": "None", "latitude": 44.783420000000035, "longitude": -78.64956999999998}, "888668399RR0001": {"name": "THE ROYAL CANADIAN LEGION, LORD ELGIN (ONT NO 41) BRANCH POPPY FUND", "designationCode": "C", "categoryCode": "09", "address": "24-26 JOHN SE", "city": "ST THOMAS", "province": "ON", "country": "CA", "postalCode": "N5P2X3", "twitter": "None", "instagram": "None", "facebook": "None", "youtube": "None", "website": "None", "summary": "None", "logo": "None", "latitude": 42.780100499999996, "longitude": -81.18991575}, "888117041RR0001": {"name": "THE ROYAL CANADIAN LEGION, MINDEN NO 636 BRANCH POPPY FUND", "designationCode": "C", "categoryCode": "09", "address": "P.O. BOX 238", "city": "MINDEN", "province": "ON", "country": "CA", "postalCode": "K0M2K0", "twitter": "None", "instagram": "None", "facebook": "None", "youtube": "None", "website": "None", "summary": "None", "logo": "None", "latitude": 45.00243600000006, "longitude": -78.58882699999994}, "886494392RR0001": {"name": "THE ROYAL CANADIAN LEGION, NORWICH (ONTARIO NO. 190) BRANCH POPPY FUND", "designationCode": "C", "categoryCode": "09", "address": "55 STOVER ST. S               RR#1", "city": "NORWICH", "province": "ON", "country": "CA", "postalCode": "N0J1P0", "twitter": "None", "instagram": "None", "facebook": "None", "youtube": "None", "website": "None", "summary": "None", "logo": "None", "latitude": 42.97977281793523, "longitude": -80.59523544416903}, "107933665RR0001": {"name": "THE ROYAL CANADIAN LEGION, NOVA SCOTIA/NUNAVUT COMMAND - BENEVOLENT FUND", "designationCode": "C", "categoryCode": "09", "address": "61 GLORIA MCCLUSKEY AVE       BURNSIDE BUSINESS PARK", "city": "DARTMOUTH", "province": "NS", "country": "CA", "postalCode": "B3B2Z3", "twitter": "None", "instagram": "None", "facebook": "None", "youtube": "None", "website": "None", "summary": "None", "logo": "None", "latitude": 44.71954472603744, "longitude": -63.585566117433}, "850781618RR0001": {"name": "THE ROYAL CANADIAN LEGION, ONTARIO PROVINCIAL COMMAND BRANCHES AND LADIES' AUXILIARIES CHARITABLE FOUNDATION", "designationCode": "A", "categoryCode": "11", "address": "89 INDUSTRIAL PKWY N", "city": "AURORA", "province": "ON", "country": "CA", "postalCode": "L4G4C4", "twitter": "None", "instagram": "None", "facebook": "None", "youtube": "None", "website": "None", "summary": "None", "logo": "None", "latitude": 44.0056820311038, "longitude": -79.45847006402622}, "119128163RR0001": {"name": "THE ROYAL CANADIAN LEGION, PARIS (ONT. NO. 29) BRANCH POPPY FUND", "designationCode": "C", "categoryCode": "09", "address": "70 WILLIAM ST.", "city": "PARIS", "province": "ON", "country": "CA", "postalCode": "N3L1L6", "twitter": "None", "instagram": "None", "facebook": "None", "youtube": "None", "website": "None", "summary": "None", "logo": "None", "latitude": 43.195067307259414, "longitude": -80.37863859562002}, "128076106RR0001": {"name": "THE ROYAL CANADIAN LEGION, SUNDRIDGE (ONT NO 467) BRANCH POPPY FUND", "designationCode": "A", "categoryCode": "09", "address": "BOX 594", "city": "SUNDRIDGE", "province": "ON", "country": "CA", "postalCode": "P0A1Z0", "twitter": "None", "instagram": "None", "facebook": "None", "youtube": "None", "website": "None", "summary": "None", "logo": "None", "latitude": 45.75507926133678, "longitude": -79.41022764524283}, "890280845RR0001": {"name": "THE ROYAL CANADIAN LEGION, UPPER (ONTARIO NO. 542) BRANCH POPPY FUND", "designationCode": "C", "categoryCode": "65", "address": "PO BOX 444", "city": "WESTPORT", "province": "ON", "country": "CA", "postalCode": "K0G1X0", "twitter": "None", "instagram": "None", "facebook": "None", "youtube": "None", "website": "None", "summary": "None", "logo": "None", "latitude": 39.63902000000007, "longitude": -123.78490999999997}, "890906266RR0001": {"name": "THE ROYAL CANADIAN LEGION, WALKERVILLE & EAST WINDSOR (ONTARIO NO. 12) BRANCH POPPY FUND", "designationCode": "C", "categoryCode": "09", "address": "2090 BRANT ST", "city": "WINDSOR", "province": "ON", "country": "CA", "postalCode": "N8Y1C6", "twitter": "None", "instagram": "None", "facebook": "None", "youtube": "None", "website": "None", "summary": "None", "logo": "None", "latitude": 42.324183626175575, "longitude": -83.0116609138437}, "107935181RR0001": {"name": "THE ROYAL CANADIAN NAVAL BENEVOLENT FUND", "designationCode": "C", "categoryCode": "09", "address": "9 - 6 BEECHWOOD AVE", "city": "VANIER", "province": "ON", "country": "CA", "postalCode": "K1L8B4", "twitter": "None", "instagram": "None", "facebook": "None", "youtube": "None", "website": "None", "summary": "None", "logo": "None", "latitude": 45.438747905072475, "longitude": -75.67739574283009}, "891419442RR0001": {"name": "THE ROYAL CANADIAN REGIMENT TRUST FUND", "designationCode": "C", "categoryCode": "51", "address": "120 CLARENCE STREET           PO BOX 1954", "city": "KINGSTON", "province": "ON", "country": "CA", "postalCode": "K7L5J7", "twitter": "None", "instagram": "None", "facebook": "None", "youtube": "None", "website": "None", "summary": "None", "logo": "None", "latitude": 44.23062371689085, "longitude": -76.4841054543539}, "827614413RR0001": {"name": "THE ROYAL CANADIAN SEA CADET EDUCATION FOUNDATION / FONDATION \u00c9DUCATIVE POUR LES CADETS DE LA MARINE ROYALE CANADIENNE", "designationCode": "C", "categoryCode": "21", "address": "66 LISGAR STREET", "city": "OTTAWA", "province": "ON", "country": "CA", "postalCode": "K2P0C1", "twitter": "None", "instagram": "None", "facebook": "None", "youtube": "None", "website": "None", "summary": "None", "logo": "None", "latitude": 45.420221589214734, "longitude": -75.68892969787647}, "119128825RR0001": {"name": "THE ROYAL CITY LEGION HOUSING SOCIETY", "designationCode": "C", "categoryCode": "01", "address": "505 SIXTH AVE", "city": "NEW WESTMINSTER", "province": "BC", "country": "CA", "postalCode": "V3L5H3", "twitter": "None", "instagram": "None", "facebook": "None", "youtube": "None", "website": "None", "summary": "None", "logo": "None", "latitude": 49.21379673869516, "longitude": -122.91934134745874}, "108097254RR0001": {"name": "THE ROYAL COLLEGE OF DENTISTS OF CANADA", "designationCode": "C", "categoryCode": "20", "address": "2404-180 DUNDAS STREET WEST", "city": "TORONTO", "province": "ON", "country": "CA", "postalCode": "M5G1Z8", "twitter": "None", "instagram": "None", "facebook": "None", "youtube": "None", "website": "None", "summary": "None", "logo": "None", "latitude": 43.65505800000001, "longitude": -79.38679049999999}, "119128858RR0001": {"name": "THE ROYAL COLLEGE OF PHYSICIANS AND SURGEONS OF CANADA / LE COLL\u00c8GE ROYAL DES M\u00c9DECINS ET CHIRURGIENS DU CANADA", "designationCode": "C", "categoryCode": "20", "address": "774 PROMENADE ECHO DRIVE", "city": "OTTAWA", "province": "ON", "country": "CA", "postalCode": "K1S5N8", "twitter": "None", "instagram": "None", "facebook": "None", "youtube": "None", "website": "None", "summary": "None", "logo": "None", "latitude": 45.39591652337177, "longitude": -75.68336042048013}, "119128908RR0001": {"name": "THE ROYAL COMMONWEALTH SOCIETY OF TORONTO FOUNDATION", "designationCode": "C", "categoryCode": "21", "address": "200 - 730 DAVIS DR", "city": "NEWMARKET", "province": "ON", "country": "CA", "postalCode": "L3Y2R4", "twitter": "None", "instagram": "None", "facebook": "None", "youtube": "None", "website": "None", "summary": "None", "logo": "None", "latitude": 44.06227785980173, "longitude": -79.44708425685279}, "119128916RR0001": {"name": "THE ROYAL COMMONWEALTH SOCIETY OTTAWA BRANCH", "designationCode": "C", "categoryCode": "59", "address": "P.O. BOX 8023                 POSTAL STATION \"T\"", "city": "OTTAWA", "province": "ON", "country": "CA", "postalCode": "K1G3H6", "twitter": "None", "instagram": "None", "facebook": "None", "youtube": "None", "website": "None", "summary": "None", "logo": "None", "latitude": 45.4075526747762, "longitude": -75.65114751410245}, "119128890RR0001": {"name": "THE ROYAL COMMONWEALTH SOCIETY, MAINLAND OF B.C. BRANCH - EDCATIONAL FUND", "designationCode": "C", "categoryCode": "25", "address": "816-402 WEST PENDER STREET", "city": "VANCOUVER", "province": "BC", "country": "CA", "postalCode": "V6B1T6", "twitter": "None", "instagram": "None", "facebook": "None", "youtube": "None", "website": "None", "summary": "None", "logo": "None", "latitude": 49.28286862057832, "longitude": -123.11214030532616}, "107935413RR0001": {"name": "THE ROYAL CONSERVATORY OF MUSIC", "designationCode": "C", "categoryCode": "22", "address": "273 BLOOR ST W", "city": "TORONTO", "province": "ON", "country": "CA", "postalCode": "M5S1W2", "twitter": "None", "instagram": "None", "facebook": "None", "youtube": "None", "website": "None", "summary": "None", "logo": "None", "latitude": 43.66824877598271, "longitude": -79.39616458782973}, "107935553RR0001": {"name": "THE ROYAL HAMILTON LIGHT INFANTRY HERITAGE MUSEUM", "designationCode": "C", "categoryCode": "50", "address": "200 JAMES ST NORTH", "city": "HAMILTON", "province": "ON", "country": "CA", "postalCode": "L8R2L1", "twitter": "None", "instagram": "None", "facebook": "None", "youtube": "None", "website": "None", "summary": "None", "logo": "None", "latitude": 43.26175898528483, "longitude": -79.86680936300439}, "121267959RR0001": {"name": "THE ROYAL HERALDRY SOCIETY OF CANADA/LA SOCIETE ROYALE HERALDIQUE DU CANADA", "designationCode": "C", "categoryCode": "50", "address": "P.O.BOX 8128 STATION \"T\"", "city": "OTTAWA", "province": "ON", "country": "CA", "postalCode": "K1G3H9", "twitter": "None", "instagram": "None", "facebook": "None", "youtube": "None", "website": "None", "summary": "None", "logo": "None", "latitude": 45.4075526747762, "longitude": -75.65114751410245}, "893174771RR0001": {"name": "THE ROYAL LEGION BATTLEFIELD (ONTARIO NO 622) BRANCH POPPY FUND", "designationCode": "C", "categoryCode": "09", "address": "12 KING STREET EAST", "city": "STONEY CREEK", "province": "ON", "country": "CA", "postalCode": "L8G1J8", "twitter": "None", "instagram": "None", "facebook": "None", "youtube": "None", "website": "None", "summary": "None", "logo": "None", "latitude": 43.21679098415964, "longitude": -79.75729742812618}, "890293897RR0001": {"name": "THE ROYAL LIFE SAVING SOCIETY CANADA - NEW BRUNSWICK BRANCH INC", "designationCode": "C", "categoryCode": "59", "address": "70, RUE MELISSA STREET", "city": "FREDERICTON", "province": "NB", "country": "CA", "postalCode": "E3A6W1", "twitter": "None", "instagram": "None", "facebook": "None", "youtube": "None", "website": "None", "summary": "None", "logo": "None", "latitude": 45.95531955516841, "longitude": -66.58960486278995}, "119129039RR0001": {"name": "THE ROYAL LIFE SAVING SOCIETY CANADA BRITISH COLUMBIA AND YUKON BRANCH", "designationCode": "C", "categoryCode": "59", "address": "112-3989 HENNING DR", "city": "BURNABY", "province": "BC", "country": "CA", "postalCode": "V5C6N5", "twitter": "None", "instagram": "None", "facebook": "None", "youtube": "None", "website": "None", "summary": "None", "logo": "None", "latitude": 49.26407609264605, "longitude": -123.01667304291942}, "132378134RR0001": {"name": "THE ROYAL LIFE SAVING SOCIETY CANADA NEWFOUNDLAND AND LABRADOR BRANCH INCORPORATED", "designationCode": "C", "categoryCode": "59", "address": "11 AUSTIN STREET 2ND FLOOR    PO BOX 8065, STATION A", "city": "ST.JOHN'S", "province": "NL", "country": "CA", "postalCode": "A1B3M9", "twitter": "None", "instagram": "None", "facebook": "None", "youtube": "None", "website": "None", "summary": "None", "logo": "None", "latitude": 47.56938900000006, "longitude": -52.78609699999993}, "119129047RR0001": {"name": "THE ROYAL LIFE SAVING SOCIETY CANADA-MANITOBA BRANCH INC.", "designationCode": "C", "categoryCode": "59", "address": "SUITE 100                     383 PROVENCHER BOULEVARD", "city": "WINNIPEG", "province": "MB", "country": "CA", "postalCode": "R2H0G9", "twitter": "None", "instagram": "None", "facebook": "None", "youtube": "None", "website": "None", "summary": "None", "logo": "None", "latitude": 49.894749176265066, "longitude": -97.11236677880999}, "119129088RR0001": {"name": "THE ROYAL LIFE SAVING SOCIETY CANADA/LA SOCIETE ROYALE DE SAUVETAGE CANADA", "designationCode": "C", "categoryCode": "21", "address": "287 MCARTHUR AVENUE", "city": "OTTAWA", "province": "ON", "country": "CA", "postalCode": "K1L6P3", "twitter": "None", "instagram": "None", "facebook": "None", "youtube": "None", "website": "None", "summary": "None", "logo": "None", "latitude": 45.43161749321934, "longitude": -75.65652227852152}, "108097270RR0001": {"name": "THE ROYAL LIFE SAVING SOCIETY CANADA, ONTARIO BRANCH", "designationCode": "C", "categoryCode": "21", "address": "400 CONSUMERS RD.", "city": "TORONTO", "province": "ON", "country": "CA", "postalCode": "M2J1P8", "twitter": "None", "instagram": "None", "facebook": "None", "youtube": "None", "website": "None", "summary": "None", "logo": "None", "latitude": 43.77082246378897, "longitude": -79.32561289508915}, "835448960RR0001": {"name": "THE ROYAL NEWFOUNDLAND REGIMENT REGIMENTAL ADVISORY COUNCIL", "designationCode": "C", "categoryCode": "51", "address": "78 PADDY DOBBIN DRIVE", "city": "ST.JOHNS", "province": "NL", "country": "CA", "postalCode": "A1A4W3", "twitter": "None", "instagram": "None", "facebook": "None", "youtube": "None", "website": "None", "summary": "None", "logo": "None", "latitude": 47.608457342777946, "longitude": -52.71295572191116}, "136282126RR0001": {"name": "THE ROYAL ONTARIO MUSEUM FOUNDATION", "designationCode": "A", "categoryCode": "53", "address": "100 QUEEN'S PARK", "city": "TORONTO", "province": "ON", "country": "CA", "postalCode": "M5S2C6", "twitter": "None", "instagram": "None", "facebook": "None", "youtube": "None", "website": "None", "summary": "None", "logo": "None", "latitude": 43.66786635192456, "longitude": -79.39380648531348}, "894060664RR0001": {"name": "THE ROYAL REGINA RIFLES TRUST FUND", "designationCode": "C", "categoryCode": "51", "address": "1480-2002 VICTORIA AVE", "city": "REGINA", "province": "SK", "country": "CA", "postalCode": "S4P0R7", "twitter": "None", "instagram": "None", "facebook": "None", "youtube": "None", "website": "None", "summary": "None", "logo": "None", "latitude": 50.44725351875454, "longitude": -104.6098125}, "875964207RR0001": {"name": "THE ROYAL SCHOOL OF CHURCH MUSIC, CANADA", "designationCode": "C", "categoryCode": "22", "address": "62 GREENCROFT CR.", "city": "MARKHAM", "province": "ON", "country": "CA", "postalCode": "L3R3Y5", "twitter": "None", "instagram": "None", "facebook": "None", "youtube": "None", "website": "None", "summary": "None", "logo": "None", "latitude": 43.87941909244603, "longitude": -79.31133974978364}, "889769972RR0001": {"name": "THE ROYAL SCHOOL OF CHURCH MUSIC, NIAGARA AND HURON BRANCH", "designationCode": "C", "categoryCode": "22", "address": "133 FIRST AVENUE", "city": "WELLAND", "province": "ON", "country": "CA", "postalCode": "L3C1Y1", "twitter": "None", "instagram": "None", "facebook": "None", "youtube": "None", "website": "None", "summary": "None", "logo": "None", "latitude": 42.99903938773156, "longitude": -79.25990755929342}, "884324781RR0001": {"name": "THE ROYAL SCOTTISH COUNTRY DANCE SOCIETY - VANCOUVER BRANCH", "designationCode": "C", "categoryCode": "22", "address": "8886 HUDSON STREET,", "city": "VANCOUVER", "province": "BC", "country": "CA", "postalCode": "V6P4N2", "twitter": "None", "instagram": "None", "facebook": "None", "youtube": "None", "website": "None", "summary": "None", "logo": "None", "latitude": 49.20457337607479, "longitude": -123.13466011154729}, "119253011RR0001": {"name": "THE ROYAL WESTMINSTER REGIMENT HISTORICAL SOCIETY", "designationCode": "C", "categoryCode": "50", "address": "530 QUEEN'S AVENUE", "city": "NEW WESTMINSTER", "province": "BC", "country": "CA", "postalCode": "V3L1K3", "twitter": "None", "instagram": "None", "facebook": "None", "youtube": "None", "website": "None", "summary": "None", "logo": "None", "latitude": 49.20734217805476, "longitude": -122.91198633480704}, "119129302RR0001": {"name": "THE ROYAL WINNIPEG BALLET", "designationCode": "C", "categoryCode": "22", "address": "380 GRAHAM AVE", "city": "WINNIPEG", "province": "MB", "country": "CA", "postalCode": "R3C4K2", "twitter": "None", "instagram": "None", "facebook": "None", "youtube": "None", "website": "None", "summary": "None", "logo": "None", "latitude": 49.89130286311997, "longitude": -97.14621350871391}, "119129310RR0001": {"name": "THE ROYAL WINNIPEG RIFLES REGIMENTAL TRUST FUND", "designationCode": "C", "categoryCode": "51", "address": "SUITE 90 PO BOX 17000 STN     FORCES", "city": "WINNIPEG", "province": "MB", "country": "CA", "postalCode": "R3J3Y5", "twitter": "None", "instagram": "None", "facebook": "None", "youtube": "None", "website": "None", "summary": "None", "logo": "None", "latitude": 49.88684400000005, "longitude": -97.23976099999993}, "873965891RR0001": {"name": "THE RUBIN-HOFFMAN FOUNDATION", "designationCode": "B", "categoryCode": "03", "address": "25 TIMBERLAND DRIVE", "city": "TORONTO", "province": "ON", "country": "CA", "postalCode": "M3H1J3", "twitter": "None", "instagram": "None", "facebook": "None", "youtube": "None", "website": "None", "summary": "None", "logo": "None", "latitude": 43.74876580209486, "longitude": -79.4336581470945}, "852377530RR0001": {"name": "THE RUBY LAKE LAGOON NATURE RESERVE SOCIETY", "designationCode": "C", "categoryCode": "52", "address": "PO BOX 8", "city": "MADEIRA PARK", "province": "BC", "country": "CA", "postalCode": "V0N2H0", "twitter": "None", "instagram": "None", "facebook": "None", "youtube": "None", "website": "None", "summary": "None", "logo": "None", "latitude": 49.61982063633974, "longitude": -124.0231710391864}, "823224670RR0001": {"name": "THE RUDDER FOUNDATION", "designationCode": "B", "categoryCode": "03", "address": "1416 MULLIGAN STREET", "city": "OTTAWA", "province": "ON", "country": "CA", "postalCode": "K1V1H4", "twitter": "None", "instagram": "None", "facebook": "None", "youtube": "None", "website": "None", "summary": "None", "logo": "None", "latitude": 45.29319162917667, "longitude": -75.69665092809753}, "119129542RR0001": {"name": "THE RUDOLPH P. BRATTY FAMILY FOUNDATION", "designationCode": "B", "categoryCode": "59", "address": "7501 KEELE STREET SUITE 100", "city": "CONCORD", "province": "ON", "country": "CA", "postalCode": "L4K1Y2", "twitter": "None", "instagram": "None", "facebook": "None", "youtube": "None", "website": "None", "summary": "None", "logo": "None", "latitude": 43.795232056350564, "longitude": -79.49808755433135}, "119129567RR0001": {"name": "THE RUFFED GROUSE SOCIETY OF CANADA/LA SOCIETE CANADIENNE DE LA GELINOTTE HUPPEE", "designationCode": "C", "categoryCode": "54", "address": "133 BURPEE STREET", "city": "FREDERICTON", "province": "NB", "country": "CA", "postalCode": "E3A1M6", "twitter": "None", "instagram": "None", "facebook": "None", "youtube": "None", "website": "None", "summary": "None", "logo": "None", "latitude": 45.9778143871833, "longitude": -66.6647468484621}, "119253037RR0001": {"name": "THE RUITER VALLEY LAND TRUST", "designationCode": "C", "categoryCode": "52", "address": "186, CHEMIN RUITER BROOK", "city": "MANSONVILLE", "province": "QC", "country": "CA", "postalCode": "J0E1X0", "twitter": "None", "instagram": "None", "facebook": "None", "youtube": "None", "website": "None", "summary": "None", "logo": "None", "latitude": 45.085699694352094, "longitude": -72.45813678793368}, "119129617RR0001": {"name": "THE RUMSEY AND DISTRICT AGRICULTURAL SOCIETY", "designationCode": "C", "categoryCode": "56", "address": "BOX 60", "city": "RUMSEY", "province": "AB", "country": "CA", "postalCode": "T0J2Y0", "twitter": "None", "instagram": "None", "facebook": "None", "youtube": "None", "website": "None", "summary": "None", "logo": "None", "latitude": 51.841270000000065, "longitude": -112.83763999999996}, "878810266RR0001": {"name": "THE RUPERT AND TIMOTHY SMITH CHARITABLE FOUNDATION", "designationCode": "B", "categoryCode": "03", "address": "49978 DINGLE STREET RR1", "city": "AYLMER", "province": "ON", "country": "CA", "postalCode": "N5H2R1", "twitter": "None", "instagram": "None", "facebook": "None", "youtube": "None", "website": "None", "summary": "None", "logo": "None", "latitude": 42.77551042829908, "longitude": -80.96379646739565}, "898109319RR0001": {"name": "THE RURAL CUPBOARD FOOD BANK", "designationCode": "C", "categoryCode": "09", "address": "PO BOX 327", "city": "KAKABEKA FALLS", "province": "ON", "country": "CA", "postalCode": "P0T1W0", "twitter": "None", "instagram": "None", "facebook": "None", "youtube": "None", "website": "None", "summary": "None", "logo": "None", "latitude": 48.40169000000003, "longitude": -89.61458999999996}, "119129898RR0001": {"name": "THE RUSSELL DONOR'S CHOICE", "designationCode": "C", "categoryCode": "05", "address": "PO BOX 326", "city": "RUSSELL", "province": "MB", "country": "CA", "postalCode": "R0J1W0", "twitter": "None", "instagram": "None", "facebook": "None", "youtube": "None", "website": "None", "summary": "None", "logo": "None", "latitude": 50.69676379161792, "longitude": -101.40612232134879}, "836466961RR0001": {"name": "THE RUSSELL REFORMED PRESBYTERIAN CHURCH", "designationCode": "C", "categoryCode": "37", "address": "BOX 222", "city": "RUSSELL", "province": "ON", "country": "CA", "postalCode": "K4R1C9", "twitter": "None", "instagram": "None", "facebook": "None", "youtube": "None", "website": "None", "summary": "None", "logo": "None", "latitude": 45.25810800000005, "longitude": -75.35879449999993}, "119253045RR0001": {"name": "THE RUSSELL SISTERS OF PICTOU, NS MEMORIAL TRUST FUND", "designationCode": "B", "categoryCode": "13", "address": "(THE CANADA TRUST CO.)        PO BOX 10085", "city": "VANCOUVER", "province": "BC", "country": "CA", "postalCode": "V7Y1B6", "twitter": "None", "instagram": "None", "facebook": "None", "youtube": "None", "website": "None", "summary": "None", "logo": "None", "latitude": 49.28294993392596, "longitude": -123.11892994113924}, "119130011RR0001": {"name": "THE RUSSIAN ORTHODOX CHURCH OF THE HOLY RESURRECTION", "designationCode": "C", "categoryCode": "39", "address": "732 ALFRED AVE", "city": "WINNIPEG", "province": "MB", "country": "CA", "postalCode": "R2W1Y9", "twitter": "None", "instagram": "None", "facebook": "None", "youtube": "None", "website": "None", "summary": "None", "logo": "None"}, "890605942RR0001": {"name": "THE RUSSO GREEK CATHOLIC ORTHODOX CHURCH OF ST PETER AND ST PAUL", "designationCode": "C", "categoryCode": "39", "address": "BOX 234", "city": "REDWATER", "province": "AB", "country": "CA", "postalCode": "T0A2W0", "twitter": "None", "instagram": "None", "facebook": "None", "youtube": "None", "website": "None", "summary": "None", "logo": "None", "latitude": 53.94921000000005, "longitude": -113.10568999999998}, "889983912RR0001": {"name": "THE RUSSO GREEK CATHOLIC ORTHODOX CONGREGATION OF ST.NICKOLAS AT WOSTOK, ALBERTA", "designationCode": "C", "categoryCode": "39", "address": "BOX 583", "city": "ANDREW", "province": "AB", "country": "CA", "postalCode": "T0B0C0", "twitter": "None", "instagram": "None", "facebook": "None", "youtube": "None", "website": "None", "summary": "None", "logo": "None", "latitude": 53.88346000000007, "longitude": -112.35188999999997}, "129434049RR0001": {"name": "THE RUSSO GREEK CATHOLIC ORTHODOX PARISH OF TOPOROUTZ", "designationCode": "C", "categoryCode": "39", "address": "PO BOX 252", "city": "SMOKY LAKE", "province": "AB", "country": "CA", "postalCode": "T0A3C0", "twitter": "None", "instagram": "None", "facebook": "None", "youtube": "None", "website": "None", "summary": "None", "logo": "None", "latitude": 54.113230000000044, "longitude": -112.47107999999997}, "832943351RR0001": {"name": "THE RUTH E. AND WILLIAM H. ROSS FOUNDATION", "designationCode": "B", "categoryCode": "05", "address": "3990 BAYRIDGE AVE W", "city": "VANCOUVER", "province": "BC", "country": "CA", "postalCode": "V7V3J5", "twitter": "None", "instagram": "None", "facebook": "None", "youtube": "None", "website": "None", "summary": "None", "logo": "None", "latitude": 49.34479969880011, "longitude": -123.22808601099293}, "119130193RR0001": {"name": "THE RUTH SCHWARTZ FOUNDATION", "designationCode": "B", "categoryCode": "03", "address": "10 BAY STREET SUITE 801", "city": "TORONTO", "province": "ON", "country": "CA", "postalCode": "M5J2R8", "twitter": "None", "instagram": "None", "facebook": "None", "youtube": "None", "website": "None", "summary": "None", "logo": "None", "latitude": 43.64150138106645, "longitude": -79.3771619705983}, "867952962RR0001": {"name": "THE RUTHENIAN GREEK CATHOLIC PARISH OF SAINT DEMETRO", "designationCode": "C", "categoryCode": "39", "address": "PO BOX 405", "city": "MUNDARE", "province": "AB", "country": "CA", "postalCode": "T0B3H0", "twitter": "None", "instagram": "None", "facebook": "None", "youtube": "None", "website": "None", "summary": "None", "logo": "None", "latitude": 53.594760000000065, "longitude": -112.33641999999998}, "894296995RR0001": {"name": "THE RUTHVEN PARK FOUNDATION", "designationCode": "B", "categoryCode": "53", "address": "SUITE 4100-66 WELLINGTON ST W BOX 35, TORONTO DOMINION CTR", "city": "TORONTO", "province": "ON", "country": "CA", "postalCode": "M5K1B7", "twitter": "None", "instagram": "None", "facebook": "None", "youtube": "None", "website": "None", "summary": "None", "logo": "None", "latitude": 43.64697464244785, "longitude": -79.38095190503475}, "864047881RR0001": {"name": "THE RYAN SCRATCH FOUNDATION", "designationCode": "C", "categoryCode": "21", "address": "41 VIOLA CRES", "city": "KINGSVILLE", "province": "ON", "country": "CA", "postalCode": "N9Y4A7", "twitter": "None", "instagram": "None", "facebook": "None", "youtube": "None", "website": "None", "summary": "None", "logo": "None", "latitude": 42.034602637775016, "longitude": -82.73834691923939}}