{"119130417RR0001": {"name": "Dunbar Ryerson United Church", "designationCode": "C", "categoryCode": "44", "address": "2195 WEST 45TH AVENUE", "city": "VANCOUVER", "province": "BC", "country": "CA", "postalCode": "V6M2J2", "twitter": "None", "instagram": "None", "facebook": "None", "youtube": "None", "website": "None", "summary": "None", "logo": "None", "latitude": 49.230869529863064, "longitude": -123.15845233236193}, "810608554RR0001": {"name": "Dundalk Dance Association", "designationCode": "C", "categoryCode": "22", "address": "#38-325 WILLIAM ST", "city": "SHELBURNE", "province": "ON", "country": "CA", "postalCode": "L9V2X6", "twitter": "None", "instagram": "None", "facebook": "None", "youtube": "None", "website": "None", "summary": "None", "logo": "None", "latitude": 44.08110851868497, "longitude": -80.204041705856}, "826047698RR0001": {"name": "Dundas Community Cemetery Inc.", "designationCode": "C", "categoryCode": "59", "address": "1699 STRATHCONA RD            RR # 3", "city": "ST.PETERS BAY", "province": "PE", "country": "CA", "postalCode": "C0A2A0", "twitter": "None", "instagram": "None", "facebook": "None", "youtube": "None", "website": "None", "summary": "None", "logo": "None", "latitude": 46.370127887039075, "longitude": -62.560537480437375}, "812856219RR0001": {"name": "Dundas Living Centre Corporation", "designationCode": "C", "categoryCode": "09", "address": "15 BALDWIN STREET", "city": "DUNDAS", "province": "ON", "country": "CA", "postalCode": "L9H1A5", "twitter": "None", "instagram": "None", "facebook": "None", "youtube": "None", "website": "None", "summary": "None", "logo": "None", "latitude": 43.26462627451083, "longitude": -79.95068787261233}, "108029000RR0001": {"name": "Dundas Valley Co-Operative Preschool Incorporated", "designationCode": "C", "categoryCode": "20", "address": "86 CAMERON AVE", "city": "DUNDAS", "province": "ON", "country": "CA", "postalCode": "L9H1P8", "twitter": "None", "instagram": "None", "facebook": "None", "youtube": "None", "website": "None", "summary": "None", "logo": "None", "latitude": 43.27415613350449, "longitude": -79.94589842933829}, "851582767RR0001": {"name": "Dundas Youth Chaplaincy", "designationCode": "C", "categoryCode": "09", "address": "10 MARKET STREET SOUTH", "city": "DUNDAS", "province": "ON", "country": "CA", "postalCode": "L9H5G4", "twitter": "None", "instagram": "None", "facebook": "None", "youtube": "None", "website": "None", "summary": "None", "logo": "None", "latitude": 43.26732024063707, "longitude": -79.96313545824904}, "118889542RR0001": {"name": "Dungannon Agricultural Society Inc.", "designationCode": "C", "categoryCode": "56", "address": "56 ALBERT ST", "city": "DUNGANNON", "province": "ON", "country": "CA", "postalCode": "N0M1R0", "twitter": "None", "instagram": "None", "facebook": "None", "youtube": "None", "website": "None", "summary": "None", "logo": "None", "latitude": 43.85403724414116, "longitude": -81.59859437622235}, "119288918RR0106": {"name": "Dunnville, Ontario, Congregation of Jehovah's Witnesses", "designationCode": "C", "categoryCode": "61", "address": "612 GEORGE STREET", "city": "DUNNVILLE", "province": "ON", "country": "CA", "postalCode": "N1A2T9", "twitter": "None", "instagram": "None", "facebook": "None", "youtube": "None", "website": "None", "summary": "None", "logo": "None", "latitude": 42.91166249376761, "longitude": -79.62579954235653}, "846971521RR0001": {"name": "Dunroamin' Stray and Rescue Inc.", "designationCode": "C", "categoryCode": "54", "address": "P.O. BOX 574", "city": "FLORENCEVILLE", "province": "NB", "country": "CA", "postalCode": "E7L1Y8", "twitter": "None", "instagram": "None", "facebook": "None", "youtube": "None", "website": "None", "summary": "None", "logo": "None", "latitude": 46.44196800000006, "longitude": -67.61212099999993}, "816100325RR0001": {"name": "Duranno Church", "designationCode": "C", "categoryCode": "39", "address": "17 CHIMES LANE", "city": "ETOBICOKE", "province": "ON", "country": "CA", "postalCode": "M8Y4H8", "twitter": "None", "instagram": "None", "facebook": "None", "youtube": "None", "website": "None", "summary": "None", "logo": "None", "latitude": 43.626108247850425, "longitude": -79.49153992907847}, "846662021RR0001": {"name": "Durham Centre for Excellence", "designationCode": "C", "categoryCode": "09", "address": "1542 AVONMORE SQUARE,", "city": "PICKERING", "province": "ON", "country": "CA", "postalCode": "L1V7H3", "twitter": "None", "instagram": "None", "facebook": "None", "youtube": "None", "website": "None", "summary": "None", "logo": "None", "latitude": 43.84134600000006, "longitude": -79.08116299999993}, "816658652RR0001": {"name": "Durham Christian Homes Society Inc.", "designationCode": "C", "categoryCode": "59", "address": "200 GLEN HILL DRIVE SOUTH,", "city": "WHITBY", "province": "ON", "country": "CA", "postalCode": "L1N9W2", "twitter": "None", "instagram": "None", "facebook": "None", "youtube": "None", "website": "None", "summary": "None", "logo": "None", "latitude": 43.883155426020075, "longitude": -78.91416537030372}, "898797931RR0001": {"name": "Durham Community Foundation", "designationCode": "A", "categoryCode": "53", "address": "701 ROSSLAND RD E             BOX 322", "city": "WHITBY", "province": "ON", "country": "CA", "postalCode": "L1N9K3", "twitter": "None", "instagram": "None", "facebook": "None", "youtube": "None", "website": "None", "summary": "None", "logo": "None", "latitude": 43.89999091808554, "longitude": -78.9389855636795}, "119158137RR0001": {"name": "Durham Community Health Centre", "designationCode": "C", "categoryCode": "59", "address": "115 GRASSMERE AVE", "city": "OSHAWA", "province": "ON", "country": "CA", "postalCode": "L1H3X7", "twitter": "None", "instagram": "None", "facebook": "None", "youtube": "None", "website": "None", "summary": "None", "logo": "None", "latitude": 43.86963690475534, "longitude": -78.84485331776233}, "124369497RR0001": {"name": "Durham Community Legal Clinic", "designationCode": "C", "categoryCode": "59", "address": "111 SIMCOE STREET NOPTH       MAIN FLOOR REAR ENTRANCE", "city": "OSHAWA", "province": "ON", "country": "CA", "postalCode": "L1G4S4", "twitter": "None", "instagram": "None", "facebook": "None", "youtube": "None", "website": "None", "summary": "None", "logo": "None", "latitude": 43.90057500000006, "longitude": -78.86493349999994}, "887288793RR0001": {"name": "Durham District School Board Charitable Trust", "designationCode": "C", "categoryCode": "25", "address": "400 TAUNTON ROAD EAST", "city": "WHITBY", "province": "ON", "country": "CA", "postalCode": "L1R2K6", "twitter": "None", "instagram": "None", "facebook": "None", "youtube": "None", "website": "None", "summary": "None", "logo": "None", "latitude": 43.91907742103669, "longitude": -78.94098221176831}, "107396905RR0027": {"name": "Durham Foursquare Gospel Church", "designationCode": "C", "categoryCode": "39", "address": "BOX 74", "city": "DURHAM", "province": "ON", "country": "CA", "postalCode": "N0G1R0", "twitter": "None", "instagram": "None", "facebook": "None", "youtube": "None", "website": "None", "summary": "None", "logo": "None", "latitude": 44.125520383994086, "longitude": -81.21636506037191}, "838317436RR0001": {"name": "Durham Hindu Heritage Centre", "designationCode": "C", "categoryCode": "48", "address": "100 FORESTER CRESCENT,", "city": "MARKHAM", "province": "ON", "country": "CA", "postalCode": "L6C1S1", "twitter": "None", "instagram": "None", "facebook": "None", "youtube": "None", "website": "None", "summary": "None", "logo": "None", "latitude": 43.878344175139894, "longitude": -79.3567691587226}, "833943046RR0001": {"name": "Durham Islamic Centre", "designationCode": "C", "categoryCode": "60", "address": "4618 COUNTRY LANE", "city": "WHITBY", "province": "ON", "country": "CA", "postalCode": "L1P1Y7", "twitter": "None", "instagram": "None", "facebook": "None", "youtube": "None", "website": "None", "summary": "None", "logo": "None", "latitude": 43.92268667232183, "longitude": -78.98228342303264}, "799821087RR0001": {"name": "Dyck Family Foundation Inc.", "designationCode": "B", "categoryCode": "03", "address": "200 - 28 QUEEN ELIZABETH WAY", "city": "WINNIPEG", "province": "MB", "country": "CA", "postalCode": "R3L2R1", "twitter": "None", "instagram": "None", "facebook": "None", "youtube": "None", "website": "None", "summary": "None", "logo": "None", "latitude": 49.88456386121538, "longitude": -97.13246305360927}, "140851890RR0001": {"name": "Dynamique des Handicap\u00e9s de Granby et r\u00e9gion inc.", "designationCode": "C", "categoryCode": "09", "address": "106-170 RUE ST-ANTOINE NORD", "city": "GRANBY", "province": "QC", "country": "CA", "postalCode": "J2G5G8", "twitter": "None", "instagram": "None", "facebook": "None", "youtube": "None", "website": "None", "summary": "None", "logo": "None", "latitude": 45.406239965715216, "longitude": -72.72721565888182}, "888763612RR0001": {"name": "Dynamo ressource en mobilisation des collectivit\u00e9s", "designationCode": "C", "categoryCode": "29", "address": "340-4050 RUE MOLSON", "city": "MONTREAL", "province": "QC", "country": "CA", "postalCode": "H1Y3N1", "twitter": "None", "instagram": "None", "facebook": "None", "youtube": "None", "website": "None", "summary": "None", "logo": "None", "latitude": 45.54139150288553, "longitude": -73.56228916610884}, "890618242RR0001": {"name": "Dynes Christian Centre", "designationCode": "C", "categoryCode": "39", "address": "4031 FAIRVIEW ST", "city": "BURLINGTON", "province": "ON", "country": "CA", "postalCode": "L7L2A4", "twitter": "None", "instagram": "None", "facebook": "None", "youtube": "None", "website": "None", "summary": "None", "logo": "None", "latitude": 43.36060297478189, "longitude": -79.7788448327077}, "892178161RR0001": {"name": "Dysphasie Lanaudi\u00e8re", "designationCode": "C", "categoryCode": "09", "address": "2500, BOULEVARD MASCOUCHE     LOCAL 215", "city": "MASCOUCHE", "province": "QC", "country": "CA", "postalCode": "J7K0H5", "twitter": "None", "instagram": "None", "facebook": "None", "youtube": "None", "website": "None", "summary": "None", "logo": "None", "latitude": 45.74389239018424, "longitude": -73.61772075862127}, "142349430RR0001": {"name": "Dysphasie Laurentides (DL)", "designationCode": "C", "categoryCode": "11", "address": "2C CH DE LA C\u00d4TE ST-LOUIS O", "city": "BLAINVILLE", "province": "QC", "country": "CA", "postalCode": "J7C1B5", "twitter": "None", "instagram": "None", "facebook": "None", "youtube": "None", "website": "None", "summary": "None", "logo": "None", "latitude": 45.651485439971594, "longitude": -73.84614011100463}, "886048396RR0001": {"name": "Dysphasie Qu\u00e9bec", "designationCode": "C", "categoryCode": "11", "address": "955, RUE DE BOURGOGNE, BUR 202", "city": "QU\u00c9BEC", "province": "QC", "country": "CA", "postalCode": "G1X3E5", "twitter": "None", "instagram": "None", "facebook": "None", "youtube": "None", "website": "None", "summary": "None", "logo": "None", "latitude": 46.7670478548674, "longitude": -71.31212685980174}, "126616598RR0001": {"name": "Dystonia Medical Research Foundation Canada", "designationCode": "B", "categoryCode": "13", "address": "209 - 550 ST CLAIR AVE W", "city": "TORONTO", "province": "ON", "country": "CA", "postalCode": "M6C1A5", "twitter": "None", "instagram": "None", "facebook": "None", "youtube": "None", "website": "None", "summary": "None", "logo": "None", "latitude": 43.68264691305665, "longitude": -79.42113430427658}, "847211000RR0001": {"name": "Dystonie-Qu\u00e9bec", "designationCode": "B", "categoryCode": "11", "address": "546 RUE OCTAVE-CR\u00c9MAZIE", "city": "MONT SAINT-HILAIRE", "province": "QC", "country": "CA", "postalCode": "J3H5P5", "twitter": "None", "instagram": "None", "facebook": "None", "youtube": "None", "website": "None", "summary": "None", "logo": "None", "latitude": 45.57178203967349, "longitude": -73.17959360364145}, "890935398RR0001": {"name": "DA CAMERA SINGERS", "designationCode": "C", "categoryCode": "22", "address": "P.O. BOX 903 STN MAIN", "city": "EDMONTON", "province": "AB", "country": "CA", "postalCode": "T5J2L8", "twitter": "None", "instagram": "None", "facebook": "None", "youtube": "None", "website": "None", "summary": "None", "logo": "None", "latitude": 53.54623500000005, "longitude": -113.49037249999994}, "890889397RR0001": {"name": "DA CAPO PRODUCTIONS", "designationCode": "C", "categoryCode": "22", "address": "100 CARNABY PLACE", "city": "KITCHENER", "province": "ON", "country": "CA", "postalCode": "N2A2G5", "twitter": "None", "instagram": "None", "facebook": "None", "youtube": "None", "website": "None", "summary": "None", "logo": "None", "latitude": 43.45341261117192, "longitude": -80.43467938441333}, "841861305RR0001": {"name": "DA Stinson Foundation", "designationCode": "B", "categoryCode": "05", "address": "5151 GEORGE ST., 16TH FLOOR   PO BOX 2207", "city": "HALIFAX", "province": "NS", "country": "CA", "postalCode": "B3J3C4", "twitter": "None", "instagram": "None", "facebook": "None", "youtube": "None", "website": "None", "summary": "None", "logo": "None", "latitude": 44.64864892480796, "longitude": -63.57299125910314}, "131580532RR0001": {"name": "DAAT CHARITABLE FOUNDATION", "designationCode": "B", "categoryCode": "03", "address": "37 MAIN STREET SOUTH", "city": "GEIRGETOWN", "province": "ON", "country": "CA", "postalCode": "L7G3G2", "twitter": "None", "instagram": "None", "facebook": "None", "youtube": "None", "website": "None", "summary": "None", "logo": "None", "latitude": 43.65030210199106, "longitude": -79.92714115863461}, "118881481RR0001": {"name": "DAC FOUNDATION FOR PEOPLE WITH SPECIAL NEEDS", "designationCode": "B", "categoryCode": "13", "address": "130 KING ST. WEST 20TH FLOOR  BOX 430, STN FIRST CANADIAN PL", "city": "TORONTO", "province": "ON", "country": "CA", "postalCode": "M5X1K1", "twitter": "None", "instagram": "None", "facebook": "None", "youtube": "None", "website": "None", "summary": "None", "logo": "None", "latitude": 43.64826932503962, "longitude": -79.38190945606182}, "867968703RR0001": {"name": "DACAPO CHAMBER CHOIR INC.", "designationCode": "C", "categoryCode": "22", "address": "PO BOX 40035                  WATERLOO SQUARE PO", "city": "WATERLOO", "province": "ON", "country": "CA", "postalCode": "N2J4V1", "twitter": "None", "instagram": "None", "facebook": "None", "youtube": "None", "website": "None", "summary": "None", "logo": "None", "latitude": 43.46219009212306, "longitude": -80.50748526325414}, "118881499RR0001": {"name": "DACRE AND AREA COMMUNITY ASSOCIATION INCORPORATED", "designationCode": "C", "categoryCode": "56", "address": "ELIZABETH FROST               R.R.1", "city": "DACRE", "province": "ON", "country": "CA", "postalCode": "K0J1N0", "twitter": "None", "instagram": "None", "facebook": "None", "youtube": "None", "website": "None", "summary": "None", "logo": "None", "latitude": 45.38265900000006, "longitude": -76.99327549999994}, "118881515RR0001": {"name": "DAEHAN CHRISTIAN PRAYER'S GROUP", "designationCode": "C", "categoryCode": "39", "address": "2541 MOUNT ALBERT ROAD", "city": "QUEENSVILLE", "province": "ON", "country": "CA", "postalCode": "L0G1R0", "twitter": "None", "instagram": "None", "facebook": "None", "youtube": "None", "website": "None", "summary": "None", "logo": "None", "latitude": 44.10959878073287, "longitude": -79.40709799251181}, "118881523RR0001": {"name": "DAGLET BRAUTH SOCIETY", "designationCode": "C", "categoryCode": "47", "address": "1205 HUNTER ROAD", "city": "DELTA", "province": "BC", "country": "CA", "postalCode": "V4L1Y9", "twitter": "None", "instagram": "None", "facebook": "None", "youtube": "None", "website": "None", "summary": "None", "logo": "None", "latitude": 49.024809000000005, "longitude": -123.06593542120129}, "891011413RR0001": {"name": "DAGOM BUDDHIST DHARMA FOUNDATION/FONDATION DAGOM BOUDDHISTE DHARMA", "designationCode": "C", "categoryCode": "35", "address": "950 RUE SHERBROOKE EST", "city": "MONTREAL", "province": "QC", "country": "CA", "postalCode": "H2L1L2", "twitter": "None", "instagram": "None", "facebook": "None", "youtube": "None", "website": "None", "summary": "None", "logo": "None", "latitude": 45.52053002524678, "longitude": -73.565809605142}, "129931507RR0001": {"name": "DAHLTON LUTHERAN CHURCH,", "designationCode": "C", "categoryCode": "32", "address": "BOX 340", "city": "ARCHERWILL", "province": "SK", "country": "CA", "postalCode": "S0E0B0", "twitter": "None", "instagram": "None", "facebook": "None", "youtube": "None", "website": "None", "summary": "None", "logo": "None", "latitude": 52.440810000000056, "longitude": -103.86157999999995}, "804182525RR0001": {"name": "DAI Leadership Ministries", "designationCode": "C", "categoryCode": "20", "address": "610 GEISSINGER RD NW", "city": "EDMONTON", "province": "AB", "country": "CA", "postalCode": "T5T6S8", "twitter": "None", "instagram": "None", "facebook": "None", "youtube": "None", "website": "None", "summary": "None", "logo": "None", "latitude": 53.497276500432704, "longitude": -113.66814813765944}, "118881549RR0001": {"name": "DAILY BREAD FOOD BANK", "designationCode": "C", "categoryCode": "09", "address": "191 NEW TORONTO ST.", "city": "TORONTO", "province": "ON", "country": "CA", "postalCode": "M8V2E7", "twitter": "None", "instagram": "None", "facebook": "None", "youtube": "None", "website": "None", "summary": "None", "logo": "None", "latitude": 43.60721289529162, "longitude": -79.50438446055765}, "107431843RR0001": {"name": "DAILY DISCOVERIES INC.", "designationCode": "C", "categoryCode": "01", "address": "PO BOX 159", "city": "GILBERT PLAINS", "province": "MB", "country": "CA", "postalCode": "R0L0X0", "twitter": "None", "instagram": "None", "facebook": "None", "youtube": "None", "website": "None", "summary": "None", "logo": "None", "latitude": 51.144900000000064, "longitude": -100.48893999999996}, "118881556RR0001": {"name": "DAILY PRAYER CRUSADE", "designationCode": "C", "categoryCode": "47", "address": "10 ST JOSEPH'S DR.,SUITE #2", "city": "HAMILTON", "province": "ON", "country": "CA", "postalCode": "L8N2E6", "twitter": "None", "instagram": "None", "facebook": "None", "youtube": "None", "website": "None", "summary": "None", "logo": "None", "latitude": 43.24782791866248, "longitude": -79.8703262647873}, "886294750RR0001": {"name": "DAKOTA OJIBWAY CHILD AND FAMILY SERVICES INC.", "designationCode": "C", "categoryCode": "09", "address": "BOX 310", "city": "CARBERRY", "province": "MB", "country": "CA", "postalCode": "R0K0H0", "twitter": "None", "instagram": "None", "facebook": "None", "youtube": "None", "website": "None", "summary": "None", "logo": "None", "latitude": 49.84164228965453, "longitude": -99.31431075066462}, "892031279RR0001": {"name": "DAKSHONG GONPA RETREAT CENTER INC.", "designationCode": "C", "categoryCode": "49", "address": "PO BOX 18500", "city": "LAC DU BONNET", "province": "MB", "country": "CA", "postalCode": "R0E1A0", "twitter": "None", "instagram": "None", "facebook": "None", "youtube": "None", "website": "None", "summary": "None", "logo": "None", "latitude": 50.25160000000005, "longitude": -96.06180999999998}, "832532329RR0001": {"name": "DALE AND LYNN REMPEL FOUNDATION INC.", "designationCode": "B", "categoryCode": "03", "address": "PO BOX 520", "city": "MORRIS", "province": "MB", "country": "CA", "postalCode": "R0G1K0", "twitter": "None", "instagram": "None", "facebook": "None", "youtube": "None", "website": "None", "summary": "None", "logo": "None", "latitude": 49.35468000000003, "longitude": -97.36605999999995}, "119229292RR0001": {"name": "DALE BRAIN INJURY SERVICES INC", "designationCode": "C", "categoryCode": "11", "address": "1-1111 ELIAS ST", "city": "LONDON", "province": "ON", "country": "CA", "postalCode": "N5W5L1", "twitter": "None", "instagram": "None", "facebook": "None", "youtube": "None", "website": "None", "summary": "None", "logo": "None", "latitude": 42.99857505687016, "longitude": -81.21535596681872}, "895159044RR0001": {"name": "DALE CHENEY MEMORIAL SCHOLARSHIP FUND", "designationCode": "C", "categoryCode": "21", "address": "4438 WEST 10TH AVENUE         SUITE 170", "city": "VANCOUVER", "province": "BC", "country": "CA", "postalCode": "V6R4R8", "twitter": "None", "instagram": "None", "facebook": "None", "youtube": "None", "website": "None", "summary": "None", "logo": "None", "latitude": 49.26371978491995, "longitude": -123.20726121770718}, "118881622RR0001": {"name": "DALEMEAD CHURCH", "designationCode": "C", "categoryCode": "39", "address": "PO BOX 4", "city": "LANGDON", "province": "AB", "country": "CA", "postalCode": "T0J1X0", "twitter": "None", "instagram": "None", "facebook": "None", "youtube": "None", "website": "None", "summary": "None", "logo": "None", "latitude": 50.853114000000005, "longitude": -113.46866660697509}, "106999121RR0001": {"name": "DALESVILLE BAPTIST CHURCH", "designationCode": "C", "categoryCode": "31", "address": "245 DALESVILLE ROAD SUD", "city": "BROWNSBURG CHATHAM", "province": "QC", "country": "CA", "postalCode": "J8G1H3", "twitter": "None", "instagram": "None", "facebook": "None", "youtube": "None", "website": "None", "summary": "None", "logo": "None", "latitude": 45.709252659992025, "longitude": -74.40739523189447}, "119288918RR1409": {"name": "DALEWOOD CONGREGATION OF JEHOVAH'S WITNESSES, ST. THOMAS ONTARIO", "designationCode": "C", "categoryCode": "61", "address": "59 RIVERBANK DRIVE", "city": "ST. THOMAS", "province": "ON", "country": "CA", "postalCode": "N5P4M8", "twitter": "None", "instagram": "None", "facebook": "None", "youtube": "None", "website": "None", "summary": "None", "logo": "None", "latitude": 42.81060508611006, "longitude": -81.15387459957083}, "878417823RR0001": {"name": "DALFEN FAMILY FOUNDATION / FONDATION DE LA FAMILLE DALFEN", "designationCode": "B", "categoryCode": "03", "address": "4444 ST. CATHERINE STREET WESTSUITE 100", "city": "WESTMOUNT", "province": "QC", "country": "CA", "postalCode": "H3Z1R2", "twitter": "None", "instagram": "None", "facebook": "None", "youtube": "None", "website": "None", "summary": "None", "logo": "None", "latitude": 45.4819913336027, "longitude": -73.59223045946113}, "864564133RR0001": {"name": "DALHOUSIE CAMPUS MINISTRY COMMITTEE OF THE UNITED CHURCH OF CANADA", "designationCode": "C", "categoryCode": "39", "address": "7 SCARLET ROAD", "city": "HALIFAX", "province": "NS", "country": "CA", "postalCode": "B3M1K7", "twitter": "None", "instagram": "None", "facebook": "None", "youtube": "None", "website": "None", "summary": "None", "logo": "None", "latitude": 44.66495803719198, "longitude": -63.64172450816565}, "887948842RR0001": {"name": "DALHOUSIE CEMETERY COMPANY", "designationCode": "C", "categoryCode": "59", "address": "735 MCKEEN RD RR #2", "city": "SCOTSBURN", "province": "NS", "country": "CA", "postalCode": "B0K1R0", "twitter": "None", "instagram": "None", "facebook": "None", "youtube": "None", "website": "None", "summary": "None", "logo": "None", "latitude": 45.63965545441122, "longitude": -62.868327711754944}, "118881648RR0001": {"name": "DALHOUSIE COMMUNITY ASSOCIATION", "designationCode": "C", "categoryCode": "56", "address": "5432 DALHART RD", "city": "CALGARY", "province": "AB", "country": "CA", "postalCode": "T3A1V6", "twitter": "None", "instagram": "None", "facebook": "None", "youtube": "None", "website": "None", "summary": "None", "logo": "None", "latitude": 51.111926627329396, "longitude": -114.16066941915341}, "131437626RR0001": {"name": "DALHOUSIE COMMUNITY CHURCH (MENNONITE BRETHREN)", "designationCode": "C", "categoryCode": "34", "address": "5511 BAROC ROAD NW", "city": "CALGARY", "province": "AB", "country": "CA", "postalCode": "T3A4R1", "twitter": "None", "instagram": "None", "facebook": "None", "youtube": "None", "website": "None", "summary": "None", "logo": "None", "latitude": 51.10687174712928, "longitude": -114.16526859287872}, "135775500RR0001": {"name": "DALHOUSIE FOOD ACTION GROUP INC", "designationCode": "C", "categoryCode": "09", "address": "107 - 211 BRONSON AVE", "city": "OTTAWA", "province": "ON", "country": "CA", "postalCode": "K1R6H5", "twitter": "None", "instagram": "None", "facebook": "None", "youtube": "None", "website": "None", "summary": "None", "logo": "None", "latitude": 45.41349725618897, "longitude": -75.7068905103587}, "118881689RR0001": {"name": "DALHOUSIE LAW SCHOOL TRUST FUND", "designationCode": "C", "categoryCode": "21", "address": "SUITE 1305, COGSWELL TOWER    2000 BARRINGTON STREET", "city": "HALIFAX", "province": "NS", "country": "CA", "postalCode": "B3J3K1", "twitter": "None", "instagram": "None", "facebook": "None", "youtube": "None", "website": "None", "summary": "None", "logo": "None", "latitude": 44.650150961805274, "longitude": -63.57561955750014}, "107889537RR0001": {"name": "DALHOUSIE NURSING HOME INC./FOYER DE SOINS DE DALHOUSIE INC.", "designationCode": "C", "categoryCode": "10", "address": "1-296 RUE VICTORIA", "city": "DALHOUSIE", "province": "NB", "country": "CA", "postalCode": "E8C2R8", "twitter": "None", "instagram": "None", "facebook": "None", "youtube": "None", "website": "None", "summary": "None", "logo": "None", "latitude": 48.06279683426653, "longitude": -66.3631095682958}, "871574935RR0001": {"name": "DALHOUSIE PUBLIC LIBRARY BOARD", "designationCode": "C", "categoryCode": "50", "address": "403 ADELAIDE STREET", "city": "DALHOUSIE", "province": "NB", "country": "CA", "postalCode": "E8C1B6", "twitter": "None", "instagram": "None", "facebook": "None", "youtube": "None", "website": "None", "summary": "None", "logo": "None", "latitude": 48.06527550764604, "longitude": -66.37631035928213}, "118881713RR0001": {"name": "DALHOUSIE ROTARY CLUB CHARITY TRUST", "designationCode": "C", "categoryCode": "65", "address": "296 VICTORIA STREET, UNIT 2", "city": "DALHOUSIE", "province": "NB", "country": "CA", "postalCode": "E8C2R8", "twitter": "None", "instagram": "None", "facebook": "None", "youtube": "None", "website": "None", "summary": "None", "logo": "None", "latitude": 48.06279683426653, "longitude": -66.3631095682958}, "886806561RR0001": {"name": "DALHOUSIE UNIVERSITY", "designationCode": "C", "categoryCode": "20", "address": "6299 SOUTH STREET,#44         PO BOX 15000", "city": "HALIFAX", "province": "NS", "country": "CA", "postalCode": "B3H4R2", "twitter": "None", "instagram": "None", "facebook": "None", "youtube": "None", "website": "None", "summary": "None", "logo": "None", "latitude": 44.634536336547264, "longitude": -63.59400439580108}, "844803544RR0001": {"name": "DALIT FREEDOM NETWORK CANADA ASSOCIATION", "designationCode": "C", "categoryCode": "20", "address": "PO BOX 45645                  RPO SUNNYSIDE MALL", "city": "SURREY", "province": "BC", "country": "CA", "postalCode": "V4A9N3", "twitter": "None", "instagram": "None", "facebook": "None", "youtube": "None", "website": "None", "summary": "None", "logo": "None", "latitude": 49.04577758735484, "longitude": -122.85084454245168}, "877065565RR0001": {"name": "DALL CEMETERY ASSOCIATION", "designationCode": "C", "categoryCode": "59", "address": "R.R. #2", "city": "SHELBURNE", "province": "NS", "country": "CA", "postalCode": "B0T1W0", "twitter": "None", "instagram": "None", "facebook": "None", "youtube": "None", "website": "None", "summary": "None", "logo": "None", "latitude": 43.57026600000006, "longitude": -65.35813399999994}, "106999386RR0001": {"name": "DALLAS-BARNHARTVALE BAPTIST CHURCH", "designationCode": "C", "categoryCode": "31", "address": "495 TODD RD.", "city": "KAMLOOPS", "province": "BC", "country": "CA", "postalCode": "V2C5Y9", "twitter": "None", "instagram": "None", "facebook": "None", "youtube": "None", "website": "None", "summary": "None", "logo": "None", "latitude": 50.66529009824576, "longitude": -120.18951240233116}, "118881754RR0001": {"name": "DALMENY BIBLE CHURCH", "designationCode": "C", "categoryCode": "34", "address": "BOX 100", "city": "DALMENY", "province": "SK", "country": "CA", "postalCode": "S0K1E0", "twitter": "None", "instagram": "None", "facebook": "None", "youtube": "None", "website": "None", "summary": "None", "logo": "None", "latitude": 52.143390000000004, "longitude": -106.76546549999999}, "106999469RR0001": {"name": "DALMENY COMMUNITY CHURCH", "designationCode": "C", "categoryCode": "34", "address": "BOX 70", "city": "DALMENY", "province": "SK", "country": "CA", "postalCode": "S0K1E0", "twitter": "None", "instagram": "None", "facebook": "None", "youtube": "None", "website": "None", "summary": "None", "logo": "None", "latitude": 52.143390000000004, "longitude": -106.76546549999999}, "118881804RR0001": {"name": "DALMENY SENIORS ASSOCIATION INC.", "designationCode": "C", "categoryCode": "56", "address": "BOX 397", "city": "DALMENY", "province": "SK", "country": "CA", "postalCode": "S0K1E0", "twitter": "None", "instagram": "None", "facebook": "None", "youtube": "None", "website": "None", "summary": "None", "logo": "None", "latitude": 52.143390000000004, "longitude": -106.76546549999999}, "106999527RR0001": {"name": "DALSTON-CROWN HILL PASTORAL CHARGE", "designationCode": "C", "categoryCode": "44", "address": "1734 PENETANGUISHENE ROAD", "city": "SPRINGWATER", "province": "ON", "country": "CA", "postalCode": "L9X1Z4", "twitter": "None", "instagram": "None", "facebook": "None", "youtube": "None", "website": "None", "summary": "None", "logo": "None", "latitude": 44.483840032563386, "longitude": -79.68581322673572}, "118881846RR0001": {"name": "DALUM FIRE PROTECTION ASSOCIATION", "designationCode": "C", "categoryCode": "59", "address": "BOX 723", "city": "DRUMHELLER", "province": "AB", "country": "CA", "postalCode": "T0J0Y0", "twitter": "None", "instagram": "None", "facebook": "None", "youtube": "None", "website": "None", "summary": "None", "logo": "None", "latitude": 51.46154700000005, "longitude": -112.70878099999993}, "890802846RR0001": {"name": "DAMES AUXILIAIRES DE L'HOPITAL BARRIE MEMORIAL-WOMEN'S AUXILIARY OF THE BARRIE MEMORIAL HO", "designationCode": "C", "categoryCode": "19", "address": "28 GALE ST.", "city": "ORMSTOWN", "province": "QC", "country": "CA", "postalCode": "J0S1K0", "twitter": "None", "instagram": "None", "facebook": "None", "youtube": "None", "website": "None", "summary": "None", "logo": "None", "latitude": 45.12567620169478, "longitude": -73.99983736745567}, "872113535RR0001": {"name": "DAN MILO MEMORIAL LONGHOUSE SOCIETY", "designationCode": "C", "categoryCode": "22", "address": "PO BOX 2411 STN SARDIS MAIN", "city": "CHILLIWACK", "province": "BC", "country": "CA", "postalCode": "V2R1A7", "twitter": "None", "instagram": "None", "facebook": "None", "youtube": "None", "website": "None", "summary": "None", "logo": "None", "latitude": 49.15747500000006, "longitude": -121.95172249999993}, "118881895RR0001": {"name": "DANBE FOUNDATION INC.", "designationCode": "B", "categoryCode": "03", "address": "292 ST. PATRICK STREET", "city": "OTTAWA", "province": "ON", "country": "CA", "postalCode": "K1N5K5", "twitter": "None", "instagram": "None", "facebook": "None", "youtube": "None", "website": "None", "summary": "None", "logo": "None", "latitude": 45.431416698568974, "longitude": -75.69143111114326}, "889916193RR0001": {"name": "DANCE FREDERICTON INC /DANSE FREDERICTON INC", "designationCode": "C", "categoryCode": "20", "address": "PO BOX 1562", "city": "FREDERICTON", "province": "NB", "country": "CA", "postalCode": "E3B5G2", "twitter": "None", "instagram": "None", "facebook": "None", "youtube": "None", "website": "None", "summary": "None", "logo": "None", "latitude": 45.96062100000006, "longitude": -66.63911299999994}, "874290927RR0001": {"name": "DANCE IMMERSION ONTARIO", "designationCode": "C", "categoryCode": "22", "address": "54 WOLSELEY STREET            UNIT #203", "city": "TORONTO", "province": "ON", "country": "CA", "postalCode": "M5T1A5", "twitter": "None", "instagram": "None", "facebook": "None", "youtube": "None", "website": "None", "summary": "None", "logo": "None", "latitude": 43.6483501906918, "longitude": -79.4027357334237}, "101258010RR0001": {"name": "DANCE MANITOBA INC.", "designationCode": "C", "categoryCode": "22", "address": "204 180 MARKET AVE", "city": "WINNIPEG", "province": "MB", "country": "CA", "postalCode": "R3B0P7", "twitter": "None", "instagram": "None", "facebook": "None", "youtube": "None", "website": "None", "summary": "None", "logo": "None", "latitude": 49.8990900824054, "longitude": -97.13765876882667}, "132818477RR0001": {"name": "DANCE NOVA SCOTIA", "designationCode": "C", "categoryCode": "22", "address": "1113 MARGINAL RD", "city": "HALIFAX", "province": "NS", "country": "CA", "postalCode": "B3H4P7", "twitter": "None", "instagram": "None", "facebook": "None", "youtube": "None", "website": "None", "summary": "None", "logo": "None", "latitude": 44.639260983351576, "longitude": -63.56640067941039}, "893217935RR0001": {"name": "DANCE OREMUS DANSE", "designationCode": "C", "categoryCode": "22", "address": "PO BOX 322", "city": "COMBERMERE", "province": "ON", "country": "CA", "postalCode": "K0J1L0", "twitter": "None", "instagram": "None", "facebook": "None", "youtube": "None", "website": "None", "summary": "None", "logo": "None", "latitude": 45.374815513507876, "longitude": -77.61668356253622}, "130376510RR0001": {"name": "DANCE SASKATCHEWAN INCORPORATED", "designationCode": "C", "categoryCode": "22", "address": "205A PACIFIC AVENUE", "city": "SASKATOON", "province": "SK", "country": "CA", "postalCode": "S7K1N9", "twitter": "None", "instagram": "None", "facebook": "None", "youtube": "None", "website": "None", "summary": "None", "logo": "None", "latitude": 52.13128137468076, "longitude": -106.6673205189741}, "873775522RR0001": {"name": "DANCE VICTORIA SOCIETY", "designationCode": "C", "categoryCode": "22", "address": "STE. 111 2750 QUADRA STREET", "city": "VICTORIA", "province": "BC", "country": "CA", "postalCode": "V8T4E5", "twitter": "None", "instagram": "None", "facebook": "None", "youtube": "None", "website": "None", "summary": "None", "logo": "None", "latitude": 48.44069495031455, "longitude": -123.35956896396185}, "118881903RR0001": {"name": "DANCEAST FOUNDATION INC.", "designationCode": "C", "categoryCode": "22", "address": "601 ST GEORGE BLVD", "city": "MONCTON", "province": "NB", "country": "CA", "postalCode": "E1E2C2", "twitter": "None", "instagram": "None", "facebook": "None", "youtube": "None", "website": "None", "summary": "None", "logo": "None", "latitude": 46.08664524565738, "longitude": -64.80338693770547}, "118881929RR0001": {"name": "DANCEMAKERS", "designationCode": "C", "categoryCode": "22", "address": "15 CASE GOODS LANE            STUDIO 301", "city": "TORONTO", "province": "ON", "country": "CA", "postalCode": "M5A3C4", "twitter": "None", "instagram": "None", "facebook": "None", "youtube": "None", "website": "None", "summary": "None", "logo": "None", "latitude": 43.649968882595665, "longitude": -79.3585262463212}, "101258077RR0001": {"name": "DANCER TRANSITION RESOURCE CENTRE/CENTRE DE RESSOURCES POUR DANSEURS EN TRANSITION", "designationCode": "C", "categoryCode": "81", "address": "303 - 1000 YONGE ST", "city": "TORONTO", "province": "ON", "country": "CA", "postalCode": "M4W2K2", "twitter": "None", "instagram": "None", "facebook": "None", "youtube": "None", "website": "None", "summary": "None", "logo": "None", "latitude": 43.675733776848105, "longitude": -79.38905557496089}, "878309723RR0001": {"name": "DANCERS DANCING DANCE SOCIETY", "designationCode": "C", "categoryCode": "22", "address": "236 E 26TH AVE", "city": "VANCOUVER", "province": "BC", "country": "CA", "postalCode": "V5V2H3", "twitter": "None", "instagram": "None", "facebook": "None", "youtube": "None", "website": "None", "summary": "None", "logo": "None", "latitude": 49.24754753952924, "longitude": -123.10021222162271}, "118881945RR0001": {"name": "DANCERS' STUDIO WEST SOCIETY", "designationCode": "C", "categoryCode": "22", "address": "PO BOX 94097 RPO              ELBOW RIVER", "city": "CALGARY", "province": "AB", "country": "CA", "postalCode": "T2S0S4", "twitter": "None", "instagram": "None", "facebook": "None", "youtube": "None", "website": "None", "summary": "None", "logo": "None", "latitude": 51.020315985401176, "longitude": -114.077844}, "871230744RR0001": {"name": "DANCETHEATRE DAVID EARLE", "designationCode": "C", "categoryCode": "22", "address": "93 DEAN AVE", "city": "GUELPH", "province": "ON", "country": "CA", "postalCode": "N1G1L7", "twitter": "None", "instagram": "None", "facebook": "None", "youtube": "None", "website": "None", "summary": "None", "logo": "None", "latitude": 43.529022082174244, "longitude": -80.24407871873717}, "134209352RR0001": {"name": "DANCING SKY THEATRE INC.", "designationCode": "C", "categoryCode": "22", "address": "BOX 69", "city": "MEACHAM", "province": "SK", "country": "CA", "postalCode": "S0K2V0", "twitter": "None", "instagram": "None", "facebook": "None", "youtube": "None", "website": "None", "summary": "None", "logo": "None", "latitude": 52.10007000000007, "longitude": -105.75115999999997}, "843132275RR0001": {"name": "DANCING TO EAGLE SPIRIT SOCIETY", "designationCode": "C", "categoryCode": "49", "address": "13 GLYNDE AVE N", "city": "BURNABY", "province": "BC", "country": "CA", "postalCode": "V5B1G8", "twitter": "None", "instagram": "None", "facebook": "None", "youtube": "None", "website": "None", "summary": "None", "logo": "None", "latitude": 49.28502661809682, "longitude": -122.98909304887741}, "871085502RR0001": {"name": "DANES IN DISTRESS", "designationCode": "C", "categoryCode": "54", "address": "1309 MICHAEL CRES", "city": "CAMBRIDGE", "province": "ON", "country": "CA", "postalCode": "N3H2R1", "twitter": "None", "instagram": "None", "facebook": "None", "youtube": "None", "website": "None", "summary": "None", "logo": "None", "latitude": 43.39483271438067, "longitude": -80.33841776949049}, "130295165RR0001": {"name": "DANFORTH BAPTIST CHURCH", "designationCode": "C", "categoryCode": "31", "address": "60 BOWDEN STREET", "city": "TORONTO", "province": "ON", "country": "CA", "postalCode": "M4K2X4", "twitter": "None", "instagram": "None", "facebook": "None", "youtube": "None", "website": "None", "summary": "None", "logo": "None", "latitude": 43.6769944679439, "longitude": -79.3540442828207}, "118882042RR0001": {"name": "DANFORTH COMMUNITY CHURCH", "designationCode": "C", "categoryCode": "36", "address": "1050 DANFORTH AVENUE", "city": "TORONTO", "province": "ON", "country": "CA", "postalCode": "M4J1M2", "twitter": "None", "instagram": "None", "facebook": "None", "youtube": "None", "website": "None", "summary": "None", "logo": "None", "latitude": 43.68078220901365, "longitude": -79.33571825465974}, "890624794RR0001": {"name": "DANFORTH GOSPEL HALL", "designationCode": "C", "categoryCode": "39", "address": "2237 DANFORTH AVENUE", "city": "TORONTO", "province": "ON", "country": "CA", "postalCode": "M4C1K4", "twitter": "None", "instagram": "None", "facebook": "None", "youtube": "None", "website": "None", "summary": "None", "logo": "None", "latitude": 43.68655693308921, "longitude": -79.30898356757463}, "870202660RR0001": {"name": "DANFORTH JEWISH CIRCLE", "designationCode": "C", "categoryCode": "39", "address": "125 - 283 DANFORTH AVE", "city": "TORONTO", "province": "ON", "country": "CA", "postalCode": "M4K1N2", "twitter": "None", "instagram": "None", "facebook": "None", "youtube": "None", "website": "None", "summary": "None", "logo": "None", "latitude": 43.677047725489174, "longitude": -79.35440498528482}, "118882059RR0001": {"name": "DANFORTH MORNINGSIDE MENNONITE CHURCH", "designationCode": "C", "categoryCode": "34", "address": "2174 DANFORTH AVE", "city": "TORONTO", "province": "ON", "country": "CA", "postalCode": "M4C1K3", "twitter": "None", "instagram": "None", "facebook": "None", "youtube": "None", "website": "None", "summary": "None", "logo": "None", "latitude": 43.68631111076791, "longitude": -79.3102593341796}, "836163329RR0001": {"name": "DANI DEVELOPING AND NURTURING INDEPENDENCE", "designationCode": "C", "categoryCode": "59", "address": "141 YORK HILL BLVD", "city": "THORNHILL", "province": "ON", "country": "CA", "postalCode": "L4J2P5", "twitter": "None", "instagram": "None", "facebook": "None", "youtube": "None", "website": "None", "summary": "None", "logo": "None", "latitude": 43.800355906745914, "longitude": -79.44475020471448}, "737219725RR0001": {"name": "DANI'S PLACE RESIDENTIAL SUPPORT", "designationCode": "C", "categoryCode": "09", "address": "141 YORK HILL BLVD,", "city": "THORNHILL", "province": "ON", "country": "CA", "postalCode": "L4J2P5", "twitter": "None", "instagram": "None", "facebook": "None", "youtube": "None", "website": "None", "summary": "None", "logo": "None", "latitude": 43.800355906745914, "longitude": -79.44475020471448}, "118882067RR0001": {"name": "DANIA HOME SOCIETY", "designationCode": "C", "categoryCode": "10", "address": "4175 NORLAND AVE", "city": "BURNABY", "province": "BC", "country": "CA", "postalCode": "V5G3S7", "twitter": "None", "instagram": "None", "facebook": "None", "youtube": "None", "website": "None", "summary": "None", "logo": "None", "latitude": 49.24673068641311, "longitude": -122.9747960963413}, "118882075RR0001": {"name": "DANIA SOCIETY", "designationCode": "C", "categoryCode": "01", "address": "4175 NORLAND AVENUE", "city": "BURNABY", "province": "BC", "country": "CA", "postalCode": "V5G3S7", "twitter": "None", "instagram": "None", "facebook": "None", "youtube": "None", "website": "None", "summary": "None", "logo": "None", "latitude": 49.24673068641311, "longitude": -122.9747960963413}, "118882109RR0001": {"name": "DANIEL MCINTYRE COLLEGIATE INSTITUTE ALUMNI, ATHLETIC, CULTURAL AND EDUCATION FUND, INC.", "designationCode": "C", "categoryCode": "21", "address": "PO BOX 2475", "city": "WINNIPEG", "province": "MB", "country": "CA", "postalCode": "R3C4A7", "twitter": "None", "instagram": "None", "facebook": "None", "youtube": "None", "website": "None", "summary": "None", "logo": "None", "latitude": 49.899525000000054, "longitude": -97.14112999999993}, "885602946RR0001": {"name": "DANISH HOUSE SOCIETY", "designationCode": "C", "categoryCode": "22", "address": "6540 THOMAS STREET", "city": "BURNABY", "province": "BC", "country": "CA", "postalCode": "V5B4P9", "twitter": "None", "instagram": "None", "facebook": "None", "youtube": "None", "website": "None", "summary": "None", "logo": "None", "latitude": 49.24789100343447, "longitude": -122.96684059007887}}