{"892674946RR0001": {"name": "DUBROFSKY FOUNDATION / FONDATION DUBROFSKY", "designationCode": "B", "categoryCode": "03", "address": "11825 J.J. JOUBERT", "city": "MONTREAL", "province": "QC", "country": "CA", "postalCode": "H1E7E7", "twitter": "None", "instagram": "None", "facebook": "None", "youtube": "None", "website": "None", "summary": "None", "logo": "None", "latitude": 45.644863010848695, "longitude": -73.56845147178173}, "119234268RR0001": {"name": "DUCHESS AGRICULTURAL SOCIETY", "designationCode": "C", "categoryCode": "56", "address": "BOX 385", "city": "DUCHESS", "province": "AB", "country": "CA", "postalCode": "T0J0Z0", "twitter": "None", "instagram": "None", "facebook": "None", "youtube": "None", "website": "None", "summary": "None", "logo": "None", "latitude": 50.732850051647404, "longitude": -111.90565995946109}, "118888874RR0001": {"name": "DUCHESS BETHEL MENNONITE CHURCH", "designationCode": "C", "categoryCode": "34", "address": "BOX 300", "city": "DUCHESS", "province": "AB", "country": "CA", "postalCode": "T0J0Z0", "twitter": "None", "instagram": "None", "facebook": "None", "youtube": "None", "website": "None", "summary": "None", "logo": "None", "latitude": 50.732850051647404, "longitude": -111.90565995946109}, "107268476RR0001": {"name": "DUCHESS LUTHERAN CHURCH", "designationCode": "C", "categoryCode": "32", "address": "BOX 217", "city": "DUCHESS", "province": "AB", "country": "CA", "postalCode": "T0J0Z0", "twitter": "None", "instagram": "None", "facebook": "None", "youtube": "None", "website": "None", "summary": "None", "logo": "None", "latitude": 50.732850051647404, "longitude": -111.90565995946109}, "118888908RR0001": {"name": "DUCHESS MENNONITE CHURCH", "designationCode": "C", "categoryCode": "34", "address": "BOX 298", "city": "DUCHESS", "province": "AB", "country": "CA", "postalCode": "T0J0Z0", "twitter": "None", "instagram": "None", "facebook": "None", "youtube": "None", "website": "None", "summary": "None", "logo": "None", "latitude": 50.732850051647404, "longitude": -111.90565995946109}, "107268526RR0001": {"name": "DUCK LAKE AND DISTRICT NURSING HOME INC.", "designationCode": "C", "categoryCode": "10", "address": "BOX 370", "city": "DUCK LAKE", "province": "SK", "country": "CA", "postalCode": "S0K1J0", "twitter": "None", "instagram": "None", "facebook": "None", "youtube": "None", "website": "None", "summary": "None", "logo": "None"}, "107268534RR0001": {"name": "DUCK LAKE HISTORICAL MUSEUM SOCIETY", "designationCode": "C", "categoryCode": "50", "address": "BOX 328", "city": "DUCK LAKE", "province": "SK", "country": "CA", "postalCode": "S0K1J0", "twitter": "None", "instagram": "None", "facebook": "None", "youtube": "None", "website": "None", "summary": "None", "logo": "None", "latitude": 52.809180000000026, "longitude": -106.22419999999994}, "118888957RR0001": {"name": "DUCKS UNLIMITED CANADA - CANARDS ILLIMITES CANADA", "designationCode": "C", "categoryCode": "54", "address": "OAK HAMMOCK MARSH PO BOX 1160", "city": "STONEWALL", "province": "MB", "country": "CA", "postalCode": "R0C2Z0", "twitter": "None", "instagram": "None", "facebook": "None", "youtube": "None", "website": "None", "summary": "None", "logo": "None", "latitude": 50.36947800000006, "longitude": -96.84479599999993}, "118888973RR0001": {"name": "DUFF CEMETERY COMPANY", "designationCode": "C", "categoryCode": "59", "address": "103 PARK STREET", "city": "STELLARTON", "province": "NS", "country": "CA", "postalCode": "B0K1S0", "twitter": "None", "instagram": "None", "facebook": "None", "youtube": "None", "website": "None", "summary": "None", "logo": "None", "latitude": 45.56022999916329, "longitude": -62.662874583213444}, "118889096RR0001": {"name": "DUFF PRESBYTERIAN CHURCH", "designationCode": "C", "categoryCode": "37", "address": "224 NANCY ST", "city": "DUTTON", "province": "ON", "country": "CA", "postalCode": "N0L1J0", "twitter": "None", "instagram": "None", "facebook": "None", "youtube": "None", "website": "None", "summary": "None", "logo": "None", "latitude": 42.66686732824338, "longitude": -81.50386497650639}, "107268963RR0001": {"name": "DUFF'S PRESBYTERIAN CHURCH", "designationCode": "C", "categoryCode": "37", "address": "319 BROCK RD S", "city": "PUSLINCH", "province": "ON", "country": "CA", "postalCode": "N0B2J0", "twitter": "None", "instagram": "None", "facebook": "None", "youtube": "None", "website": "None", "summary": "None", "logo": "None", "latitude": 43.45534754201075, "longitude": -80.12769035558854}, "861101335RR0001": {"name": "DUFFERIN AGRICULTURAL SOCIETY INC.", "designationCode": "C", "categoryCode": "56", "address": "BOX 937", "city": "CARMAN", "province": "MB", "country": "CA", "postalCode": "R0G0J0", "twitter": "None", "instagram": "None", "facebook": "None", "youtube": "None", "website": "None", "summary": "None", "logo": "None", "latitude": 49.50860000000006, "longitude": -98.00231999999994}, "892650763RR0001": {"name": "DUFFERIN ARTS COUNCIL", "designationCode": "C", "categoryCode": "22", "address": "150 FIRST ST, R.P.O. BOX 21052", "city": "ORANGEVILLE", "province": "ON", "country": "CA", "postalCode": "L9W4S7", "twitter": "None", "instagram": "None", "facebook": "None", "youtube": "None", "website": "None", "summary": "None", "logo": "None", "latitude": 43.931760807261185, "longitude": -80.10063367993223}, "119288918RR0622": {"name": "DUFFERIN CONGREGATION OF JEHOVAH'S WITNESSES, LONDON, ONTARIO", "designationCode": "C", "categoryCode": "61", "address": "21 THORNTON AVE.", "city": "LONDON", "province": "ON", "country": "CA", "postalCode": "N5Y2Y1", "twitter": "None", "instagram": "None", "facebook": "None", "youtube": "None", "website": "None", "summary": "None", "logo": "None", "latitude": 42.99947309602406, "longitude": -81.24481215670245}, "119288918RR1104": {"name": "DUFFERIN CONGREGATION OF JEHOVAH'S WITNESSES, ORANGEVILLE, ONTARIO", "designationCode": "C", "categoryCode": "61", "address": "16 THIRD AVE", "city": "ORANGEVILLE", "province": "ON", "country": "CA", "postalCode": "L9W1G9", "twitter": "None", "instagram": "None", "facebook": "None", "youtube": "None", "website": "None", "summary": "None", "logo": "None", "latitude": 43.92305228968255, "longitude": -80.09617123295006}, "118889054RR0001": {"name": "DUFFERIN HISTORICAL SOCIETY INCORPORATED", "designationCode": "C", "categoryCode": "50", "address": "PO BOX 1646", "city": "CARMAN", "province": "MB", "country": "CA", "postalCode": "R0G0J0", "twitter": "None", "instagram": "None", "facebook": "None", "youtube": "None", "website": "None", "summary": "None", "logo": "None", "latitude": 49.50860000000006, "longitude": -98.00231999999994}, "889459194RR0001": {"name": "DUFFERIN OAKS HOME AUXILIARY", "designationCode": "C", "categoryCode": "09", "address": "151 CENTRE ST", "city": "SHELBURNE", "province": "ON", "country": "CA", "postalCode": "L9V3R7", "twitter": "None", "instagram": "None", "facebook": "None", "youtube": "None", "website": "None", "summary": "None", "logo": "None", "latitude": 44.076618447789315, "longitude": -80.20162914288576}, "863712733RR0001": {"name": "DUFFERIN PARENT SUPPORT NETWORK", "designationCode": "C", "categoryCode": "09", "address": "655 RIDDELL ROAD", "city": "ORANGEVILLE", "province": "ON", "country": "CA", "postalCode": "L9W4Z5", "twitter": "None", "instagram": "None", "facebook": "None", "youtube": "None", "website": "None", "summary": "None", "logo": "None", "latitude": 43.897523285533346, "longitude": -80.11278040039792}, "888057049RR0001": {"name": "DUFFERIN STREET BAPTIST CHURCH", "designationCode": "C", "categoryCode": "31", "address": "1219 DUFFERIN STREET", "city": "TORONTO", "province": "ON", "country": "CA", "postalCode": "M6H4C2", "twitter": "None", "instagram": "None", "facebook": "None", "youtube": "None", "website": "None", "summary": "None", "logo": "None"}, "882525710RR0001": {"name": "DUFFERIN YOUTH SHELTER", "designationCode": "C", "categoryCode": "09", "address": "59 TOWNLINE", "city": "ORANGEVILLE", "province": "ON", "country": "CA", "postalCode": "L9W1V5", "twitter": "None", "instagram": "None", "facebook": "None", "youtube": "None", "website": "None", "summary": "None", "logo": "None", "latitude": 43.911744000000056, "longitude": -80.09286199999994}, "107268864RR0001": {"name": "DUFFERIN-PEEL CATHOLIC DISTRICT SCHOOL BOARD", "designationCode": "C", "categoryCode": "20", "address": "40 MATHESON BLVD W", "city": "MISSISSAUGA", "province": "ON", "country": "CA", "postalCode": "L5R1C5", "twitter": "None", "instagram": "None", "facebook": "None", "youtube": "None", "website": "None", "summary": "None", "logo": "None", "latitude": 43.61893753849005, "longitude": -79.67095814467031}, "118889120RR0001": {"name": "DUGALD COMMUNITY CLUB INC.", "designationCode": "C", "categoryCode": "56", "address": "PO BOX 34", "city": "DUGALD", "province": "MB", "country": "CA", "postalCode": "R0E0K0", "twitter": "None", "instagram": "None", "facebook": "None", "youtube": "None", "website": "None", "summary": "None", "logo": "None", "latitude": 49.88499864004564, "longitude": -96.36123557915003}, "107269029RR0001": {"name": "DUGALD COSTUME COLLECTION INCORPORATED", "designationCode": "C", "categoryCode": "50", "address": "301 - 250 MCDERMOT AVE", "city": "WINNIPEG", "province": "MB", "country": "CA", "postalCode": "R3B0S5", "twitter": "None", "instagram": "None", "facebook": "None", "youtube": "None", "website": "None", "summary": "None", "logo": "None", "latitude": 49.89714809351391, "longitude": -97.14067995089145}, "107269045RR0001": {"name": "DUGALD DAY CARE INC.", "designationCode": "C", "categoryCode": "01", "address": "PO BOX 162", "city": "DUGALD", "province": "MB", "country": "CA", "postalCode": "R0E0K0", "twitter": "None", "instagram": "None", "facebook": "None", "youtube": "None", "website": "None", "summary": "None", "logo": "None", "latitude": 49.88499864004564, "longitude": -96.36123557915003}, "118889153RR0001": {"name": "DUGALD UNITED CHURCH", "designationCode": "C", "categoryCode": "44", "address": "PO  BOX 70", "city": "DUGALD", "province": "MB", "country": "CA", "postalCode": "R0E0K0", "twitter": "None", "instagram": "None", "facebook": "None", "youtube": "None", "website": "None", "summary": "None", "logo": "None", "latitude": 49.88499864004564, "longitude": -96.36123557915003}, "857417265RR0001": {"name": "DUIR SCHOOL SUPPORT PROGRAM", "designationCode": "B", "categoryCode": "20", "address": "9477 CEDAR PARK TRAIL", "city": "BALTIMORE", "province": "ON", "country": "CA", "postalCode": "K0K1C0", "twitter": "None", "instagram": "None", "facebook": "None", "youtube": "None", "website": "None", "summary": "None", "logo": "None", "latitude": 44.02897800000005, "longitude": -78.12900799999993}, "888430667RR0001": {"name": "DUKE OF EDINBURGH'S AWARD IN CANADA-PRINCE EDWARD ISLAND COUNCIL", "designationCode": "C", "categoryCode": "21", "address": "PO BOX 2433", "city": "CHARLOTTETOWN", "province": "PE", "country": "CA", "postalCode": "C1A8C2", "twitter": "None", "instagram": "None", "facebook": "None", "youtube": "None", "website": "None", "summary": "None", "logo": "None", "latitude": 46.23659700000006, "longitude": -63.12815449999994}, "110740735RR0001": {"name": "DULCINEE LANGFELDER ET CIE", "designationCode": "C", "categoryCode": "22", "address": "5143,BOUL. ST-LAURENT-3E ETAGE", "city": "MONTREAL", "province": "QC", "country": "CA", "postalCode": "H2T1R9", "twitter": "None", "instagram": "None", "facebook": "None", "youtube": "None", "website": "None", "summary": "None", "logo": "None", "latitude": 45.52349425036058, "longitude": -73.59370963376429}, "815768270RR0001": {"name": "DULCISONO WOMEN'S CHOIR", "designationCode": "C", "categoryCode": "22", "address": "420 PINEVIEW BAY", "city": "THUNDER BAY", "province": "ON", "country": "CA", "postalCode": "P7C1Y5", "twitter": "None", "instagram": "None", "facebook": "None", "youtube": "None", "website": "None", "summary": "None", "logo": "None", "latitude": 48.39252479156329, "longitude": -89.28569881484813}, "855400966RR0001": {"name": "DUNAMIS FELLOWSHIP CANADA", "designationCode": "C", "categoryCode": "49", "address": "PO BOX 25089                  370 STONE RD WEST, UNIT 17", "city": "GUELPH", "province": "ON", "country": "CA", "postalCode": "N1G4T4", "twitter": "None", "instagram": "None", "facebook": "None", "youtube": "None", "website": "None", "summary": "None", "logo": "None", "latitude": 43.51781273071199, "longitude": -80.23655620194545}, "107269268RR0001": {"name": "DUNBAR EVANGELICAL LUTHERAN CHURCH", "designationCode": "C", "categoryCode": "32", "address": "3491 WEST 31ST AVE", "city": "VANCOUVER", "province": "BC", "country": "CA", "postalCode": "V6S1X6", "twitter": "None", "instagram": "None", "facebook": "None", "youtube": "None", "website": "None", "summary": "None", "logo": "None", "latitude": 49.2443154676841, "longitude": -123.18161260644007}, "118889195RR0001": {"name": "DUNBAR HEIGHTS REGULAR BAPTIST CHURCH", "designationCode": "C", "categoryCode": "31", "address": "3320 CROWN ST", "city": "VANCOUVER", "province": "BC", "country": "CA", "postalCode": "V6S2L5", "twitter": "None", "instagram": "None", "facebook": "None", "youtube": "None", "website": "None", "summary": "None", "logo": "None", "latitude": 49.257285481515545, "longitude": -123.19347271441708}, "118889211RR0001": {"name": "DUNBAR MEMORIAL PRESCHOOL", "designationCode": "C", "categoryCode": "20", "address": "4747 DUNBAR ST", "city": "VANCOUVER", "province": "BC", "country": "CA", "postalCode": "V6S2H2", "twitter": "None", "instagram": "None", "facebook": "None", "youtube": "None", "website": "None", "summary": "None", "logo": "None", "latitude": 49.243347, "longitude": -123.18531261725917}, "107269334RR0001": {"name": "DUNBAR QUEEN ELIZABETH AFTER SCHOOL CARE SOCIETY", "designationCode": "C", "categoryCode": "20", "address": "4102 WEST 16TH AVENUE", "city": "VANCOUVER", "province": "BC", "country": "CA", "postalCode": "V6R3E3", "twitter": "None", "instagram": "None", "facebook": "None", "youtube": "None", "website": "None", "summary": "None", "logo": "None", "latitude": 49.25806447951469, "longitude": -123.20088296295224}, "118889237RR0001": {"name": "DUNBARTON-FAIRPORT UNITED CHURCH", "designationCode": "C", "categoryCode": "44", "address": "1066 DUNBARTON RD", "city": "PICKERING", "province": "ON", "country": "CA", "postalCode": "L1V1G8", "twitter": "None", "instagram": "None", "facebook": "None", "youtube": "None", "website": "None", "summary": "None", "logo": "None", "latitude": 43.82784775079328, "longitude": -79.10052176510442}, "131637019RR0001": {"name": "DUNBLANE LAESTADIAN LUTHERAN CHURCH, INC", "designationCode": "C", "categoryCode": "39", "address": "BOX 1242", "city": "OUTLOOK", "province": "SK", "country": "CA", "postalCode": "S0L2N0", "twitter": "None", "instagram": "None", "facebook": "None", "youtube": "None", "website": "None", "summary": "None", "logo": "None", "latitude": 51.5306764246367, "longitude": -107.23731016398128}, "118917475RR0001": {"name": "DUNCAN CHRISTIAN REFORMED CHURCH", "designationCode": "C", "categoryCode": "39", "address": "930 TRUNK ROAD", "city": "DUNCAN", "province": "BC", "country": "CA", "postalCode": "V9L2S1", "twitter": "None", "instagram": "None", "facebook": "None", "youtube": "None", "website": "None", "summary": "None", "logo": "None", "latitude": 48.77959011960811, "longitude": -123.68997720357628}, "135758373RR0001": {"name": "DUNCAN CHRISTIAN SCHOOL ASSOCIATION,", "designationCode": "C", "categoryCode": "20", "address": "495 BEECH AVENUE", "city": "DUNCAN", "province": "BC", "country": "CA", "postalCode": "V9L3J8", "twitter": "None", "instagram": "None", "facebook": "None", "youtube": "None", "website": "None", "summary": "None", "logo": "None", "latitude": 48.780615692729555, "longitude": -123.69064498687227}, "107269458RR0001": {"name": "DUNCAN DAY CARE SOCIETY", "designationCode": "C", "categoryCode": "01", "address": "BOX 333", "city": "DUNCAN", "province": "BC", "country": "CA", "postalCode": "V9L3X5", "twitter": "None", "instagram": "None", "facebook": "None", "youtube": "None", "website": "None", "summary": "None", "logo": "None", "latitude": 48.77908800000006, "longitude": -123.70739299999994}, "106930126RR0001": {"name": "DUNCAN HOUSING SOCIETY", "designationCode": "C", "categoryCode": "09", "address": "280 FIRST STREET", "city": "DUNCAN", "province": "BC", "country": "CA", "postalCode": "V9L4T3", "twitter": "None", "instagram": "None", "facebook": "None", "youtube": "None", "website": "None", "summary": "None", "logo": "None", "latitude": 48.78074684874073, "longitude": -123.71229570300078}, "859589038RR0001": {"name": "DUNCAN M. & JUDITH O. JESSIMAN FOUNDATION INC.", "designationCode": "B", "categoryCode": "03", "address": "1001 SHERWIN RD", "city": "WINNIPEG", "province": "MB", "country": "CA", "postalCode": "R3H0T8", "twitter": "None", "instagram": "None", "facebook": "None", "youtube": "None", "website": "None", "summary": "None", "logo": "None", "latitude": 49.9071509059092, "longitude": -97.21176758800355}, "107269599RR0001": {"name": "DUNCAN MACMILLAN NURSING HOME SOCIETY", "designationCode": "C", "categoryCode": "01", "address": "PO BOX 68", "city": "SHEET HARBOUR", "province": "NS", "country": "CA", "postalCode": "B0J3B0", "twitter": "None", "instagram": "None", "facebook": "None", "youtube": "None", "website": "None", "summary": "None", "logo": "None", "latitude": 44.91685000000007, "longitude": -62.53191999999996}, "107269664RR0001": {"name": "DUNCAN PENTECOSTAL CHURCH", "designationCode": "C", "categoryCode": "36", "address": "931 TRUNK RD", "city": "DUNCAN", "province": "BC", "country": "CA", "postalCode": "V9L2R9", "twitter": "None", "instagram": "None", "facebook": "None", "youtube": "None", "website": "None", "summary": "None", "logo": "None", "latitude": 48.78008638747631, "longitude": -123.6891660870972}, "118818491RR0013": {"name": "DUNCAN SEVENTH-DAY ADVENTIST CHURCH", "designationCode": "C", "categoryCode": "41", "address": "PO 1000", "city": "ABBOTSFORD", "province": "BC", "country": "CA", "postalCode": "V2S4P5", "twitter": "None", "instagram": "None", "facebook": "None", "youtube": "None", "website": "None", "summary": "None", "logo": "None", "latitude": 49.03851300000005, "longitude": -122.29441549999993}, "107269714RR0001": {"name": "DUNCAN UNITED CHURCH", "designationCode": "C", "categoryCode": "44", "address": "246 INGRAM STREET", "city": "DUNCAN", "province": "BC", "country": "CA", "postalCode": "V9L1P4", "twitter": "None", "instagram": "None", "facebook": "None", "youtube": "None", "website": "None", "summary": "None", "logo": "None", "latitude": 48.77921453952927, "longitude": -123.71152024854291}, "118889294RR0001": {"name": "DUNCHURCH AGRICULTURAL SOCIETY", "designationCode": "C", "categoryCode": "56", "address": "760 HWY 520 N", "city": "DUNCHURCH", "province": "ON", "country": "CA", "postalCode": "P0A1G0", "twitter": "None", "instagram": "None", "facebook": "None", "youtube": "None", "website": "None", "summary": "None", "logo": "None", "latitude": 45.69786583737886, "longitude": -79.88173029245137}, "118889302RR0001": {"name": "DUNDALK DISTRICT AGRICULTURAL SOCIETY", "designationCode": "C", "categoryCode": "56", "address": "P. O. BOX 497                 RR # 1", "city": "DUNDALK", "province": "ON", "country": "CA", "postalCode": "N0C1L0", "twitter": "None", "instagram": "None", "facebook": "None", "youtube": "None", "website": "None", "summary": "None", "logo": "None", "latitude": 44.16779613314331, "longitude": -80.39361271104777}, "107269789RR0001": {"name": "DUNDALK PASTORAL CHARGE", "designationCode": "C", "categoryCode": "44", "address": "PO BOX 159", "city": "DUNDALK", "province": "ON", "country": "CA", "postalCode": "N0C1B0", "twitter": "None", "instagram": "None", "facebook": "None", "youtube": "None", "website": "None", "summary": "None", "logo": "None", "latitude": 44.16787539880879, "longitude": -80.39404277157527}, "118889328RR0001": {"name": "DUNDALK WESLEYAN CHURCH", "designationCode": "C", "categoryCode": "39", "address": "BOX 59", "city": "DUNDALK", "province": "ON", "country": "CA", "postalCode": "N0C1B0", "twitter": "None", "instagram": "None", "facebook": "None", "youtube": "None", "website": "None", "summary": "None", "logo": "None", "latitude": 44.16787539880879, "longitude": -80.39404277157527}, "107485880RR0001": {"name": "DUNDARAVE PRESCHOOL BY THE SEA SOCIETY", "designationCode": "C", "categoryCode": "20", "address": "2478 BELLEVUE AVENUE", "city": "WEST VANCOUVER", "province": "BC", "country": "CA", "postalCode": "V7V1E2", "twitter": "None", "instagram": "None", "facebook": "None", "youtube": "None", "website": "None", "summary": "None", "logo": "None", "latitude": 49.33349822877355, "longitude": -123.18158012282781}, "118889336RR0001": {"name": "DUNDAS ART AND CRAFT ASSOCIATION", "designationCode": "C", "categoryCode": "22", "address": "10 KING STREET WEST", "city": "DUNDAS", "province": "ON", "country": "CA", "postalCode": "L9H1T7", "twitter": "None", "instagram": "None", "facebook": "None", "youtube": "None", "website": "None", "summary": "None", "logo": "None", "latitude": 43.26617167831389, "longitude": -79.95477579017829}, "107269821RR0001": {"name": "DUNDAS BAPTIST CHURCH", "designationCode": "C", "categoryCode": "31", "address": "201 GOVERNOR'S ROAD", "city": "DUNDAS", "province": "ON", "country": "CA", "postalCode": "L9H3J7", "twitter": "None", "instagram": "None", "facebook": "None", "youtube": "None", "website": "None", "summary": "None", "logo": "None", "latitude": 43.26145727566466, "longitude": -79.96239911353784}, "107269870RR0001": {"name": "DUNDAS COMMUNITY SERVICES", "designationCode": "C", "categoryCode": "59", "address": "2 KING STREET WEST            UNIT 3A", "city": "DUNDAS", "province": "ON", "country": "CA", "postalCode": "L9H6Z1", "twitter": "None", "instagram": "None", "facebook": "None", "youtube": "None", "website": "None", "summary": "None", "logo": "None", "latitude": 43.26607659781308, "longitude": -79.95415603150784}, "863188835RR0001": {"name": "DUNDAS CONCERT BAND INC.", "designationCode": "C", "categoryCode": "22", "address": "P.O. BOX 65583 DUNDAS POSTAL", "city": "DUNDAS", "province": "ON", "country": "CA", "postalCode": "L9H6Y6", "twitter": "None", "instagram": "None", "facebook": "None", "youtube": "None", "website": "None", "summary": "None", "logo": "None", "latitude": 43.26413308748336, "longitude": -79.94799254071238}, "135045490RR0001": {"name": "DUNDAS COUNTY FOOD BANK INC", "designationCode": "C", "categoryCode": "09", "address": "PO BOX 32", "city": "WINCHESTER", "province": "ON", "country": "CA", "postalCode": "K0C2K0", "twitter": "None", "instagram": "None", "facebook": "None", "youtube": "None", "website": "None", "summary": "None", "logo": "None", "latitude": 45.0389951460454, "longitude": -75.27678656455626}, "891316382RR0001": {"name": "DUNDAS COUNTY HOSPICE", "designationCode": "C", "categoryCode": "09", "address": "4353 COUNTRY ROAD 31          BOX 278", "city": "WILLIAMSBURG", "province": "ON", "country": "CA", "postalCode": "K0C2H0", "twitter": "None", "instagram": "None", "facebook": "None", "youtube": "None", "website": "None", "summary": "None", "logo": "None", "latitude": 44.97279874557105, "longitude": -75.2419814537702}, "891392540RR0001": {"name": "DUNDAS ENVIRONMENTAL AWARENESS GROUP", "designationCode": "C", "categoryCode": "59", "address": "BOX 155", "city": "SOUTH MOUNTAIN", "province": "ON", "country": "CA", "postalCode": "K0E1W0", "twitter": "None", "instagram": "None", "facebook": "None", "youtube": "None", "website": "None", "summary": "None", "logo": "None", "latitude": 44.71862153476485, "longitude": -75.51828416165603}, "892433160RR0001": {"name": "DUNDAS HERITAGE ASSOCIATION", "designationCode": "C", "categoryCode": "52", "address": "50 ALBERT ST", "city": "DUNDAS", "province": "ON", "country": "CA", "postalCode": "L9H2X1", "twitter": "None", "instagram": "None", "facebook": "None", "youtube": "None", "website": "None", "summary": "None", "logo": "None", "latitude": 43.26951031057762, "longitude": -79.95876893300228}, "107269920RR0001": {"name": "DUNDAS HISTORICAL SOCIETY MUSEUM", "designationCode": "C", "categoryCode": "50", "address": "139 PARK ST. W.", "city": "DUNDAS", "province": "ON", "country": "CA", "postalCode": "L9H1X8", "twitter": "None", "instagram": "None", "facebook": "None", "youtube": "None", "website": "None", "summary": "None", "logo": "None", "latitude": 43.267950427722155, "longitude": -79.95936785483875}, "107270050RR0001": {"name": "DUNDAS STREET CENTRE, UNITED CHURCH", "designationCode": "C", "categoryCode": "44", "address": "482 DUNDAS ST", "city": "LONDON", "province": "ON", "country": "CA", "postalCode": "N6B1W6", "twitter": "None", "instagram": "None", "facebook": "None", "youtube": "None", "website": "None", "summary": "None", "logo": "None", "latitude": 42.98743489595452, "longitude": -81.23660132849545}, "107270068RR0001": {"name": "DUNDAS STREET UNITED CHURCH", "designationCode": "C", "categoryCode": "44", "address": "285 DUNDAS ST", "city": "WOODSTOCK", "province": "ON", "country": "CA", "postalCode": "N4S1B3", "twitter": "None", "instagram": "None", "facebook": "None", "youtube": "None", "website": "None", "summary": "None", "logo": "None", "latitude": 43.128994368861434, "longitude": -80.76476709484062}, "107270076RR0001": {"name": "DUNDAS UNITED BAPTIST CHURCH", "designationCode": "C", "categoryCode": "31", "address": "3361 ROUTE 490", "city": "DUNDAS", "province": "NB", "country": "CA", "postalCode": "E1G3R5", "twitter": "None", "instagram": "None", "facebook": "None", "youtube": "None", "website": "None", "summary": "None", "logo": "None", "latitude": 46.27405270667576, "longitude": -64.86223178409752}, "879787513RR0001": {"name": "DUNDAS VALLEY FOUNDATION", "designationCode": "A", "categoryCode": "05", "address": "324 DELANCEY BLVD", "city": "HAMILTON", "province": "ON", "country": "CA", "postalCode": "L9B2B4", "twitter": "None", "instagram": "None", "facebook": "None", "youtube": "None", "website": "None", "summary": "None", "logo": "None", "latitude": 43.203400344162944, "longitude": -79.87252622372883}, "118889476RR0001": {"name": "DUNDAS VALLEY ORCHESTRA", "designationCode": "C", "categoryCode": "22", "address": "PO BOX 65587 RPO DUNDAS", "city": "DUNDAS", "province": "ON", "country": "CA", "postalCode": "L9H6Y6", "twitter": "None", "instagram": "None", "facebook": "None", "youtube": "None", "website": "None", "summary": "None", "logo": "None", "latitude": 43.26413308748336, "longitude": -79.94799254071238}, "118889484RR0001": {"name": "DUNDAS VALLEY SCHOOL OF ART", "designationCode": "C", "categoryCode": "22", "address": "21 OGILVIE ST", "city": "DUNDAS", "province": "ON", "country": "CA", "postalCode": "L9H2S1", "twitter": "None", "instagram": "None", "facebook": "None", "youtube": "None", "website": "None", "summary": "None", "logo": "None", "latitude": 43.26489745989383, "longitude": -79.95466290463978}, "118889492RR0001": {"name": "DUNDURN GOSPEL CHURCH INC", "designationCode": "C", "categoryCode": "39", "address": "P.O. BOX 94", "city": "DUNDURN", "province": "SK", "country": "CA", "postalCode": "S0K1K0", "twitter": "None", "instagram": "None", "facebook": "None", "youtube": "None", "website": "None", "summary": "None", "logo": "None", "latitude": 51.810335799434554, "longitude": -106.50361018215295}, "118889526RR0001": {"name": "DUNDURN UNITED CHURCH", "designationCode": "C", "categoryCode": "44", "address": "PO BOX 63", "city": "DUNDURN", "province": "SK", "country": "CA", "postalCode": "S0K1K0", "twitter": "None", "instagram": "None", "facebook": "None", "youtube": "None", "website": "None", "summary": "None", "logo": "None", "latitude": 51.810335799434554, "longitude": -106.50361018215295}, "889926267RR0001": {"name": "DUNEDIN PRESBYTERIAN CHURCH,", "designationCode": "C", "categoryCode": "37", "address": "8933 COUNTY ROAD 9, RR #4", "city": "CREEMORE", "province": "ON", "country": "CA", "postalCode": "L0M1G0", "twitter": "None", "instagram": "None", "facebook": "None", "youtube": "None", "website": "None", "summary": "None", "logo": "None", "latitude": 44.340607272769745, "longitude": -80.06173934164546}, "892584863RR0001": {"name": "DUNGANNON UNION PASTORAL CHARGE", "designationCode": "C", "categoryCode": "44", "address": "60 SOUTHAMPTON ST             RR 1", "city": "DUNGANNON", "province": "ON", "country": "CA", "postalCode": "N0M1R0", "twitter": "None", "instagram": "None", "facebook": "None", "youtube": "None", "website": "None", "summary": "None", "logo": "None", "latitude": 43.85229295946114, "longitude": -81.60121393834065}, "889494845RR0001": {"name": "DUNINGTON GRUBB FOUNDATION", "designationCode": "C", "categoryCode": "50", "address": "15 - 260 DEER RIDGE DR", "city": "KITCHENER", "province": "ON", "country": "CA", "postalCode": "N2P2M3", "twitter": "None", "instagram": "None", "facebook": "None", "youtube": "None", "website": "None", "summary": "None", "logo": "None", "latitude": 43.40589427234644, "longitude": -80.41392649405604}, "137412532RR0001": {"name": "DUNLACE CHILDREN'S CENTRE - NORTH YORK", "designationCode": "C", "categoryCode": "20", "address": "20 DUNLACE DRIVE", "city": "NORTH YORK", "province": "ON", "country": "CA", "postalCode": "M2L1S1", "twitter": "None", "instagram": "None", "facebook": "None", "youtube": "None", "website": "None", "summary": "None", "logo": "None", "latitude": 43.76210111604803, "longitude": -79.37063850940639}, "133628958RR0001": {"name": "DUNLEATH PRESBYTERIAN CHURCH", "designationCode": "C", "categoryCode": "37", "address": "206 3RD AVE SOUTH", "city": "YORKTON", "province": "SK", "country": "CA", "postalCode": "S3N1E9", "twitter": "None", "instagram": "None", "facebook": "None", "youtube": "None", "website": "None", "summary": "None", "logo": "None", "latitude": 51.2026402621514, "longitude": -102.45994338702037}, "107270308RR0001": {"name": "DUNLOP UNITED CHURCH", "designationCode": "C", "categoryCode": "44", "address": "757 ROSEDALE AVENUE", "city": "SARNIA", "province": "ON", "country": "CA", "postalCode": "N7V1Z8", "twitter": "None", "instagram": "None", "facebook": "None", "youtube": "None", "website": "None", "summary": "None", "logo": "None", "latitude": 42.991967877572144, "longitude": -82.38277162654327}, "108099771RR0042": {"name": "DUNN ANGLICAN PARISH", "designationCode": "C", "categoryCode": "30", "address": "113 PORT MAITLAND RD., R.R.7", "city": "DUNNVILLE", "province": "ON", "country": "CA", "postalCode": "N1A2W6", "twitter": "None", "instagram": "None", "facebook": "None", "youtube": "None", "website": "None", "summary": "None", "logo": "None", "latitude": 42.89021764005404, "longitude": -79.61792428611027}, "118889625RR0001": {"name": "DUNNING AND UNITED CHURCH CEMETERIES COMMITTEE", "designationCode": "C", "categoryCode": "59", "address": "478 LABROSSE BLVD.", "city": "GATINEAU", "province": "QC", "country": "CA", "postalCode": "J8P4R2", "twitter": "None", "instagram": "None", "facebook": "None", "youtube": "None", "website": "None", "summary": "None", "logo": "None", "latitude": 45.4964871895666, "longitude": -75.64185246430857}, "888751450RR0001": {"name": "DUNNVILLE AGRICULTURAL SOCIETY", "designationCode": "C", "categoryCode": "56", "address": "PO BOX 181", "city": "DUNNVILLE", "province": "ON", "country": "CA", "postalCode": "N1A2X5", "twitter": "None", "instagram": "None", "facebook": "None", "youtube": "None", "website": "None", "summary": "None", "logo": "None", "latitude": 42.90442800000005, "longitude": -79.62015049999994}, "871631701RR0001": {"name": "DUNNVILLE CANADIAN REFORMED CHURCH", "designationCode": "C", "categoryCode": "39", "address": "65050 MARSHAGAN ROAD", "city": "DUNNVILLE", "province": "ON", "country": "CA", "postalCode": "N1A2W2", "twitter": "None", "instagram": "None", "facebook": "None", "youtube": "None", "website": "None", "summary": "None", "logo": "None", "latitude": 42.97575968102167, "longitude": -79.53246875913071}, "107270415RR0001": {"name": "DUNNVILLE CHRISTIAN SCHOOL SOCIETY", "designationCode": "C", "categoryCode": "20", "address": "37 ROBINSON RD.               R.R. #1", "city": "DUNNVILLE", "province": "ON", "country": "CA", "postalCode": "N1A2W1", "twitter": "None", "instagram": "None", "facebook": "None", "youtube": "None", "website": "None", "summary": "None", "logo": "None", "latitude": 42.91135812906111, "longitude": -79.63608949362336}, "118889674RR0001": {"name": "DUNNVILLE FREE METHODIST CHURCH", "designationCode": "C", "categoryCode": "39", "address": "181 CROSS ST EAST", "city": "DUNNVILLE", "province": "ON", "country": "CA", "postalCode": "N1A1B7", "twitter": "None", "instagram": "None", "facebook": "None", "youtube": "None", "website": "None", "summary": "None", "logo": "None", "latitude": 42.907006454642364, "longitude": -79.61195025907449}, "854261922RR0001": {"name": "DUNNVILLE HEALTH CENTRE VOLUNTEER ASSOCIATION", "designationCode": "C", "categoryCode": "19", "address": "206 JOHN STREET", "city": "DUNNVILLE", "province": "ON", "country": "CA", "postalCode": "N1A2P7", "twitter": "None", "instagram": "None", "facebook": "None", "youtube": "None", "website": "None", "summary": "None", "logo": "None", "latitude": 42.906002659543056, "longitude": -79.6242925293119}, "886092816RR0001": {"name": "DUNNVILLE HORTICULTURAL SOCIETY", "designationCode": "C", "categoryCode": "56", "address": "PO BOX 274", "city": "DUNNVILLE", "province": "ON", "country": "CA", "postalCode": "N1A2X5", "twitter": "None", "instagram": "None", "facebook": "None", "youtube": "None", "website": "None", "summary": "None", "logo": "None", "latitude": 42.90442800000005, "longitude": -79.62015049999994}, "118889690RR0001": {"name": "DUNNVILLE HOSPITAL & HEALTHCARE FOUNDATION", "designationCode": "A", "categoryCode": "13", "address": "322 BROAD ST W", "city": "DUNNVILLE", "province": "ON", "country": "CA", "postalCode": "N1A1T1", "twitter": "None", "instagram": "None", "facebook": "None", "youtube": "None", "website": "None", "summary": "None", "logo": "None", "latitude": 42.90528674052774, "longitude": -79.62304115572644}, "892875568RR0001": {"name": "DUNNVILLE WORD OF FAITH FELLOWSHIP", "designationCode": "C", "categoryCode": "47", "address": "910 JOHN STREET", "city": "DUNNVILLE", "province": "ON", "country": "CA", "postalCode": "N1A2R8", "twitter": "None", "instagram": "None", "facebook": "None", "youtube": "None", "website": "None", "summary": "None", "logo": "None", "latitude": 42.91287264308378, "longitude": -79.61915880532617}, "107270472RR0001": {"name": "DUNNVILLE YOUTH IMPACT INC.", "designationCode": "C", "categoryCode": "09", "address": "215 CHESTNUT STREET", "city": "DUNNVILLE", "province": "ON", "country": "CA", "postalCode": "N1A2H2", "twitter": "None", "instagram": "None", "facebook": "None", "youtube": "None", "website": "None", "summary": "None", "logo": "None", "latitude": 42.903043596168295, "longitude": -79.6169742399159}, "129101382RR0001": {"name": "DUNSFORD COMMUNITY CENTRE INC,", "designationCode": "C", "categoryCode": "56", "address": "PO BOX 111", "city": "DUNSFORD", "province": "ON", "country": "CA", "postalCode": "K0M1L0", "twitter": "None", "instagram": "None", "facebook": "None", "youtube": "None", "website": "None", "summary": "None", "logo": "None", "latitude": 44.45018932766841, "longitude": -78.6477739611827}, "118889757RR0001": {"name": "DUNSFORD UNITED CHURCH", "designationCode": "C", "categoryCode": "44", "address": "1981 STURGEON ROAD", "city": "DUNSFORD", "province": "ON", "country": "CA", "postalCode": "K0M1L0", "twitter": "None", "instagram": "None", "facebook": "None", "youtube": "None", "website": "None", "summary": "None", "logo": "None", "latitude": 44.45240771940101, "longitude": -78.64279347169482}, "118889765RR0001": {"name": "DUNSTAN SCHOLARSHIP FUND", "designationCode": "B", "categoryCode": "21", "address": "SUITE 418, PO BOX 11602       650 WEST GEORGIA STREET", "city": "VANCOUVER", "province": "BC", "country": "CA", "postalCode": "V6B4N9", "twitter": "None", "instagram": "None", "facebook": "None", "youtube": "None", "website": "None", "summary": "None", "logo": "None", "latitude": 49.282095217179936, "longitude": -123.11767129779695}, "893390666RR0001": {"name": "DUNSTON CHURCH", "designationCode": "C", "categoryCode": "39", "address": "429 12TH ST", "city": "MORDEN", "province": "MB", "country": "CA", "postalCode": "R6M1R6", "twitter": "None", "instagram": "None", "facebook": "None", "youtube": "None", "website": "None", "summary": "None", "logo": "None", "latitude": 49.19778061809683, "longitude": -98.1084184899307}, "125306712RR0001": {"name": "DUNTROON DAYCARE", "designationCode": "C", "categoryCode": "20", "address": "BOX 74", "city": "DUNTROON", "province": "ON", "country": "CA", "postalCode": "L0M1H0", "twitter": "None", "instagram": "None", "facebook": "None", "youtube": "None", "website": "None", "summary": "None", "logo": "None", "latitude": 44.398000000000025, "longitude": -80.19377999999995}, "132146606RR0001": {"name": "DUNWICH PASTORAL CHARGE,", "designationCode": "C", "categoryCode": "44", "address": "224 NANCY STREET", "city": "DUTTON", "province": "ON", "country": "CA", "postalCode": "N0L1J0", "twitter": "None", "instagram": "None", "facebook": "None", "youtube": "None", "website": "None", "summary": "None", "logo": "None", "latitude": 42.66686732824338, "longitude": -81.50386497650639}, "889860748RR0001": {"name": "DURHAM AGRICULTURAL SOCIETY", "designationCode": "C", "categoryCode": "56", "address": "P.O. BOX 292", "city": "DURHAM", "province": "ON", "country": "CA", "postalCode": "N0G1R0", "twitter": "None", "instagram": "None", "facebook": "None", "youtube": "None", "website": "None", "summary": "None", "logo": "None", "latitude": 44.125520383994086, "longitude": -81.21636506037191}, "873034797RR0001": {"name": "DURHAM AND COMMUNITY HEALTH CARE FOUNDATION INC.", "designationCode": "C", "categoryCode": "13", "address": "368 COLLEGE ST NORTH          P.O. BOX 1407", "city": "DURHAM", "province": "ON", "country": "CA", "postalCode": "N0G1R0", "twitter": "None", "instagram": "None", "facebook": "None", "youtube": "None", "website": "None", "summary": "None", "logo": "None", "latitude": 44.18057758673322, "longitude": -80.8287000133302}, "860329689RR0001": {"name": "DURHAM AND DISTRICT FOODBANK", "designationCode": "C", "categoryCode": "09", "address": "P.O. BOX 911", "city": "DURHAM", "province": "ON", "country": "CA", "postalCode": "N0G1R0", "twitter": "None", "instagram": "None", "facebook": "None", "youtube": "None", "website": "None", "summary": "None", "logo": "None", "latitude": 44.125520383994086, "longitude": -81.21636506037191}, "107270878RR0001": {"name": "DURHAM ART GALLERY", "designationCode": "C", "categoryCode": "50", "address": "BOX 1021                      251 GEORGE STREET EAST", "city": "DURHAM", "province": "ON", "country": "CA", "postalCode": "N0G1R0", "twitter": "None", "instagram": "None", "facebook": "None", "youtube": "None", "website": "None", "summary": "None", "logo": "None", "latitude": 44.17766151373423, "longitude": -80.81705308728148}, "118889815RR0001": {"name": "DURHAM ASSOCIATION FOR FAMILY RESPITE SERVICES", "designationCode": "C", "categoryCode": "01", "address": "20-850 KING STREET WEST", "city": "OSHAWA", "province": "ON", "country": "CA", "postalCode": "L1J8N5", "twitter": "None", "instagram": "None", "facebook": "None", "youtube": "None", "website": "None", "summary": "None", "logo": "None", "latitude": 43.89067417020556, "longitude": -78.89447954374151}, "118889823RR0001": {"name": "DURHAM BAPTIST CHURCH INC.", "designationCode": "C", "categoryCode": "31", "address": "106 ELGIN STREET              PO BOX 23", "city": "DURHAM", "province": "ON", "country": "CA", "postalCode": "N0G1R0", "twitter": "None", "instagram": "None", "facebook": "None", "youtube": "None", "website": "None", "summary": "None", "logo": "None", "latitude": 44.17636867776563, "longitude": -80.81543706108242}, "107271207RR0001": {"name": "DURHAM CATHOLIC DISTRICT SCHOOL BOARD", "designationCode": "C", "categoryCode": "20", "address": "650 ROSSLAND RD WEST", "city": "OSHAWA", "province": "ON", "country": "CA", "postalCode": "L1J7C4", "twitter": "None", "instagram": "None", "facebook": "None", "youtube": "None", "website": "None", "summary": "None", "logo": "None", "latitude": 43.90972634542653, "longitude": -78.89586786591796}, "854260940RR0001": {"name": "DURHAM CHILDREN'S AID FOUNDATION", "designationCode": "A", "categoryCode": "03", "address": "1320 AIRPORT BLVD", "city": "OSHAWA", "province": "ON", "country": "CA", "postalCode": "L1H7K4", "twitter": "None", "instagram": "None", "facebook": "None", "youtube": "None", "website": "None", "summary": "None", "logo": "None", "latitude": 43.927906758786044, "longitude": -78.89806276308425}, "129476404RR0001": {"name": "DURHAM CHILDREN'S AID SOCIETY", "designationCode": "C", "categoryCode": "01", "address": "1320 AIRPORT BLVD.", "city": "OSHAWA", "province": "ON", "country": "CA", "postalCode": "L1H7K4", "twitter": "None", "instagram": "None", "facebook": "None", "youtube": "None", "website": "None", "summary": "None", "logo": "None", "latitude": 43.927906758786044, "longitude": -78.89806276308425}, "894133404RR0001": {"name": "DURHAM CHRISTIAN FELLOWSHIP INC.", "designationCode": "C", "categoryCode": "39", "address": "1439 PARKHAM CRES", "city": "PICKERING", "province": "ON", "country": "CA", "postalCode": "L1W1B7", "twitter": "None", "instagram": "None", "facebook": "None", "youtube": "None", "website": "None", "summary": "None", "logo": "None", "latitude": 43.81913615499893, "longitude": -79.07384363455431}}