{"107951618RR0246": {"name": "THE SALVATION ARMY COMMUNITY AND FAMILY SERVICES-NIAGARA REGION", "designationCode": "C", "categoryCode": "09", "address": "JJ - 800 NIAGARA ST", "city": "WELLAND", "province": "ON", "country": "CA", "postalCode": "L3C5Z4", "twitter": "None", "instagram": "None", "facebook": "None", "youtube": "None", "website": "None", "summary": "None", "logo": "None", "latitude": 43.01587465167412, "longitude": -79.2498161516741}, "107951618RR0568": {"name": "THE SALVATION ARMY COMMUNITY AND FAMILY SERVICES-STRATHROY", "designationCode": "C", "categoryCode": "09", "address": "71 MAITLAND TERRACE", "city": "STRATHROY", "province": "ON", "country": "CA", "postalCode": "N7G1L2", "twitter": "None", "instagram": "None", "facebook": "None", "youtube": "None", "website": "None", "summary": "None", "logo": "None", "latitude": 42.95382747157926, "longitude": -81.62269389078998}, "107951618RR0386": {"name": "THE SALVATION ARMY COMMUNITY CHURCH (SWIFT CURRENT)", "designationCode": "C", "categoryCode": "40", "address": "P.O. BOX 2061", "city": "SWIFT CURRENT", "province": "SK", "country": "CA", "postalCode": "S9H4M7", "twitter": "None", "instagram": "None", "facebook": "None", "youtube": "None", "website": "None", "summary": "None", "logo": "None", "latitude": 50.292744000000056, "longitude": -107.80056349999994}, "107951618RR0128": {"name": "THE SALVATION ARMY COMMUNITY CHURCH OF LETHBRIDGE", "designationCode": "C", "categoryCode": "40", "address": "1302 4 AVE S", "city": "LETHBRIDGE", "province": "AB", "country": "CA", "postalCode": "T1J0R4", "twitter": "None", "instagram": "None", "facebook": "None", "youtube": "None", "website": "None", "summary": "None", "logo": "None", "latitude": 49.6949070362114, "longitude": -112.82400339411308}, "107951618RR0432": {"name": "THE SALVATION ARMY COMMUNITY RESOURCE CENTRE (MIRAMICHI)", "designationCode": "C", "categoryCode": "09", "address": "231 PLEASANT STREET", "city": "MIRAMICHI", "province": "NB", "country": "CA", "postalCode": "E1V1Y6", "twitter": "None", "instagram": "None", "facebook": "None", "youtube": "None", "website": "None", "summary": "None", "logo": "None", "latitude": 46.999851966703154, "longitude": -65.56718105124334}, "107951618RR0002": {"name": "THE SALVATION ARMY COMOX VALLEY COMMUNITY CHURCH", "designationCode": "C", "categoryCode": "40", "address": "1580 FITZGERALD AVE", "city": "COURTENAY", "province": "BC", "country": "CA", "postalCode": "V9N2S2", "twitter": "None", "instagram": "None", "facebook": "None", "youtube": "None", "website": "None", "summary": "None", "logo": "None", "latitude": 49.683549602025316, "longitude": -124.99373837575767}, "107951618RR0046": {"name": "THE SALVATION ARMY CONCEPTION BAY SOUTH CORPS", "designationCode": "C", "categoryCode": "40", "address": "P.O. BOX 14147 STN MANUELS", "city": "CONCEPTION BAY SOUTH", "province": "NL", "country": "CA", "postalCode": "A1W3J1", "twitter": "None", "instagram": "None", "facebook": "None", "youtube": "None", "website": "None", "summary": "None", "logo": "None", "latitude": 47.517082849121294, "longitude": -52.94141959406536}, "107951618RR0076": {"name": "THE SALVATION ARMY CORNER BROOK CITADEL CORPS", "designationCode": "C", "categoryCode": "40", "address": "P.O. BOX 215", "city": "CORNER BROOK", "province": "NL", "country": "CA", "postalCode": "A2H6C9", "twitter": "None", "instagram": "None", "facebook": "None", "youtube": "None", "website": "None", "summary": "None", "logo": "None", "latitude": 48.95097900000006, "longitude": -57.950103499999926}, "107951618RR0077": {"name": "THE SALVATION ARMY CORNER BROOK TEMPLE CORPS", "designationCode": "C", "categoryCode": "40", "address": "PO BOX 20084", "city": "CORNER BROOK", "province": "NL", "country": "CA", "postalCode": "A2H7J5", "twitter": "None", "instagram": "None", "facebook": "None", "youtube": "None", "website": "None", "summary": "None", "logo": "None", "latitude": 48.95097900000006, "longitude": -57.950103499999926}, "107951618RR0351": {"name": "THE SALVATION ARMY CORNERSTONE COMMUNITY CHURCH", "designationCode": "C", "categoryCode": "40", "address": "3020 VANDERBILT RD", "city": "MISSISSAUGA", "province": "ON", "country": "CA", "postalCode": "L5N4W8", "twitter": "None", "instagram": "None", "facebook": "None", "youtube": "None", "website": "None", "summary": "None", "logo": "None", "latitude": 43.584480526199044, "longitude": -79.7668612319814}, "107951618RR0417": {"name": "THE SALVATION ARMY CORNWALL COMMUNITY CHURCH", "designationCode": "C", "categoryCode": "40", "address": "510 YORK ST", "city": "CORNWALL", "province": "ON", "country": "CA", "postalCode": "K6J3Z8", "twitter": "None", "instagram": "None", "facebook": "None", "youtube": "None", "website": "None", "summary": "None", "logo": "None", "latitude": 45.02215883873858, "longitude": -74.73578240524535}, "107951618RR0542": {"name": "THE SALVATION ARMY CORPS 614", "designationCode": "C", "categoryCode": "40", "address": "77 RIVER ST. 2ND FLOOR", "city": "TORONTO", "province": "ON", "country": "CA", "postalCode": "M5A3P1", "twitter": "None", "instagram": "None", "facebook": "None", "youtube": "None", "website": "None", "summary": "None", "logo": "None", "latitude": 43.65958262115525, "longitude": -79.35742032734161}, "107951618RR0096": {"name": "THE SALVATION ARMY CORRECTIONAL & JUSTICE SERVICES - BARRIE", "designationCode": "C", "categoryCode": "01", "address": "2 OVERLEA BLVD", "city": "EAST YORK", "province": "ON", "country": "CA", "postalCode": "M4H1P4", "twitter": "None", "instagram": "None", "facebook": "None", "youtube": "None", "website": "None", "summary": "None", "logo": "None", "latitude": 43.70240076493152, "longitude": -79.35266780353714}, "107951618RR0348": {"name": "THE SALVATION ARMY CORRECTIONAL AND JUSTICE SERVICES - HAMILTON", "designationCode": "C", "categoryCode": "01", "address": "2090 PROSPECT ST", "city": "BURLINGTON", "province": "ON", "country": "CA", "postalCode": "L7R1Y9", "twitter": "None", "instagram": "None", "facebook": "None", "youtube": "None", "website": "None", "summary": "None", "logo": "None", "latitude": 43.335982258381996, "longitude": -79.80673601260905}, "107951618RR0015": {"name": "THE SALVATION ARMY CORRECTIONAL AND JUSTICE SERVICES - KINGSTON", "designationCode": "C", "categoryCode": "01", "address": "472 DIVISION STREET", "city": "KINGSTON", "province": "ON", "country": "CA", "postalCode": "K7K4B1", "twitter": "None", "instagram": "None", "facebook": "None", "youtube": "None", "website": "None", "summary": "None", "logo": "None", "latitude": 44.24233442408681, "longitude": -76.49510158540556}, "107951618RR0016": {"name": "THE SALVATION ARMY CORRECTIONAL AND JUSTICE SERVICES - LONDON", "designationCode": "C", "categoryCode": "01", "address": "281 WELLINGTON STREET", "city": "LONDON", "province": "ON", "country": "CA", "postalCode": "N6B2L4", "twitter": "None", "instagram": "None", "facebook": "None", "youtube": "None", "website": "None", "summary": "None", "logo": "None", "latitude": 42.981217545357644, "longitude": -81.24372371207205}, "107951618RR0187": {"name": "THE SALVATION ARMY CORRECTIONAL AND JUSTICE SERVICES - MONCTON", "designationCode": "C", "categoryCode": "01", "address": "68 GORDON ST.", "city": "MONCTON", "province": "NB", "country": "CA", "postalCode": "E1C1M2", "twitter": "None", "instagram": "None", "facebook": "None", "youtube": "None", "website": "None", "summary": "None", "logo": "None", "latitude": 46.08836776934626, "longitude": -64.78628767262973}, "107951618RR0214": {"name": "THE SALVATION ARMY CORRECTIONAL AND JUSTICE SERVICES - REGINA", "designationCode": "C", "categoryCode": "01", "address": "2240-13TH AVENUE", "city": "REGINA", "province": "SK", "country": "CA", "postalCode": "S4P3M7", "twitter": "None", "instagram": "None", "facebook": "None", "youtube": "None", "website": "None", "summary": "None", "logo": "None", "latitude": 50.445551460470746, "longitude": -104.61328102553523}, "107951618RR0484": {"name": "THE SALVATION ARMY CORRECTIONAL AND JUSTICE SERVICES - TORONTO", "designationCode": "C", "categoryCode": "59", "address": "77 RIVER STREET", "city": "TORONTO", "province": "ON", "country": "CA", "postalCode": "M5A3P1", "twitter": "None", "instagram": "None", "facebook": "None", "youtube": "None", "website": "None", "summary": "None", "logo": "None", "latitude": 43.65958262115525, "longitude": -79.35742032734161}, "107951618RR0365": {"name": "THE SALVATION ARMY CORRECTIONAL AND JUSTICE SERVICES - WELLINGTON WATERLOO REGION", "designationCode": "C", "categoryCode": "01", "address": "P.O. BOX 1146", "city": "GUELPH", "province": "ON", "country": "CA", "postalCode": "N1H6N3", "twitter": "None", "instagram": "None", "facebook": "None", "youtube": "None", "website": "None", "summary": "None", "logo": "None", "latitude": 43.54455300000005, "longitude": -80.24788249999993}, "107951618RR0576": {"name": "THE SALVATION ARMY CORRECTIONAL AND JUSTICE SERVICES - WINNIPEG", "designationCode": "C", "categoryCode": "09", "address": "324 LOGAN AVENUE              2ND FLOOR", "city": "WINNIPEG", "province": "MB", "country": "CA", "postalCode": "R3A0L5", "twitter": "None", "instagram": "None", "facebook": "None", "youtube": "None", "website": "None", "summary": "None", "logo": "None", "latitude": 49.903998111258836, "longitude": -97.1402708637542}, "107951618RR0492": {"name": "THE SALVATION ARMY CORRECTIONAL AND JUSTICE SERVICES-OTTAWA", "designationCode": "C", "categoryCode": "01", "address": "171 GEORGE STREET", "city": "OTTAWA", "province": "ON", "country": "CA", "postalCode": "K1N5W5", "twitter": "None", "instagram": "None", "facebook": "None", "youtube": "None", "website": "None", "summary": "None", "logo": "None", "latitude": 45.42844067003267, "longitude": -75.68882219804938}, "107951618RR0435": {"name": "THE SALVATION ARMY COTTRELL'S COVE CORPS", "designationCode": "C", "categoryCode": "40", "address": "P.O. BOX 7", "city": "COTTRELL'S COVE", "province": "NL", "country": "CA", "postalCode": "A0H1L0", "twitter": "None", "instagram": "None", "facebook": "None", "youtube": "None", "website": "None", "summary": "None", "logo": "None", "latitude": 49.48147500000006, "longitude": -55.28445199999993}, "107951618RR0199": {"name": "THE SALVATION ARMY DARTMOUTH COMMUNITY CHURCH", "designationCode": "C", "categoryCode": "40", "address": "4 - 171 MAIN ST", "city": "DARTMOUTH", "province": "NS", "country": "CA", "postalCode": "B2X1S1", "twitter": "None", "instagram": "None", "facebook": "None", "youtube": "None", "website": "None", "summary": "None", "logo": "None", "latitude": 44.68291061506707, "longitude": -63.53544375633317}, "107951618RR0384": {"name": "THE SALVATION ARMY DAUPHIN CORPS", "designationCode": "C", "categoryCode": "09", "address": "P.O. BOX 604", "city": "DAUPHIN", "province": "MB", "country": "CA", "postalCode": "R7N2V4", "twitter": "None", "instagram": "None", "facebook": "None", "youtube": "None", "website": "None", "summary": "None", "logo": "None", "latitude": 51.150138000000055, "longitude": -100.04934049999993}, "107951618RR0122": {"name": "THE SALVATION ARMY DAWSON CREEK CORPS", "designationCode": "C", "categoryCode": "40", "address": "1436 104 AVE", "city": "DAWSON CREEK", "province": "BC", "country": "CA", "postalCode": "V1G2J8", "twitter": "None", "instagram": "None", "facebook": "None", "youtube": "None", "website": "None", "summary": "None", "logo": "None", "latitude": 55.75825347157924, "longitude": -120.24347399999999}, "107951618RR0441": {"name": "THE SALVATION ARMY DEER LAKE CORPS", "designationCode": "C", "categoryCode": "40", "address": "20 CHURCH STREET", "city": "DEER LAKE", "province": "NL", "country": "CA", "postalCode": "A8A1E1", "twitter": "None", "instagram": "None", "facebook": "None", "youtube": "None", "website": "None", "summary": "None", "logo": "None", "latitude": 49.171937354201795, "longitude": -57.42823996889784}, "107951618RR0084": {"name": "THE SALVATION ARMY DOVER CORPS", "designationCode": "C", "categoryCode": "40", "address": "P.O. BOX 160", "city": "DOVER", "province": "NL", "country": "CA", "postalCode": "A0G1X0", "twitter": "None", "instagram": "None", "facebook": "None", "youtube": "None", "website": "None", "summary": "None", "logo": "None", "latitude": 48.86660000000006, "longitude": -53.96479999999997}, "107951618RR0038": {"name": "THE SALVATION ARMY DOWNTOWN CORE MINISTRIES", "designationCode": "C", "categoryCode": "01", "address": "25 BUCHANAN ST", "city": "ST. JOHN'S", "province": "NL", "country": "CA", "postalCode": "A1C0A4", "twitter": "None", "instagram": "None", "facebook": "None", "youtube": "None", "website": "None", "summary": "None", "logo": "None", "latitude": 47.55808769663575, "longitude": -52.7131446283686}, "107951618RR0134": {"name": "THE SALVATION ARMY DRUMHELLER COMMUNITY CHURCH", "designationCode": "C", "categoryCode": "40", "address": "PO BOX 3097", "city": "DRUMHELLER", "province": "AB", "country": "CA", "postalCode": "T0J0Y0", "twitter": "None", "instagram": "None", "facebook": "None", "youtube": "None", "website": "None", "summary": "None", "logo": "None", "latitude": 51.46154700000005, "longitude": -112.70878099999993}, "107951618RR0263": {"name": "THE SALVATION ARMY EAST TORONTO CITADEL CORPS", "designationCode": "C", "categoryCode": "40", "address": "107 CEDARVALE AVE", "city": "TORONTO", "province": "ON", "country": "CA", "postalCode": "M4C4J9", "twitter": "None", "instagram": "None", "facebook": "None", "youtube": "None", "website": "None", "summary": "None", "logo": "None", "latitude": 43.68711409270584, "longitude": -79.31134131721407}, "107951618RR0081": {"name": "THE SALVATION ARMY EASTSIDE CITADEL", "designationCode": "C", "categoryCode": "40", "address": "PO BOX 108", "city": "FAIRBANK", "province": "NL", "country": "CA", "postalCode": "A0G2R0", "twitter": "None", "instagram": "None", "facebook": "None", "youtube": "None", "website": "None", "summary": "None", "logo": "None", "latitude": 49.552310000000034, "longitude": -54.737649999999974}, "107951618RR0429": {"name": "THE SALVATION ARMY EDMONTON ADDICTIONS AND RESIDENTIAL CENTRE", "designationCode": "C", "categoryCode": "01", "address": "9611 - 102 AVE", "city": "EDMONTON", "province": "AB", "country": "CA", "postalCode": "T5H0E5", "twitter": "None", "instagram": "None", "facebook": "None", "youtube": "None", "website": "None", "summary": "None", "logo": "None", "latitude": 53.54445262724343, "longitude": -113.4835680180334}, "107951618RR0571": {"name": "THE SALVATION ARMY EDMONTON CROSSROADS COMMUNITY CHURCH", "designationCode": "C", "categoryCode": "40", "address": "11461 - 95 STREET", "city": "EDMONTON", "province": "AB", "country": "CA", "postalCode": "T5G1L3", "twitter": "None", "instagram": "None", "facebook": "None", "youtube": "None", "website": "None", "summary": "None", "logo": "None", "latitude": 53.5654805029142, "longitude": -113.48713374906251}, "107951618RR0139": {"name": "THE SALVATION ARMY EDMONTON TEMPLE CORPS", "designationCode": "C", "categoryCode": "40", "address": "9115 75 ST NW", "city": "EDMONTON", "province": "AB", "country": "CA", "postalCode": "T6C4L3", "twitter": "None", "instagram": "None", "facebook": "None", "youtube": "None", "website": "None", "summary": "None", "logo": "None", "latitude": 53.52606900000001, "longitude": -113.44279578902444}, "107951618RR0337": {"name": "THE SALVATION ARMY ELLIOT LAKE CHURCH", "designationCode": "C", "categoryCode": "40", "address": "6 CHARLES WALK", "city": "ELLIOTT LAKE", "province": "ON", "country": "CA", "postalCode": "P5A2A3", "twitter": "None", "instagram": "None", "facebook": "None", "youtube": "None", "website": "None", "summary": "None", "logo": "None", "latitude": 46.38655432260186, "longitude": -82.6478487435754}, "107951618RR0083": {"name": "THE SALVATION ARMY ENGLEE CORPS", "designationCode": "C", "categoryCode": "40", "address": "PO BOX 190", "city": "ENGLEE", "province": "NL", "country": "CA", "postalCode": "A0K2J0", "twitter": "None", "instagram": "None", "facebook": "None", "youtube": "None", "website": "None", "summary": "None", "logo": "None", "latitude": 50.73417000000006, "longitude": -56.10451999999998}, "107951618RR0476": {"name": "THE SALVATION ARMY ERIN MILLS CORPS", "designationCode": "C", "categoryCode": "40", "address": "2460 THE COLLEGEWAY", "city": "MISSISSAUGA", "province": "ON", "country": "CA", "postalCode": "L5L1V3", "twitter": "None", "instagram": "None", "facebook": "None", "youtube": "None", "website": "None", "summary": "None", "logo": "None", "latitude": 43.536435384356025, "longitude": -79.6862809146231}, "107951618RR0239": {"name": "THE SALVATION ARMY ESSEX CORPS", "designationCode": "C", "categoryCode": "40", "address": "26 TALBOT ST S                P.O. BOX 432", "city": "ESSEX", "province": "ON", "country": "CA", "postalCode": "N8M2Y4", "twitter": "None", "instagram": "None", "facebook": "None", "youtube": "None", "website": "None", "summary": "None", "logo": "None", "latitude": 42.17264972466773, "longitude": -82.81959627514082}, "107951618RR0221": {"name": "THE SALVATION ARMY ESTEVAN CORPS", "designationCode": "C", "categoryCode": "40", "address": "P.O. BOX 447", "city": "ESTEVAN", "province": "SK", "country": "CA", "postalCode": "S4A2A4", "twitter": "None", "instagram": "None", "facebook": "None", "youtube": "None", "website": "None", "summary": "None", "logo": "None", "latitude": 49.140249000000054, "longitude": -102.99454999999993}, "107951618RR0314": {"name": "THE SALVATION ARMY ETOBICOKE TEMPLE CORPS", "designationCode": "C", "categoryCode": "40", "address": "2152 KIPLING AVE", "city": "ETOBICOKE", "province": "ON", "country": "CA", "postalCode": "M9W4K9", "twitter": "None", "instagram": "None", "facebook": "None", "youtube": "None", "website": "None", "summary": "None", "logo": "None", "latitude": 43.72010429113059, "longitude": -79.57076318823894}, "107951618RR0212": {"name": "THE SALVATION ARMY FAIRVIEW CITADEL CORPS", "designationCode": "C", "categoryCode": "40", "address": "P.O. BOX 25128", "city": "HALIFAX", "province": "NS", "country": "CA", "postalCode": "B3M4H4", "twitter": "None", "instagram": "None", "facebook": "None", "youtube": "None", "website": "None", "summary": "None", "logo": "None", "latitude": 44.66728500000005, "longitude": -63.658200499999936}, "107951618RR0250": {"name": "THE SALVATION ARMY FENELON FALLS CORPS", "designationCode": "C", "categoryCode": "40", "address": "P.O. BOX 819", "city": "FENELON FALLS", "province": "ON", "country": "CA", "postalCode": "K0M1N0", "twitter": "None", "instagram": "None", "facebook": "None", "youtube": "None", "website": "None", "summary": "None", "logo": "None", "latitude": 44.53758000000005, "longitude": -78.73584999999997}, "107951618RR0120": {"name": "THE SALVATION ARMY FERNIE CORPS", "designationCode": "C", "categoryCode": "40", "address": "PO BOX 2259", "city": "FERNIE", "province": "BC", "country": "CA", "postalCode": "V0B1M0", "twitter": "None", "instagram": "None", "facebook": "None", "youtube": "None", "website": "None", "summary": "None", "logo": "None", "latitude": 49.499960000000044, "longitude": -115.06870999999995}, "107951618RR0150": {"name": "THE SALVATION ARMY FLIN FLON CORPS", "designationCode": "C", "categoryCode": "40", "address": "P.O. BOX 362", "city": "FLIN FLON", "province": "MB", "country": "CA", "postalCode": "R8A1N1", "twitter": "None", "instagram": "None", "facebook": "None", "youtube": "None", "website": "None", "summary": "None", "logo": "None", "latitude": 54.76821900000006, "longitude": -101.87697049999993}, "107951618RR0251": {"name": "THE SALVATION ARMY FORT FRANCES CORPS", "designationCode": "C", "categoryCode": "40", "address": "P.O. BOX 101", "city": "FORT FRANCES", "province": "ON", "country": "CA", "postalCode": "P9A3M5", "twitter": "None", "instagram": "None", "facebook": "None", "youtube": "None", "website": "None", "summary": "None", "logo": "None", "latitude": 48.610023000000055, "longitude": -93.39111349999993}, "107951618RR0145": {"name": "THE SALVATION ARMY FORT MCMURRAY CORPS", "designationCode": "C", "categoryCode": "40", "address": "116 - 280 MIDPARK WAY SE", "city": "CALGARY", "province": "AB", "country": "CA", "postalCode": "T2X1J6", "twitter": "None", "instagram": "None", "facebook": "None", "youtube": "None", "website": "None", "summary": "None", "logo": "None", "latitude": 50.910016432136906, "longitude": -114.06351266154988}, "107951618RR0534": {"name": "THE SALVATION ARMY FORT ST. JOHN COMMUNITY CHURCH", "designationCode": "C", "categoryCode": "40", "address": "10116 100 AVE", "city": "FORT ST. JOHN", "province": "BC", "country": "CA", "postalCode": "V1J1Y6", "twitter": "None", "instagram": "None", "facebook": "None", "youtube": "None", "website": "None", "summary": "None", "logo": "None", "latitude": 56.24650446768412, "longitude": -120.84973102553522}, "107951618RR0080": {"name": "THE SALVATION ARMY FORTUNE CORPS", "designationCode": "C", "categoryCode": "40", "address": "P.O. BOX 157", "city": "FORTUNE", "province": "NL", "country": "CA", "postalCode": "A0E1P0", "twitter": "None", "instagram": "None", "facebook": "None", "youtube": "None", "website": "None", "summary": "None", "logo": "None", "latitude": 47.074110000000076, "longitude": -55.82591999999994}, "107951618RR0188": {"name": "THE SALVATION ARMY FREDERICTON COMMUNITY CHURCH", "designationCode": "C", "categoryCode": "40", "address": "P.O. BOX 1264", "city": "FREDERICTON", "province": "NB", "country": "CA", "postalCode": "E3B5C8", "twitter": "None", "instagram": "None", "facebook": "None", "youtube": "None", "website": "None", "summary": "None", "logo": "None", "latitude": 45.96062100000006, "longitude": -66.63911299999994}, "107951618RR0440": {"name": "THE SALVATION ARMY GAMBO CORPS", "designationCode": "C", "categoryCode": "40", "address": "P.O. BOX 99", "city": "GAMBO", "province": "NL", "country": "CA", "postalCode": "A0G1T0", "twitter": "None", "instagram": "None", "facebook": "None", "youtube": "None", "website": "None", "summary": "None", "logo": "None", "latitude": 48.78680000000003, "longitude": -54.21128999999996}, "107951618RR0516": {"name": "THE SALVATION ARMY GANANOQUE CARE AND SHARE CENTRE", "designationCode": "C", "categoryCode": "09", "address": "PO BOX 92", "city": "GANANOQUE", "province": "ON", "country": "CA", "postalCode": "K7G2T6", "twitter": "None", "instagram": "None", "facebook": "None", "youtube": "None", "website": "None", "summary": "None", "logo": "None", "latitude": 44.328480000000056, "longitude": -76.16426299999993}, "107951618RR0079": {"name": "THE SALVATION ARMY GANDER CORPS", "designationCode": "C", "categoryCode": "40", "address": "165 AIRPORT BLVD", "city": "GANDER", "province": "NL", "country": "CA", "postalCode": "A1V1K6", "twitter": "None", "instagram": "None", "facebook": "None", "youtube": "None", "website": "None", "summary": "None", "logo": "None", "latitude": 48.95748869224965, "longitude": -54.61083363373564}, "107951618RR0091": {"name": "THE SALVATION ARMY GARNISH CORPS", "designationCode": "C", "categoryCode": "40", "address": "P.O. BOX 22", "city": "GARNISH", "province": "NL", "country": "CA", "postalCode": "A0E1T0", "twitter": "None", "instagram": "None", "facebook": "None", "youtube": "None", "website": "None", "summary": "None", "logo": "None", "latitude": 47.133230000000026, "longitude": -55.09828999999996}, "107951618RR0345": {"name": "THE SALVATION ARMY GEORGETOWN CORPS", "designationCode": "C", "categoryCode": "40", "address": "P.O. BOX 199", "city": "GEORGETOWN", "province": "ON", "country": "CA", "postalCode": "L7G4Y5", "twitter": "None", "instagram": "None", "facebook": "None", "youtube": "None", "website": "None", "summary": "None", "logo": "None", "latitude": 43.65006000000005, "longitude": -79.89909199999994}, "107951618RR0339": {"name": "THE SALVATION ARMY GEORGINA COMMUNITY CHURCH", "designationCode": "C", "categoryCode": "40", "address": "1816 METRO ROAD", "city": "JACKSON PT", "province": "ON", "country": "CA", "postalCode": "L0E1L0", "twitter": "None", "instagram": "None", "facebook": "None", "youtube": "None", "website": "None", "summary": "None", "logo": "None", "latitude": 44.3162192023772, "longitude": -79.39625737220831}, "107951618RR0168": {"name": "THE SALVATION ARMY GITSEGUKLA CORPS", "designationCode": "C", "categoryCode": "40", "address": "PO BOX 100", "city": "HAZELTON", "province": "BC", "country": "CA", "postalCode": "V0J1Y0", "twitter": "None", "instagram": "None", "facebook": "None", "youtube": "None", "website": "None", "summary": "None", "logo": "None", "latitude": 55.2675692820996, "longitude": -127.62287325854736}, "107951618RR0375": {"name": "THE SALVATION ARMY GITWINKSIHLKW CORPS", "designationCode": "C", "categoryCode": "40", "address": "PO BOX 33", "city": "GITWINKSIHLKW", "province": "BC", "country": "CA", "postalCode": "V0J3T0", "twitter": "None", "instagram": "None", "facebook": "None", "youtube": "None", "website": "None", "summary": "None", "logo": "None", "latitude": 55.19174000000004, "longitude": -129.22205999999994}, "107951618RR0207": {"name": "THE SALVATION ARMY GLACE BAY CORPS", "designationCode": "C", "categoryCode": "40", "address": "40 UNION STREET               BOX 51", "city": "GLACE BAY", "province": "NS", "country": "CA", "postalCode": "B1A5V1", "twitter": "None", "instagram": "None", "facebook": "None", "youtube": "None", "website": "None", "summary": "None", "logo": "None", "latitude": 46.195904220381955, "longitude": -59.95812874329144}, "107951618RR0376": {"name": "THE SALVATION ARMY GLADSTONE COMMUNITY CHURCH (OTTAWA)", "designationCode": "C", "categoryCode": "09", "address": "171 GEORGE ST", "city": "OTTAWA", "province": "ON", "country": "CA", "postalCode": "K1N5W5", "twitter": "None", "instagram": "None", "facebook": "None", "youtube": "None", "website": "None", "summary": "None", "logo": "None", "latitude": 45.42844067003267, "longitude": -75.68882219804938}, "107951618RR0390": {"name": "THE SALVATION ARMY GLENMORE TEMPLE", "designationCode": "C", "categoryCode": "40", "address": "921 68 AVE SW", "city": "CALGARY", "province": "AB", "country": "CA", "postalCode": "T2V0N7", "twitter": "None", "instagram": "None", "facebook": "None", "youtube": "None", "website": "None", "summary": "None", "logo": "None", "latitude": 50.99231551399404, "longitude": -114.08266252553523}, "107951618RR0041": {"name": "THE SALVATION ARMY GLENWOOD CORPS", "designationCode": "C", "categoryCode": "40", "address": "P.O. BOX 89", "city": "GLENWOOD", "province": "NL", "country": "CA", "postalCode": "A0G2K0", "twitter": "None", "instagram": "None", "facebook": "None", "youtube": "None", "website": "None", "summary": "None", "logo": "None", "latitude": 48.99727000000007, "longitude": -54.87533999999994}, "107951618RR0439": {"name": "THE SALVATION ARMY GLOVER'S HARBOUR CORPS", "designationCode": "C", "categoryCode": "40", "address": "P.O. BOX 174, R.R.2", "city": "GLOVER'S HARBOUR", "province": "NL", "country": "CA", "postalCode": "A0H1E0", "twitter": "None", "instagram": "None", "facebook": "None", "youtube": "None", "website": "None", "summary": "None", "logo": "None", "latitude": 47.87148820627121, "longitude": -55.8473795324398}, "107951618RR0090": {"name": "THE SALVATION ARMY GLOVERTOWN CORPS", "designationCode": "C", "categoryCode": "40", "address": "P.O. BOX 243", "city": "GLOVERTOWN", "province": "NL", "country": "CA", "postalCode": "A0G2L0", "twitter": "None", "instagram": "None", "facebook": "None", "youtube": "None", "website": "None", "summary": "None", "logo": "None", "latitude": 48.68247300000006, "longitude": -54.03195799999993}, "107951618RR0524": {"name": "THE SALVATION ARMY GRACE MANOR (EDMONTON)", "designationCode": "C", "categoryCode": "01", "address": "12510 - 140 AVE", "city": "EDMONTON", "province": "AB", "country": "CA", "postalCode": "T5X6C4", "twitter": "None", "instagram": "None", "facebook": "None", "youtube": "None", "website": "None", "summary": "None", "logo": "None", "latitude": 53.602178350488074, "longitude": -113.53850068953528}, "107951618RR0089": {"name": "THE SALVATION ARMY GRAND BANK CORPS", "designationCode": "C", "categoryCode": "40", "address": "P.O. BOX 69", "city": "GRAND BANK", "province": "NL", "country": "CA", "postalCode": "A0E1W0", "twitter": "None", "instagram": "None", "facebook": "None", "youtube": "None", "website": "None", "summary": "None", "logo": "None", "latitude": 47.52674538996191, "longitude": -54.94957524421343}, "107951618RR0088": {"name": "THE SALVATION ARMY GRAND FALLS CITADEL CORPS", "designationCode": "C", "categoryCode": "40", "address": "PO BOX 105 STN MAIN", "city": "GRAND FALLS-WINDSOR", "province": "NL", "country": "CA", "postalCode": "A2A2J3", "twitter": "None", "instagram": "None", "facebook": "None", "youtube": "None", "website": "None", "summary": "None", "logo": "None", "latitude": 48.927786000000054, "longitude": -55.65881149999993}, "107951618RR0132": {"name": "THE SALVATION ARMY GRANDE PRAIRIE COMMUNITY CHURCH", "designationCode": "C", "categoryCode": "40", "address": "PO BOX 907", "city": "GRANDE PRAIRIE", "province": "AB", "country": "CA", "postalCode": "T8V3Y1", "twitter": "None", "instagram": "None", "facebook": "None", "youtube": "None", "website": "None", "summary": "None", "logo": "None", "latitude": 55.171122000000054, "longitude": -118.79491399999993}, "107951618RR0258": {"name": "THE SALVATION ARMY GRAVENHURST COMMUNITY CHURCH", "designationCode": "C", "categoryCode": "40", "address": "2 OVERLEA BLVD", "city": "EAST YORK", "province": "ON", "country": "CA", "postalCode": "M4H1P4", "twitter": "None", "instagram": "None", "facebook": "None", "youtube": "None", "website": "None", "summary": "None", "logo": "None", "latitude": 43.70240076493152, "longitude": -79.35266780353714}, "107951618RR0443": {"name": "THE SALVATION ARMY GREEN'S HARBOUR CORPS", "designationCode": "C", "categoryCode": "40", "address": "P.O. BOX 119", "city": "GREEN'S HARBOUR", "province": "NL", "country": "CA", "postalCode": "A0B1X0", "twitter": "None", "instagram": "None", "facebook": "None", "youtube": "None", "website": "None", "summary": "None", "logo": "None", "latitude": 47.64964200000006, "longitude": -53.500800499999926}, "107951618RR0267": {"name": "THE SALVATION ARMY GUELPH CORPS", "designationCode": "C", "categoryCode": "40", "address": "P.O. BOX 1146", "city": "GUELPH", "province": "ON", "country": "CA", "postalCode": "N1H6N3", "twitter": "None", "instagram": "None", "facebook": "None", "youtube": "None", "website": "None", "summary": "None", "logo": "None", "latitude": 43.54455300000005, "longitude": -80.24788249999993}, "107951618RR0196": {"name": "THE SALVATION ARMY HALIFAX BOOTH CENTRE", "designationCode": "C", "categoryCode": "01", "address": "2044 GOTTINGEN STREET", "city": "HALIFAX", "province": "NS", "country": "CA", "postalCode": "B3K3A9", "twitter": "None", "instagram": "None", "facebook": "None", "youtube": "None", "website": "None", "summary": "None", "logo": "None", "latitude": 44.651137076317205, "longitude": -63.58215730864438}, "107951618RR0381": {"name": "THE SALVATION ARMY HALIFAX CITADEL COMMUNITY CHURCH", "designationCode": "C", "categoryCode": "40", "address": "1327 BARRINGTON STREET", "city": "HALIFAX", "province": "NS", "country": "CA", "postalCode": "B3J1Y9", "twitter": "None", "instagram": "None", "facebook": "None", "youtube": "None", "website": "None", "summary": "None", "logo": "None", "latitude": 44.642115939555524, "longitude": -63.5713869560286}, "107951618RR0296": {"name": "THE SALVATION ARMY HAMILTON BOOTH CENTRE", "designationCode": "C", "categoryCode": "01", "address": "94 YORK BLVD", "city": "HAMILTON", "province": "ON", "country": "CA", "postalCode": "L8R1R6", "twitter": "None", "instagram": "None", "facebook": "None", "youtube": "None", "website": "None", "summary": "None", "logo": "None", "latitude": 43.25978006301568, "longitude": -79.87202561573089}, "107951618RR0302": {"name": "THE SALVATION ARMY HAMILTON GRACE HAVEN", "designationCode": "C", "categoryCode": "01", "address": "138 HERKIMER STREET", "city": "HAMILTON", "province": "ON", "country": "CA", "postalCode": "L8P2H1", "twitter": "None", "instagram": "None", "facebook": "None", "youtube": "None", "website": "None", "summary": "None", "logo": "None", "latitude": 43.25066020180029, "longitude": -79.87991821259168}, "107951618RR0350": {"name": "THE SALVATION ARMY HAMILTON LAOTIAN CHRISTIAN FELLOWSHIP", "designationCode": "C", "categoryCode": "40", "address": "573 CONCESSION ST", "city": "HAMILTON", "province": "ON", "country": "CA", "postalCode": "L8V1B2", "twitter": "None", "instagram": "None", "facebook": "None", "youtube": "None", "website": "None", "summary": "None", "logo": "None", "latitude": 43.2407021579432, "longitude": -79.85078381903173}, "107951618RR0468": {"name": "THE SALVATION ARMY HAMILTON LAWSON MINISTRIES", "designationCode": "C", "categoryCode": "01", "address": "533 MAIN ST E", "city": "HAMILTON", "province": "ON", "country": "CA", "postalCode": "L8M1H9", "twitter": "None", "instagram": "None", "facebook": "None", "youtube": "None", "website": "None", "summary": "None", "logo": "None", "latitude": 43.25007204858896, "longitude": -79.84902470676329}, "107951618RR0086": {"name": "THE SALVATION ARMY HAMPDEN CORPS", "designationCode": "C", "categoryCode": "40", "address": "20 CHURCH ST", "city": "DEER LAKE", "province": "NL", "country": "CA", "postalCode": "A8A1E1", "twitter": "None", "instagram": "None", "facebook": "None", "youtube": "None", "website": "None", "summary": "None", "logo": "None", "latitude": 49.171937354201795, "longitude": -57.42823996889784}, "107951618RR0464": {"name": "THE SALVATION ARMY HANOVER CORPS", "designationCode": "C", "categoryCode": "40", "address": "581-12TH STREET", "city": "HANOVER", "province": "ON", "country": "CA", "postalCode": "N4N1W5", "twitter": "None", "instagram": "None", "facebook": "None", "youtube": "None", "website": "None", "summary": "None", "logo": "None", "latitude": 44.155654681632114, "longitude": -81.01798577240469}, "107951618RR0085": {"name": "THE SALVATION ARMY HAPPY VALLEY CORPS", "designationCode": "C", "categoryCode": "40", "address": "39 CHURCHILL STREET           P.O. BOX 52  STN B", "city": "HAPPY VALLEY", "province": "NL", "country": "CA", "postalCode": "A0P1E0", "twitter": "None", "instagram": "None", "facebook": "None", "youtube": "None", "website": "None", "summary": "None", "logo": "None", "latitude": 53.298482523291675, "longitude": -60.33153002132379}, "107951618RR0434": {"name": "THE SALVATION ARMY HARE BAY CORPS", "designationCode": "C", "categoryCode": "40", "address": "PO BOX 280", "city": "HARE BAY", "province": "NL", "country": "CA", "postalCode": "A0G2P0", "twitter": "None", "instagram": "None", "facebook": "None", "youtube": "None", "website": "None", "summary": "None", "logo": "None", "latitude": 48.85465000000005, "longitude": -54.009999999999934}, "107951618RR0039": {"name": "THE SALVATION ARMY HARRY'S HARBOUR CORPS", "designationCode": "C", "categoryCode": "40", "address": "PO BOX 9", "city": "KINGS POINT", "province": "NL", "country": "CA", "postalCode": "A0J1H0", "twitter": "None", "instagram": "None", "facebook": "None", "youtube": "None", "website": "None", "summary": "None", "logo": "None", "latitude": 47.12910000000005, "longitude": -53.52169999999995}, "107951618RR0449": {"name": "THE SALVATION ARMY HAZELTON CORPS", "designationCode": "C", "categoryCode": "40", "address": "PO BOX 100", "city": "HAZELTON", "province": "BC", "country": "CA", "postalCode": "V0J1Y0", "twitter": "None", "instagram": "None", "facebook": "None", "youtube": "None", "website": "None", "summary": "None", "logo": "None", "latitude": 55.2675692820996, "longitude": -127.62287325854736}, "107951618RR0525": {"name": "THE SALVATION ARMY HERITAGE PARK TEMPLE CORPS", "designationCode": "C", "categoryCode": "40", "address": "825 SCHOOL RD", "city": "WINNIPEG", "province": "MB", "country": "CA", "postalCode": "R2Y0S8", "twitter": "None", "instagram": "None", "facebook": "None", "youtube": "None", "website": "None", "summary": "None", "logo": "None", "latitude": 49.889050596168296, "longitude": -97.28870020630194}, "107951618RR0286": {"name": "THE SALVATION ARMY HESPELER COMMUNITY CHURCH", "designationCode": "C", "categoryCode": "40", "address": "144 WEAVER STREET", "city": "CAMBRIDGE", "province": "ON", "country": "CA", "postalCode": "N3C1W4", "twitter": "None", "instagram": "None", "facebook": "None", "youtube": "None", "website": "None", "summary": "None", "logo": "None", "latitude": 43.42247568359401, "longitude": -80.3166890794043}, "107951618RR0175": {"name": "THE SALVATION ARMY HIGH POINT COMMUNITY CHURCH", "designationCode": "C", "categoryCode": "40", "address": "949 FULLERTON AVE", "city": "VICTORIA", "province": "BC", "country": "CA", "postalCode": "V9A3Z9", "twitter": "None", "instagram": "None", "facebook": "None", "youtube": "None", "website": "None", "summary": "None", "logo": "None", "latitude": 48.43587566472388, "longitude": -123.38943862888821}, "107951618RR0140": {"name": "THE SALVATION ARMY HIGH RIVER CORPS", "designationCode": "C", "categoryCode": "40", "address": "PO BOX 5430", "city": "HIGH RIVER", "province": "AB", "country": "CA", "postalCode": "T1V1M5", "twitter": "None", "instagram": "None", "facebook": "None", "youtube": "None", "website": "None", "summary": "None", "logo": "None", "latitude": 50.57803500000006, "longitude": -113.85914299999993}, "107951618RR0538": {"name": "THE SALVATION ARMY HOPE COMMUNITY CHURCH", "designationCode": "C", "categoryCode": "40", "address": "35 KING'S CRESCENT", "city": "AJAX", "province": "ON", "country": "CA", "postalCode": "L1S2L8", "twitter": "None", "instagram": "None", "facebook": "None", "youtube": "None", "website": "None", "summary": "None", "logo": "None", "latitude": 43.8504028859139, "longitude": -79.01864734456696}, "107951618RR0103": {"name": "THE SALVATION ARMY HORWOOD CORPS", "designationCode": "C", "categoryCode": "40", "address": "GENERAL DELIVERY", "city": "HORWOOD", "province": "NL", "country": "CA", "postalCode": "A0G2T0", "twitter": "None", "instagram": "None", "facebook": "None", "youtube": "None", "website": "None", "summary": "None", "logo": "None", "latitude": 49.65735860323326, "longitude": -54.72910840669745}, "107951618RR0414": {"name": "THE SALVATION ARMY HUNTSVILLE CORPS", "designationCode": "C", "categoryCode": "40", "address": "4 MARY ST E", "city": "HUNTSVILLE", "province": "ON", "country": "CA", "postalCode": "P1H1W4", "twitter": "None", "instagram": "None", "facebook": "None", "youtube": "None", "website": "None", "summary": "None", "logo": "None", "latitude": 45.324684794587576, "longitude": -79.2195483392641}, "107951618RR0418": {"name": "THE SALVATION ARMY INGERSOLL COMMUNITY CHURCH", "designationCode": "C", "categoryCode": "09", "address": "194 THAMES STREET SOUTH       THE SALVATION ARMY THRIFT STOR", "city": "INGERSOLL", "province": "ON", "country": "CA", "postalCode": "N5C2T5", "twitter": "None", "instagram": "None", "facebook": "None", "youtube": "None", "website": "None", "summary": "None", "logo": "None", "latitude": 43.036945329549155, "longitude": -80.88135946562869}, "107951618RR0052": {"name": "THE SALVATION ARMY ISLANDVIEW CITADEL CORPS", "designationCode": "C", "categoryCode": "40", "address": "PO BOX 25", "city": "MUSGRAVETOWN", "province": "NL", "country": "CA", "postalCode": "A0C1Z0", "twitter": "None", "instagram": "None", "facebook": "None", "youtube": "None", "website": "None", "summary": "None", "logo": "None", "latitude": 48.42187000000007, "longitude": -53.86576999999994}, "107951618RR0119": {"name": "THE SALVATION ARMY KAMLOOPS COMMUNITY CHURCH", "designationCode": "C", "categoryCode": "40", "address": "344 POPLAR ST", "city": "KAMLOOPS", "province": "BC", "country": "CA", "postalCode": "V2B4B8", "twitter": "None", "instagram": "None", "facebook": "None", "youtube": "None", "website": "None", "summary": "None", "logo": "None", "latitude": 50.69326242215358, "longitude": -120.36372271553452}, "107951618RR0182": {"name": "THE SALVATION ARMY KELOWNA COMMUNITY CHURCH", "designationCode": "C", "categoryCode": "40", "address": "1480 SUTHERLAND AVE", "city": "KELOWNA", "province": "BC", "country": "CA", "postalCode": "V1Y5Y5", "twitter": "None", "instagram": "None", "facebook": "None", "youtube": "None", "website": "None", "summary": "None", "logo": "None", "latitude": 49.88031647547438, "longitude": -119.466272414796}, "107951618RR0204": {"name": "THE SALVATION ARMY KENTVILLE CORPS", "designationCode": "C", "categoryCode": "40", "address": "P.O. BOX 726", "city": "KENTVILLE", "province": "NS", "country": "CA", "postalCode": "B4N3X9", "twitter": "None", "instagram": "None", "facebook": "None", "youtube": "None", "website": "None", "summary": "None", "logo": "None", "latitude": 45.07663200000006, "longitude": -64.49369299999994}, "107951618RR0102": {"name": "THE SALVATION ARMY KING'S POINT CORPS", "designationCode": "C", "categoryCode": "40", "address": "P.O. BOX 9", "city": "KING'S POINT", "province": "NL", "country": "CA", "postalCode": "A0J1H0", "twitter": "None", "instagram": "None", "facebook": "None", "youtube": "None", "website": "None", "summary": "None", "logo": "None", "latitude": 49.58146000000005, "longitude": -56.180439999999976}, "107951618RR0409": {"name": "THE SALVATION ARMY KINGSTON CITADEL CORPS", "designationCode": "C", "categoryCode": "40", "address": "816 CENTENNIAL DRIVE", "city": "KINGSTON", "province": "ON", "country": "CA", "postalCode": "K7M0A4", "twitter": "None", "instagram": "None", "facebook": "None", "youtube": "None", "website": "None", "summary": "None", "logo": "None", "latitude": 44.248820185959936, "longitude": -76.55476784690423}, "107951618RR0520": {"name": "THE SALVATION ARMY KINGSTON HARBOUR LIGHT CENTRE", "designationCode": "C", "categoryCode": "01", "address": "562 PRINCESS ST", "city": "KINGSTON", "province": "ON", "country": "CA", "postalCode": "K7L1C7", "twitter": "None", "instagram": "None", "facebook": "None", "youtube": "None", "website": "None", "summary": "None", "logo": "None", "latitude": 44.23569063307181, "longitude": -76.49864092590448}, "107951618RR0271": {"name": "THE SALVATION ARMY KIRKLAND LAKE COMMUNITY CHURCH", "designationCode": "C", "categoryCode": "40", "address": "6 SYLVANITE AVE.              P.O. BOX 424", "city": "KIRKLAND LAKE", "province": "ON", "country": "CA", "postalCode": "P2N3J1", "twitter": "None", "instagram": "None", "facebook": "None", "youtube": "None", "website": "None", "summary": "None", "logo": "None", "latitude": 48.15520068642199, "longitude": -80.02487033319134}, "107951618RR0277": {"name": "THE SALVATION ARMY KITCHENER COMMUNITY CHURCH", "designationCode": "C", "categoryCode": "40", "address": "75 TILLSLEY DR.", "city": "KITCHENER", "province": "ON", "country": "CA", "postalCode": "N2E3T1", "twitter": "None", "instagram": "None", "facebook": "None", "youtube": "None", "website": "None", "summary": "None", "logo": "None", "latitude": 43.408958608344655, "longitude": -80.49826033651686}}