{"119153559RR0001": {"name": "SOCIETE DE ST-VINCENT DE PAUL CONFERENCE ST-FRANCOIS D'ASSISE", "designationCode": "C", "categoryCode": "09", "address": "6104 AV SILVERBIRCH", "city": "ORL\u00c9ANS", "province": "ON", "country": "CA", "postalCode": "K1W1C5", "twitter": "None", "instagram": "None", "facebook": "None", "youtube": "None", "website": "None", "summary": "None", "logo": "None", "latitude": 45.44218570716733, "longitude": -75.52879501803339}, "132410671RR0058": {"name": "SOCIETE DE ST-VINCENT DE PAUL DE LAUZON", "designationCode": "C", "categoryCode": "09", "address": "291 RUE SAINT-JOSEPH", "city": "LEVIS", "province": "QC", "country": "CA", "postalCode": "G6V1G3", "twitter": "None", "instagram": "None", "facebook": "None", "youtube": "None", "website": "None", "summary": "None", "logo": "None", "latitude": 46.82602466613752, "longitude": -71.16470130740362}, "132410671RR0041": {"name": "SOCIETE DE ST-VINCENT DE PAUL DE MONTREAL (CONFERENCE ND DE BONSECOURS)", "designationCode": "C", "categoryCode": "09", "address": "427 RUE DE LA COMMUNE", "city": "MONTREAL", "province": "QC", "country": "CA", "postalCode": "H2Y1J4", "twitter": "None", "instagram": "None", "facebook": "None", "youtube": "None", "website": "None", "summary": "None", "logo": "None", "latitude": 45.51012854899297, "longitude": -73.55057289275187}, "891620262RR0001": {"name": "SOCIETE DE ST-VINCENT DE PAUL, CONFERENCE ST-ALEXANDRE DE LIMBOUR", "designationCode": "C", "categoryCode": "09", "address": "1 RUE DES ERABLES", "city": "GATINEAU", "province": "QC", "country": "CA", "postalCode": "J8V1C1", "twitter": "None", "instagram": "None", "facebook": "None", "youtube": "None", "website": "None", "summary": "None", "logo": "None", "latitude": 45.493282729384326, "longitude": -75.75289304013484}, "136472735RR0001": {"name": "SOCIETE DE VERDISSEMENT DU MONTREAL METROPOLITAIN", "designationCode": "C", "categoryCode": "53", "address": "5570 AV.CASGRAIN, 3E \u00c9TAGE", "city": "MONTR\u00c9AL", "province": "QC", "country": "CA", "postalCode": "H2T1X9", "twitter": "None", "instagram": "None", "facebook": "None", "youtube": "None", "website": "None", "summary": "None", "logo": "None", "latitude": 45.527317942812715, "longitude": -73.59842339468511}, "891749046RR0001": {"name": "SOCIETE DES AMIS DE GOETHE INC GOETHE'S FRIENDS SOCIETY INC", "designationCode": "C", "categoryCode": "22", "address": "1626, BOUL. SAINT-LAURENT     BUREAU 100", "city": "MONTREAL", "province": "QC", "country": "CA", "postalCode": "H2X2T1", "twitter": "None", "instagram": "None", "facebook": "None", "youtube": "None", "website": "None", "summary": "None", "logo": "None", "latitude": 45.5106539866698, "longitude": -73.56553360228511}, "119153351RR0001": {"name": "SOCIETE DES AMIS DU JARDIN VANDEN HENDE INC.", "designationCode": "C", "categoryCode": "52", "address": "2480 BOUL. HOCHELAGA          LOCAL 1246", "city": "QU\u00c9BEC", "province": "QC", "country": "CA", "postalCode": "G1V0A6", "twitter": "None", "instagram": "None", "facebook": "None", "youtube": "None", "website": "None", "summary": "None", "logo": "None", "latitude": 46.77554878019498, "longitude": -71.27920509660096}, "870640604RR0001": {"name": "SOCIETE DES CONCERTS BIC ST-FABIEN", "designationCode": "C", "categoryCode": "22", "address": "88 PLACE DE L'\u00c9GLISE", "city": "LE BIC", "province": "QC", "country": "CA", "postalCode": "G0L1B0", "twitter": "None", "instagram": "None", "facebook": "None", "youtube": "None", "website": "None", "summary": "None", "logo": "None", "latitude": 48.37083833250618, "longitude": -68.70479665488479}, "119153419RR0001": {"name": "SOCIETE DES MELOMANES DE L'ABITIBI-TEMISCAMINGUE", "designationCode": "C", "categoryCode": "22", "address": "C.P. 2305", "city": "ROUYN-NORANDA", "province": "QC", "country": "CA", "postalCode": "J9X5A9", "twitter": "None", "instagram": "None", "facebook": "None", "youtube": "None", "website": "None", "summary": "None", "logo": "None", "latitude": 48.237252000000055, "longitude": -79.01455399999993}, "141440875RR0001": {"name": "SOCIETE DES MISSIONNAIRES DES SAINTS-APOTRES", "designationCode": "C", "categoryCode": "38", "address": "8594 RUE BERRI", "city": "MONTREAL", "province": "QC", "country": "CA", "postalCode": "H2P2G4", "twitter": "None", "instagram": "None", "facebook": "None", "youtube": "None", "website": "None", "summary": "None", "logo": "None", "latitude": 45.54544806076531, "longitude": -73.63661804330883}, "104911235RR0001": {"name": "SOCIETE DES MISSIONNAIRES DES SAINTS-APOTRES-PROVINCE DU CANADA", "designationCode": "C", "categoryCode": "46", "address": "3719 BOUL GOUIN EST", "city": "MONTREAL-NORD", "province": "QC", "country": "CA", "postalCode": "H1H5L8", "twitter": "None", "instagram": "None", "facebook": "None", "youtube": "None", "website": "None", "summary": "None", "logo": "None", "latitude": 45.593507702752575, "longitude": -73.64833820959058}, "107988503RR0001": {"name": "SOCIETE DES MISSIONS AFRICAINES", "designationCode": "C", "categoryCode": "47", "address": "10759 GRANDE-ALLEE", "city": "MONTREAL", "province": "QC", "country": "CA", "postalCode": "H3L2M8", "twitter": "None", "instagram": "None", "facebook": "None", "youtube": "None", "website": "None", "summary": "None", "logo": "None", "latitude": 45.55167613989669, "longitude": -73.67149006400356}, "107988511RR0001": {"name": "SOCIETE DES MISSIONS ETRANGERES DE LA PROVINCE DE QUEBEC", "designationCode": "C", "categoryCode": "47", "address": "180, PLACE JUGE-DESNOYERS", "city": "LAVAL", "province": "QC", "country": "CA", "postalCode": "H7G1A4", "twitter": "None", "instagram": "None", "facebook": "None", "youtube": "None", "website": "None", "summary": "None", "logo": "None", "latitude": 45.562137598966906, "longitude": -73.67403434087336}, "131634933RR0001": {"name": "SOCIETE DES PARENTS DE L'ECOLE SAINTE-MARGUERITE-BOURGEOYS DE CALGARY", "designationCode": "C", "categoryCode": "29", "address": "4700 RICHARD ROAD SW", "city": "CALGARY", "province": "AB", "country": "CA", "postalCode": "T3E6L1", "twitter": "None", "instagram": "None", "facebook": "None", "youtube": "None", "website": "None", "summary": "None", "logo": "None", "latitude": 51.01187673521272, "longitude": -114.12281823729018}, "863598959RR0001": {"name": "SOCIETE DES PARENTS POUR L'EDUCATION FRANCOPHONE DE CANMORE", "designationCode": "C", "categoryCode": "01", "address": "BOX 40018", "city": "CANMORE", "province": "AB", "country": "CA", "postalCode": "T1W3H9", "twitter": "None", "instagram": "None", "facebook": "None", "youtube": "None", "website": "None", "summary": "None", "logo": "None", "latitude": 51.08960400000005, "longitude": -115.36085149999994}, "119153385RR0001": {"name": "SOCIETE DES SOEURS AUXILIATRICES", "designationCode": "C", "categoryCode": "20", "address": "955 BOUL RENE-LEVESQUE E      BUREAU 1209", "city": "MONTREAL", "province": "QC", "country": "CA", "postalCode": "H2L4R2", "twitter": "None", "instagram": "None", "facebook": "None", "youtube": "None", "website": "None", "summary": "None", "logo": "None", "latitude": 45.51560580795191, "longitude": -73.55571544396655}, "119153443RR0001": {"name": "SOCIETE DES SOEURS DES SAINTS APOTRES SOCIETY OF THE SISTERS OF THE HOLY APOSTLES", "designationCode": "C", "categoryCode": "46", "address": "110 - 3461 BOUL GOUIN E", "city": "MONTREAL-NORD", "province": "QC", "country": "CA", "postalCode": "H1H1B2", "twitter": "None", "instagram": "None", "facebook": "None", "youtube": "None", "website": "None", "summary": "None", "logo": "None", "latitude": 45.590547718304485, "longitude": -73.65046688291278}, "119153450RR0001": {"name": "SOCIETE DES SPECIALISTES EN GRAPHOLOGIE DU QUEBEC INC.", "designationCode": "C", "categoryCode": "21", "address": "2060 RUE DES LUCIOLES", "city": "QUEBEC", "province": "QC", "country": "CA", "postalCode": "G1C4B4", "twitter": "None", "instagram": "None", "facebook": "None", "youtube": "None", "website": "None", "summary": "None", "logo": "None", "latitude": 46.89372150678067, "longitude": -71.16701966319465}, "132410671RR0012": {"name": "SOCIETE DESAINT-VINCENT DE-PAUL - CONFERENCE SAINT-FREDERIC,", "designationCode": "C", "categoryCode": "09", "address": "209 RUE D'ARTOIS", "city": "QUEBEC", "province": "QC", "country": "CA", "postalCode": "G1C0E6", "twitter": "None", "instagram": "None", "facebook": "None", "youtube": "None", "website": "None", "summary": "None", "logo": "None", "latitude": 46.887902999999994, "longitude": -71.16476381346314}, "119153989RR0001": {"name": "SOCIETE DU CHRIST SEIGNEUR", "designationCode": "C", "categoryCode": "47", "address": "4100, AV. DE VENDOME", "city": "MONTREAL", "province": "QC", "country": "CA", "postalCode": "H4A3N1", "twitter": "None", "instagram": "None", "facebook": "None", "youtube": "None", "website": "None", "summary": "None", "logo": "None", "latitude": 45.47974292561603, "longitude": -73.61540493620492}, "129121356RR0001": {"name": "SOCIETE DU FOYER MAILLARD", "designationCode": "C", "categoryCode": "01", "address": "1010 ALDERSON AVE", "city": "COQUITLAM", "province": "BC", "country": "CA", "postalCode": "V3K1W1", "twitter": "None", "instagram": "None", "facebook": "None", "youtube": "None", "website": "None", "summary": "None", "logo": "None", "latitude": 49.23970849899039, "longitude": -122.86618119317329}, "119153765RR0001": {"name": "SOCIETE DU GRAND THEATRE DE QUEBEC", "designationCode": "C", "categoryCode": "22", "address": "269 BOUL. RENE-LEVESQUE EST", "city": "QUEBEC", "province": "QC", "country": "CA", "postalCode": "G1R2B3", "twitter": "None", "instagram": "None", "facebook": "None", "youtube": "None", "website": "None", "summary": "None", "logo": "None", "latitude": 46.80651293807555, "longitude": -71.22246997222109}, "123558231RR0001": {"name": "SOCIETE DU MUSEE DU GRAND CHATEAUGUAY", "designationCode": "C", "categoryCode": "50", "address": "54 BOUL SALABERRY SUD", "city": "CHATEAUGUAY", "province": "QC", "country": "CA", "postalCode": "J6J4J3", "twitter": "None", "instagram": "None", "facebook": "None", "youtube": "None", "website": "None", "summary": "None", "logo": "None", "latitude": 45.36201018073712, "longitude": -73.74849505548518}, "892644568RR0001": {"name": "SOCIETE DU PATRIMOINE DE BOUCHERVILLE", "designationCode": "C", "categoryCode": "52", "address": "566 BOUL. MARIE-VICTORIN", "city": "BOUCHERVILLE", "province": "QC", "country": "CA", "postalCode": "J4B1X1", "twitter": "None", "instagram": "None", "facebook": "None", "youtube": "None", "website": "None", "summary": "None", "logo": "None", "latitude": 45.61282662753189, "longitude": -73.45636089200207}, "866001555RR0001": {"name": "SOCIETE DU PATRIMOINE DE SAINTE-CLAIRE", "designationCode": "C", "categoryCode": "50", "address": "108, RUE PRINCIPALE", "city": "SAINTE-CLAIRE", "province": "QC", "country": "CA", "postalCode": "G0R2V0", "twitter": "None", "instagram": "None", "facebook": "None", "youtube": "None", "website": "None", "summary": "None", "logo": "None", "latitude": 46.5984368198398, "longitude": -70.86908560534353}, "119153799RR0001": {"name": "SOCIETE DU PATRIMOINE DE STE-JUSTINE DE LANGEVIN", "designationCode": "C", "categoryCode": "52", "address": "700 RTE 204 EST               CP 411", "city": "SAINTE-JUSTINE", "province": "QC", "country": "CA", "postalCode": "G0R1Y0", "twitter": "None", "instagram": "None", "facebook": "None", "youtube": "None", "website": "None", "summary": "None", "logo": "None", "latitude": 46.427183482538396, "longitude": -70.32414238201336}, "127698595RR0001": {"name": "SOCIETE DU PATRIMOINE DES BEAUCERONS", "designationCode": "C", "categoryCode": "52", "address": "139, STE-CHRISTINE, SUITE 400", "city": "ST-JOSEPH DE BEAUCE", "province": "QC", "country": "CA", "postalCode": "G0S2V0", "twitter": "None", "instagram": "None", "facebook": "None", "youtube": "None", "website": "None", "summary": "None", "logo": "None", "latitude": 46.311029452709114, "longitude": -70.88189662132814}, "119153807RR0002": {"name": "SOCIETE DU VERBE DIVIN", "designationCode": "C", "categoryCode": "09", "address": "1019 RUE COWIE", "city": "GRANBY", "province": "QC", "country": "CA", "postalCode": "J2J0J2", "twitter": "None", "instagram": "None", "facebook": "None", "youtube": "None", "website": "None", "summary": "None", "logo": "None"}, "128173531RR0001": {"name": "SOCIETE ELIZABETH FRY DU QUEBEC", "designationCode": "C", "categoryCode": "59", "address": "5105 CH DE LA COTE ST-ANTOINE", "city": "MONTREAL", "province": "QC", "country": "CA", "postalCode": "H4A1N8", "twitter": "None", "instagram": "None", "facebook": "None", "youtube": "None", "website": "None", "summary": "None", "logo": "None", "latitude": 45.478330322522844, "longitude": -73.61105076591247}, "102974441RR0001": {"name": "SOCIETE EMMANUEL GREGOIRE INC.", "designationCode": "C", "categoryCode": "09", "address": "11931, NOTRE-DAME EST", "city": "MONTREAL", "province": "QC", "country": "CA", "postalCode": "H1B2Y4", "twitter": "None", "instagram": "None", "facebook": "None", "youtube": "None", "website": "None", "summary": "None", "logo": "None", "latitude": 45.63863459285005, "longitude": -73.49087284225834}, "873739502RR0001": {"name": "SOCIETE FAIM D'AIDER - HUNGRY TO HELP CORPORATION", "designationCode": "C", "categoryCode": "09", "address": "564 RUE FORAN", "city": "GATINEAU", "province": "QC", "country": "CA", "postalCode": "J9H5M2", "twitter": "None", "instagram": "None", "facebook": "None", "youtube": "None", "website": "None", "summary": "None", "logo": "None", "latitude": 45.4052454410237, "longitude": -75.84231413194664}, "133713966RR0001": {"name": "SOCIETE FORMONS UNE FAMILLE INC", "designationCode": "C", "categoryCode": "09", "address": "480 BOUL. ROLAND THERRIEN", "city": "LONGUEUIL", "province": "QC", "country": "CA", "postalCode": "J4H3V9", "twitter": "None", "instagram": "None", "facebook": "None", "youtube": "None", "website": "None", "summary": "None", "logo": "None", "latitude": 45.545967976109544, "longitude": -73.4929690935712}, "852857531RR0001": {"name": "SOCIETE FRANCO-ONTARIENNE DE L'AUTISME", "designationCode": "C", "categoryCode": "11", "address": "105-240 BOULEVARD CENTRUM", "city": "OTTAWA", "province": "ON", "country": "CA", "postalCode": "K1E3J4", "twitter": "None", "instagram": "None", "facebook": "None", "youtube": "None", "website": "None", "summary": "None", "logo": "None", "latitude": 45.48003640850626, "longitude": -75.51148782232129}, "119153856RR0001": {"name": "SOCIETE HISTORIQUE DE LA COTE-DU-SUD", "designationCode": "C", "categoryCode": "50", "address": "100 4E AVE", "city": "LA POCATIE", "province": "QC", "country": "CA", "postalCode": "G0R1Z0", "twitter": "None", "instagram": "None", "facebook": "None", "youtube": "None", "website": "None", "summary": "None", "logo": "None", "latitude": 47.10676469398195, "longitude": -70.35291647535396}, "119153872RR0001": {"name": "SOCIETE HISTORIQUE DE LA SASKATCHEWAN", "designationCode": "C", "categoryCode": "50", "address": "214 - 1440 9TH AVE N", "city": "REGINA", "province": "SK", "country": "CA", "postalCode": "S4R8B1", "twitter": "None", "instagram": "None", "facebook": "None", "youtube": "None", "website": "None", "summary": "None", "logo": "None", "latitude": 50.48436162943955, "longitude": -104.60420550061788}, "890400435RR0001": {"name": "SOCIETE HISTORIQUE DE LA TUQUE ET DU HAUT ST-MAURICE", "designationCode": "C", "categoryCode": "50", "address": "CP 862 SUCC BUREAU-CHEF", "city": "LA TUQUE", "province": "QC", "country": "CA", "postalCode": "G9X3P6", "twitter": "None", "instagram": "None", "facebook": "None", "youtube": "None", "website": "None", "summary": "None", "logo": "None", "latitude": 47.43777300000005, "longitude": -72.78446149999994}, "119007870RR0001": {"name": "SOCIETE HISTORIQUE DE LA VALLEE DE LA GATINEAU / GATINEAU VALLEY HISTORICAL SOCIETY", "designationCode": "C", "categoryCode": "50", "address": "BOX 1803", "city": "CHELSEA", "province": "QC", "country": "CA", "postalCode": "J9B1A1", "twitter": "None", "instagram": "None", "facebook": "None", "youtube": "None", "website": "None", "summary": "None", "logo": "None", "latitude": 45.52696500000006, "longitude": -75.80437099999993}, "120310859RR0001": {"name": "SOCIETE HISTORIQUE DE SAINT-ANICET", "designationCode": "C", "categoryCode": "50", "address": "8651, BOUL.CLOUTIER", "city": "QU\u00c9BEC", "province": "QC", "country": "CA", "postalCode": "G1G4Z7", "twitter": "None", "instagram": "None", "facebook": "None", "youtube": "None", "website": "None", "summary": "None", "logo": "None", "latitude": 46.863961217611994, "longitude": -71.2763929683766}, "865647515RR0001": {"name": "SOCIETE HISTORIQUE DE SAINT-NICHOLAS ET BERNIERES", "designationCode": "C", "categoryCode": "50", "address": "1450, RUE DES PIONNIERS", "city": "SAINT-NICOLAS", "province": "QC", "country": "CA", "postalCode": "G7A4L6", "twitter": "None", "instagram": "None", "facebook": "None", "youtube": "None", "website": "None", "summary": "None", "logo": "None", "latitude": 46.70204434390314, "longitude": -71.4019051722257}, "894219088RR0001": {"name": "SOCIETE HISTORIQUE DE ST-ANDRE-AVELLIN INC.", "designationCode": "C", "categoryCode": "50", "address": "20 BOURGEOIS", "city": "ST-ANDRE-AVELLIN", "province": "QC", "country": "CA", "postalCode": "J0V1W0", "twitter": "None", "instagram": "None", "facebook": "None", "youtube": "None", "website": "None", "summary": "None", "logo": "None", "latitude": 45.723418259795636, "longitude": -75.05626511298959}, "895223584RR0001": {"name": "SOCIETE HISTORIQUE DE ST-HENRI", "designationCode": "C", "categoryCode": "50", "address": "521 PLACE SAINT-HENRI", "city": "MONTREAL", "province": "QC", "country": "CA", "postalCode": "H4C2S1", "twitter": "None", "instagram": "None", "facebook": "None", "youtube": "None", "website": "None", "summary": "None", "logo": "None", "latitude": 45.47765009383102, "longitude": -73.58539057977967}, "107599730RR0001": {"name": "SOCIETE HISTORIQUE DU MARIGOT INC.", "designationCode": "C", "categoryCode": "50", "address": "440 CHEMIN DE CHAMBLY", "city": "LONGUEUIL", "province": "QC", "country": "CA", "postalCode": "J4H3L7", "twitter": "None", "instagram": "None", "facebook": "None", "youtube": "None", "website": "None", "summary": "None", "logo": "None", "latitude": 45.538541582001365, "longitude": -73.50372230933687}, "119153906RR0001": {"name": "SOCIETE HISTORIQUE DU PONTIAC / PONTIAC HISTORICAL SOCIETY", "designationCode": "C", "categoryCode": "50", "address": "210 LAKE STREET               P.O. BOX 1036", "city": "SHAWVILLE", "province": "QC", "country": "CA", "postalCode": "J0X2Y0", "twitter": "None", "instagram": "None", "facebook": "None", "youtube": "None", "website": "None", "summary": "None", "logo": "None", "latitude": 45.60376592118423, "longitude": -76.48773089051683}, "119153914RR0001": {"name": "SOCIETE HISTORIQUE ET GENEALOGIQUE DE SMOKY RIVER ALBERTA", "designationCode": "C", "categoryCode": "50", "address": "BOX 224", "city": "DONNELLY", "province": "AB", "country": "CA", "postalCode": "T0H1G0", "twitter": "None", "instagram": "None", "facebook": "None", "youtube": "None", "website": "None", "summary": "None", "logo": "None", "latitude": 55.73102000000006, "longitude": -117.10546}, "119153948RR0001": {"name": "SOCIETE HISTORIQUE NICOLAS DENYS", "designationCode": "C", "categoryCode": "50", "address": "218 BOUL. J.D. GAUTHIER", "city": "SHIPPAGAN", "province": "NB", "country": "CA", "postalCode": "E8S1P6", "twitter": "None", "instagram": "None", "facebook": "None", "youtube": "None", "website": "None", "summary": "None", "logo": "None", "latitude": 47.744817000000054, "longitude": -64.71168199999994}, "119153955RR0001": {"name": "SOCIETE HUNTINGTON DU QUEBEC", "designationCode": "C", "categoryCode": "01", "address": "2300 BOUL RENE-LEVESQUE OUEST", "city": "MONTREAL", "province": "QC", "country": "CA", "postalCode": "H3H2R5", "twitter": "None", "instagram": "None", "facebook": "None", "youtube": "None", "website": "None", "summary": "None", "logo": "None", "latitude": 45.4883134726471, "longitude": -73.58219016804209}, "144314523RR0001": {"name": "SOCIETE IMMOBILIERE LAUBERIVIERE", "designationCode": "C", "categoryCode": "09", "address": "401 RUE SAINT-PAUL            C.P. 100 STATION B", "city": "QUEBEC", "province": "QC", "country": "CA", "postalCode": "G1K7A1", "twitter": "None", "instagram": "None", "facebook": "None", "youtube": "None", "website": "None", "summary": "None", "logo": "None", "latitude": 46.81652552120739, "longitude": -71.2148535}, "859139925RR0001": {"name": "SOCIETE INFORM'ELLES SOCIETY", "designationCode": "C", "categoryCode": "09", "address": "804 - 1176 BURNABY ST", "city": "VANCOUVER", "province": "BC", "country": "CA", "postalCode": "V6E1P1", "twitter": "None", "instagram": "None", "facebook": "None", "youtube": "None", "website": "None", "summary": "None", "logo": "None", "latitude": 49.28078087203543, "longitude": -123.13402949420028}, "887564151RR0001": {"name": "SOCIETE INTERNATIONALE DU BANGLADESH / INTERNATIONAL SOCIETYOF BANGLADESH", "designationCode": "C", "categoryCode": "09", "address": "SS-05                         419 ST ROCH", "city": "MONTREAL", "province": "QC", "country": "CA", "postalCode": "H3N1K2", "twitter": "None", "instagram": "None", "facebook": "None", "youtube": "None", "website": "None", "summary": "None", "logo": "None", "latitude": 45.53121014293955, "longitude": -73.62847271830448}, "139643316RR0001": {"name": "SOCIETE LOGIQUE INC.", "designationCode": "C", "categoryCode": "09", "address": "3210 RUE RACHEL EST", "city": "MONTR\u00c9AL", "province": "QC", "country": "CA", "postalCode": "H1W1A4", "twitter": "None", "instagram": "None", "facebook": "None", "youtube": "None", "website": "None", "summary": "None", "logo": "None", "latitude": 45.54509859977498, "longitude": -73.56075334150853}, "895380426RR0001": {"name": "SOCIETE LUCOISE DES PERSONNES HANDICAPEES ACTIVES", "designationCode": "C", "categoryCode": "11", "address": "C.P. 6091", "city": "ST JEAN SUR RICHELIEU", "province": "QC", "country": "CA", "postalCode": "J2W2A1", "twitter": "None", "instagram": "None", "facebook": "None", "youtube": "None", "website": "None", "summary": "None", "logo": "None", "latitude": 45.30610500000006, "longitude": -73.25031049999993}, "134525898RR0001": {"name": "SOCIETE MISSIONNAIRE VISION GLOBALE", "designationCode": "C", "categoryCode": "47", "address": "34 BOUL. BOUTHILLIER", "city": "ROSEMERE", "province": "QC", "country": "CA", "postalCode": "J7A3V1", "twitter": "None", "instagram": "None", "facebook": "None", "youtube": "None", "website": "None", "summary": "None", "logo": "None", "latitude": 45.6283090874308, "longitude": -73.82157613387396}, "888949047RR0001": {"name": "SOCIETE MONTREALAISE DES JEUX DES HIGHLAND/THE MONTREAL HIGHLAND GAMES SOCIETY", "designationCode": "C", "categoryCode": "22", "address": "1610 RUE STEPHENS", "city": "VERDUN", "province": "QC", "country": "CA", "postalCode": "H4H2H3", "twitter": "None", "instagram": "None", "facebook": "None", "youtube": "None", "website": "None", "summary": "None", "logo": "None", "latitude": 45.44628720286816, "longitude": -73.5895209908534}, "119154011RR0001": {"name": "SOCIETE NOTRE-DAME-DE-TOUTES-GRACES", "designationCode": "C", "categoryCode": "49", "address": "516 BRUNELLE", "city": "GRANBY", "province": "QC", "country": "CA", "postalCode": "J2G9C1", "twitter": "None", "instagram": "None", "facebook": "None", "youtube": "None", "website": "None", "summary": "None", "logo": "None", "latitude": 45.388205957816346, "longitude": -72.73016071169668}, "839568920RR0001": {"name": "SOCIETE PATRIMOINE ET HISTOIRE DE L'ILE BIZARD ET SAINTE-GENEVIEVE", "designationCode": "C", "categoryCode": "50", "address": "13, RUE CHAURET", "city": "SAINT-GENEVIEVE", "province": "QC", "country": "CA", "postalCode": "H9H2X2", "twitter": "None", "instagram": "None", "facebook": "None", "youtube": "None", "website": "None", "summary": "None", "logo": "None", "latitude": 45.481064079404284, "longitude": -73.86885752481408}, "104917521RR0001": {"name": "SOCIETE PHILHARMONIQUE DE MONTREAL", "designationCode": "C", "categoryCode": "22", "address": "300 EST BLVD DE MAISONNEUVE", "city": "MONTREAL", "province": "QC", "country": "CA", "postalCode": "H2X3X6", "twitter": "None", "instagram": "None", "facebook": "None", "youtube": "None", "website": "None", "summary": "None", "logo": "None", "latitude": 45.51385351289752, "longitude": -73.56236553147917}, "863522934RR0001": {"name": "SOCIETE PLACE MAILLARDVILLE SOCIETY", "designationCode": "C", "categoryCode": "56", "address": "1200 CARTIER AVE", "city": "COQUITLAM", "province": "BC", "country": "CA", "postalCode": "V3K2C3", "twitter": "None", "instagram": "None", "facebook": "None", "youtube": "None", "website": "None", "summary": "None", "logo": "None", "latitude": 49.24124254284749, "longitude": -122.85855111073923}, "893161562RR0001": {"name": "SOCIETE POUR ANIMAUX ST-MARTIN DE PORES", "designationCode": "C", "categoryCode": "54", "address": "3213-10 AVENUE", "city": "RAWDON", "province": "QC", "country": "CA", "postalCode": "J0K1S0", "twitter": "None", "instagram": "None", "facebook": "None", "youtube": "None", "website": "None", "summary": "None", "logo": "None", "latitude": 46.047816355271436, "longitude": -73.7164709407639}, "898225941RR0001": {"name": "SOCIETE POUR LA CONSERVATION DE LA TOURBIERE DE LANORAIE", "designationCode": "C", "categoryCode": "59", "address": "361 C NOTRE-DAME", "city": "LANORAIE", "province": "QC", "country": "CA", "postalCode": "J0K1E0", "twitter": "None", "instagram": "None", "facebook": "None", "youtube": "None", "website": "None", "summary": "None", "logo": "None", "latitude": 45.95816735472319, "longitude": -73.22022660245801}, "119154029RR0001": {"name": "SOCIETE POUR LA PR\u00c9VENTION DE LA CRUAUTE ENVERS LES ANIMAUX DE ROUYN-NORANDA INC.", "designationCode": "C", "categoryCode": "54", "address": "803 AVE GRANADA", "city": "ROUYN-NORANDA", "province": "QC", "country": "CA", "postalCode": "J9X7B3", "twitter": "None", "instagram": "None", "facebook": "None", "youtube": "None", "website": "None", "summary": "None", "logo": "None", "latitude": 48.220130073835726, "longitude": -79.02365295747057}, "873026611RR0001": {"name": "SOCIETE POUR LA SAUVEGARDE DU PATRIMOINE DE POINTE-CLAIRE", "designationCode": "C", "categoryCode": "50", "address": "46 DE BRESLAY", "city": "POINTE CLAIRE", "province": "QC", "country": "CA", "postalCode": "H9S4N1", "twitter": "None", "instagram": "None", "facebook": "None", "youtube": "None", "website": "None", "summary": "None", "logo": "None", "latitude": 45.43152084179702, "longitude": -73.83087410090015}, "104917661RR0001": {"name": "SOCIETE POUR LE DEVELOPPEMENT DES ONDES MUSICALES", "designationCode": "C", "categoryCode": "22", "address": "5, DE LAPERRI\u00c8RE NORD", "city": "BOUCHERVILLE", "province": "QC", "country": "CA", "postalCode": "J4B4W1", "twitter": "None", "instagram": "None", "facebook": "None", "youtube": "None", "website": "None", "summary": "None", "logo": "None", "latitude": 45.61313100000005, "longitude": -73.45565899999994}, "107990095RR0001": {"name": "SOCIETE POUR LES ENFANTS HANDICAPES DU QUEBEC-QUEBEC SOCIETY FOR DISABLED CHILDREN", "designationCode": "C", "categoryCode": "11", "address": "2300 BOUL REN\u00c9-LEVESQUE O", "city": "MONTR\u00c9AL", "province": "QC", "country": "CA", "postalCode": "H3H2R5", "twitter": "None", "instagram": "None", "facebook": "None", "youtube": "None", "website": "None", "summary": "None", "logo": "None", "latitude": 45.4883134726471, "longitude": -73.58219016804209}, "830600474RR0001": {"name": "SOCIETE POUR UN MONDE DIGNE DES ENFANTS", "designationCode": "C", "categoryCode": "09", "address": "606-2038 RUE DE BULLION", "city": "MONTREAL", "province": "QC", "country": "CA", "postalCode": "H2X3Z3", "twitter": "None", "instagram": "None", "facebook": "None", "youtube": "None", "website": "None", "summary": "None", "logo": "None", "latitude": 45.51313781903175, "longitude": -73.56712593173286}, "107990145RR0002": {"name": "SOCIETE PRO MUSICA INC.", "designationCode": "C", "categoryCode": "22", "address": "2 - 4672 RUE SAINT-DENIS", "city": "MONTREAL", "province": "QC", "country": "CA", "postalCode": "H2J2L3", "twitter": "None", "instagram": "None", "facebook": "None", "youtube": "None", "website": "None", "summary": "None", "logo": "None", "latitude": 45.52498986620703, "longitude": -73.5852055849442}, "861134609RR0001": {"name": "SOCIETE PROTECTRICE DES ANIMAUX BEAUCE-ETCHEMIN", "designationCode": "C", "categoryCode": "54", "address": "733, RTE DU PR\u00c9SIDENT KENNEDY", "city": "BEAUCEVILLE", "province": "QC", "country": "CA", "postalCode": "G5X1C2", "twitter": "None", "instagram": "None", "facebook": "None", "youtube": "None", "website": "None", "summary": "None", "logo": "None", "latitude": 46.19899473270254, "longitude": -70.76073947766741}, "128030988RR0001": {"name": "SOCIETE PROTECTRICE DES ANIMAUX DE CHARLEVOIX INC", "designationCode": "C", "categoryCode": "54", "address": "584 CHEMIN DE LA VALLEE", "city": "RIVIERE-MALBAIE", "province": "QC", "country": "CA", "postalCode": "G5A1C6", "twitter": "None", "instagram": "None", "facebook": "None", "youtube": "None", "website": "None", "summary": "None", "logo": "None", "latitude": 47.68284185874132, "longitude": -70.18343239352699}, "119154086RR0001": {"name": "SOCIETE PROTECTRICE DES ANIMAUX DE L'ESTRIE", "designationCode": "C", "categoryCode": "54", "address": "1139 QUEEN VICTORIA", "city": "SHERBROOKE", "province": "QC", "country": "CA", "postalCode": "J1J4N5", "twitter": "None", "instagram": "None", "facebook": "None", "youtube": "None", "website": "None", "summary": "None", "logo": "None", "latitude": 45.41626471106247, "longitude": -71.90598444578421}, "131610669RR0001": {"name": "SOCIETE PROVANCHER D'HISTOIRE NATURELLE DU CANADA", "designationCode": "C", "categoryCode": "52", "address": "1400, ROUTE DE L'A\u00c9ROPORT", "city": "QU\u00c9BEC", "province": "QC", "country": "CA", "postalCode": "G2G1G7", "twitter": "None", "instagram": "None", "facebook": "None", "youtube": "None", "website": "None", "summary": "None", "logo": "None", "latitude": 46.79254194537995, "longitude": -71.36051012648346}, "120301536RR0001": {"name": "SOCIETE QUEBECOISE D'ESPERANTO", "designationCode": "C", "categoryCode": "29", "address": "6595 RUE BRIAND", "city": "MONTREAL", "province": "QC", "country": "CA", "postalCode": "H4E3L4", "twitter": "None", "instagram": "None", "facebook": "None", "youtube": "None", "website": "None", "summary": "None", "logo": "None", "latitude": 45.452934964193, "longitude": -73.5929949429856}, "893338566RR0001": {"name": "SOCIETE QUEBECOISE D'OPERA-CONCERT", "designationCode": "C", "categoryCode": "22", "address": "12101 POINCAR\u00c9", "city": "MONTR\u00c9AL", "province": "QC", "country": "CA", "postalCode": "H3L3M1", "twitter": "None", "instagram": "None", "facebook": "None", "youtube": "None", "website": "None", "summary": "None", "logo": "None", "latitude": 45.545908797131844, "longitude": -73.69533534442273}, "893880682RR0001": {"name": "SOCIETE QUEBECOISE DE LA SCHIZOPHRENIE", "designationCode": "C", "categoryCode": "09", "address": "7401 RUE HOCHELAGA", "city": "MONTREAL", "province": "QC", "country": "CA", "postalCode": "H1N3M5", "twitter": "None", "instagram": "None", "facebook": "None", "youtube": "None", "website": "None", "summary": "None", "logo": "None", "latitude": 45.58796090454684, "longitude": -73.52661364261519}, "857763577RR0001": {"name": "SOCIETE QUEBECOISE DE LA TRISOMIE-21", "designationCode": "C", "categoryCode": "11", "address": "3005 RUE DES DUNES", "city": "TERREBONNE", "province": "QC", "country": "CA", "postalCode": "J6X4P4", "twitter": "None", "instagram": "None", "facebook": "None", "youtube": "None", "website": "None", "summary": "None", "logo": "None", "latitude": 45.71416654371285, "longitude": -73.68865223899228}, "895582609RR0001": {"name": "SOCIETE QUEBECOISE DE LIPIDOLOGIE, DE NUTRITION ET DE METABOLISME INC.", "designationCode": "C", "categoryCode": "19", "address": "2705, BOULEVARD LAURIER       BUREAU T-R-93", "city": "SAINTE-FOY", "province": "QC", "country": "CA", "postalCode": "G1V4G2", "twitter": "None", "instagram": "None", "facebook": "None", "youtube": "None", "website": "None", "summary": "None", "logo": "None", "latitude": 46.76955306327547, "longitude": -71.28357752677597}, "124802372RR0001": {"name": "SOCIETE QUEBECOISE DE SPELEOLOGIE", "designationCode": "C", "categoryCode": "23", "address": "4545 AV. PIERRE-DE-COUBERTIN  C.P.1000, SUCC.M", "city": "MONTR\u00c9AL", "province": "QC", "country": "CA", "postalCode": "H1V3R2", "twitter": "None", "instagram": "None", "facebook": "None", "youtube": "None", "website": "None", "summary": "None", "logo": "None", "latitude": 45.555920590080106, "longitude": -73.55036240097485}, "852134121RR0001": {"name": "SOCIETE QUEBECOISE DU SYNDROME D'ANGELMAN", "designationCode": "C", "categoryCode": "11", "address": "1005 RUE GUY", "city": "MONTREAL", "province": "QC", "country": "CA", "postalCode": "H3H2K4", "twitter": "None", "instagram": "None", "facebook": "None", "youtube": "None", "website": "None", "summary": "None", "logo": "None", "latitude": 45.493290144901465, "longitude": -73.57377898776632}, "119154136RR0001": {"name": "SOCIETE QUEBECOISE POUR LA DEFENCE DES ANIMAUX QUEBEC SOCIETY FOR THE DEFENCE OF ANIMALS", "designationCode": "C", "categoryCode": "54", "address": "4 - 2287 AV OLD ORCHARD", "city": "MONTREAL", "province": "QC", "country": "CA", "postalCode": "H4A3A7", "twitter": "None", "instagram": "None", "facebook": "None", "youtube": "None", "website": "None", "summary": "None", "logo": "None", "latitude": 45.471776290322516, "longitude": -73.61213242907847}, "104917927RR0001": {"name": "SOCIETE RESSOURCES-LOISIRS DE POINTE-AUX-TREMBLES INC.", "designationCode": "C", "categoryCode": "56", "address": "12125 EST NOTRE-DAME", "city": "P.A.T.MONTREAL", "province": "QC", "country": "CA", "postalCode": "H1B2Y9", "twitter": "None", "instagram": "None", "facebook": "None", "youtube": "None", "website": "None", "summary": "None", "logo": "None", "latitude": 45.64067987705574, "longitude": -73.49013857836508}, "865264758RR0001": {"name": "SOCIETE RICHARD 111", "designationCode": "C", "categoryCode": "22", "address": "1436, SAINT-CL\u00c9MENT", "city": "MONTR\u00c9AL", "province": "QC", "country": "CA", "postalCode": "H1V3E2", "twitter": "None", "instagram": "None", "facebook": "None", "youtube": "None", "website": "None", "summary": "None", "logo": "None", "latitude": 45.55686128668718, "longitude": -73.53105054192385}, "120839782RR0001": {"name": "SOCIETE RIMOUSKOISE DU PATRIMOINE", "designationCode": "C", "categoryCode": "52", "address": "C-102-22 RUE SAINTE-MARIE", "city": "RIMOUSKI", "province": "QC", "country": "CA", "postalCode": "G5L4E2", "twitter": "None", "instagram": "None", "facebook": "None", "youtube": "None", "website": "None", "summary": "None", "logo": "None", "latitude": 48.449124721911176, "longitude": -68.52907603401799}, "119154276RR0001": {"name": "SOCIETE SAINT ANDRE INC", "designationCode": "C", "categoryCode": "21", "address": "1301 112TH ST", "city": "NORTH BATTLEFORD", "province": "SK", "country": "CA", "postalCode": "S9A2L6", "twitter": "None", "instagram": "None", "facebook": "None", "youtube": "None", "website": "None", "summary": "None", "logo": "None", "latitude": 52.77710758673322, "longitude": -108.2814169055338}, "132410671RR0151": {"name": "SOCIETE SAINT VINCENT DE PAUL CONFERENCE SAINTS-MARTYRS CANADIENS,", "designationCode": "C", "categoryCode": "09", "address": "205 - 265 BOUL RENE-LEVESQUE O", "city": "QUEBEC", "province": "QC", "country": "CA", "postalCode": "G1R2A7", "twitter": "None", "instagram": "None", "facebook": "None", "youtube": "None", "website": "None", "summary": "None", "logo": "None", "latitude": 46.80373466495236, "longitude": -71.22759510960057}, "132410671RR0061": {"name": "SOCIETE SAINT VINCENT DE PAUL CONFERENCE ST ALPHONE", "designationCode": "C", "categoryCode": "09", "address": "34 RUE CR\u00c9PEAU", "city": "VICTORIAVILLE", "province": "QC", "country": "CA", "postalCode": "G6P5P5", "twitter": "None", "instagram": "None", "facebook": "None", "youtube": "None", "website": "None", "summary": "None", "logo": "None", "latitude": 46.052469252553614, "longitude": -71.93405631239528}, "132410671RR0036": {"name": "SOCIETE SAINT VINCENT DE PAUL CONFERENCE VILLE MONTMORENCY", "designationCode": "C", "categoryCode": "09", "address": "560, CHEMIN STE-FOY", "city": "QUEBEC", "province": "QC", "country": "CA", "postalCode": "G1S2J6", "twitter": "None", "instagram": "None", "facebook": "None", "youtube": "None", "website": "None", "summary": "None", "logo": "None", "latitude": 46.802242308644395, "longitude": -71.23655458924338}, "119154219RR0001": {"name": "SOCIETE SAINT-VINCENT-DE-PAUL CONFERENCE SAINTE URSULE", "designationCode": "C", "categoryCode": "09", "address": "3290 RUE ARMAND-HAMELIN", "city": "QUEBEC", "province": "QC", "country": "CA", "postalCode": "G1W2W9", "twitter": "None", "instagram": "None", "facebook": "None", "youtube": "None", "website": "None", "summary": "None", "logo": "None", "latitude": 46.755531154076714, "longitude": -71.30963025872778}, "119154268RR0001": {"name": "SOCIETE SCOGESTION (1982) INC.", "designationCode": "C", "categoryCode": "23", "address": "123 BEECHWOOD AVE", "city": "OTTAWA", "province": "ON", "country": "CA", "postalCode": "K1M1L5", "twitter": "None", "instagram": "None", "facebook": "None", "youtube": "None", "website": "None", "summary": "None", "logo": "None", "latitude": 45.44177361117192, "longitude": -75.67232008050081}, "119154284RR0001": {"name": "SOCIETE ST-DOMINIQUE", "designationCode": "C", "categoryCode": "49", "address": "137 HIGGINSON                 C.P. 63", "city": "VANKLEEK HILL", "province": "ON", "country": "CA", "postalCode": "K0B1R0", "twitter": "None", "instagram": "None", "facebook": "None", "youtube": "None", "website": "None", "summary": "None", "logo": "None", "latitude": 45.52037568443786, "longitude": -74.64699076782463}, "132410671RR0250": {"name": "SOCIETE ST-VINCENT DE PAUL CONFERENCE IMMACULEE- CONCEPTION", "designationCode": "C", "categoryCode": "09", "address": "5403 AVENUE HEMARD", "city": "SAINT-HUBERT", "province": "QC", "country": "CA", "postalCode": "J3Y3G8", "twitter": "None", "instagram": "None", "facebook": "None", "youtube": "None", "website": "None", "summary": "None", "logo": "None", "latitude": 45.492220279473834, "longitude": -73.42663138441333}, "119154375RR0001": {"name": "SOCIETE ST-VINCENT DE PAUL CONFERENCE MASCULINE PAROISSE ST-SACREMENT", "designationCode": "C", "categoryCode": "09", "address": "3 - 255 RUE COLLARD", "city": "ALMA", "province": "QC", "country": "CA", "postalCode": "G8B1M8", "twitter": "None", "instagram": "None", "facebook": "None", "youtube": "None", "website": "None", "summary": "None", "logo": "None", "latitude": 48.54670579130347, "longitude": -71.64650606422775}, "119154391RR0001": {"name": "SOCIETE ST-VINCENT DE PAUL CONFERENCE NOTRE-DAME-DU-FOYER", "designationCode": "C", "categoryCode": "38", "address": "5999 40E AVENUE", "city": "MONTREAL", "province": "QC", "country": "CA", "postalCode": "H1T2V6", "twitter": "None", "instagram": "None", "facebook": "None", "youtube": "None", "website": "None", "summary": "None", "logo": "None", "latitude": 45.571573935916476, "longitude": -73.56606250386648}, "119154334RR0001": {"name": "SOCIETE ST-VINCENT DE PAUL, CONFERENCE ST-DOMINIQUE", "designationCode": "C", "categoryCode": "09", "address": "175 GRANDE ALLEE OUEST", "city": "QUEBEC", "province": "QC", "country": "CA", "postalCode": "G1R2H1", "twitter": "None", "instagram": "None", "facebook": "None", "youtube": "None", "website": "None", "summary": "None", "logo": "None", "latitude": 46.80137147068521, "longitude": -71.22507813734231}, "132410671RR0401": {"name": "SOCIETE ST-VINCENT-DE-PAUL DES TROIS-RIVIERES CONFERENCE ST-JEAN BAPTIST DE LASALLE", "designationCode": "C", "categoryCode": "09", "address": "2580 RUE ROYALE", "city": "TROIS-RIVIERES", "province": "QC", "country": "CA", "postalCode": "G9A4L5", "twitter": "None", "instagram": "None", "facebook": "None", "youtube": "None", "website": "None", "summary": "None", "logo": "None", "latitude": 46.33429938885674, "longitude": -72.54925499365201}, "119154516RR0001": {"name": "SOCIETE ZOOLOGIQUE DE GRANBY INC.", "designationCode": "C", "categoryCode": "50", "address": "525 ST-HUBERT", "city": "GRANBY", "province": "QC", "country": "CA", "postalCode": "J2G5P3", "twitter": "None", "instagram": "None", "facebook": "None", "youtube": "None", "website": "None", "summary": "None", "logo": "None", "latitude": 45.41994514515539, "longitude": -72.72620634775491}, "871555678RR0001": {"name": "SOCIETY ENRICHING EDUCATION AT ALBERT LACOMBE SCHOOL", "designationCode": "C", "categoryCode": "21", "address": "50 GAINSBOROUGH AVE", "city": "ST ALBERT", "province": "AB", "country": "CA", "postalCode": "T8N0W5", "twitter": "None", "instagram": "None", "facebook": "None", "youtube": "None", "website": "None", "summary": "None", "logo": "None", "latitude": 53.61705538386509, "longitude": -113.63140686248478}, "863069894RR0001": {"name": "SOCIETY FOR ADDICTIONS RECOVERY CENTRE IN THE KOOTENAYS", "designationCode": "C", "categoryCode": "09", "address": "3205 LISTER RD", "city": "CRESTON", "province": "BC", "country": "CA", "postalCode": "V0B1G2", "twitter": "None", "instagram": "None", "facebook": "None", "youtube": "None", "website": "None", "summary": "None", "logo": "None", "latitude": 49.05277398084573, "longitude": -116.46377878761581}, "859073777RR0001": {"name": "SOCIETY FOR AFFORDABLE HOUSING EDUCATION, AWARENESS AND DEVELOPMENT", "designationCode": "C", "categoryCode": "29", "address": "220 - 1651 COMMERCIAL DR", "city": "VANCOUVER", "province": "BC", "country": "CA", "postalCode": "V5L3Y3", "twitter": "None", "instagram": "None", "facebook": "None", "youtube": "None", "website": "None", "summary": "None", "logo": "None", "latitude": 49.26981900421005, "longitude": -123.06970496302841}, "134126598RR0001": {"name": "SOCIETY FOR ANIMALS IN DISTRESS (NORTH SHORE)", "designationCode": "C", "categoryCode": "54", "address": "33 PERINI RD", "city": "ELLIOT LAKE", "province": "ON", "country": "CA", "postalCode": "P5A2T1", "twitter": "None", "instagram": "None", "facebook": "None", "youtube": "None", "website": "None", "summary": "None", "logo": "None", "latitude": 46.37745855063776, "longitude": -82.64017319608747}, "126653427RR0001": {"name": "SOCIETY FOR ART PRESENTATION", "designationCode": "C", "categoryCode": "22", "address": "PO BOX 47004 RPO GOTTINGEN ST", "city": "HALIFAX", "province": "NS", "country": "CA", "postalCode": "B3K5Y2", "twitter": "None", "instagram": "None", "facebook": "None", "youtube": "None", "website": "None", "summary": "None", "logo": "None", "latitude": 44.65644536251654, "longitude": -63.58979363038157}, "119154599RR0001": {"name": "SOCIETY FOR BIO-DYNAMIC FARMING AND GARDENING IN ONTARIO", "designationCode": "C", "categoryCode": "52", "address": "14 SIMCOE BLVD", "city": "SIMCOE", "province": "ON", "country": "CA", "postalCode": "N3Y3L5", "twitter": "None", "instagram": "None", "facebook": "None", "youtube": "None", "website": "None", "summary": "None", "logo": "None", "latitude": 42.84231229808415, "longitude": -80.30014591785441}, "893752048RR0001": {"name": "SOCIETY FOR CANADIAN EDUCATIONAL RESOURCES", "designationCode": "C", "categoryCode": "21", "address": "ATTN:  VICTORIA PENNELL       PO BOX 9", "city": "POUCH COVE", "province": "NL", "country": "CA", "postalCode": "A0A3L0", "twitter": "None", "instagram": "None", "facebook": "None", "youtube": "None", "website": "None", "summary": "None", "logo": "None", "latitude": 47.74260300000006, "longitude": -52.74336049999994}}