{"107567398RR0001": {"name": "THE KIDNEY FOUNDATION OF CANADA / LA FONDATION CANADIENNE DU REIN", "designationCode": "C", "categoryCode": "13", "address": "310 - 5160 BOUL DECARIE", "city": "MONTREAL", "province": "QC", "country": "CA", "postalCode": "H3X2H9", "twitter": "None", "instagram": "None", "facebook": "None", "youtube": "None", "website": "None", "summary": "None", "logo": "None", "latitude": 45.484062654711884, "longitude": -73.63063284889479}, "826825341RR0001": {"name": "THE KIDS HELPING KIDS CHARITABLE FOUNDATION", "designationCode": "A", "categoryCode": "03", "address": "11 BERNARD AVE", "city": "TORONTO", "province": "ON", "country": "CA", "postalCode": "M5R1R3", "twitter": "None", "instagram": "None", "facebook": "None", "youtube": "None", "website": "None", "summary": "None", "logo": "None", "latitude": 43.6738287948815, "longitude": -79.39702725644875}, "890266349RR0001": {"name": "THE KIDSAFE PROJECT SOCIETY", "designationCode": "C", "categoryCode": "01", "address": "1300 E BROADWAY", "city": "VANCOUVER", "province": "BC", "country": "CA", "postalCode": "V5N1V6", "twitter": "None", "instagram": "None", "facebook": "None", "youtube": "None", "website": "None", "summary": "None", "logo": "None", "latitude": 49.26228457429367, "longitude": -123.07746488815432}, "119240430RR0001": {"name": "THE KIERSTEADVILLE CEMETERY CO INC", "designationCode": "C", "categoryCode": "59", "address": "1222 RTE 850", "city": "KIERSTEADVILLE", "province": "NB", "country": "CA", "postalCode": "E5T3N7", "twitter": "None", "instagram": "None", "facebook": "None", "youtube": "None", "website": "None", "summary": "None", "logo": "None", "latitude": 45.62993755438365, "longitude": -65.86411395330735}, "893373365RR0001": {"name": "THE KIERVIN FAMILY FOUNDATION", "designationCode": "B", "categoryCode": "03", "address": "873362 5TH LINE EHS", "city": "MONO", "province": "ON", "country": "CA", "postalCode": "L9W6A5", "twitter": "None", "instagram": "None", "facebook": "None", "youtube": "None", "website": "None", "summary": "None", "logo": "None", "latitude": 43.969694049562946, "longitude": -80.00824971473224}, "127234482RR0001": {"name": "THE KILDONAN FOUNDATION INC", "designationCode": "C", "categoryCode": "01", "address": "300 360 MAIN ST", "city": "WINNIPEG", "province": "MB", "country": "CA", "postalCode": "R3C3Z3", "twitter": "None", "instagram": "None", "facebook": "None", "youtube": "None", "website": "None", "summary": "None", "logo": "None", "latitude": 49.89459781320337, "longitude": -97.1381563866637}, "892825449RR0001": {"name": "THE KILLARNEY FOOD BANK", "designationCode": "C", "categoryCode": "09", "address": "P O BOX 149", "city": "KILLARNEY", "province": "MB", "country": "CA", "postalCode": "R0K1G0", "twitter": "None", "instagram": "None", "facebook": "None", "youtube": "None", "website": "None", "summary": "None", "logo": "None", "latitude": 49.18482000000006, "longitude": -99.66915999999998}, "119240463RR0001": {"name": "THE KILLARNEY FOUNDATION INC", "designationCode": "A", "categoryCode": "03", "address": "PO BOX 1180", "city": "KILLARNEY", "province": "MB", "country": "CA", "postalCode": "R0K1G0", "twitter": "None", "instagram": "None", "facebook": "None", "youtube": "None", "website": "None", "summary": "None", "logo": "None", "latitude": 49.18482000000006, "longitude": -99.66915999999998}, "890834542RR0001": {"name": "THE KILLY FOUNDATION", "designationCode": "B", "categoryCode": "03", "address": "1002-925 WEST GEORGIA STREET  10TH FLOOR", "city": "VANCOUVER", "province": "BC", "country": "CA", "postalCode": "V6C3L2", "twitter": "None", "instagram": "None", "facebook": "None", "youtube": "None", "website": "None", "summary": "None", "logo": "None", "latitude": 49.28356544719252, "longitude": -123.11982138658328}, "119240471RR0001": {"name": "THE KIM STOLBERG FOUNDATION", "designationCode": "B", "categoryCode": "03", "address": "7831 WATERTON DRIVE", "city": "RICHMOND", "province": "BC", "country": "CA", "postalCode": "V7A4G6", "twitter": "None", "instagram": "None", "facebook": "None", "youtube": "None", "website": "None", "summary": "None", "logo": "None", "latitude": 49.134726, "longitude": -123.14016596895351}, "890436645RR0001": {"name": "THE KINDER DREAM FOUNDATION", "designationCode": "A", "categoryCode": "03", "address": "1333 WEST BROADWAY, 10TH FLOOR", "city": "VANCOUVER", "province": "BC", "country": "CA", "postalCode": "V6H4C1", "twitter": "None", "instagram": "None", "facebook": "None", "youtube": "None", "website": "None", "summary": "None", "logo": "None", "latitude": 49.2636048443685, "longitude": -123.13446441433003}, "119240497RR0001": {"name": "THE KINDNESS CLUB FOUNDATION INC", "designationCode": "A", "categoryCode": "54", "address": "535 BEAVERBROOK COURT         SUITE 110", "city": "FREDERICTON", "province": "NB", "country": "CA", "postalCode": "E3B1X6", "twitter": "None", "instagram": "None", "facebook": "None", "youtube": "None", "website": "None", "summary": "None", "logo": "None", "latitude": 45.95421032084941, "longitude": -66.64708426115195}, "868219098RR0001": {"name": "THE KING SEAMAN CHURCH SOCIETY", "designationCode": "C", "categoryCode": "52", "address": "5719 SOUTHWOOD DR", "city": "HALIFAX", "province": "NS", "country": "CA", "postalCode": "B3H1E6", "twitter": "None", "instagram": "None", "facebook": "None", "youtube": "None", "website": "None", "summary": "None", "logo": "None", "latitude": 44.62967677880999, "longitude": -63.57457018832585}, "884067406RR0001": {"name": "THE KING'S CHRISTIAN SCHOOL SOCIETY", "designationCode": "C", "categoryCode": "20", "address": "P.O. BOX 28                   21783 - 76B AVENUE", "city": "MILNER", "province": "BC", "country": "CA", "postalCode": "V0X1T0", "twitter": "None", "instagram": "None", "facebook": "None", "youtube": "None", "website": "None", "summary": "None", "logo": "None", "latitude": 49.45584300000006, "longitude": -120.53673349999994}, "119005288RR0001": {"name": "THE KING'S COMMUNITY CHURCH", "designationCode": "C", "categoryCode": "39", "address": "PO BOX 28                     21783 76B AVENUE", "city": "MILNER", "province": "BC", "country": "CA", "postalCode": "V0X1T0", "twitter": "None", "instagram": "None", "facebook": "None", "youtube": "None", "website": "None", "summary": "None", "logo": "None", "latitude": 49.45584300000006, "longitude": -120.53673349999994}, "118981778RR0001": {"name": "THE KING'S DAUGHTERS DINNER WAGON", "designationCode": "C", "categoryCode": "05", "address": "670 ALBERT ST 2ND FLOOR", "city": "OTTAWA", "province": "ON", "country": "CA", "postalCode": "K1R6L2", "twitter": "None", "instagram": "None", "facebook": "None", "youtube": "None", "website": "None", "summary": "None", "logo": "None", "latitude": 45.41396541907137, "longitude": -75.71031307274022}, "886270396RR0001": {"name": "THE KING'S FELLOWSHIP INC", "designationCode": "C", "categoryCode": "39", "address": "190 OSBORNE ST N", "city": "WINNIPEG", "province": "MB", "country": "CA", "postalCode": "R3C1V4", "twitter": "None", "instagram": "None", "facebook": "None", "youtube": "None", "website": "None", "summary": "None", "logo": "None", "latitude": 49.885459508511445, "longitude": -97.1498243837495}, "119240554RR0001": {"name": "THE KING'S FOLD RETREAT AND RENEWAL SOCIETY", "designationCode": "C", "categoryCode": "49", "address": "PO BOX 758", "city": "COCHRANE", "province": "AB", "country": "CA", "postalCode": "T4C1A8", "twitter": "None", "instagram": "None", "facebook": "None", "youtube": "None", "website": "None", "summary": "None", "logo": "None", "latitude": 51.19089900000006, "longitude": -114.46804249999994}, "893812982RR0001": {"name": "THE KING'S PLAYERS, INC.", "designationCode": "C", "categoryCode": "22", "address": "693 EBBY AVE", "city": "WINNIPEG", "province": "MB", "country": "CA", "postalCode": "R3M2G9", "twitter": "None", "instagram": "None", "facebook": "None", "youtube": "None", "website": "None", "summary": "None", "logo": "None", "latitude": 49.85993093202132, "longitude": -97.15253269943436}, "134667567RR0001": {"name": "THE KING'S SCHOOL, INCORPORATED", "designationCode": "C", "categoryCode": "20", "address": "851 PANET RD", "city": "WINNIPEG", "province": "MB", "country": "CA", "postalCode": "R2K4C9", "twitter": "None", "instagram": "None", "facebook": "None", "youtube": "None", "website": "None", "summary": "None", "logo": "None", "latitude": 49.90848896000028, "longitude": -97.0650233904332}, "863059333RR0001": {"name": "THE KING'S SEAL", "designationCode": "C", "categoryCode": "47", "address": "5 OXFORD CRESCENT", "city": "MT. PEARL", "province": "NL", "country": "CA", "postalCode": "A1N2X6", "twitter": "None", "instagram": "None", "facebook": "None", "youtube": "None", "website": "None", "summary": "None", "logo": "None", "latitude": 47.50988765114697, "longitude": -52.81261934866571}, "891424780RR0001": {"name": "THE KING'S UNIVERSITY FOUNDATION", "designationCode": "A", "categoryCode": "23", "address": "9125 50 STREET", "city": "EDMONTON", "province": "AB", "country": "CA", "postalCode": "T6B2H3", "twitter": "None", "instagram": "None", "facebook": "None", "youtube": "None", "website": "None", "summary": "None", "logo": "None", "latitude": 53.52518032885313, "longitude": -113.41847513511998}, "868008541RR0001": {"name": "THE KING'S WAY CHURCH SOCIETY", "designationCode": "C", "categoryCode": "39", "address": "406 - 975 BROADWAY E", "city": "VANCOUVER", "province": "BC", "country": "CA", "postalCode": "V5T1Y3", "twitter": "None", "instagram": "None", "facebook": "None", "youtube": "None", "website": "None", "summary": "None", "logo": "None", "latitude": 49.26245150432782, "longitude": -123.08435091618097}, "865781553RR0001": {"name": "THE KINGDOM OF JESUS CHRIST, THE NAME ABOVE EVERY NAME INC.", "designationCode": "C", "categoryCode": "39", "address": "12 HAFIS ROAD", "city": "TORONTO", "province": "ON", "country": "CA", "postalCode": "M3M2V7", "twitter": "None", "instagram": "None", "facebook": "None", "youtube": "None", "website": "None", "summary": "None", "logo": "None", "latitude": 43.706295154624975, "longitude": -79.46965604997392}, "870974664RR0001": {"name": "THE KINGDOM OF JESUS CHRIST, THE NAME ABOVE EVERY NAME, INC.", "designationCode": "C", "categoryCode": "49", "address": "13055 OLD YALE RD", "city": "SURREY", "province": "BC", "country": "CA", "postalCode": "V3T3C3", "twitter": "None", "instagram": "None", "facebook": "None", "youtube": "None", "website": "None", "summary": "None", "logo": "None", "latitude": 49.188908618385284, "longitude": -122.86044227448215}, "132883398RR0001": {"name": "THE KINGS TEMPLE MISSIONARY SOCIETY", "designationCode": "C", "categoryCode": "47", "address": "1400 SUTHERLAND AVENUE", "city": "NORTH VANCOUVER", "province": "BC", "country": "CA", "postalCode": "V7L4B3", "twitter": "None", "instagram": "None", "facebook": "None", "youtube": "None", "website": "None", "summary": "None", "logo": "None", "latitude": 49.32093482653357, "longitude": -123.05466941779707}, "122698830RR0001": {"name": "THE KINGSTON AND DISTRICT AGRICULTURAL SOCIETY", "designationCode": "C", "categoryCode": "56", "address": "PO BOX 824                    303 YORK STREET", "city": "KINGSTON", "province": "ON", "country": "CA", "postalCode": "K7L4X6", "twitter": "None", "instagram": "None", "facebook": "None", "youtube": "None", "website": "None", "summary": "None", "logo": "None", "latitude": 44.23153200000006, "longitude": -76.47933049999993}, "119240604RR0001": {"name": "THE KINGSTON HUMANE SOCIETY", "designationCode": "C", "categoryCode": "54", "address": "1 BINNINGTON COURT", "city": "KINGSTON", "province": "ON", "country": "CA", "postalCode": "K7M8M9", "twitter": "None", "instagram": "None", "facebook": "None", "youtube": "None", "website": "None", "summary": "None", "logo": "None", "latitude": 44.265401510098904, "longitude": -76.5286729444575}, "888368065RR0001": {"name": "THE KINSELLA CEMETERY COMMITTEE", "designationCode": "C", "categoryCode": "59", "address": "BOX 32", "city": "VIKING", "province": "AB", "country": "CA", "postalCode": "T0B4N0", "twitter": "None", "instagram": "None", "facebook": "None", "youtube": "None", "website": "None", "summary": "None", "logo": "None", "latitude": 53.10014000000007, "longitude": -111.76843999999994}, "867482820RR0001": {"name": "THE KINSMEN CLUB OF LINDSAY FOUNDATION", "designationCode": "A", "categoryCode": "63", "address": "14 ANGELINE ST S", "city": "LINDSAY", "province": "ON", "country": "CA", "postalCode": "K9V3K8", "twitter": "None", "instagram": "None", "facebook": "None", "youtube": "None", "website": "None", "summary": "None", "logo": "None", "latitude": 44.35047725516055, "longitude": -78.7507173542696}, "108085986RR0001": {"name": "THE KINSMEN REHABILITATION FOUNDATION OF BRITISH COLUMBIA", "designationCode": "C", "categoryCode": "11", "address": "33361 WREN CRESCENT           SUITE 3", "city": "ABBOTSFORD", "province": "BC", "country": "CA", "postalCode": "V2S5V9", "twitter": "None", "instagram": "None", "facebook": "None", "youtube": "None", "website": "None", "summary": "None", "logo": "None", "latitude": 49.058686288649085, "longitude": -122.29882219147117}, "119240687RR0001": {"name": "THE KIRK PENNFIELD NEW BRUNSWICK", "designationCode": "C", "categoryCode": "37", "address": "BOX 341, 71 ROUTE 175", "city": "PENNFIELD", "province": "NB", "country": "CA", "postalCode": "E5H0B3", "twitter": "None", "instagram": "None", "facebook": "None", "youtube": "None", "website": "None", "summary": "None", "logo": "None", "latitude": 45.11377564006739, "longitude": -66.72847559477859}, "119240703RR0001": {"name": "THE KIRK UNITED CHURCH", "designationCode": "C", "categoryCode": "44", "address": "29 LANDEGGAR DR", "city": "NACKAWIC", "province": "NB", "country": "CA", "postalCode": "E6G1E6", "twitter": "None", "instagram": "None", "facebook": "None", "youtube": "None", "website": "None", "summary": "None", "logo": "None", "latitude": 45.994337201800306, "longitude": -67.2378781675225}, "892430240RR0001": {"name": "THE KIRK-ST GEORGE (PRESBYTERIAN CHURCH)", "designationCode": "C", "categoryCode": "37", "address": "180 BRUNSWICK ST.", "city": "ST GEORGE", "province": "NB", "country": "CA", "postalCode": "E5C3S2", "twitter": "None", "instagram": "None", "facebook": "None", "youtube": "None", "website": "None", "summary": "None", "logo": "None", "latitude": 45.129324437128574, "longitude": -66.82640857155576}, "132170994RR0001": {"name": "THE KITCHENER AND WATERLOO COMMUNITY FOUNDATION", "designationCode": "A", "categoryCode": "03", "address": "29 KING STREET EAST           SUITE: B", "city": "KITCHENER", "province": "ON", "country": "CA", "postalCode": "N2G2K4", "twitter": "None", "instagram": "None", "facebook": "None", "youtube": "None", "website": "None", "summary": "None", "logo": "None", "latitude": 43.44952273853092, "longitude": -80.4885436557215}, "863198172RR0001": {"name": "THE KITCHENER CHURCH OF GOD (NEW TESTAMENT)", "designationCode": "C", "categoryCode": "39", "address": "533 WEBER ST. EAST", "city": "KITCHENER", "province": "ON", "country": "CA", "postalCode": "N2H1G6", "twitter": "None", "instagram": "None", "facebook": "None", "youtube": "None", "website": "None", "summary": "None", "logo": "None", "latitude": 43.44390476905781, "longitude": -80.46706273873248}, "107572687RR0001": {"name": "THE KITCHENER WATERLO YOUNG MENS'S CHRISTIAN ASSOCIATION", "designationCode": "C", "categoryCode": "49", "address": "460 FREDERICK ST              SUITE 203", "city": "KITCHENER", "province": "ON", "country": "CA", "postalCode": "N2H2P5", "twitter": "None", "instagram": "None", "facebook": "None", "youtube": "None", "website": "None", "summary": "None", "logo": "None", "latitude": 43.45862972831645, "longitude": -80.47212132711047}, "107579674RR0001": {"name": "THE KITCHENER-WATERLOO ART GALLERY", "designationCode": "C", "categoryCode": "50", "address": "101 QUEEN ST NORTH", "city": "KITCHENER", "province": "ON", "country": "CA", "postalCode": "N2H6P7", "twitter": "None", "instagram": "None", "facebook": "None", "youtube": "None", "website": "None", "summary": "None", "logo": "None", "latitude": 43.45484758696438, "longitude": -80.48513659994877}, "119240737RR0001": {"name": "THE KITCHENER-WATERLOO BILINGUAL SCHOOL", "designationCode": "C", "categoryCode": "20", "address": "600 ERB ST W", "city": "WATERLOO", "province": "ON", "country": "CA", "postalCode": "N2J3Z4", "twitter": "None", "instagram": "None", "facebook": "None", "youtube": "None", "website": "None", "summary": "None", "logo": "None", "latitude": 43.44822522490009, "longitude": -80.56584541586729}, "119240752RR0001": {"name": "THE KITCHENER-WATERLOO FIELD NATURALISTS", "designationCode": "C", "categoryCode": "52", "address": "317 HIGHLAND ROAD EAST", "city": "KITCHENER", "province": "ON", "country": "CA", "postalCode": "N2M3W6", "twitter": "None", "instagram": "None", "facebook": "None", "youtube": "None", "website": "None", "summary": "None", "logo": "None", "latitude": 43.4346460202551, "longitude": -80.49006934390313}, "122524713RR0001": {"name": "THE KITCHENER-WATERLOO SYMPHONY ORCHESTRA ASSOCIATION INC", "designationCode": "C", "categoryCode": "22", "address": "36 KING ST W", "city": "KITCHENER", "province": "ON", "country": "CA", "postalCode": "N2G1A3", "twitter": "None", "instagram": "None", "facebook": "None", "youtube": "None", "website": "None", "summary": "None", "logo": "None", "latitude": 43.450106352501464, "longitude": -80.48979167234127}, "128981594RR0001": {"name": "THE KITIMAT COMMUNITY SERVICES SOCIETY", "designationCode": "C", "categoryCode": "53", "address": "102-370 CITY CENTRE", "city": "KITIMAT", "province": "BC", "country": "CA", "postalCode": "V8C1T6", "twitter": "None", "instagram": "None", "facebook": "None", "youtube": "None", "website": "None", "summary": "None", "logo": "None", "latitude": 54.05329848843723, "longitude": -128.65498902983163}, "865185730RR0001": {"name": "THE KITIMAT FOOD BANK SOCIETY", "designationCode": "C", "categoryCode": "09", "address": "230 CITY CENTRE               P.O. BOX 20", "city": "KITIMAT", "province": "BC", "country": "CA", "postalCode": "V8C2G6", "twitter": "None", "instagram": "None", "facebook": "None", "youtube": "None", "website": "None", "summary": "None", "logo": "None", "latitude": 54.05325530726351, "longitude": -128.65537766039506}, "119240794RR0001": {"name": "THE KITIMAT KIWANIS SENIOR CITIZENS HOUSING SOCIETY", "designationCode": "C", "categoryCode": "09", "address": "4734 PARK AVE", "city": "TERRACE", "province": "BC", "country": "CA", "postalCode": "V8G1W1", "twitter": "None", "instagram": "None", "facebook": "None", "youtube": "None", "website": "None", "summary": "None", "logo": "None", "latitude": 54.518715489901105, "longitude": -128.59740152983437}, "119240828RR0001": {"name": "THE KIWANIS CLUB OF EAST YORK CHARITABLE FOUNDATION", "designationCode": "A", "categoryCode": "03", "address": "34 TUFTON CRES", "city": "NORTH YORK", "province": "ON", "country": "CA", "postalCode": "M4A2E3", "twitter": "None", "instagram": "None", "facebook": "None", "youtube": "None", "website": "None", "summary": "None", "logo": "None", "latitude": 43.73086869995397, "longitude": -79.30889673674191}, "119240836RR0001": {"name": "THE KIWANIS CLUB OF FORT FRANCES INCORPORATED CHARITABLE TRUST", "designationCode": "C", "categoryCode": "65", "address": "PO BOX 555", "city": "FORT FRANCES", "province": "ON", "country": "CA", "postalCode": "P9A3M8", "twitter": "None", "instagram": "None", "facebook": "None", "youtube": "None", "website": "None", "summary": "None", "logo": "None", "latitude": 48.610023000000055, "longitude": -93.39111349999993}, "891799843RR0001": {"name": "THE KIWANIS CLUB OF GRAND RIVER ENDOWMENT FUND", "designationCode": "C", "categoryCode": "05", "address": "PO BOX 26019 260 ST PAULS AVE", "city": "BRANTFORD", "province": "ON", "country": "CA", "postalCode": "N3R7X4", "twitter": "None", "instagram": "None", "facebook": "None", "youtube": "None", "website": "None", "summary": "None", "logo": "None", "latitude": 43.152864998066754, "longitude": -80.27686975287074}, "119240844RR0001": {"name": "THE KIWANIS CLUB OF OTTAWA MEDICAL FOUNDATION", "designationCode": "B", "categoryCode": "11", "address": "1283 ALGOMA RD #201", "city": "OTTAWA", "province": "ON", "country": "CA", "postalCode": "K1B3W7", "twitter": "None", "instagram": "None", "facebook": "None", "youtube": "None", "website": "None", "summary": "None", "logo": "None", "latitude": 45.416831045847644, "longitude": -75.61907874565738}, "868588971RR0001": {"name": "THE KIWANIS CLUB OF PETERBOROUGH CHARITABLE FOUNDATION INC", "designationCode": "A", "categoryCode": "63", "address": "372 GIFFORD DRIVE", "city": "PETERBOROUGH", "province": "ON", "country": "CA", "postalCode": "K9L1A8", "twitter": "None", "instagram": "None", "facebook": "None", "youtube": "None", "website": "None", "summary": "None", "logo": "None", "latitude": 44.323283041375596, "longitude": -78.29898676048812}, "119362234RR0001": {"name": "THE KIWANIS CLUB OF RIDEAU ENDOWMENT TRUST", "designationCode": "A", "categoryCode": "65", "address": "40 HUNTERSWOOD CRESCENT", "city": "OTTAWA", "province": "ON", "country": "CA", "postalCode": "K1G5V7", "twitter": "None", "instagram": "None", "facebook": "None", "youtube": "None", "website": "None", "summary": "None", "logo": "None", "latitude": 45.37718255037796, "longitude": -75.60292771466914}, "894558980RR0001": {"name": "THE KIWANIS CLUB OF RIVERDALE CHARITABLE FOUNDATION", "designationCode": "A", "categoryCode": "63", "address": "328 SHIPWAY AVE", "city": "NEWCASTLE", "province": "ON", "country": "CA", "postalCode": "L1B0C1", "twitter": "None", "instagram": "None", "facebook": "None", "youtube": "None", "website": "None", "summary": "None", "logo": "None", "latitude": 43.8988831065292, "longitude": -78.59135035299472}, "866486707RR0001": {"name": "THE KIWANIS CLUB OF SOUTH EDMONTON CHARITABLE FOUNDATION", "designationCode": "C", "categoryCode": "63", "address": "4831 93 AVE", "city": "EDMONTON", "province": "AB", "country": "CA", "postalCode": "T6B3A2", "twitter": "None", "instagram": "None", "facebook": "None", "youtube": "None", "website": "None", "summary": "None", "logo": "None", "latitude": 53.530302491777036, "longitude": -113.413572}, "125753194RR0001": {"name": "THE KIWANIS CLUB OF STRATFORD CHARITABLE FOUNDATION", "designationCode": "C", "categoryCode": "63", "address": "PO BOX 21161", "city": "STRATFORD", "province": "ON", "country": "CA", "postalCode": "N5A7V4", "twitter": "None", "instagram": "None", "facebook": "None", "youtube": "None", "website": "None", "summary": "None", "logo": "None", "latitude": 43.37013300000005, "longitude": -80.98191349999993}, "891341240RR0001": {"name": "THE KIWANIS CLUB OF THUNDER BAY CHARITABLE TRUST", "designationCode": "A", "categoryCode": "65", "address": "PO BOX 21095 GRANDVIEW MALL", "city": "THUNDER BAY", "province": "ON", "country": "CA", "postalCode": "P7A8A7", "twitter": "None", "instagram": "None", "facebook": "None", "youtube": "None", "website": "None", "summary": "None", "logo": "None", "latitude": 48.53861700000006, "longitude": -89.04822649999993}, "105223051RR0001": {"name": "THE KIWANIS CLUB OF TORONTO FOUNDATION", "designationCode": "A", "categoryCode": "63", "address": "PO BOX 270 STN 1ST CAN PLACE", "city": "TORONTO", "province": "ON", "country": "CA", "postalCode": "M5X1C9", "twitter": "None", "instagram": "None", "facebook": "None", "youtube": "None", "website": "None", "summary": "None", "logo": "None", "latitude": 43.64868300000006, "longitude": -79.38544399999994}, "119240919RR0001": {"name": "THE KIWANIS FOUNDATION OF CANADA INCORPORATED", "designationCode": "C", "categoryCode": "09", "address": "PO BOX 5034 STN MAIN", "city": "BRANTFORD", "province": "ON", "country": "CA", "postalCode": "N3T6J7", "twitter": "None", "instagram": "None", "facebook": "None", "youtube": "None", "website": "None", "summary": "None", "logo": "None", "latitude": 43.14136200000006, "longitude": -80.26173349999993}, "119240927RR0001": {"name": "THE KIWANIS FOUNDATION OF NIAGARA FALLS", "designationCode": "C", "categoryCode": "22", "address": "9705 NIAGARA RIVER PKY", "city": "NIAGARA FALLS", "province": "ON", "country": "CA", "postalCode": "L2G0N9", "twitter": "None", "instagram": "None", "facebook": "None", "youtube": "None", "website": "None", "summary": "None", "logo": "None", "latitude": 43.07869000000005, "longitude": -79.07988999999998}, "119240935RR0001": {"name": "THE KIWANIS INGOLDSBY HOUSE", "designationCode": "C", "categoryCode": "01", "address": "2602 6TH A AVE W", "city": "PRINCE ALBERT", "province": "SK", "country": "CA", "postalCode": "S6V5N1", "twitter": "None", "instagram": "None", "facebook": "None", "youtube": "None", "website": "None", "summary": "None", "logo": "None", "latitude": 53.18967532944774, "longitude": -105.77128469369289}, "119240943RR0001": {"name": "THE KIWANIS MUSIC FESTIVAL ASSOCIATION OF ST. JOHN'S", "designationCode": "C", "categoryCode": "22", "address": "90 O'LEARY AVENUE             SUITE 210", "city": "ST JOHN'S", "province": "NL", "country": "CA", "postalCode": "A1B2C7", "twitter": "None", "instagram": "None", "facebook": "None", "youtube": "None", "website": "None", "summary": "None", "logo": "None", "latitude": 47.56071599454477, "longitude": -52.75912415429068}, "892118191RR0001": {"name": "THE KIWANIS MUSIC FESTIVAL OF LONDON INC.", "designationCode": "C", "categoryCode": "22", "address": "310 WOLFE ST.", "city": "LONDON", "province": "ON", "country": "CA", "postalCode": "N6B2C5", "twitter": "None", "instagram": "None", "facebook": "None", "youtube": "None", "website": "None", "summary": "None", "logo": "None", "latitude": 42.99042291759462, "longitude": -81.24632947489746}, "886766591RR0001": {"name": "THE KIWANIS OF CAPILANO WELFARE TRUST", "designationCode": "C", "categoryCode": "01", "address": "100 - 975 21ST ST", "city": "WEST VANCOUVER", "province": "BC", "country": "CA", "postalCode": "V7V0B5", "twitter": "None", "instagram": "None", "facebook": "None", "youtube": "None", "website": "None", "summary": "None", "logo": "None", "latitude": 49.333319294408255, "longitude": -123.1681173859966}, "889181921RR0001": {"name": "THE KLEEFELD PARENT-TEACHER ASSOCIATION", "designationCode": "C", "categoryCode": "21", "address": "101 FRIESEN AVE", "city": "KLEEFELD", "province": "MB", "country": "CA", "postalCode": "R0A0V0", "twitter": "None", "instagram": "None", "facebook": "None", "youtube": "None", "website": "None", "summary": "None", "logo": "None", "latitude": 49.49807252207277, "longitude": -96.87843360935426}, "128052743RR0001": {"name": "THE KLEMKE FOUNDATION", "designationCode": "B", "categoryCode": "47", "address": "1703, 9923 103 ST", "city": "EDMONTON", "province": "AB", "country": "CA", "postalCode": "T5K2J3", "twitter": "None", "instagram": "None", "facebook": "None", "youtube": "None", "website": "None", "summary": "None", "logo": "None", "latitude": 53.53770695337295, "longitude": -113.49732784730826}, "107574386RR0001": {"name": "THE KNEEHILL HISTORICAL SOCIETY", "designationCode": "C", "categoryCode": "50", "address": "BOX 653", "city": "THREE HILLS", "province": "AB", "country": "CA", "postalCode": "T0M2A0", "twitter": "None", "instagram": "None", "facebook": "None", "youtube": "None", "website": "None", "summary": "None", "logo": "None", "latitude": 51.704029948352684, "longitude": -113.26741999999996}, "137406039RR0001": {"name": "THE KNOX UNITED CHURCH FOUNDATION, OF CALGARY", "designationCode": "A", "categoryCode": "43", "address": "506 4 ST SW", "city": "CALGARY", "province": "AB", "country": "CA", "postalCode": "T2P1S7", "twitter": "None", "instagram": "None", "facebook": "None", "youtube": "None", "website": "None", "summary": "None", "logo": "None", "latitude": 51.04794507799065, "longitude": -114.07144631138569}, "877713214RR0001": {"name": "THE KOENIG FAMILY FOUNDATION", "designationCode": "B", "categoryCode": "03", "address": "22 ST. CLAIR AVENUE EAST      SUITE 1501", "city": "TORONTO", "province": "ON", "country": "CA", "postalCode": "M4T2S3", "twitter": "None", "instagram": "None", "facebook": "None", "youtube": "None", "website": "None", "summary": "None", "logo": "None", "latitude": 43.688336132408, "longitude": -79.39301839967676}, "119246155RR0001": {"name": "THE KOFFLER FOUNDATION", "designationCode": "B", "categoryCode": "03", "address": "3845 BATHURST STREET          SUITE 402", "city": "DOWNSVIEW", "province": "ON", "country": "CA", "postalCode": "M3H3N2", "twitter": "None", "instagram": "None", "facebook": "None", "youtube": "None", "website": "None", "summary": "None", "logo": "None", "latitude": 43.74050890313924, "longitude": -79.4347439533443}, "869679415RR0001": {"name": "THE KOL HOPE FOUNDATION", "designationCode": "B", "categoryCode": "03", "address": "607 - 6000 BATHURST STREET", "city": "TORONTO", "province": "ON", "country": "CA", "postalCode": "M2R1Z2", "twitter": "None", "instagram": "None", "facebook": "None", "youtube": "None", "website": "None", "summary": "None", "logo": "None", "latitude": 43.785433415200025, "longitude": -79.44595767257147}, "890864572RR0001": {"name": "THE KOLOLIAN FOUNDATION", "designationCode": "B", "categoryCode": "23", "address": "2 BLOOR ST. W                 SUITE 3400 PO BOX 61", "city": "TORONTO", "province": "ON", "country": "CA", "postalCode": "M4W3E2", "twitter": "None", "instagram": "None", "facebook": "None", "youtube": "None", "website": "None", "summary": "None", "logo": "None", "latitude": 43.67045982930351, "longitude": -79.38693486444669}, "884936212RR0001": {"name": "THE KONVALIA PROJECT IN SUPPORT OF SOCIAL WORK DEVELOPMENT IN UKRAINE", "designationCode": "C", "categoryCode": "20", "address": "89 QUEENSWAY WEST             SUITE 204", "city": "MISSISSAUGA", "province": "ON", "country": "CA", "postalCode": "L5B2V2", "twitter": "None", "instagram": "None", "facebook": "None", "youtube": "None", "website": "None", "summary": "None", "logo": "None", "latitude": 43.57227909856289, "longitude": -79.60987261010406}, "119294106RR0001": {"name": "THE KOOTENAY GALLERY OF ART, HISTORY AND SCIENCE SOCIETY", "designationCode": "C", "categoryCode": "50", "address": "120 HERITAGE WAY", "city": "CASTLEGAR", "province": "BC", "country": "CA", "postalCode": "V1N4M5", "twitter": "None", "instagram": "None", "facebook": "None", "youtube": "None", "website": "None", "summary": "None", "logo": "None", "latitude": 49.298248320012696, "longitude": -117.63961230246929}, "890253461RR0001": {"name": "THE KOREA VETERANS \"WALL OF REMEMBRANCE\" 1950-1953 MEMORIAL MONUMENT", "designationCode": "C", "categoryCode": "52", "address": "246 HUNTINGTON CRES", "city": "COURTICE", "province": "ON", "country": "CA", "postalCode": "L1E3J5", "twitter": "None", "instagram": "None", "facebook": "None", "youtube": "None", "website": "None", "summary": "None", "logo": "None", "latitude": 43.89389039327148, "longitude": -78.80051547694627}, "107577355RR0001": {"name": "THE KOREAN BEACON CHURCH", "designationCode": "C", "categoryCode": "31", "address": "8 CATHCART ST", "city": "NORTH YORK", "province": "ON", "country": "CA", "postalCode": "M2M1E9", "twitter": "None", "instagram": "None", "facebook": "None", "youtube": "None", "website": "None", "summary": "None", "logo": "None", "latitude": 43.78698716515656, "longitude": -79.42281892951117}, "119241073RR0001": {"name": "THE KOREAN BETHEL EVANGELICAL CHURCH", "designationCode": "C", "categoryCode": "39", "address": "1155 COLLEGE ST", "city": "TORONTO", "province": "ON", "country": "CA", "postalCode": "M6H1B7", "twitter": "None", "instagram": "None", "facebook": "None", "youtube": "None", "website": "None", "summary": "None", "logo": "None", "latitude": 43.65206882763008, "longitude": -79.43478709172489}, "849033543RR0001": {"name": "THE KOREAN BUDDHIST CHONTAE ORDER PYUNG HWA SA", "designationCode": "C", "categoryCode": "35", "address": "12085 YONGE STREET", "city": "RICHMOND HILL", "province": "ON", "country": "CA", "postalCode": "L4E3M4", "twitter": "None", "instagram": "None", "facebook": "None", "youtube": "None", "website": "None", "summary": "None", "logo": "None", "latitude": 43.92214575069312, "longitude": -79.44930622327672}, "119241099RR0001": {"name": "THE KOREAN CANADIAN HERITAGE AWARD COMMITTEE", "designationCode": "C", "categoryCode": "21", "address": "28 SHAFTSBURY AVE", "city": "RICHMOND HILL", "province": "ON", "country": "CA", "postalCode": "L4C9K2", "twitter": "None", "instagram": "None", "facebook": "None", "youtube": "None", "website": "None", "summary": "None", "logo": "None", "latitude": 43.889203938657786, "longitude": -79.45319454651147}, "108086083RR0001": {"name": "THE KOREAN CENTRAL PRESBYTERIAN CHURCH IN TORONTO", "designationCode": "C", "categoryCode": "39", "address": "23 FASKEN DR", "city": "TORONTO", "province": "ON", "country": "CA", "postalCode": "M9W1K6", "twitter": "None", "instagram": "None", "facebook": "None", "youtube": "None", "website": "None", "summary": "None", "logo": "None", "latitude": 43.69016051786052, "longitude": -79.60051756365084}, "119241115RR0001": {"name": "THE KOREAN CENTRAL PRESBYTERIAN CHURCH OF COQUITLAM", "designationCode": "C", "categoryCode": "37", "address": "10110 175A ST", "city": "SURREY", "province": "BC", "country": "CA", "postalCode": "V4N4H2", "twitter": "None", "instagram": "None", "facebook": "None", "youtube": "None", "website": "None", "summary": "None", "logo": "None", "latitude": 49.186203148293295, "longitude": -122.73620078517237}, "895076453RR0001": {"name": "THE KOREAN CHURCH OF WINNIPEG INC.", "designationCode": "C", "categoryCode": "39", "address": "1350 GRANT AVENUE", "city": "WINNIPEG", "province": "MB", "country": "CA", "postalCode": "R3M2A7", "twitter": "None", "instagram": "None", "facebook": "None", "youtube": "None", "website": "None", "summary": "None", "logo": "None", "latitude": 49.85600147735032, "longitude": -97.17646210796927}, "886771799RR0001": {"name": "THE KOREAN EDUCATION SOCIETY", "designationCode": "C", "categoryCode": "20", "address": "9280 PATTERSON RD", "city": "RICHMOND", "province": "BC", "country": "CA", "postalCode": "V6X1P9", "twitter": "None", "instagram": "None", "facebook": "None", "youtube": "None", "website": "None", "summary": "None", "logo": "None", "latitude": 49.190187470136955, "longitude": -123.122151}, "895096659RR0001": {"name": "THE KOREAN EUN PYUNG CHURCH OF TORONTO", "designationCode": "C", "categoryCode": "39", "address": "98 FINCH AVE WEST", "city": "WILLOWDALE", "province": "ON", "country": "CA", "postalCode": "M2N2H7", "twitter": "None", "instagram": "None", "facebook": "None", "youtube": "None", "website": "None", "summary": "None", "logo": "None", "latitude": 43.777984198482066, "longitude": -79.42370965641399}, "893074468RR0001": {"name": "THE KOREAN FIRST PRESBYTERIAN CHURCH OF VANCOUVER", "designationCode": "C", "categoryCode": "37", "address": "1803 EAST 1ST AVENUE", "city": "VANCOUVER", "province": "BC", "country": "CA", "postalCode": "V5N1B2", "twitter": "None", "instagram": "None", "facebook": "None", "youtube": "None", "website": "None", "summary": "None", "logo": "None", "latitude": 49.269606525967916, "longitude": -123.06736308090484}, "829332949RR0001": {"name": "THE KOREAN GRACE PRESBYTERIAN CHURCH OF CALGARY", "designationCode": "C", "categoryCode": "37", "address": "5010 SPRUCE DR SW", "city": "CALGARY", "province": "AB", "country": "CA", "postalCode": "T3C3B2", "twitter": "None", "instagram": "None", "facebook": "None", "youtube": "None", "website": "None", "summary": "None", "logo": "None", "latitude": 51.05239450375091, "longitude": -114.15902383236194}, "894945633RR0039": {"name": "THE KOREAN MISSION ALLIANCE CHURCH OF TORONTO", "designationCode": "C", "categoryCode": "36", "address": "25 CENTRE AVE", "city": "NORTH YORK", "province": "ON", "country": "CA", "postalCode": "M2M2L4", "twitter": "None", "instagram": "None", "facebook": "None", "youtube": "None", "website": "None", "summary": "None", "logo": "None", "latitude": 43.792079838161655, "longitude": -79.41605671980503}, "867248346RR0001": {"name": "THE KOREAN MOK-YANG PRESBYTERIAN CHURCH OF GREATER VANCOUVER", "designationCode": "C", "categoryCode": "37", "address": "10177 148TH STREET", "city": "SURREY", "province": "BC", "country": "CA", "postalCode": "V3R3X2", "twitter": "None", "instagram": "None", "facebook": "None", "youtube": "None", "website": "None", "summary": "None", "logo": "None", "latitude": 49.18761197614355, "longitude": -122.8120997862775}, "866858012RR0001": {"name": "THE KOREAN MUSIC CENTRE OF CANADA", "designationCode": "C", "categoryCode": "22", "address": "7 PATHLANE ROAD", "city": "RICHMOND HILL", "province": "ON", "country": "CA", "postalCode": "L4B4A6", "twitter": "None", "instagram": "None", "facebook": "None", "youtube": "None", "website": "None", "summary": "None", "logo": "None", "latitude": 43.854640827630085, "longitude": -79.41107812155927}, "899583942RR0001": {"name": "THE KOREAN NEW LIFE CHURCH OF TORONTO", "designationCode": "C", "categoryCode": "39", "address": "475 RATHBURN RD", "city": "ETOBICOKE", "province": "ON", "country": "CA", "postalCode": "M9C3S9", "twitter": "None", "instagram": "None", "facebook": "None", "youtube": "None", "website": "None", "summary": "None", "logo": "None", "latitude": 43.6523668859139, "longitude": -79.575257260171}, "889320198RR0001": {"name": "THE KOREAN OPEN GATE PRESBYTERIAN CHURCH", "designationCode": "C", "categoryCode": "37", "address": "503 - 8 LOMOND DR", "city": "ETOBICOKE", "province": "ON", "country": "CA", "postalCode": "M8X2W3", "twitter": "None", "instagram": "None", "facebook": "None", "youtube": "None", "website": "None", "summary": "None", "logo": "None", "latitude": 43.64648401858168, "longitude": -79.5224227660567}, "855919411RR0001": {"name": "THE KOREAN SENIOR MISSION CHURCH", "designationCode": "C", "categoryCode": "39", "address": "14222 86 AVE", "city": "SURREY", "province": "BC", "country": "CA", "postalCode": "V3W0S6", "twitter": "None", "instagram": "None", "facebook": "None", "youtube": "None", "website": "None", "summary": "None", "logo": "None", "latitude": 49.15964752510252, "longitude": -122.82817402553522}, "889887667RR0001": {"name": "THE KOREAN SOCIETY OF METROPOLITAN WINDSOR", "designationCode": "C", "categoryCode": "59", "address": "199 BENNIE AVE", "city": "LEAMINGTON", "province": "ON", "country": "CA", "postalCode": "N8H5N9", "twitter": "None", "instagram": "None", "facebook": "None", "youtube": "None", "website": "None", "summary": "None", "logo": "None", "latitude": 42.03631045628714, "longitude": -82.58288788484602}, "119241206RR0001": {"name": "THE KOREAN TRINITY PRESBYTERIAN CHURCH", "designationCode": "C", "categoryCode": "37", "address": "1618-55 WYNFORD HEIGHTS CRES.", "city": "TORONTO", "province": "ON", "country": "CA", "postalCode": "M3C1L5", "twitter": "None", "instagram": "None", "facebook": "None", "youtube": "None", "website": "None", "summary": "None", "logo": "None", "latitude": 43.72731731334759, "longitude": -79.32564249841346}, "889384863RR0001": {"name": "THE KOREAN-CANADIAN SCHOOLS ASSOCIATION OF ONTARIO", "designationCode": "C", "categoryCode": "20", "address": "1133 LESLIE STREET", "city": "NORTH YORK", "province": "ON", "country": "CA", "postalCode": "M3C2J6", "twitter": "None", "instagram": "None", "facebook": "None", "youtube": "None", "website": "None", "summary": "None", "logo": "None", "latitude": 43.72587836779358, "longitude": -79.34959002487231}, "865067490RR0001": {"name": "THE KOREAN-CANADIAN SCIENCE SCHOLARSHIP FOUDATION", "designationCode": "C", "categoryCode": "21", "address": "206-1133 LESLIE STREET", "city": "TORONTO", "province": "ON", "country": "CA", "postalCode": "M3C2J6", "twitter": "None", "instagram": "None", "facebook": "None", "youtube": "None", "website": "None", "summary": "None", "logo": "None", "latitude": 43.72587836779358, "longitude": -79.34959002487231}, "889805594RR0001": {"name": "THE KPMG FOUNDATION/LA FONDATION KPMG", "designationCode": "B", "categoryCode": "03", "address": "4600 - 333 BAY ST", "city": "TORONTO", "province": "ON", "country": "CA", "postalCode": "M5H2S5", "twitter": "None", "instagram": "None", "facebook": "None", "youtube": "None", "website": "None", "summary": "None", "logo": "None", "latitude": 43.65025349737428, "longitude": -79.38084819908858}, "890402167RR0001": {"name": "THE KREMBIL FOUNDATION", "designationCode": "B", "categoryCode": "03", "address": "T-D CENTRE, ROYAL TRUST TOWER 77 KING ST W PO BOX 298", "city": "TORONTO", "province": "ON", "country": "CA", "postalCode": "M5K1K2", "twitter": "None", "instagram": "None", "facebook": "None", "youtube": "None", "website": "None", "summary": "None", "logo": "None", "latitude": 43.648190845375034, "longitude": -79.38214471980503}, "132589474RR0001": {"name": "THE KRISTIE CHARITABLE FOUNDATION", "designationCode": "B", "categoryCode": "23", "address": "1300-10020 101A AVE NW", "city": "EDMONTON", "province": "AB", "country": "CA", "postalCode": "T5J3G2", "twitter": "None", "instagram": "None", "facebook": "None", "youtube": "None", "website": "None", "summary": "None", "logo": "None", "latitude": 53.54220282138859, "longitude": -113.49142139891461}, "119241222RR0001": {"name": "THE KROEKER FOUNDATION INC", "designationCode": "B", "categoryCode": "03", "address": "777 CIRCLE K DR", "city": "WINKLER", "province": "MB", "country": "CA", "postalCode": "R6W0K7", "twitter": "None", "instagram": "None", "facebook": "None", "youtube": "None", "website": "None", "summary": "None", "logo": "None", "latitude": 49.19099761132649, "longitude": -97.92165303964897}, "846957744RR0001": {"name": "THE KUCHAR FOUNDATION", "designationCode": "B", "categoryCode": "03", "address": "2201 TD TOWER                 10088 102 AVENUE", "city": "EDMONTON", "province": "AB", "country": "CA", "postalCode": "T5J2Z1", "twitter": "None", "instagram": "None", "facebook": "None", "youtube": "None", "website": "None", "summary": "None", "logo": "None", "latitude": 53.54326003447939, "longitude": -113.49252001500362}, "862196862RR0001": {"name": "THE KUHL FOUNDATION INC.", "designationCode": "B", "categoryCode": "03", "address": "PO BOX 1420", "city": "WINKLER", "province": "MB", "country": "CA", "postalCode": "R6W4B4", "twitter": "None", "instagram": "None", "facebook": "None", "youtube": "None", "website": "None", "summary": "None", "logo": "None", "latitude": 49.17773400000006, "longitude": -97.93841299999994}, "874043862RR0001": {"name": "THE L.C. CHURCH IN CANADA / L'EGLISE L.C. AU CANADA", "designationCode": "C", "categoryCode": "39", "address": "506 AVE DES AURORES", "city": "MAGOG", "province": "QC", "country": "CA", "postalCode": "J1X0L5", "twitter": "None", "instagram": "None", "facebook": "None", "youtube": "None", "website": "None", "summary": "None", "logo": "None", "latitude": 45.27236267112917, "longitude": -72.19341578077189}}