{"132656901RR0001": {"name": "FABRIQUE DE LA PAROISSE DE SAINT ALPHONSE DE GRANBY", "designationCode": "C", "categoryCode": "38", "address": "307 PRINCIPALE", "city": "ST ALPHONSE DE GRANBY", "province": "QC", "country": "CA", "postalCode": "J0E2A0", "twitter": "None", "instagram": "None", "facebook": "None", "youtube": "None", "website": "None", "summary": "None", "logo": "None", "latitude": 45.32515275766086, "longitude": -72.80857781805078}, "131477531RR0001": {"name": "FABRIQUE DE LA PAROISSE DE SAINT ARMAND", "designationCode": "C", "categoryCode": "38", "address": "590 CH DE L'EGLISE", "city": "ST-ARMAND CTE MISSISQUOI", "province": "QC", "country": "CA", "postalCode": "J0J1T0", "twitter": "None", "instagram": "None", "facebook": "None", "youtube": "None", "website": "None", "summary": "None", "logo": "None", "latitude": 45.03149067773696, "longitude": -73.04326413656291}, "131797201RR0001": {"name": "FABRIQUE DE LA PAROISSE DE SAINT BARNABE SUD", "designationCode": "C", "categoryCode": "38", "address": "233 MICHAUDVILLE", "city": "ST-BARNABE-SUD", "province": "QC", "country": "CA", "postalCode": "J0H1G0", "twitter": "None", "instagram": "None", "facebook": "None", "youtube": "None", "website": "None", "summary": "None", "logo": "None", "latitude": 45.731645542010774, "longitude": -72.92475992789504}, "887581593RR0001": {"name": "FABRIQUE DE LA PAROISSE DE SAINT BENOIT JOSEPH LABRE EN AMQUI", "designationCode": "C", "categoryCode": "38", "address": "88 DESBIENS", "city": "AMQUI", "province": "QC", "country": "CA", "postalCode": "G5J3P6", "twitter": "None", "instagram": "None", "facebook": "None", "youtube": "None", "website": "None", "summary": "None", "logo": "None", "latitude": 48.466665617548564, "longitude": -67.42928413509196}, "131637977RR0001": {"name": "FABRIQUE DE LA PAROISSE DE SAINT BERNARD", "designationCode": "C", "categoryCode": "38", "address": "406 RUE PRINCIPALE", "city": "SAINT-BERNARD-DE-MICHAUDVILLE", "province": "QC", "country": "CA", "postalCode": "J0H1C0", "twitter": "None", "instagram": "None", "facebook": "None", "youtube": "None", "website": "None", "summary": "None", "logo": "None", "latitude": 45.82700461394189, "longitude": -73.06165296681871}, "131692089RR0001": {"name": "FABRIQUE DE LA PAROISSE DE SAINT CHARLES SUR RICHELIEU", "designationCode": "C", "categoryCode": "38", "address": "405 CHEMIN DES PATRIOTES", "city": "ST-CHARLES-SUR-RICHELIEU", "province": "QC", "country": "CA", "postalCode": "J0H2G0", "twitter": "None", "instagram": "None", "facebook": "None", "youtube": "None", "website": "None", "summary": "None", "logo": "None", "latitude": 45.683655464337214, "longitude": -73.18726800141364}, "130782584RR0001": {"name": "FABRIQUE DE LA PAROISSE DE SAINT DAMASE", "designationCode": "C", "categoryCode": "38", "address": "140, PRINCIPALE", "city": "SAINTE-DAMASE", "province": "QC", "country": "CA", "postalCode": "J0H1J0", "twitter": "None", "instagram": "None", "facebook": "None", "youtube": "None", "website": "None", "summary": "None", "logo": "None", "latitude": 45.527080964221646, "longitude": -73.0078163092213}, "131636722RR0001": {"name": "FABRIQUE DE LA PAROISSE DE SAINT DENIS", "designationCode": "C", "categoryCode": "38", "address": "636 CHEMIN DES PATRIOTES", "city": "ST-DENIS SUR RICHELIEU", "province": "QC", "country": "CA", "postalCode": "J0H1K0", "twitter": "None", "instagram": "None", "facebook": "None", "youtube": "None", "website": "None", "summary": "None", "logo": "None", "latitude": 45.78345013310543, "longitude": -73.16093338409783}, "135405967RR0001": {"name": "FABRIQUE DE LA PAROISSE DE SAINT FRANCOIS D'ASSISE ARCHIDIOCESE DE MONTREAL", "designationCode": "C", "categoryCode": "38", "address": "700 GEORGES-BIZET", "city": "MONTREAL", "province": "QC", "country": "CA", "postalCode": "H1L5S9", "twitter": "None", "instagram": "None", "facebook": "None", "youtube": "None", "website": "None", "summary": "None", "logo": "None", "latitude": 45.590965147902565, "longitude": -73.51100921775621}, "141268227RR0001": {"name": "FABRIQUE DE LA PAROISSE DE SAINT FRANCOIS DE SALES ARCHIDIOCESE DE MONTREAL", "designationCode": "C", "categoryCode": "38", "address": "7070 BOUL DES MILLE ILES", "city": "ST-FRANCOIS LAVAL", "province": "QC", "country": "CA", "postalCode": "H7A4B3", "twitter": "None", "instagram": "None", "facebook": "None", "youtube": "None", "website": "None", "summary": "None", "logo": "None", "latitude": 45.69189952063047, "longitude": -73.61813009088816}, "887393197RR0001": {"name": "FABRIQUE DE LA PAROISSE DE SAINT JOSEPH DE MONT ROYAL ARCHIDIOCESE DE MONTREAL", "designationCode": "C", "categoryCode": "38", "address": "100 AVE THORNTON", "city": "VILLE MONT-ROYAL", "province": "QC", "country": "CA", "postalCode": "H3P1H5", "twitter": "None", "instagram": "None", "facebook": "None", "youtube": "None", "website": "None", "summary": "None", "logo": "None", "latitude": 45.52074629779568, "longitude": -73.64539402455426}, "130122617RR0001": {"name": "FABRIQUE DE LA PAROISSE DE SAINT LEANDRE", "designationCode": "C", "categoryCode": "38", "address": "3025 RUE PRINCIPALE", "city": "ST-LEANDRE MATANE", "province": "QC", "country": "CA", "postalCode": "G0J2V0", "twitter": "None", "instagram": "None", "facebook": "None", "youtube": "None", "website": "None", "summary": "None", "logo": "None", "latitude": 48.731260088233775, "longitude": -67.60648847942778}, "132152943RR0001": {"name": "FABRIQUE DE LA PAROISSE DE SAINT LIBOIRE", "designationCode": "C", "categoryCode": "38", "address": "111 RUE SAINT-PATRICE R.R. 1", "city": "SAINT-LIBOIRE", "province": "QC", "country": "CA", "postalCode": "J0H1R0", "twitter": "None", "instagram": "None", "facebook": "None", "youtube": "None", "website": "None", "summary": "None", "logo": "None", "latitude": 45.651451895608744, "longitude": -72.7627841500956}, "130296197RR0001": {"name": "FABRIQUE DE LA PAROISSE DE SAINT PAUL", "designationCode": "C", "categoryCode": "38", "address": "1005 PRINCIPALE", "city": "ST-PAUL D'ABBOTSFORD", "province": "QC", "country": "CA", "postalCode": "J0E1A0", "twitter": "None", "instagram": "None", "facebook": "None", "youtube": "None", "website": "None", "summary": "None", "logo": "None", "latitude": 45.43644639333846, "longitude": -72.87861427779676}, "132427220RR0001": {"name": "FABRIQUE DE LA PAROISSE DE SAINT PAUL DE LA CROIX ARCHIDIOCESE DE MONTREAL", "designationCode": "C", "categoryCode": "38", "address": "10215 GEORGES-BARIL", "city": "MONTREAL", "province": "QC", "country": "CA", "postalCode": "H2C2M9", "twitter": "None", "instagram": "None", "facebook": "None", "youtube": "None", "website": "None", "summary": "None", "logo": "None", "latitude": 45.55810496087478, "longitude": -73.6578525545329}, "131641615RR0001": {"name": "FABRIQUE DE LA PAROISSE DE SAINT PIERRE AUX LIENS ARCHIDIOCESE DE MONTREAL", "designationCode": "C", "categoryCode": "38", "address": "233, RUE SAINT-JACQUES", "city": "LACHINE", "province": "QC", "country": "CA", "postalCode": "H8R1E4", "twitter": "None", "instagram": "None", "facebook": "None", "youtube": "None", "website": "None", "summary": "None", "logo": "None", "latitude": 45.44443027728079, "longitude": -73.64692537942166}, "131158727RR0001": {"name": "FABRIQUE DE LA PAROISSE DE SAINT RAYMOND DE PENNAFORT ARCHIDIOCESE DE MONTREAL", "designationCode": "C", "categoryCode": "38", "address": "1-5765 RUE SAINT-JACQUES", "city": "MONTREAL", "province": "QC", "country": "CA", "postalCode": "H4A2E8", "twitter": "None", "instagram": "None", "facebook": "None", "youtube": "None", "website": "None", "summary": "None", "logo": "None", "latitude": 45.46676889537761, "longitude": -73.6095213275145}, "132041062RR0001": {"name": "FABRIQUE DE LA PAROISSE DE SAINT SIMON", "designationCode": "C", "categoryCode": "38", "address": "4 RUE ST-JEAN-BAPTISTE", "city": "ST-SIMON-DE-BAGOT", "province": "QC", "country": "CA", "postalCode": "J0H1Y0", "twitter": "None", "instagram": "None", "facebook": "None", "youtube": "None", "website": "None", "summary": "None", "logo": "None", "latitude": 45.734688188181636, "longitude": -72.8727738773442}, "130973902RR0001": {"name": "FABRIQUE DE LA PAROISSE DE SAINT-ALEXANDRE", "designationCode": "C", "categoryCode": "38", "address": "1138, ROUTE 133", "city": "SABREVOIS", "province": "QC", "country": "CA", "postalCode": "J0J2G0", "twitter": "None", "instagram": "None", "facebook": "None", "youtube": "None", "website": "None", "summary": "None", "logo": "None", "latitude": 45.20793032624076, "longitude": -73.22952032624076}, "107362899RR0001": {"name": "FABRIQUE DE LA PAROISSE DE SAINT-ANACLET", "designationCode": "C", "categoryCode": "38", "address": "25, PRINCIPALE EST", "city": "ST-ANACLET", "province": "QC", "country": "CA", "postalCode": "G0K1H0", "twitter": "None", "instagram": "None", "facebook": "None", "youtube": "None", "website": "None", "summary": "None", "logo": "None", "latitude": 47.93892099971154, "longitude": -68.60180653523008}, "131809923RR0001": {"name": "FABRIQUE DE LA PAROISSE DE SAINT-ANDRE D'ACTON", "designationCode": "C", "categoryCode": "38", "address": "CP 610", "city": "ACTON VALE", "province": "QC", "country": "CA", "postalCode": "J0H1A0", "twitter": "None", "instagram": "None", "facebook": "None", "youtube": "None", "website": "None", "summary": "None", "logo": "None", "latitude": 45.64445472342259, "longitude": -72.5569009227241}, "107362964RR0001": {"name": "FABRIQUE DE LA PAROISSE DE SAINT-ANTOINE", "designationCode": "C", "categoryCode": "38", "address": "1028 DU RIVAGE", "city": "ST ANTOINE SUR RICHELIEU", "province": "QC", "country": "CA", "postalCode": "J0L1R0", "twitter": "None", "instagram": "None", "facebook": "None", "youtube": "None", "website": "None", "summary": "None", "logo": "None", "latitude": 45.778806083819035, "longitude": -73.17219978212822}, "118905751RR0001": {"name": "FABRIQUE DE LA PAROISSE DE SAINT-ANTOINE-MARIE-CLARET ARCHIDIOCESE DE MONTREAL", "designationCode": "C", "categoryCode": "38", "address": "10660 RUE LAROSE", "city": "MONTREAL", "province": "QC", "country": "CA", "postalCode": "H2B2Z3", "twitter": "None", "instagram": "None", "facebook": "None", "youtube": "None", "website": "None", "summary": "None", "logo": "None", "latitude": 45.58049191338236, "longitude": -73.65071239858025}, "887375996RR0001": {"name": "FABRIQUE DE LA PAROISSE DE SAINT-BERNARDIN-DE-SIENNE", "designationCode": "C", "categoryCode": "38", "address": "7979 8EME AVENUE", "city": "MONTREAL", "province": "QC", "country": "CA", "postalCode": "H1Z2W1", "twitter": "None", "instagram": "None", "facebook": "None", "youtube": "None", "website": "None", "summary": "None", "logo": "None", "latitude": 45.561372845744415, "longitude": -73.6096494689458}, "130636616RR0001": {"name": "FABRIQUE DE LA PAROISSE DE SAINT-BRUNO", "designationCode": "C", "categoryCode": "38", "address": "560 RUE ST-ALPHONSE", "city": "ST-BRUNO", "province": "QC", "country": "CA", "postalCode": "G0W2L0", "twitter": "None", "instagram": "None", "facebook": "None", "youtube": "None", "website": "None", "summary": "None", "logo": "None", "latitude": 48.47150060214686, "longitude": -71.65376525286118}, "118905850RR0001": {"name": "FABRIQUE DE LA PAROISSE DE SAINT-DAMASE", "designationCode": "C", "categoryCode": "38", "address": "365 RUE PRINCIPALE", "city": "SAINT-DAMASE MATAPEDIA", "province": "QC", "country": "CA", "postalCode": "G0J2J0", "twitter": "None", "instagram": "None", "facebook": "None", "youtube": "None", "website": "None", "summary": "None", "logo": "None", "latitude": 48.66215027087548, "longitude": -67.826626741618}, "118906080RR0001": {"name": "FABRIQUE DE LA PAROISSE DE SAINT-ENFANT JESUS DE MONTREAL", "designationCode": "C", "categoryCode": "38", "address": "5039 ST-DOMINIQUE", "city": "MONTREAL", "province": "QC", "country": "CA", "postalCode": "H2T1V1", "twitter": "None", "instagram": "None", "facebook": "None", "youtube": "None", "website": "None", "summary": "None", "logo": "None", "latitude": 45.52328612715651, "longitude": -73.59164042169223}, "132208869RR0001": {"name": "FABRIQUE DE LA PAROISSE DE SAINT-FRANCOIS-XAVIER DE VILLE DEBROMONT", "designationCode": "C", "categoryCode": "38", "address": "650 SHEFFORD", "city": "BROMONT", "province": "QC", "country": "CA", "postalCode": "J2L1C1", "twitter": "None", "instagram": "None", "facebook": "None", "youtube": "None", "website": "None", "summary": "None", "logo": "None", "latitude": 45.318613074124166, "longitude": -72.65448040259096}, "118907492RR0001": {"name": "FABRIQUE DE LA PAROISSE DE SAINT-GEORGES", "designationCode": "C", "categoryCode": "38", "address": "1138, ROUTE 133", "city": "SABREVOIS", "province": "QC", "country": "CA", "postalCode": "J0J2G0", "twitter": "None", "instagram": "None", "facebook": "None", "youtube": "None", "website": "None", "summary": "None", "logo": "None", "latitude": 45.20793032624076, "longitude": -73.22952032624076}, "131475923RR0001": {"name": "FABRIQUE DE LA PAROISSE DE SAINT-HUGUES", "designationCode": "C", "categoryCode": "38", "address": "401 NOTRE-DAME", "city": "SAINT-HUGUES CTE JOHNSON", "province": "QC", "country": "CA", "postalCode": "J0H1N0", "twitter": "None", "instagram": "None", "facebook": "None", "youtube": "None", "website": "None", "summary": "None", "logo": "None", "latitude": 45.79234435994598, "longitude": -72.85637956318855}, "107359473RR0001": {"name": "FABRIQUE DE LA PAROISSE DE SAINT-JUDE", "designationCode": "C", "categoryCode": "38", "address": "931 RUE ST EDOUARD", "city": "ST JUDE", "province": "QC", "country": "CA", "postalCode": "J0H1P0", "twitter": "None", "instagram": "None", "facebook": "None", "youtube": "None", "website": "None", "summary": "None", "logo": "None", "latitude": 45.77293419677997, "longitude": -72.98663917568814}, "886989391RR0001": {"name": "FABRIQUE DE LA PAROISSE DE SAINT-MAXIME DU MONT-LOUIS", "designationCode": "C", "categoryCode": "38", "address": "2, 1E AVENUE EST, C.P.98", "city": "MONT-LOUIS", "province": "QC", "country": "CA", "postalCode": "G0E1T0", "twitter": "None", "instagram": "None", "facebook": "None", "youtube": "None", "website": "None", "summary": "None", "logo": "None", "latitude": 49.22937857227785, "longitude": -65.73026052539099}, "118906429RR0001": {"name": "FABRIQUE DE LA PAROISSE DE SAINT-OURS", "designationCode": "C", "categoryCode": "38", "address": "", "city": "ST-OURS SUR RICHELIEU", "province": "QC", "country": "CA", "postalCode": "J0G1P0", "twitter": "None", "instagram": "None", "facebook": "None", "youtube": "None", "website": "None", "summary": "None", "logo": "None", "latitude": 45.86409000000003, "longitude": -73.14485999999994}, "118906510RR0001": {"name": "FABRIQUE DE LA PAROISSE DE SAINT-SIMON", "designationCode": "C", "categoryCode": "38", "address": "34 DE L'\u00c9GLISE                CP 70", "city": "SAINT SIMON", "province": "QC", "country": "CA", "postalCode": "G0L4C0", "twitter": "None", "instagram": "None", "facebook": "None", "youtube": "None", "website": "None", "summary": "None", "logo": "None", "latitude": 48.201376713312825, "longitude": -69.04266376354654}, "131791691RR0001": {"name": "FABRIQUE DE LA PAROISSE DE SAINT-THEODORE D'ACTON", "designationCode": "C", "categoryCode": "38", "address": "1760 RUE PRINCIPALE", "city": "ST-THEODORE-D'ACTON", "province": "QC", "country": "CA", "postalCode": "J0H1Z0", "twitter": "None", "instagram": "None", "facebook": "None", "youtube": "None", "website": "None", "summary": "None", "logo": "None", "latitude": 45.68498049379626, "longitude": -72.58361013918865}, "107364549RR0001": {"name": "FABRIQUE DE LA PAROISSE DE SAINT-ULRIC-DE-RIVIERE-BLANCHE", "designationCode": "C", "categoryCode": "38", "address": "192 ULRIC-TESSIER", "city": "ST-ULRIC", "province": "QC", "country": "CA", "postalCode": "G0J3H0", "twitter": "None", "instagram": "None", "facebook": "None", "youtube": "None", "website": "None", "summary": "None", "logo": "None", "latitude": 48.78682732168614, "longitude": -67.70306690536091}, "107360729RR0001": {"name": "FABRIQUE DE LA PAROISSE DE SAINT-VALERIEN", "designationCode": "C", "categoryCode": "38", "address": "120, RUE PRINCIPALE", "city": "ST-VALERIEN", "province": "QC", "country": "CA", "postalCode": "G0L4E0", "twitter": "None", "instagram": "None", "facebook": "None", "youtube": "None", "website": "None", "summary": "None", "logo": "None", "latitude": 48.33846641078527, "longitude": -68.6654331586357}, "888608445RR0001": {"name": "FABRIQUE DE LA PAROISSE DE SAINT-VALERIEN DE MILTON", "designationCode": "C", "categoryCode": "38", "address": "1375 RUE PRINCIPALE           C.P. 30", "city": "SAINT-VALERIEN", "province": "QC", "country": "CA", "postalCode": "J0H2B0", "twitter": "None", "instagram": "None", "facebook": "None", "youtube": "None", "website": "None", "summary": "None", "logo": "None", "latitude": 45.5647415087999, "longitude": -72.70975944601535}, "129964623RR0001": {"name": "FABRIQUE DE LA PAROISSE DE SAINTE ANNE DE BELLEVUE ARCHDIOCESE DE MONTREAL", "designationCode": "C", "categoryCode": "38", "address": "1 RUE DE L'EGLISE", "city": "STE-ANNE-DE-BELLEVUE", "province": "QC", "country": "CA", "postalCode": "H9X1W4", "twitter": "None", "instagram": "None", "facebook": "None", "youtube": "None", "website": "None", "summary": "None", "logo": "None", "latitude": 45.405734647786986, "longitude": -73.9551789076982}, "132075920RR0001": {"name": "FABRIQUE DE LA PAROISSE DE SAINTE ANNE DE SABREVOIS", "designationCode": "C", "categoryCode": "38", "address": "1138 ROUTE 133", "city": "SABREVOIS", "province": "QC", "country": "CA", "postalCode": "J0J2G0", "twitter": "None", "instagram": "None", "facebook": "None", "youtube": "None", "website": "None", "summary": "None", "logo": "None", "latitude": 45.20793032624076, "longitude": -73.22952032624076}, "131967036RR0001": {"name": "FABRIQUE DE LA PAROISSE DE SAINTE MADELEINE", "designationCode": "C", "categoryCode": "38", "address": "845 RUE ST SIMON CP 90", "city": "STE MADELEINE", "province": "QC", "country": "CA", "postalCode": "J0H1S0", "twitter": "None", "instagram": "None", "facebook": "None", "youtube": "None", "website": "None", "summary": "None", "logo": "None", "latitude": 45.59435911798127, "longitude": -73.09182346543375}, "130919053RR0001": {"name": "FABRIQUE DE LA PAROISSE DE SAINTE ROSALIE", "designationCode": "C", "categoryCode": "38", "address": "5330 RUE DES SEIGNEURS .E.", "city": "ST HYACINTHE", "province": "QC", "country": "CA", "postalCode": "J2R1Z8", "twitter": "None", "instagram": "None", "facebook": "None", "youtube": "None", "website": "None", "summary": "None", "logo": "None", "latitude": 45.645653754920055, "longitude": -72.89783625277587}, "107363178RR0001": {"name": "FABRIQUE DE LA PAROISSE DE SAINTE-AGATHE", "designationCode": "C", "categoryCode": "38", "address": "400A CH GOSFORD", "city": "SAINTE-AGATHE-DE-LOTBINIERE", "province": "QC", "country": "CA", "postalCode": "G0S2A0", "twitter": "None", "instagram": "None", "facebook": "None", "youtube": "None", "website": "None", "summary": "None", "logo": "None", "latitude": 46.34275841671646, "longitude": -71.43262062868064}, "118905959RR0001": {"name": "FABRIQUE DE LA PAROISSE DE SAINTE-ANNE-DE-SOREL", "designationCode": "C", "categoryCode": "38", "address": "170 RUE GEORGE", "city": "SOREL", "province": "QC", "country": "CA", "postalCode": "J3P1E1", "twitter": "None", "instagram": "None", "facebook": "None", "youtube": "None", "website": "None", "summary": "None", "logo": "None", "latitude": 46.04588080483615, "longitude": -73.10805769037466}, "118905967RR0001": {"name": "FABRIQUE DE LA PAROISSE DE SAINTE-BRIGIDE", "designationCode": "C", "categoryCode": "38", "address": "490 RUE PRINCIPALE", "city": "STE-BRIGIDE D'IBERVILLE", "province": "QC", "country": "CA", "postalCode": "J0J1X0", "twitter": "None", "instagram": "None", "facebook": "None", "youtube": "None", "website": "None", "summary": "None", "logo": "None", "latitude": 45.32294120731155, "longitude": -73.06469092480796}, "130651409RR0001": {"name": "FABRIQUE DE LA PAROISSE DE SAINTE-CECILE DE MILTON", "designationCode": "C", "categoryCode": "38", "address": "345 RUE PRINCIPALE", "city": "SAINTE-CECILE-DE-MILTON", "province": "QC", "country": "CA", "postalCode": "J0E2C0", "twitter": "None", "instagram": "None", "facebook": "None", "youtube": "None", "website": "None", "summary": "None", "logo": "None", "latitude": 45.4831167874605, "longitude": -72.7451947922031}, "131786501RR0001": {"name": "FABRIQUE DE LA PAROISSE DE SAINTE-GERMAINE DE L'ANSE-AUX-GASCONS", "designationCode": "C", "categoryCode": "38", "address": "#01 RTE 132 EST               CP 99", "city": "GASCONS", "province": "QC", "country": "CA", "postalCode": "G0C1P0", "twitter": "None", "instagram": "None", "facebook": "None", "youtube": "None", "website": "None", "summary": "None", "logo": "None", "latitude": 48.194776014795224, "longitude": -64.8580517006094}, "107363350RR0001": {"name": "FABRIQUE DE LA PAROISSE DE SAINTE-JULIE-DE-LAURIERVILLE", "designationCode": "C", "categoryCode": "38", "address": "145 GRENIER", "city": "LAURIERVILLE", "province": "QC", "country": "CA", "postalCode": "G0S1P0", "twitter": "None", "instagram": "None", "facebook": "None", "youtube": "None", "website": "None", "summary": "None", "logo": "None", "latitude": 46.29705958869511, "longitude": -71.65693795343027}, "118906031RR0001": {"name": "FABRIQUE DE LA PAROISSE DE SAINTE-LOUISE", "designationCode": "C", "categoryCode": "38", "address": "510 RUE PRINCIPALE", "city": "SAINTE-LOUISE", "province": "QC", "country": "CA", "postalCode": "G0R3K0", "twitter": "None", "instagram": "None", "facebook": "None", "youtube": "None", "website": "None", "summary": "None", "logo": "None", "latitude": 47.279893895060475, "longitude": -70.13471086438936}, "130555238RR0001": {"name": "FABRIQUE DE LA PAROISSE DE SAINTE-LOUISE-DE MARILLAC, ARCHIDIOCESE DE MONTREAL", "designationCode": "C", "categoryCode": "38", "address": "7901 RUE STE-CLAIRE", "city": "MONTREAL", "province": "QC", "country": "CA", "postalCode": "H1L1W2", "twitter": "None", "instagram": "None", "facebook": "None", "youtube": "None", "website": "None", "summary": "None", "logo": "None", "latitude": 45.594184766316516, "longitude": -73.52876098283197}, "107587412RR0001": {"name": "FABRIQUE DE LA PAROISSE DE SAINTE-LUCE", "designationCode": "C", "categoryCode": "38", "address": "20 RUE DU FLEUVE O            R.R. 1", "city": "SAINTE-LUCE", "province": "QC", "country": "CA", "postalCode": "G0K1P0", "twitter": "None", "instagram": "None", "facebook": "None", "youtube": "None", "website": "None", "summary": "None", "logo": "None", "latitude": 48.54926626123794, "longitude": -68.3845675429917}, "107363640RR0001": {"name": "FABRIQUE DE LA PAROISSE DE SAINTE-VICTOIRE", "designationCode": "C", "categoryCode": "38", "address": "519 RANG SUD", "city": "SAINTE-VICTOIRE-DE-SOREL", "province": "QC", "country": "CA", "postalCode": "J0G1T0", "twitter": "None", "instagram": "None", "facebook": "None", "youtube": "None", "website": "None", "summary": "None", "logo": "None", "latitude": 45.95832935399601, "longitude": -73.0837369702485}, "127925840RR0001": {"name": "FABRIQUE DE LA PAROISSE DE ST CHARLES BORROMEE", "designationCode": "C", "categoryCode": "38", "address": "18, RUE DU COUVENT", "city": "ST-AMBROISE", "province": "QC", "country": "CA", "postalCode": "G7P2J2", "twitter": "None", "instagram": "None", "facebook": "None", "youtube": "None", "website": "None", "summary": "None", "logo": "None", "latitude": 48.55794145715251, "longitude": -71.3236905}, "130725773RR0001": {"name": "FABRIQUE DE LA PAROISSE DE ST CHARLES GARNIER", "designationCode": "C", "categoryCode": "38", "address": "3710 RUE CHARLES-HAMEL", "city": "SHERBROOKE", "province": "QC", "country": "CA", "postalCode": "J1L1M6", "twitter": "None", "instagram": "None", "facebook": "None", "youtube": "None", "website": "None", "summary": "None", "logo": "None", "latitude": 45.41106951341711, "longitude": -71.95705199999999}, "132041146RR0001": {"name": "FABRIQUE DE LA PAROISSE DE ST EDOUARD DES MECHINS", "designationCode": "C", "categoryCode": "38", "address": "162 RUE PRINCIPALE            CP 8", "city": "LES MECHINS", "province": "QC", "country": "CA", "postalCode": "G0J1T0", "twitter": "None", "instagram": "None", "facebook": "None", "youtube": "None", "website": "None", "summary": "None", "logo": "None", "latitude": 49.00150406748774, "longitude": -66.97993013630311}, "130014632RR0001": {"name": "FABRIQUE DE LA PAROISSE DE ST ENFANT JESUS PTE AUX TREMBLES ARCHIDIOCESE MONTREAL", "designationCode": "C", "categoryCode": "38", "address": "1630 BOUL. ST.JEAN-BAPTISTE", "city": "MONTR\u00c9AL", "province": "QC", "country": "CA", "postalCode": "H1B4A4", "twitter": "None", "instagram": "None", "facebook": "None", "youtube": "None", "website": "None", "summary": "None", "logo": "None", "latitude": 45.642564652201735, "longitude": -73.50632666209813}, "888234598RR0001": {"name": "FABRIQUE DE LA PAROISSE DE ST FRANCOIS", "designationCode": "C", "categoryCode": "38", "address": "534 CH. SAINT-FRANCOIS O", "city": "ST-FRANCOIS-D-L-RIVIERE-DU-SUD", "province": "QC", "country": "CA", "postalCode": "G0R3A0", "twitter": "None", "instagram": "None", "facebook": "None", "youtube": "None", "website": "None", "summary": "None", "logo": "None", "latitude": 46.88643661495834, "longitude": -70.71507324428738}, "130635741RR0001": {"name": "FABRIQUE DE LA PAROISSE DE ST GILBERT ARCHIDIOCESE DE MONTREAL", "designationCode": "C", "categoryCode": "38", "address": "5420 RUE ANGEVIN", "city": "SAINT-L\u00c9ONARD", "province": "QC", "country": "CA", "postalCode": "H1S1H9", "twitter": "None", "instagram": "None", "facebook": "None", "youtube": "None", "website": "None", "summary": "None", "logo": "None", "latitude": 45.580479697992054, "longitude": -73.58245057781777}, "132261975RR0001": {"name": "FABRIQUE DE LA PAROISSE DE ST JEAN BAPTISTE MARIE VIANNEY ARCHIDIOCESE MONTREAL", "designationCode": "C", "categoryCode": "38", "address": "6421 25EME AVE", "city": "MONTREAL", "province": "QC", "country": "CA", "postalCode": "H1T3L5", "twitter": "None", "instagram": "None", "facebook": "None", "youtube": "None", "website": "None", "summary": "None", "logo": "None", "latitude": 45.56423688426911, "longitude": -73.57758521634258}, "118906619RR0001": {"name": "FABRIQUE DE LA PAROISSE DE ST-ADELME", "designationCode": "C", "categoryCode": "38", "address": "220 PRINCIPALE", "city": "ST-ADELME", "province": "QC", "country": "CA", "postalCode": "G0J2B0", "twitter": "None", "instagram": "None", "facebook": "None", "youtube": "None", "website": "None", "summary": "None", "logo": "None", "latitude": 48.82211721671797, "longitude": -67.3176711075939}, "118906643RR0001": {"name": "FABRIQUE DE LA PAROISSE DE ST-ALEXANDRE-DES-LACS", "designationCode": "C", "categoryCode": "38", "address": "16 DE L'EGLISE", "city": "SAINT-ALEXANDRE-DES-LACS", "province": "QC", "country": "CA", "postalCode": "G0J2C0", "twitter": "None", "instagram": "None", "facebook": "None", "youtube": "None", "website": "None", "summary": "None", "logo": "None"}, "107365488RR0001": {"name": "FABRIQUE DE LA PAROISSE DE ST-BENJAMIN", "designationCode": "C", "categoryCode": "38", "address": "258 PRINCIPALE                CP 70", "city": "SAINT-BENJAMIN", "province": "QC", "country": "CA", "postalCode": "G0M1N0", "twitter": "None", "instagram": "None", "facebook": "None", "youtube": "None", "website": "None", "summary": "None", "logo": "None", "latitude": 46.27732482154189, "longitude": -70.60367951915859}, "118906759RR0001": {"name": "FABRIQUE DE LA PAROISSE DE ST-DAVID", "designationCode": "C", "categoryCode": "38", "address": "161 BOUL. ST-DAVID", "city": "FALARDEAU", "province": "QC", "country": "CA", "postalCode": "G0V1C0", "twitter": "None", "instagram": "None", "facebook": "None", "youtube": "None", "website": "None", "summary": "None", "logo": "None", "latitude": 48.62129027840597, "longitude": -71.11163678100303}, "107363152RR0001": {"name": "FABRIQUE DE LA PAROISSE DE ST-DONAT-DE-MONTCALM", "designationCode": "C", "categoryCode": "38", "address": "475 RUE PRINCIPALE", "city": "ST-DONAT", "province": "QC", "country": "CA", "postalCode": "J0T2C0", "twitter": "None", "instagram": "None", "facebook": "None", "youtube": "None", "website": "None", "summary": "None", "logo": "None", "latitude": 46.31839190536095, "longitude": -74.22148556466044}, "107360265RR0001": {"name": "FABRIQUE DE LA PAROISSE DE ST-ELZEAR", "designationCode": "C", "categoryCode": "38", "address": "138 A CH.PRINCIPAL            CP 88", "city": "ST-ELZEAR DE BONAVENTURE", "province": "QC", "country": "CA", "postalCode": "G0C2W0", "twitter": "None", "instagram": "None", "facebook": "None", "youtube": "None", "website": "None", "summary": "None", "logo": "None", "latitude": 48.159362457729436, "longitude": -65.39637540189847}, "107368326RR0001": {"name": "FABRIQUE DE LA PAROISSE DE ST-ISIDORE-DE-LAC-DES-AIGLES", "designationCode": "C", "categoryCode": "38", "address": "72-A RUE PRINCIPALE           CP 39", "city": "LAC-DES-AIGLES", "province": "QC", "country": "CA", "postalCode": "G0K1V0", "twitter": "None", "instagram": "None", "facebook": "None", "youtube": "None", "website": "None", "summary": "None", "logo": "None", "latitude": 47.98819004382843, "longitude": -68.67633056308813}, "107368805RR0001": {"name": "FABRIQUE DE LA PAROISSE DE ST-JEROME", "designationCode": "C", "categoryCode": "38", "address": "88 RUE ST-ANDRE", "city": "METABETCHOUAN LAC-A-LA-CROIX", "province": "QC", "country": "CA", "postalCode": "G8G1V3", "twitter": "None", "instagram": "None", "facebook": "None", "youtube": "None", "website": "None", "summary": "None", "logo": "None", "latitude": 48.428117213168605, "longitude": -71.87223895386296}, "118907187RR0001": {"name": "FABRIQUE DE LA PAROISSE DE ST-LEONARD ARCHIDIOCESE DE MONTREAL", "designationCode": "C", "categoryCode": "38", "address": "5525 RUE JARRY EST", "city": "ST-LEONARD", "province": "QC", "country": "CA", "postalCode": "H1P1V1", "twitter": "None", "instagram": "None", "facebook": "None", "youtube": "None", "website": "None", "summary": "None", "logo": "None", "latitude": 45.58546892899157, "longitude": -73.59028630359447}, "107360604RR0001": {"name": "FABRIQUE DE LA PAROISSE DE ST-LUC-DE-MATANE", "designationCode": "C", "categoryCode": "38", "address": "4 RUE NOEL", "city": "MATANE", "province": "QC", "country": "CA", "postalCode": "G4W9G9", "twitter": "None", "instagram": "None", "facebook": "None", "youtube": "None", "website": "None", "summary": "None", "logo": "None", "latitude": 48.79561536499495, "longitude": -67.47083732566819}, "132152919RR0001": {"name": "FABRIQUE DE LA PAROISSE DE ST-PIERRE-DE-LAMY,", "designationCode": "C", "categoryCode": "38", "address": "105A DE L'EGLISE", "city": "ST-PIERRE-DE-LAMY", "province": "QC", "country": "CA", "postalCode": "G0L4B0", "twitter": "None", "instagram": "None", "facebook": "None", "youtube": "None", "website": "None", "summary": "None", "logo": "None", "latitude": 47.78421580146015, "longitude": -69.03188558050583}, "118907310RR0001": {"name": "FABRIQUE DE LA PAROISSE DE ST-RENE-GOUPIL DE BEAUCE", "designationCode": "C", "categoryCode": "38", "address": "824, RUE PRINCIPALE", "city": "ST-RENE BEAUCE", "province": "QC", "country": "CA", "postalCode": "G0M1Z0", "twitter": "None", "instagram": "None", "facebook": "None", "youtube": "None", "website": "None", "summary": "None", "logo": "None", "latitude": 46.010529115182635, "longitude": -70.61845001598459}, "118907369RR0001": {"name": "FABRIQUE DE LA PAROISSE DE ST-ZACHARIE", "designationCode": "C", "categoryCode": "38", "address": "750 15E RUE", "city": "SAINT ZACHARIE", "province": "QC", "country": "CA", "postalCode": "G0M2C0", "twitter": "None", "instagram": "None", "facebook": "None", "youtube": "None", "website": "None", "summary": "None", "logo": "None", "latitude": 46.126520290005395, "longitude": -70.36283128654294}, "130124100RR0001": {"name": "FABRIQUE DE LA PAROISSE DE STE EMMELIE", "designationCode": "C", "categoryCode": "38", "address": "1009 RUE DE L'\u00c9GLISE", "city": "LECLERCVILLE", "province": "QC", "country": "CA", "postalCode": "G0S2K0", "twitter": "None", "instagram": "None", "facebook": "None", "youtube": "None", "website": "None", "summary": "None", "logo": "None", "latitude": 46.57107779442534, "longitude": -71.99981562131475}, "130654833RR0001": {"name": "FABRIQUE DE LA PAROISSE DE STE THERESE", "designationCode": "C", "categoryCode": "38", "address": "10 DE LEGLISE", "city": "STE-THERESE", "province": "QC", "country": "CA", "postalCode": "J7E3L1", "twitter": "None", "instagram": "None", "facebook": "None", "youtube": "None", "website": "None", "summary": "None", "logo": "None", "latitude": 45.6405903388773, "longitude": -73.8442895985609}, "118906767RR0001": {"name": "FABRIQUE DE LA PAROISSE DE STE-ANGELE-DE-MERICI ARCHIDIOCESE DE MONTREAL", "designationCode": "C", "categoryCode": "38", "address": "5275 BOUL. LAVOISIER", "city": "SAINT-LEONARD", "province": "QC", "country": "CA", "postalCode": "H1R1J5", "twitter": "None", "instagram": "None", "facebook": "None", "youtube": "None", "website": "None", "summary": "None", "logo": "None", "latitude": 45.589939038057366, "longitude": -73.60739074176223}, "107366288RR0001": {"name": "FABRIQUE DE LA PAROISSE DE STE-BLANDINE", "designationCode": "C", "categoryCode": "38", "address": "646, ROUTE DES PIONNIERS", "city": "RIMOUSKI", "province": "QC", "country": "CA", "postalCode": "G5N5P1", "twitter": "None", "instagram": "None", "facebook": "None", "youtube": "None", "website": "None", "summary": "None", "logo": "None", "latitude": 48.361953408506274, "longitude": -68.46059516186699}, "131717456RR0001": {"name": "FABRIQUE DE LA PAROISSE DE STE-GERTRUDE", "designationCode": "C", "categoryCode": "38", "address": "728 RANG 8", "city": "STE GERTRUDE", "province": "QC", "country": "CA", "postalCode": "J0Y2L0", "twitter": "None", "instagram": "None", "facebook": "None", "youtube": "None", "website": "None", "summary": "None", "logo": "None", "latitude": 48.54705900000006, "longitude": -78.36435349999994}, "118906924RR0001": {"name": "FABRIQUE DE LA PAROISSE DE STE-MARGUERITE-MARIE-DE-MISTASSINI", "designationCode": "C", "categoryCode": "38", "address": "524 ROUTE STE-MARGUERITE", "city": "DOLBEAU-MISTASSINI", "province": "QC", "country": "CA", "postalCode": "G8L5P2", "twitter": "None", "instagram": "None", "facebook": "None", "youtube": "None", "website": "None", "summary": "None", "logo": "None", "latitude": 48.81719818154518, "longitude": -72.23518545646003}, "889795043RR0001": {"name": "FABRIQUE DE LA PAROISSE DE SULLY,", "designationCode": "C", "categoryCode": "38", "address": "466 DES ETUDIANTS", "city": "POHENEGAMOOK", "province": "QC", "country": "CA", "postalCode": "G0L1J0", "twitter": "None", "instagram": "None", "facebook": "None", "youtube": "None", "website": "None", "summary": "None", "logo": "None", "latitude": 47.45595179877663, "longitude": -69.15209179317938}, "129433652RR0001": {"name": "FABRIQUE DE LA PAROISSE DES SAINTS ANGES DE LACHINE ARCHIDIOCESE DE MONTREAL", "designationCode": "C", "categoryCode": "38", "address": "1400 BOUL SAINT-JOSEPH", "city": "LACHINE", "province": "QC", "country": "CA", "postalCode": "H8S2M8", "twitter": "None", "instagram": "None", "facebook": "None", "youtube": "None", "website": "None", "summary": "None", "logo": "None", "latitude": 45.431816489324184, "longitude": -73.67655082944775}, "887530996RR0001": {"name": "FABRIQUE DE LA PAROISSE DES STS-MARTYRS CANADIENS", "designationCode": "C", "categoryCode": "38", "address": "10005, RUE PARTHENAIS", "city": "MONTREAL", "province": "QC", "country": "CA", "postalCode": "H2B2L3", "twitter": "None", "instagram": "None", "facebook": "None", "youtube": "None", "website": "None", "summary": "None", "logo": "None", "latitude": 45.571056389145205, "longitude": -73.64655030042141}, "118907401RR0001": {"name": "FABRIQUE DE LA PAROISSE DU BON PASTEUR DE MANNEVILLE", "designationCode": "C", "categoryCode": "38", "address": "236, 8E ET 9E RANG", "city": "STE-GERTRUDE-MANNEVILLE", "province": "QC", "country": "CA", "postalCode": "J0Y2L0", "twitter": "None", "instagram": "None", "facebook": "None", "youtube": "None", "website": "None", "summary": "None", "logo": "None", "latitude": 48.54706936445088, "longitude": -78.4311561124382}, "129871216RR0001": {"name": "FABRIQUE DE LA PAROISSE DU CHRIST ROI D'AMOS", "designationCode": "C", "categoryCode": "38", "address": "721, 2E AVENUE OUEST", "city": "AMOS", "province": "QC", "country": "CA", "postalCode": "J9T1S9", "twitter": "None", "instagram": "None", "facebook": "None", "youtube": "None", "website": "None", "summary": "None", "logo": "None", "latitude": 48.57304648326468, "longitude": -78.1280505}, "868434523RR0001": {"name": "FABRIQUE DE LA PAROISSE LA NATIVITE-DE-JESUS", "designationCode": "C", "categoryCode": "38", "address": "8 AVENUE RADISSON", "city": "BAIE-COMEAU", "province": "QC", "country": "CA", "postalCode": "G4Z1W4", "twitter": "None", "instagram": "None", "facebook": "None", "youtube": "None", "website": "None", "summary": "None", "logo": "None", "latitude": 49.21622447013696, "longitude": -68.16180197155059}, "131582306RR0001": {"name": "FABRIQUE DE LA PAROISSE LA PRESENTATION", "designationCode": "C", "categoryCode": "38", "address": "551,RUE DE L'EGLISE", "city": "LA PRESENTATION", "province": "QC", "country": "CA", "postalCode": "J0H1B0", "twitter": "None", "instagram": "None", "facebook": "None", "youtube": "None", "website": "None", "summary": "None", "logo": "None", "latitude": 45.66601383341086, "longitude": -73.050751619966}, "118907658RR0001": {"name": "FABRIQUE DE LA PAROISSE NOTRE-DAME DE LA MERCI DE PALMAROLLE", "designationCode": "C", "categoryCode": "38", "address": "C.P. 69, 139 PRINCIPALE SUD", "city": "PALMAROLLE", "province": "QC", "country": "CA", "postalCode": "J0Z3C0", "twitter": "None", "instagram": "None", "facebook": "None", "youtube": "None", "website": "None", "summary": "None", "logo": "None", "latitude": 48.66573600000001, "longitude": -79.20115558203001}, "107586539RR0001": {"name": "FABRIQUE DE LA PAROISSE NOTRE-DAME DE LOURDES DE CHAPAIS", "designationCode": "C", "categoryCode": "38", "address": "C P 98", "city": "CHAPAIS", "province": "QC", "country": "CA", "postalCode": "G0W1H0", "twitter": "None", "instagram": "None", "facebook": "None", "youtube": "None", "website": "None", "summary": "None", "logo": "None", "latitude": 45.35918103210348, "longitude": -73.56392090368952}, "118907674RR0001": {"name": "FABRIQUE DE LA PAROISSE NOTRE-DAME DU ROSAIRE ST-HYACINTHE", "designationCode": "C", "categoryCode": "38", "address": "2200 GIROUARD O C.P.128", "city": "SAINT-HYACINTHE", "province": "QC", "country": "CA", "postalCode": "J2S3A8", "twitter": "None", "instagram": "None", "facebook": "None", "youtube": "None", "website": "None", "summary": "None", "logo": "None", "latitude": 45.62283890010948, "longitude": -72.95016238167203}, "118907591RR0001": {"name": "FABRIQUE DE LA PAROISSE NOTRE-DAME-DU-ROSAIRE,", "designationCode": "C", "categoryCode": "38", "address": "130 RUE PRINCIPALE", "city": "LAMARCHE", "province": "QC", "country": "CA", "postalCode": "G0W1X0", "twitter": "None", "instagram": "None", "facebook": "None", "youtube": "None", "website": "None", "summary": "None", "logo": "None", "latitude": 48.792365874545574, "longitude": -71.42620421590989}, "131262560RR0001": {"name": "FABRIQUE DE LA PAROISSE SACRE COEUR DE MATAGAMI", "designationCode": "C", "categoryCode": "38", "address": "155 BOUL. MATAGAMI            CP 10", "city": "MATAGAMI", "province": "QC", "country": "CA", "postalCode": "J0Y2A0", "twitter": "None", "instagram": "None", "facebook": "None", "youtube": "None", "website": "None", "summary": "None", "logo": "None", "latitude": 49.75716937549788, "longitude": -77.6231493001043}, "131806457RR0001": {"name": "FABRIQUE DE LA PAROISSE SAINT EMILE D'AUCLAIR", "designationCode": "C", "categoryCode": "38", "address": "741 A RUE DU CLOCHER", "city": "AUCLAIR", "province": "QC", "country": "CA", "postalCode": "G0L1A0", "twitter": "None", "instagram": "None", "facebook": "None", "youtube": "None", "website": "None", "summary": "None", "logo": "None", "latitude": 47.72781803635528, "longitude": -68.64307596038476}, "894207588RR0001": {"name": "FABRIQUE DE LA PAROISSE SAINT JOSEPH ST-HYACINTHE", "designationCode": "C", "categoryCode": "38", "address": "885 ST-PIERRE OUEST", "city": "SAINT-HYACINTHE", "province": "QC", "country": "CA", "postalCode": "J2T1N7", "twitter": "None", "instagram": "None", "facebook": "None", "youtube": "None", "website": "None", "summary": "None", "logo": "None", "latitude": 45.62278364803454, "longitude": -72.93662802636145}, "118907799RR0001": {"name": "FABRIQUE DE LA PAROISSE SAINT-ATHANASE IBERVILLE", "designationCode": "C", "categoryCode": "38", "address": "500 RUE 1E", "city": "IBERVILLE", "province": "QC", "country": "CA", "postalCode": "J2X3B2", "twitter": "None", "instagram": "None", "facebook": "None", "youtube": "None", "website": "None", "summary": "None", "logo": "None", "latitude": 45.308998109642715, "longitude": -73.24323981995536}, "128912722RR0001": {"name": "FABRIQUE DE LA PAROISSE SAINT-CHARLES DE LACHENAIE", "designationCode": "C", "categoryCode": "38", "address": "3341, CHEMIN ST-CHARLES", "city": "LACHENAIE", "province": "QC", "country": "CA", "postalCode": "J6V1A3", "twitter": "None", "instagram": "None", "facebook": "None", "youtube": "None", "website": "None", "summary": "None", "logo": "None", "latitude": 45.70209420122338, "longitude": -73.55500716541636}, "119083996RR0001": {"name": "FABRIQUE DE LA PAROISSE SAINT-DOMINIQUE DE LUSKVILLE", "designationCode": "C", "categoryCode": "38", "address": "23 CHEMIN DU VILLAGE          CP 194", "city": "LUSKVILLE", "province": "QC", "country": "CA", "postalCode": "J0X2G0", "twitter": "None", "instagram": "None", "facebook": "None", "youtube": "None", "website": "None", "summary": "None", "logo": "None", "latitude": 45.53415243075193, "longitude": -76.01568770413756}, "107363624RR0001": {"name": "FABRIQUE DE LA PAROISSE SAINT-EUSEBE", "designationCode": "C", "categoryCode": "38", "address": "125 RUE DE L'EGLISE", "city": "ST-EUSEBE TEMISCOUATA", "province": "QC", "country": "CA", "postalCode": "G0L2Y0", "twitter": "None", "instagram": "None", "facebook": "None", "youtube": "None", "website": "None", "summary": "None", "logo": "None", "latitude": 47.54311123471406, "longitude": -68.91326243166687}, "131870040RR0001": {"name": "FABRIQUE DE LA PAROISSE SAINT-FRANCOIS D'ASSISE DE FRELIGHSBURG", "designationCode": "C", "categoryCode": "38", "address": "12 RUE DE L'EGLISE", "city": "FRELIGHSBURG", "province": "QC", "country": "CA", "postalCode": "J0J1C0", "twitter": "None", "instagram": "None", "facebook": "None", "youtube": "None", "website": "None", "summary": "None", "logo": "None", "latitude": 45.054951067978685, "longitude": -72.83540090120599}, "129410627RR0002": {"name": "FABRIQUE DE LA PAROISSE SAINT-JEAN-EUDES", "designationCode": "C", "categoryCode": "38", "address": "987 BOUL JOLLIET", "city": "BAIE-COMEAU", "province": "QC", "country": "CA", "postalCode": "G5C1P7", "twitter": "None", "instagram": "None", "facebook": "None", "youtube": "None", "website": "None", "summary": "None", "logo": "None", "latitude": 49.19022861555801, "longitude": -68.26104867609217}, "107358137RR0001": {"name": "FABRIQUE DE LA PAROISSE SAINT-JOSEPH DE CARLETON", "designationCode": "C", "categoryCode": "39", "address": "767 BOUL. PERRON", "city": "CARLETON", "province": "QC", "country": "CA", "postalCode": "G0C1J0", "twitter": "None", "instagram": "None", "facebook": "None", "youtube": "None", "website": "None", "summary": "None", "logo": "None", "latitude": 48.101198565064486, "longitude": -66.10823319470249}, "118908011RR0001": {"name": "FABRIQUE DE LA PAROISSE SAINT-MARC DE FIGUERY", "designationCode": "C", "categoryCode": "38", "address": "155, CH DE L'EGLISE           C.P. 33", "city": "FIGUERY", "province": "QC", "country": "CA", "postalCode": "J0Y1J0", "twitter": "None", "instagram": "None", "facebook": "None", "youtube": "None", "website": "None", "summary": "None", "logo": "None", "latitude": 48.47279044330272, "longitude": -78.04711320177162}}