{"890618143RR0001": {"name": "THE CANADIAN FRIENDS OF BAIS YISROEL", "designationCode": "C", "categoryCode": "39", "address": "2020 BARCLAY AVE", "city": "MONTREAL", "province": "QC", "country": "CA", "postalCode": "H3S1J3", "twitter": "None", "instagram": "None", "facebook": "None", "youtube": "None", "website": "None", "summary": "None", "logo": "None", "latitude": 45.51411523590519, "longitude": -73.62510706714194}, "892857087RR0001": {"name": "THE CANADIAN FRIENDS OF BIKUR CHOLIM HOSPITAL OF JERUSALEM", "designationCode": "C", "categoryCode": "11", "address": "970 LAWRENCE AVE. WEST        SUITE 209", "city": "TORONTO", "province": "ON", "country": "CA", "postalCode": "M6A3B6", "twitter": "None", "instagram": "None", "facebook": "None", "youtube": "None", "website": "None", "summary": "None", "logo": "None", "latitude": 43.713688525679444, "longitude": -79.4586771542792}, "887347391RR0001": {"name": "THE CANADIAN FRIENDS OF BOBOVER YESHIVA", "designationCode": "B", "categoryCode": "21", "address": "TRUSTEE                       50 BRISBANE STREET", "city": "DOWNSVIEW", "province": "ON", "country": "CA", "postalCode": "M3J2K2", "twitter": "None", "instagram": "None", "facebook": "None", "youtube": "None", "website": "None", "summary": "None", "logo": "None", "latitude": 43.77420600000005, "longitude": -79.47083149999993}, "118832443RR0001": {"name": "THE CANADIAN FRIENDS OF EZRATH NASHIM HERZOG HOSPITAL", "designationCode": "C", "categoryCode": "11", "address": "1005-100 UPPER MADISON AVE", "city": "TORONTO", "province": "ON", "country": "CA", "postalCode": "M2N6M4", "twitter": "None", "instagram": "None", "facebook": "None", "youtube": "None", "website": "None", "summary": "None", "logo": "None", "latitude": 43.764256163194666, "longitude": -79.41247585916656}, "889780482RR0001": {"name": "THE CANADIAN FRIENDS OF MERCAZ HATORAH", "designationCode": "B", "categoryCode": "21", "address": "25 REDMOUNT ROAD", "city": "NORTH YORK", "province": "ON", "country": "CA", "postalCode": "M3H2A2", "twitter": "None", "instagram": "None", "facebook": "None", "youtube": "None", "website": "None", "summary": "None", "logo": "None", "latitude": 43.741483052715225, "longitude": -79.44374322006483}, "129129227RR0001": {"name": "THE CANADIAN FRIENDS OF OHR SOMAYACH - TANENBAUM CENTRE - COLLEGE OF JUDAIC STUDIES", "designationCode": "C", "categoryCode": "21", "address": "446 SPADINA ROAD              UNIT 206", "city": "TORONTO", "province": "ON", "country": "CA", "postalCode": "M5P3M2", "twitter": "None", "instagram": "None", "facebook": "None", "youtube": "None", "website": "None", "summary": "None", "logo": "None", "latitude": 43.68906051373424, "longitude": -79.4128743475098}, "890802572RR0001": {"name": "THE CANADIAN FRIENDS OF PERU", "designationCode": "C", "categoryCode": "09", "address": "26 BETHLEY DR", "city": "SCARBOROUGH", "province": "ON", "country": "CA", "postalCode": "M1E3M7", "twitter": "None", "instagram": "None", "facebook": "None", "youtube": "None", "website": "None", "summary": "None", "logo": "None", "latitude": 43.76911130004605, "longitude": -79.1568242020601}, "864872874RR0001": {"name": "THE CANADIAN FRIENDS OF THE AMERICAN MUSEUM OF NATURAL HISTORY/LES AMIS CANADIENS DU MUSEE AMERICAIN D'HISTOIRE NATURELLE", "designationCode": "B", "categoryCode": "53", "address": "1000 DE LA GAUCHETIERE ST. W. SUITE 900", "city": "MONTREAL", "province": "QC", "country": "CA", "postalCode": "H3B5H4", "twitter": "None", "instagram": "None", "facebook": "None", "youtube": "None", "website": "None", "summary": "None", "logo": "None", "latitude": 45.49850304466516, "longitude": -73.56695768160344}, "139807176RR0001": {"name": "THE CANADIAN FRIENDS OF THE JERUSALEM COLLEGE OF TECHNOLOGY SCHOOL OF APPLIED SCIENCES", "designationCode": "A", "categoryCode": "23", "address": "4600 BATHURST ST", "city": "NORTH YORK", "province": "ON", "country": "CA", "postalCode": "M2R3V2", "twitter": "None", "instagram": "None", "facebook": "None", "youtube": "None", "website": "None", "summary": "None", "logo": "None", "latitude": 43.764549213428396, "longitude": -79.4407190577642}, "855389060RR0001": {"name": "THE CANADIAN FRIENDS OF THE TRASIMENO MUSIC FESTIVAL", "designationCode": "C", "categoryCode": "22", "address": "303-3099 CARLING AVENUE", "city": "OTTAWA", "province": "ON", "country": "CA", "postalCode": "K2H5A6", "twitter": "None", "instagram": "None", "facebook": "None", "youtube": "None", "website": "None", "summary": "None", "logo": "None", "latitude": 45.35321626146908, "longitude": -75.80960148825632}, "876048604RR0001": {"name": "THE CANADIAN FRIENDS OF THE VICTORIA AND ALBERT MUSEUM / LES AMIS CANADIENS DU VICTORIA AND ALBERT MUSEUM", "designationCode": "C", "categoryCode": "50", "address": "1000 DE LA GAUCHETIERE ST. W. SUITE 900", "city": "MONTREAL", "province": "QC", "country": "CA", "postalCode": "H3B5H4", "twitter": "None", "instagram": "None", "facebook": "None", "youtube": "None", "website": "None", "summary": "None", "logo": "None", "latitude": 45.49850304466516, "longitude": -73.56695768160344}, "896208857RR0001": {"name": "THE CANADIAN FRIENDS OF WCFE-TV 57 / LES AMIS CANADIENS DE WCFE-TV 57", "designationCode": "C", "categoryCode": "23", "address": "1310 - 1155 UNIVERSITY STREET", "city": "MONTREAL", "province": "QC", "country": "CA", "postalCode": "H3B3A7", "twitter": "None", "instagram": "None", "facebook": "None", "youtube": "None", "website": "None", "summary": "None", "logo": "None", "latitude": 45.502586407470766, "longitude": -73.56859638903825}, "888806064RR0001": {"name": "THE CANADIAN FRIENDS OF YESHIVA D'MONSEY", "designationCode": "C", "categoryCode": "21", "address": "6352 DE VIMY", "city": "MONTREAL", "province": "QC", "country": "CA", "postalCode": "H3S2R5", "twitter": "None", "instagram": "None", "facebook": "None", "youtube": "None", "website": "None", "summary": "None", "logo": "None", "latitude": 45.51472281513661, "longitude": -73.6236334683766}, "891431447RR0001": {"name": "THE CANADIAN GROUP PSYCHOTHERAPY FOUNDATION", "designationCode": "C", "categoryCode": "19", "address": "1888 ALMA ST", "city": "VANCOUVER", "province": "BC", "country": "CA", "postalCode": "V6R0C5", "twitter": "None", "instagram": "None", "facebook": "None", "youtube": "None", "website": "None", "summary": "None", "logo": "None", "latitude": 49.2696412200764, "longitude": -123.18564014875142}, "865718365RR0001": {"name": "THE CANADIAN HARD OF HEARING ASSOCIATION - BRITISH COLUMBIA", "designationCode": "C", "categoryCode": "11", "address": "216 - 9181 MAIN ST", "city": "CHILLIWACK", "province": "BC", "country": "CA", "postalCode": "V2P4M9", "twitter": "None", "instagram": "None", "facebook": "None", "youtube": "None", "website": "None", "summary": "None", "logo": "None", "latitude": 49.16877783876723, "longitude": -121.95723947273308}, "892345620RR0001": {"name": "THE CANADIAN HARD OF HEARING ASSOCIATION FOUNDATION - LA FONDATION DE L'ASSOCIATION DES MALENTENDANTS CANADIENS", "designationCode": "A", "categoryCode": "03", "address": "205-2415 HOLLY LANE", "city": "OTTAWA", "province": "ON", "country": "CA", "postalCode": "K1V7P2", "twitter": "None", "instagram": "None", "facebook": "None", "youtube": "None", "website": "None", "summary": "None", "logo": "None", "latitude": 45.378291164031396, "longitude": -75.63934358087619}, "895991974RR0001": {"name": "THE CANADIAN HEALING TOUCH FOUNDATION", "designationCode": "C", "categoryCode": "21", "address": "53 CROASDALE ST", "city": "MONCTON", "province": "NB", "country": "CA", "postalCode": "E1E0J4", "twitter": "None", "instagram": "None", "facebook": "None", "youtube": "None", "website": "None", "summary": "None", "logo": "None", "latitude": 46.08958881677975, "longitude": -64.8123516485511}, "892557414RR0001": {"name": "THE CANADIAN HEALTH AND ENVIRONMENT EDUCATION AND RESEARCH FOUNDATION", "designationCode": "C", "categoryCode": "11", "address": "405-215 SPADINA AVE", "city": "TORONTO", "province": "ON", "country": "CA", "postalCode": "M5T2C7", "twitter": "None", "instagram": "None", "facebook": "None", "youtube": "None", "website": "None", "summary": "None", "logo": "None", "latitude": 43.65063316348313, "longitude": -79.39697013165816}, "131341356RR0001": {"name": "THE CANADIAN HERITAGE ARTS SOCIETY", "designationCode": "C", "categoryCode": "22", "address": "1701 ELGIN ROAD", "city": "VICTORIA", "province": "BC", "country": "CA", "postalCode": "V8R5L7", "twitter": "None", "instagram": "None", "facebook": "None", "youtube": "None", "website": "None", "summary": "None", "logo": "None", "latitude": 48.42808007216229, "longitude": -123.31924068327687}, "108075292RR0001": {"name": "THE CANADIAN HERITAGE OF QUEBEC", "designationCode": "C", "categoryCode": "52", "address": "1350 SHERBROOKE ST WEST       SUITE 1201", "city": "MONTREAL", "province": "QC", "country": "CA", "postalCode": "H3G1J1", "twitter": "None", "instagram": "None", "facebook": "None", "youtube": "None", "website": "None", "summary": "None", "logo": "None", "latitude": 45.49907079848817, "longitude": -73.57924886147518}, "862190113RR0001": {"name": "THE CANADIAN HINDU MISSION CENTRE SCARBOROUGH", "designationCode": "C", "categoryCode": "48", "address": "9-1960 ELLESMERE ROAD", "city": "SCARBOROUGH", "province": "ON", "country": "CA", "postalCode": "M1H2V9", "twitter": "None", "instagram": "None", "facebook": "None", "youtube": "None", "website": "None", "summary": "None", "logo": "None", "latitude": 43.77500021521646, "longitude": -79.23865818642128}, "890315146RR0001": {"name": "THE CANADIAN HORSE RACING HALL OF FAME", "designationCode": "C", "categoryCode": "50", "address": "555 REXDALE BLVD.", "city": "TORONTO", "province": "ON", "country": "CA", "postalCode": "M9W5L2", "twitter": "None", "instagram": "None", "facebook": "None", "youtube": "None", "website": "None", "summary": "None", "logo": "None", "latitude": 43.719061489783854, "longitude": -79.6035760049786}, "119219210RR0001": {"name": "THE CANADIAN IMMIGRATION HISTORICAL SOCIETY LA SOCI\u00c9T\u00c9 HISTORIQUE DE L'IMMIGRATION CANADIENNE", "designationCode": "C", "categoryCode": "21", "address": "PO BOX 9502 STN T CSC", "city": "OTTAWA", "province": "ON", "country": "CA", "postalCode": "K1G3V2", "twitter": "None", "instagram": "None", "facebook": "None", "youtube": "None", "website": "None", "summary": "None", "logo": "None", "latitude": 45.4075526747762, "longitude": -75.65114751410245}, "894262385RR0001": {"name": "THE CANADIAN INJURED WORKERS' ALLIANCE INC./ L'ALLIANCE CANADIENNE DES VICTIMES D'ACCIDENTS ET DE MALADIES DU TRAVAIL", "designationCode": "C", "categoryCode": "09", "address": "1201 JASPER DRIVE", "city": "THUNDR BAY", "province": "ON", "country": "CA", "postalCode": "P7B6R2", "twitter": "None", "instagram": "None", "facebook": "None", "youtube": "None", "website": "None", "summary": "None", "logo": "None", "latitude": 48.4191547943619, "longitude": -89.25506380451903}, "119219236RR0001": {"name": "THE CANADIAN INSTITUTE OF CULTURAL AFFAIRS (ICA CANADA)", "designationCode": "C", "categoryCode": "59", "address": "405 - 401 RICHMOND ST W", "city": "TORONTO", "province": "ON", "country": "CA", "postalCode": "M5V3A8", "twitter": "None", "instagram": "None", "facebook": "None", "youtube": "None", "website": "None", "summary": "None", "logo": "None", "latitude": 43.64792255983254, "longitude": -79.39538964100468}, "888758315RR0001": {"name": "THE CANADIAN INSTITUTE OF NATURAL AND INTEGRATIVE MEDICINE", "designationCode": "C", "categoryCode": "19", "address": "2020 18TH ST NW", "city": "CALGARY", "province": "AB", "country": "CA", "postalCode": "T2M3T1", "twitter": "None", "instagram": "None", "facebook": "None", "youtube": "None", "website": "None", "summary": "None", "logo": "None", "latitude": 51.06985653456699, "longitude": -114.10452108141159}, "888630373RR0001": {"name": "THE CANADIAN JEWISH EDUCATIONAL FUND", "designationCode": "C", "categoryCode": "43", "address": "110 EGLINGTON AVENUE WEST     SUITE 401", "city": "TORONTO", "province": "ON", "country": "CA", "postalCode": "M4R1A3", "twitter": "None", "instagram": "None", "facebook": "None", "youtube": "None", "website": "None", "summary": "None", "logo": "None", "latitude": 43.706071150729855, "longitude": -79.40168884139297}, "106861883RR0001": {"name": "THE CANADIAN JEWISH OUTLOOK SOCIETY", "designationCode": "C", "categoryCode": "22", "address": "#3 - 6184 ASH STREET", "city": "VANCOUVER", "province": "BC", "country": "CA", "postalCode": "V5Z3G9", "twitter": "None", "instagram": "None", "facebook": "None", "youtube": "None", "website": "None", "summary": "None", "logo": "None", "latitude": 49.228899988343244, "longitude": -123.11794051661977}, "827333352RR0001": {"name": "THE CANADIAN KENNEL CLUB FOUNDATION/FONDATION DU CLUB CANIN CANADIEN", "designationCode": "A", "categoryCode": "03", "address": "400-200 RONSON DR", "city": "ETOBICOKE", "province": "ON", "country": "CA", "postalCode": "M5W5Z9", "twitter": "None", "instagram": "None", "facebook": "None", "youtube": "None", "website": "None", "summary": "None", "logo": "None", "latitude": 43.64868300000006, "longitude": -79.38544399999994}, "119219277RR0001": {"name": "THE CANADIAN LACROSSE HALL OF FAME", "designationCode": "C", "categoryCode": "56", "address": "6022 BOUNDARY COURT", "city": "SURREY", "province": "BC", "country": "CA", "postalCode": "V3X2C6", "twitter": "None", "instagram": "None", "facebook": "None", "youtube": "None", "website": "None", "summary": "None", "logo": "None", "latitude": 49.11197246906908, "longitude": -122.88142224271452}, "887423234RR0001": {"name": "THE CANADIAN LORD'S DAY ASSOCIATION", "designationCode": "C", "categoryCode": "47", "address": "PO BOX 450", "city": "OTTERVILLE", "province": "ON", "country": "CA", "postalCode": "N0J1R0", "twitter": "None", "instagram": "None", "facebook": "None", "youtube": "None", "website": "None", "summary": "None", "logo": "None", "latitude": 42.920882175655215, "longitude": -80.64058033265246}, "134887892RR0001": {"name": "THE CANADIAN LUTHERLAND OF THE QU'APPELLE LAKES SASKATCHEWAN", "designationCode": "C", "categoryCode": "56", "address": "BOX 176", "city": "LIPTON", "province": "SK", "country": "CA", "postalCode": "S0G3B0", "twitter": "None", "instagram": "None", "facebook": "None", "youtube": "None", "website": "None", "summary": "None", "logo": "None", "latitude": 50.36424824390069, "longitude": -102.4129944774132}, "119219301RR0001": {"name": "THE CANADIAN LYFORD CAY FOUNDATION / LA FONDATION CANADIENNE LYFORD CAY", "designationCode": "C", "categoryCode": "19", "address": "130 KING ST W 20TH FL, BOX 430STN FIRST CANADIAN PLACE", "city": "TORONTO", "province": "ON", "country": "CA", "postalCode": "M5X1K1", "twitter": "None", "instagram": "None", "facebook": "None", "youtube": "None", "website": "None", "summary": "None", "logo": "None", "latitude": 43.64826932503962, "longitude": -79.38190945606182}, "891450561RR0001": {"name": "THE CANADIAN MALTESE CHARITABLE SERVICE TRUST", "designationCode": "C", "categoryCode": "02", "address": "160 SUNNYSIDE AVENUE", "city": "TORONTO", "province": "ON", "country": "CA", "postalCode": "M6R2P2", "twitter": "None", "instagram": "None", "facebook": "None", "youtube": "None", "website": "None", "summary": "None", "logo": "None", "latitude": 43.64298020982171, "longitude": -79.45015585763736}, "140036914RR0001": {"name": "THE CANADIAN MEDICAL HALL OF FAME", "designationCode": "C", "categoryCode": "50", "address": "202-267 DUNDAS ST", "city": "LONDON", "province": "ON", "country": "CA", "postalCode": "N6A1H2", "twitter": "None", "instagram": "None", "facebook": "None", "youtube": "None", "website": "None", "summary": "None", "logo": "None", "latitude": 42.984807067978686, "longitude": -81.24561456895962}, "106863657RR0001": {"name": "THE CANADIAN MENTAL HEALTH ASSOCIATION", "designationCode": "C", "categoryCode": "11", "address": "250 DUNDAS ST W, SUITE 500", "city": "TORONTO", "province": "ON", "country": "CA", "postalCode": "M5J2Z5", "twitter": "None", "instagram": "None", "facebook": "None", "youtube": "None", "website": "None", "summary": "None", "logo": "None"}, "872309117RR0001": {"name": "THE CANADIAN MENTAL HEALTH ASSOCIATION ALBERTA EAST CENTRAL REGION 2000", "designationCode": "C", "categoryCode": "11", "address": "4711 - 51ST AVE", "city": "CAMROSE", "province": "AB", "country": "CA", "postalCode": "T4V0V3", "twitter": "None", "instagram": "None", "facebook": "None", "youtube": "None", "website": "None", "summary": "None", "logo": "None", "latitude": 53.023245840970596, "longitude": -112.82005301114563}, "887698793RR0001": {"name": "THE CANADIAN MENTAL HEALTH ASSOCIATION ANNAPOLIS COUNTY", "designationCode": "C", "categoryCode": "11", "address": "13 LONGLEY MOUNTAIN RD", "city": "GRANVILLE FERRY", "province": "NS", "country": "CA", "postalCode": "B0S1K0", "twitter": "None", "instagram": "None", "facebook": "None", "youtube": "None", "website": "None", "summary": "None", "logo": "None", "latitude": 44.81128647071388, "longitude": -65.3829523729008}, "893449884RR0001": {"name": "THE CANADIAN MENTAL HEALTH ASSOCIATION TORONTO BRANCH", "designationCode": "C", "categoryCode": "11", "address": "700 LAWRENCE AVE W STE 480", "city": "TORONTO", "province": "ON", "country": "CA", "postalCode": "M6A3B4", "twitter": "None", "instagram": "None", "facebook": "None", "youtube": "None", "website": "None", "summary": "None", "logo": "None", "latitude": 43.71565433017757, "longitude": -79.44657382397304}, "106863491RR0001": {"name": "THE CANADIAN MENTAL HEALTH ASSOCIATION, ALBERTA DIVISION, 1984", "designationCode": "C", "categoryCode": "11", "address": "320 9707-110 ST", "city": "EDMONTON", "province": "AB", "country": "CA", "postalCode": "T5K2L9", "twitter": "None", "instagram": "None", "facebook": "None", "youtube": "None", "website": "None", "summary": "None", "logo": "None", "latitude": 53.53430399999999, "longitude": -113.5102267962378}, "883189276RR0001": {"name": "THE CANADIAN MENTAL HEALTH ASSOCIATION, ALBERTA NORTH EAST REGION, 1994", "designationCode": "C", "categoryCode": "11", "address": "SUITE 302                     10011 FRANKLIN AVE", "city": "FORT MCMURRAY", "province": "AB", "country": "CA", "postalCode": "T9H2K7", "twitter": "None", "instagram": "None", "facebook": "None", "youtube": "None", "website": "None", "summary": "None", "logo": "None", "latitude": 56.72817810072726, "longitude": -111.38289157288341}, "890113095RR0001": {"name": "THE CANADIAN MENTAL HEALTH ASSOCIATION, PRINCE ALBERT BRANCHINC.", "designationCode": "C", "categoryCode": "11", "address": "1322 CENTRAL AVE", "city": "PRINCE ALBERT", "province": "SK", "country": "CA", "postalCode": "S6V4W3", "twitter": "None", "instagram": "None", "facebook": "None", "youtube": "None", "website": "None", "summary": "None", "logo": "None", "latitude": 53.200602, "longitude": -105.75422616815766}, "890771991RR0001": {"name": "THE CANADIAN MINING HALL OF FAME LE TEMPLE DE LA RENOMMEE DU SECTEUR MINIER CANADIEN", "designationCode": "C", "categoryCode": "50", "address": "82 RICHMOND ST E", "city": "TORONTO", "province": "ON", "country": "CA", "postalCode": "M5C1P1", "twitter": "None", "instagram": "None", "facebook": "None", "youtube": "None", "website": "None", "summary": "None", "logo": "None", "latitude": 43.652607106872765, "longitude": -79.37486620650348}, "840285365RR0001": {"name": "THE CANADIAN MODERN LANGUAGE REVIEW", "designationCode": "C", "categoryCode": "21", "address": "5201 DUFFERIN STREET", "city": "NORTH YORK", "province": "ON", "country": "CA", "postalCode": "M3H5T8", "twitter": "None", "instagram": "None", "facebook": "None", "youtube": "None", "website": "None", "summary": "None", "logo": "None", "latitude": 43.786377000000016, "longitude": -79.47003189725352}, "889023594RR0001": {"name": "THE CANADIAN MORAVIAN FOUNDATION", "designationCode": "A", "categoryCode": "43", "address": "139 CANTRELL DRIVE S.W.", "city": "CALGARY", "province": "AB", "country": "CA", "postalCode": "T2W2M5", "twitter": "None", "instagram": "None", "facebook": "None", "youtube": "None", "website": "None", "summary": "None", "logo": "None", "latitude": 50.93492562392521, "longitude": -114.07735101679265}, "107756207RR0001": {"name": "THE CANADIAN MUSEUM OF CARPETS AND TEXTILES", "designationCode": "C", "categoryCode": "50", "address": "55 CENTRE AVENUE", "city": "TORONTO", "province": "ON", "country": "CA", "postalCode": "M5G2H5", "twitter": "None", "instagram": "None", "facebook": "None", "youtube": "None", "website": "None", "summary": "None", "logo": "None", "latitude": 43.65452573189448, "longitude": -79.38683756575698}, "840463541RR0001": {"name": "THE CANADIAN MUSEUM OF MAKING", "designationCode": "B", "categoryCode": "50", "address": "P.O. BOX 190 STN M", "city": "CALGARY", "province": "AB", "country": "CA", "postalCode": "T2P2H6", "twitter": "None", "instagram": "None", "facebook": "None", "youtube": "None", "website": "None", "summary": "None", "logo": "None", "latitude": 51.04531500000006, "longitude": -114.06301099999993}, "890309776RR0001": {"name": "THE CANADIAN NATIONAL COMMITTEE FOR THE INTERNATIONAL COUNCIL OF MONUMENTS AND SITES (ICOMOS CANADA)", "designationCode": "C", "categoryCode": "52", "address": "PO BOX 737 STN B", "city": "OTTAWA", "province": "ON", "country": "CA", "postalCode": "K1P5P8", "twitter": "None", "instagram": "None", "facebook": "None", "youtube": "None", "website": "None", "summary": "None", "logo": "None", "latitude": 45.42177300000006, "longitude": -75.69115999999994}, "119219483RR0001": {"name": "THE CANADIAN NATIONAL SOCIETY OF THE DEAF-BLIND", "designationCode": "C", "categoryCode": "11", "address": "405-422 WILLOWDALE AVE", "city": "NORTH YORK", "province": "ON", "country": "CA", "postalCode": "M2N5B1", "twitter": "None", "instagram": "None", "facebook": "None", "youtube": "None", "website": "None", "summary": "None", "logo": "None", "latitude": 43.77823123535695, "longitude": -79.40572594866974}, "119219525RR0001": {"name": "THE CANADIAN NAUTICAL RESEARCH SOCIETY", "designationCode": "B", "categoryCode": "21", "address": "PO BOX 34029                  RPO STRANDHERD", "city": "NEPEAN", "province": "ON", "country": "CA", "postalCode": "K2J5B1", "twitter": "None", "instagram": "None", "facebook": "None", "youtube": "None", "website": "None", "summary": "None", "logo": "None", "latitude": 45.26117124162326, "longitude": -75.76209596214083}, "898961552RR0001": {"name": "THE CANADIAN NETWORK FOR INTERNATIONAL SURGERY", "designationCode": "C", "categoryCode": "19", "address": "300 - 1275 6TH AVE W", "city": "VANCOUVER", "province": "BC", "country": "CA", "postalCode": "V6H1A6", "twitter": "None", "instagram": "None", "facebook": "None", "youtube": "None", "website": "None", "summary": "None", "logo": "None", "latitude": 49.26615546047075, "longitude": -123.13305285498296}, "885724419RR0001": {"name": "THE CANADIAN NETWORK OF DANCE PRESENTERS CANDANCE - CANDANSE LE RESEAU CANADIEN DES DIFFUSEURS DE DANSE", "designationCode": "C", "categoryCode": "81", "address": "304-15 CASE GOODS LANE", "city": "TORONTO", "province": "ON", "country": "CA", "postalCode": "M5A3C4", "twitter": "None", "instagram": "None", "facebook": "None", "youtube": "None", "website": "None", "summary": "None", "logo": "None", "latitude": 43.649968882595665, "longitude": -79.3585262463212}, "890432271RR0001": {"name": "THE CANADIAN ORTHODOX DIOCESE OF VANCOUVER", "designationCode": "C", "categoryCode": "49", "address": "37323 HAWKINS-PICKLE ROAD", "city": "DEWDNEY", "province": "BC", "country": "CA", "postalCode": "V0M1H0", "twitter": "None", "instagram": "None", "facebook": "None", "youtube": "None", "website": "None", "summary": "None", "logo": "None", "latitude": 49.16773522390979, "longitude": -122.19313624752184}, "890594740RR0001": {"name": "THE CANADIAN ORTHOPAEDIC FOUNDATION-FONDATION CANADIENNE D'ORTHOPEDIE", "designationCode": "C", "categoryCode": "13", "address": "77 KING STREET WEST           PO BOX 1036", "city": "TORONTO", "province": "ON", "country": "CA", "postalCode": "M5K1P2", "twitter": "None", "instagram": "None", "facebook": "None", "youtube": "None", "website": "None", "summary": "None", "logo": "None", "latitude": 43.648190845375034, "longitude": -79.38214471980503}, "127472926RR0001": {"name": "THE CANADIAN PALESTINIAN FOUNDATION / LA FONDATION CANADO-PALESTINIENNE", "designationCode": "C", "categoryCode": "21", "address": "845 DECARIE BLVD.             SUITE 201", "city": "SAINT-LAURENT", "province": "QC", "country": "CA", "postalCode": "H4L3L7", "twitter": "None", "instagram": "None", "facebook": "None", "youtube": "None", "website": "None", "summary": "None", "logo": "None", "latitude": 45.512198160713176, "longitude": -73.67937820869652}, "129029922RR0001": {"name": "THE CANADIAN PARAPLEGIC ASSOCIATION OF NOVA SCOTIA", "designationCode": "C", "categoryCode": "11", "address": "255 - 6960 MUMFORD RD", "city": "HALIFAX", "province": "NS", "country": "CA", "postalCode": "B3L4P1", "twitter": "None", "instagram": "None", "facebook": "None", "youtube": "None", "website": "None", "summary": "None", "logo": "None", "latitude": 44.64677014487765, "longitude": -63.61831424959962}, "885160549RR0001": {"name": "THE CANADIAN PEREGRINE FOUNDATION", "designationCode": "C", "categoryCode": "23", "address": "25 CROUSE ROAD, SUITE 20", "city": "TORONTO", "province": "ON", "country": "CA", "postalCode": "M1R5P8", "twitter": "None", "instagram": "None", "facebook": "None", "youtube": "None", "website": "None", "summary": "None", "logo": "None"}, "119219616RR0001": {"name": "THE CANADIAN PERIODICAL FOR COMMUNITY STUDIES INC.", "designationCode": "C", "categoryCode": "11", "address": "C1-490 DUTTON DR", "city": "WATERLOO", "province": "ON", "country": "CA", "postalCode": "N2L6H7", "twitter": "None", "instagram": "None", "facebook": "None", "youtube": "None", "website": "None", "summary": "None", "logo": "None", "latitude": 43.49395276244295, "longitude": -80.53872485967753}, "859714511RR0001": {"name": "THE CANADIAN PET LOSS AND BEREAVEMENT ASSOCIATION", "designationCode": "C", "categoryCode": "11", "address": "73 FENWOOD HEIGHTS", "city": "TORONTO", "province": "ON", "country": "CA", "postalCode": "M1M2W1", "twitter": "None", "instagram": "None", "facebook": "None", "youtube": "None", "website": "None", "summary": "None", "logo": "None", "latitude": 43.726487814328536, "longitude": -79.22824994390923}, "119219624RR0001": {"name": "THE CANADIAN PHI DELTA THETA SCHOLARSHIP FOUNDATION", "designationCode": "C", "categoryCode": "21", "address": "109 LITTLEWOOD DRIVE", "city": "OAKVILLE", "province": "ON", "country": "CA", "postalCode": "L6H6V1", "twitter": "None", "instagram": "None", "facebook": "None", "youtube": "None", "website": "None", "summary": "None", "logo": "None", "latitude": 43.47878032168612, "longitude": -79.71953756771886}, "869750356RR0001": {"name": "THE CANADIAN PHILANTHROPIST FOUNDATION", "designationCode": "A", "categoryCode": "55", "address": "20 SILVERSTONE PL NW", "city": "CALGARY", "province": "AB", "country": "CA", "postalCode": "T3B4Y9", "twitter": "None", "instagram": "None", "facebook": "None", "youtube": "None", "website": "None", "summary": "None", "logo": "None", "latitude": 51.11450749624908, "longitude": -114.19260358673323}, "886103597RR0001": {"name": "THE CANADIAN PODIATRY EDUCATION FOUNDATION", "designationCode": "C", "categoryCode": "11", "address": "203-2309 WEST 41ST AVE", "city": "VANCOUVER", "province": "BC", "country": "CA", "postalCode": "V6M2A3", "twitter": "None", "instagram": "None", "facebook": "None", "youtube": "None", "website": "None", "summary": "None", "logo": "None", "latitude": 49.23469446768412, "longitude": -123.16010399999999}, "119219673RR0001": {"name": "THE CANADIAN POLISH RESEARCH INSTITUTE / L'INSTITUT CANADO-POLONAIS DES RECHERCHES", "designationCode": "C", "categoryCode": "50", "address": "343 PLEASANT AVENUE", "city": "TORONTO", "province": "ON", "country": "CA", "postalCode": "M2R2R3", "twitter": "None", "instagram": "None", "facebook": "None", "youtube": "None", "website": "None", "summary": "None", "logo": "None", "latitude": 43.7885688420568, "longitude": -79.43838598666979}, "848753554RR0001": {"name": "THE CANADIAN RAILROAD HISTORICAL ASSOCIATION FOUNDATION LA FONDATION DE L'ASSOCIATION CANADIENNE D'HISTOIRE FERROVIAIRE", "designationCode": "A", "categoryCode": "53", "address": "110 RUE ST-PIERRE", "city": "ST-CONSTANT", "province": "QC", "country": "CA", "postalCode": "J5A1G7", "twitter": "None", "instagram": "None", "facebook": "None", "youtube": "None", "website": "None", "summary": "None", "logo": "None", "latitude": 45.37573841460619, "longitude": -73.56673824029437}, "897861985RR0001": {"name": "THE CANADIAN RAILROAD HISTORICAL ASSOCIATION, PACIFIC COAST DIVISION", "designationCode": "C", "categoryCode": "50", "address": "P.O. BOX 1006                 STATION A", "city": "VANCOUVER", "province": "BC", "country": "CA", "postalCode": "V6C2P1", "twitter": "None", "instagram": "None", "facebook": "None", "youtube": "None", "website": "None", "summary": "None", "logo": "None", "latitude": 49.28625600000005, "longitude": -123.11574199999993}, "119219814RR0001": {"name": "THE CANADIAN RED CROSS SOCIETY LA SOCI\u00c9T\u00c9 CANADIENNE DE LA CROIX-ROUGE", "designationCode": "C", "categoryCode": "11", "address": "300 - 170 METCALFE ST", "city": "OTTAWA", "province": "ON", "country": "CA", "postalCode": "K2P2P2", "twitter": "None", "instagram": "None", "facebook": "None", "youtube": "None", "website": "None", "summary": "None", "logo": "None", "latitude": 45.41912661642339, "longitude": -75.69426422274788}, "118835578RR0001": {"name": "THE CANADIAN REFORMED CHURCH AT TABER", "designationCode": "C", "categoryCode": "39", "address": "5402-38 AVE", "city": "TABER", "province": "AB", "country": "CA", "postalCode": "T1G1B8", "twitter": "None", "instagram": "None", "facebook": "None", "youtube": "None", "website": "None", "summary": "None", "logo": "None", "latitude": 49.775867656096864, "longitude": -112.13865627670386}, "119219830RR0001": {"name": "THE CANADIAN REFORMED SCHOOL SOCIETY OF CALGARY", "designationCode": "C", "categoryCode": "20", "address": "28 HART ESTATES BLVD NE", "city": "CALGARY", "province": "AB", "country": "CA", "postalCode": "T1X0L3", "twitter": "None", "instagram": "None", "facebook": "None", "youtube": "None", "website": "None", "summary": "None", "logo": "None", "latitude": 51.05816045548754, "longitude": -113.86780533560012}, "119219822RR0001": {"name": "THE CANADIAN REFORMED SCHOOL SOCIETY OF LONDON AND DISTRICT INC.", "designationCode": "C", "categoryCode": "20", "address": "7 HOWARD AVE", "city": "LONDON", "province": "ON", "country": "CA", "postalCode": "N6P1B8", "twitter": "None", "instagram": "None", "facebook": "None", "youtube": "None", "website": "None", "summary": "None", "logo": "None", "latitude": 42.90664698138969, "longitude": -81.29506546661625}, "894476662RR0001": {"name": "THE CANADIAN REFORMED SCHOOL SOCIETY OF OWEN SOUND AND DISTRICT", "designationCode": "C", "categoryCode": "20", "address": "177551 CONCESSION 5 RR3", "city": "OWEN SOUND", "province": "ON", "country": "CA", "postalCode": "N4K5N5", "twitter": "None", "instagram": "None", "facebook": "None", "youtube": "None", "website": "None", "summary": "None", "logo": "None", "latitude": 44.5573552874755, "longitude": -80.94933539692028}, "106866387RR0001": {"name": "THE CANADIAN REFORMED TEACHERS' COLLEGE ASSOCIATION", "designationCode": "C", "categoryCode": "20", "address": "410 CRERAR DRIVE", "city": "HAMILTON", "province": "ON", "country": "CA", "postalCode": "L9A5K3", "twitter": "None", "instagram": "None", "facebook": "None", "youtube": "None", "website": "None", "summary": "None", "logo": "None", "latitude": 43.20862024623431, "longitude": -79.87201779542974}, "133537233RR0001": {"name": "THE CANADIAN ROBERT T JONES, JR SCHOLARSHIP FOUNDATION", "designationCode": "C", "categoryCode": "21", "address": "205 - 3380 SOUTH SERVICE RD", "city": "BURLINGTON", "province": "ON", "country": "CA", "postalCode": "L7N3J5", "twitter": "None", "instagram": "None", "facebook": "None", "youtube": "None", "website": "None", "summary": "None", "logo": "None", "latitude": 43.36179869326021, "longitude": -79.79238349047897}, "119219863RR0001": {"name": "THE CANADIAN ROFEH FOUNDATION", "designationCode": "C", "categoryCode": "19", "address": "500-3625 DUFFERIN ST", "city": "NORTH YORK", "province": "ON", "country": "CA", "postalCode": "M3K1N4", "twitter": "None", "instagram": "None", "facebook": "None", "youtube": "None", "website": "None", "summary": "None", "logo": "None", "latitude": 43.73098330919264, "longitude": -79.45857671963213}, "134970698RR0001": {"name": "THE CANADIAN ROMANIAN SOCIETY OF ALBERTA", "designationCode": "C", "categoryCode": "50", "address": "#109, 13439 - 97 STREET", "city": "EDMONTON", "province": "AB", "country": "CA", "postalCode": "T5E4C7", "twitter": "None", "instagram": "None", "facebook": "None", "youtube": "None", "website": "None", "summary": "None", "logo": "None", "latitude": 53.59605107216228, "longitude": -113.49162682234996}, "891617441RR0001": {"name": "THE CANADIAN ROYAL HERITAGE TRUST", "designationCode": "C", "categoryCode": "50", "address": "PO BOX 1332- TORONTO STATION K2708 YONGE STREET", "city": "TORONTO", "province": "ON", "country": "CA", "postalCode": "M4P3J4", "twitter": "None", "instagram": "None", "facebook": "None", "youtube": "None", "website": "None", "summary": "None", "logo": "None", "latitude": 43.71161956386099, "longitude": -79.39940522404942}, "873620959RR0001": {"name": "THE CANADIAN SAFE SCHOOL NETWORK", "designationCode": "C", "categoryCode": "21", "address": "229 NIAGARA ST", "city": "TORONTO", "province": "ON", "country": "CA", "postalCode": "M6J2L5", "twitter": "None", "instagram": "None", "facebook": "None", "youtube": "None", "website": "None", "summary": "None", "logo": "None", "latitude": 43.64373474326278, "longitude": -79.40854809244603}, "895514651RR0001": {"name": "THE CANADIAN SAILING FOUNDATION", "designationCode": "A", "categoryCode": "53", "address": "170 KEHOE STREET", "city": "OTTAWA", "province": "ON", "country": "CA", "postalCode": "K2B6A5", "twitter": "None", "instagram": "None", "facebook": "None", "youtube": "None", "website": "None", "summary": "None", "logo": "None", "latitude": 45.36794230613424, "longitude": -75.80045256786309}, "889087045RR0001": {"name": "THE CANADIAN SCIENTIFIC AND CHRISTIAN AFFILIATION INC", "designationCode": "C", "categoryCode": "49", "address": "PO BOX 63082                  UNIVERSITY PLAZA", "city": "DUNDAS", "province": "ON", "country": "CA", "postalCode": "L9H6Y3", "twitter": "None", "instagram": "None", "facebook": "None", "youtube": "None", "website": "None", "summary": "None", "logo": "None", "latitude": 43.258539251418114, "longitude": -79.94301212554223}, "891571465RR0001": {"name": "THE CANADIAN SCOTTISH REGIMENTAL HERITAGE FOUNDATION", "designationCode": "C", "categoryCode": "59", "address": "6310 ELAINE WAY", "city": "VICTORIA", "province": "BC", "country": "CA", "postalCode": "V8Z6A1", "twitter": "None", "instagram": "None", "facebook": "None", "youtube": "None", "website": "None", "summary": "None", "logo": "None", "latitude": 48.55298385259768, "longitude": -123.39373273899342}, "119219905RR0001": {"name": "THE CANADIAN SHIELD FOUNDATION", "designationCode": "A", "categoryCode": "59", "address": "970 LAWRENCE AVE W, SUITE 205", "city": "TORONTO", "province": "ON", "country": "CA", "postalCode": "M6A3B6", "twitter": "None", "instagram": "None", "facebook": "None", "youtube": "None", "website": "None", "summary": "None", "logo": "None", "latitude": 43.713688525679444, "longitude": -79.4586771542792}, "119219921RR0001": {"name": "THE CANADIAN SLOVAK PROFESSIONAL AND BUSINESS ASSOCIATION SC", "designationCode": "C", "categoryCode": "21", "address": "412 CONCORD DR.", "city": "BEACONFIELD", "province": "QC", "country": "CA", "postalCode": "H9W5S9", "twitter": "None", "instagram": "None", "facebook": "None", "youtube": "None", "website": "None", "summary": "None", "logo": "None", "latitude": 45.425280212914224, "longitude": -73.87532552583296}, "888078649RR0001": {"name": "THE CANADIAN SOCIETY FOR AESTHETICS / SOCI\u00c9T\u00c9 CANADIENNE D'ESTH\u00c9TIQUE", "designationCode": "C", "categoryCode": "21", "address": "4729 DE MAISONNEUVE", "city": "WESTMOUNT", "province": "QC", "country": "CA", "postalCode": "H3Z1M3", "twitter": "None", "instagram": "None", "facebook": "None", "youtube": "None", "website": "None", "summary": "None", "logo": "None", "latitude": 45.47900698863171, "longitude": -73.59864206038993}, "883586901RR0001": {"name": "THE CANADIAN SOCIETY FOR BIOENGINEERING FOUNDATION/LA FONDATION DE LA SOCI\u00c9T\u00c9 CANADIENNE DE G\u00c9NIE AGROALIMENTAIRE ET DE BIOING\u00c9NIERIE", "designationCode": "C", "categoryCode": "21", "address": "E2-376 EITC BUILDING          75A CHANCELLOR CIRCLE", "city": "WINNIPEG", "province": "MB", "country": "CA", "postalCode": "R3T5V6", "twitter": "None", "instagram": "None", "facebook": "None", "youtube": "None", "website": "None", "summary": "None", "logo": "None", "latitude": 49.809380962495496, "longitude": -97.13326229241163}, "119219947RR0001": {"name": "THE CANADIAN SOCIETY FOR IMMUNOLOGY/LA SOCIETE CANADIENNE D'IMMUNOLOGIE", "designationCode": "C", "categoryCode": "11", "address": "U.O.M., DEPT. OF IMMUNOLOGY   415 APOTEX C.,750 MCDERMOTAVE", "city": "WINNIPEG", "province": "MB", "country": "CA", "postalCode": "R3E0T5", "twitter": "None", "instagram": "None", "facebook": "None", "youtube": "None", "website": "None", "summary": "None", "logo": "None", "latitude": 49.904421000000056, "longitude": -97.16360749999994}, "118836238RR0001": {"name": "THE CANADIAN SOCIETY FOR INTERNATIONAL HEALTH", "designationCode": "C", "categoryCode": "11", "address": "726 - 1 NICHOLAS ST", "city": "OTTAWA", "province": "ON", "country": "CA", "postalCode": "K1N7B7", "twitter": "None", "instagram": "None", "facebook": "None", "youtube": "None", "website": "None", "summary": "None", "logo": "None", "latitude": 45.4263641759766, "longitude": -75.69026080319138}, "865024376RR0001": {"name": "THE CANADIAN SOCIETY FOR MECHANICAL ENGINEERING FUND", "designationCode": "C", "categoryCode": "21", "address": "PO BOX 40140                  RPO BANK HUNT CLUB", "city": "OTTAWA", "province": "ON", "country": "CA", "postalCode": "K1V0W8", "twitter": "None", "instagram": "None", "facebook": "None", "youtube": "None", "website": "None", "summary": "None", "logo": "None", "latitude": 45.342552216481316, "longitude": -75.6737003404187}, "131306193RR0001": {"name": "THE CANADIAN SOCIETY FOR MESOPOTAMIAN STUDIES", "designationCode": "C", "categoryCode": "50", "address": "4 BANCROFT AVE                4TH FLOOR", "city": "TORONTO", "province": "ON", "country": "CA", "postalCode": "M5S1C1", "twitter": "None", "instagram": "None", "facebook": "None", "youtube": "None", "website": "None", "summary": "None", "logo": "None", "latitude": 43.66077116515656, "longitude": -79.39959892951117}, "873928212RR0001": {"name": "THE CANADIAN SOCIETY FOR THE RECORDING ARTS", "designationCode": "C", "categoryCode": "22", "address": "4275 HWY 95                   BOX 55", "city": "PARSON", "province": "BC", "country": "CA", "postalCode": "V0A1L0", "twitter": "None", "instagram": "None", "facebook": "None", "youtube": "None", "website": "None", "summary": "None", "logo": "None", "latitude": 51.09938855922081, "longitude": -116.69551927278725}, "130930092RR0001": {"name": "THE CANADIAN SOCIETY FOR THE WEIZMANN INSTITUTE OF SCIENCE", "designationCode": "A", "categoryCode": "21", "address": "235 - 4823 RUE SHERBROOKE O", "city": "WESTMOUNT", "province": "QC", "country": "CA", "postalCode": "H3Z1G7", "twitter": "None", "instagram": "None", "facebook": "None", "youtube": "None", "website": "None", "summary": "None", "logo": "None", "latitude": 45.47939042604872, "longitude": -73.60304248906438}, "892941642RR0001": {"name": "THE CANADIAN SOCIETY FOR TRADITIONAL MUSIC/LA SOCIETE CANADIENNE POUR LES TRADITIONS MUSICALES", "designationCode": "C", "categoryCode": "22", "address": "DEPARTMENT OF INDIGENOUS STUD.4401 UNIVERSITY DRIVE", "city": "LETHBRIDGE", "province": "AB", "country": "CA", "postalCode": "T1K3M4", "twitter": "None", "instagram": "None", "facebook": "None", "youtube": "None", "website": "None", "summary": "None", "logo": "None", "latitude": 49.66961513938342, "longitude": -112.86776871247449}, "811624741RR0001": {"name": "THE CANADIAN SOCIETY OF CHILDREN'S AUTHORS, ILLUSTRATORS AND PERFORMERS / LA SOCIETE CANADIENNE DES AUTEURS, ILLUSTRATEURS ET ARTISTES POUR ENFANTS", "designationCode": "C", "categoryCode": "81", "address": "503 - 720 BATHURST ST", "city": "TORONTO", "province": "ON", "country": "CA", "postalCode": "M5S2R4", "twitter": "None", "instagram": "None", "facebook": "None", "youtube": "None", "website": "None", "summary": "None", "logo": "None", "latitude": 43.66323143574358, "longitude": -79.41047606191914}, "816568570RR0001": {"name": "THE CANADIAN SOCIETY OF CLUB MANAGERS SCHOLARSHIP AWARD IN MEMORY OF VAL MASON", "designationCode": "C", "categoryCode": "21", "address": "201 - 5399 EGLINTON AVE W", "city": "ETOBICOKE", "province": "ON", "country": "CA", "postalCode": "M9C5K6", "twitter": "None", "instagram": "None", "facebook": "None", "youtube": "None", "website": "None", "summary": "None", "logo": "None", "latitude": 43.66356290893676, "longitude": -79.58986236804309}, "108090374RR0001": {"name": "THE CANADIAN SOCIETY OF INTESTINAL RESEARCH", "designationCode": "C", "categoryCode": "11", "address": "231-3665 KINGSWAY", "city": "VANCOUVER", "province": "BC", "country": "CA", "postalCode": "V5R5W2", "twitter": "None", "instagram": "None", "facebook": "None", "youtube": "None", "website": "None", "summary": "None", "logo": "None", "latitude": 49.232301482687745, "longitude": -123.02414490758262}, "119219996RR0001": {"name": "THE CANADIAN SOCIETY OF PAINTERS IN WATER COLOUR", "designationCode": "C", "categoryCode": "22", "address": "B3-80 BIRMINGHAM STREET", "city": "TORONTO", "province": "ON", "country": "CA", "postalCode": "M8V3W6", "twitter": "None", "instagram": "None", "facebook": "None", "youtube": "None", "website": "None", "summary": "None", "logo": "None", "latitude": 43.603576165156554, "longitude": -79.50486759714924}, "119220002RR0001": {"name": "THE CANADIAN SOCIETY OF PLANT BIOLOGISTS INCORPORATED/ LA SOCI\u00c9T\u00c9 CANADIENNE DE BIOLOGIE V\u00c9G\u00c9TALE INCORPOR\u00c9E", "designationCode": "C", "categoryCode": "21", "address": "1151 RICHMOND ST", "city": "LONDON", "province": "ON", "country": "CA", "postalCode": "N6A5B7", "twitter": "None", "instagram": "None", "facebook": "None", "youtube": "None", "website": "None", "summary": "None", "logo": "None", "latitude": 43.009316006503646, "longitude": -81.2616888076119}, "119220028RR0001": {"name": "THE CANADIAN STAGE CORPORATION", "designationCode": "C", "categoryCode": "22", "address": "26 BERKELEY ST", "city": "TORONTO", "province": "ON", "country": "CA", "postalCode": "M5A2W3", "twitter": "None", "instagram": "None", "facebook": "None", "youtube": "None", "website": "None", "summary": "None", "logo": "None", "latitude": 43.65067172133424, "longitude": -79.36378546465434}, "894642669RR0001": {"name": "THE CANADIAN SUDDEN ARRHYTHMIA DEATH SYNDROMES (SADS) FOUNDATION", "designationCode": "C", "categoryCode": "11", "address": "9-6975 MEADOWVALE TOWN        CENTRE CIRCLE, SUITE 314", "city": "MISSISSAUGA", "province": "ON", "country": "CA", "postalCode": "L5N2V7", "twitter": "None", "instagram": "None", "facebook": "None", "youtube": "None", "website": "None", "summary": "None", "logo": "None", "latitude": 43.58037494168301, "longitude": -79.75835494192219}, "856457304RR0001": {"name": "THE CANADIAN SUNSHINE KIDS FOUNDATION", "designationCode": "C", "categoryCode": "11", "address": "15C - 370 HIGHLAND RD W", "city": "KITCHENER", "province": "ON", "country": "CA", "postalCode": "N2M5J9", "twitter": "None", "instagram": "None", "facebook": "None", "youtube": "None", "website": "None", "summary": "None", "logo": "None", "latitude": 43.43743923125932, "longitude": -80.51153802755445}, "889296638RR0001": {"name": "THE CANADIAN TREE RESEARCH EDUCATION & ENDOWMENT FUND", "designationCode": "C", "categoryCode": "25", "address": "141 TUPPER STREET WEST", "city": "ALLISTON", "province": "ON", "country": "CA", "postalCode": "L9R1E4", "twitter": "None", "instagram": "None", "facebook": "None", "youtube": "None", "website": "None", "summary": "None", "logo": "None", "latitude": 44.14858060753659, "longitude": -79.87408422551783}, "105201479RR0001": {"name": "THE CANADIAN TRIBUTE TO HUMAN RIGHTS INC. / LE MONUMENT CANADIEN POUR LES DROITS DE LA PERSONNE INC.", "designationCode": "C", "categoryCode": "50", "address": "SUITE 600                     1500 BANK STREET", "city": "OTTAWA", "province": "ON", "country": "CA", "postalCode": "K1H1B8", "twitter": "None", "instagram": "None", "facebook": "None", "youtube": "None", "website": "None", "summary": "None", "logo": "None", "latitude": 45.381474023284866, "longitude": -75.6696026485368}}