{"812388031RR0001": {"name": "Carleton Place Music Society", "designationCode": "C", "categoryCode": "22", "address": "2779 9TH LINE BECKWITH", "city": "CARLETON PLACE", "province": "ON", "country": "CA", "postalCode": "K7C3P2", "twitter": "None", "instagram": "None", "facebook": "None", "youtube": "None", "website": "None", "summary": "None", "logo": "None", "latitude": 45.07539701868598, "longitude": -76.15649297743147}, "106874670RR0001": {"name": "Carlington Community Health Centre / Centre de sant\u00e9 communautaire Carlington", "designationCode": "C", "categoryCode": "59", "address": "900 MERIVALE RD", "city": "OTTAWA", "province": "ON", "country": "CA", "postalCode": "K1Z5Z8", "twitter": "None", "instagram": "None", "facebook": "None", "youtube": "None", "website": "None", "summary": "None", "logo": "None", "latitude": 45.38314680489348, "longitude": -75.73283061192173}, "835274424RR0001": {"name": "Carlow United Church", "designationCode": "C", "categoryCode": "44", "address": "81 KUNO ROAD - G.D.", "city": "BOULTER", "province": "ON", "country": "CA", "postalCode": "K0L1G0", "twitter": "None", "instagram": "None", "facebook": "None", "youtube": "None", "website": "None", "summary": "None", "logo": "None", "latitude": 45.212385674773806, "longitude": -77.64250734282909}, "754575496RR0001": {"name": "Carlton Trail Victory Church Incorporated", "designationCode": "C", "categoryCode": "39", "address": "POST OFFICE BOX 65077         NORTH HILL PO", "city": "CALGARY", "province": "AB", "country": "CA", "postalCode": "T2N4T6", "twitter": "None", "instagram": "None", "facebook": "None", "youtube": "None", "website": "None", "summary": "None", "logo": "None", "latitude": 51.065529000000055, "longitude": -114.12679849999994}, "872990668RR0001": {"name": "Carlyle & District Food Bank Inc.", "designationCode": "C", "categoryCode": "09", "address": "PO BOX 356", "city": "CARLYLE", "province": "SK", "country": "CA", "postalCode": "S0C0R0", "twitter": "None", "instagram": "None", "facebook": "None", "youtube": "None", "website": "None", "summary": "None", "logo": "None", "latitude": 49.628016, "longitude": -102.26315694795335}, "802094508RR0001": {"name": "Carmel Faith Missions", "designationCode": "C", "categoryCode": "47", "address": "225 CONSUMERS RD", "city": "NORTH YORK", "province": "ON", "country": "CA", "postalCode": "M2J4G9", "twitter": "None", "instagram": "None", "facebook": "None", "youtube": "None", "website": "None", "summary": "None", "logo": "None", "latitude": 43.771573383836426, "longitude": -79.3315991258002}, "843657156RR0001": {"name": "Caron Education Foundation", "designationCode": "B", "categoryCode": "03", "address": "401A - 9426 51 AVE NW", "city": "EDMONTON", "province": "AB", "country": "CA", "postalCode": "T6E5A6", "twitter": "None", "instagram": "None", "facebook": "None", "youtube": "None", "website": "None", "summary": "None", "logo": "None", "latitude": 53.48819648831365, "longitude": -113.47406099999999}, "809592660RR0001": {"name": "Carp Health Access", "designationCode": "C", "categoryCode": "11", "address": "P.O. BOX 176", "city": "CARP", "province": "ON", "country": "CA", "postalCode": "K0A1L0", "twitter": "None", "instagram": "None", "facebook": "None", "youtube": "None", "website": "None", "summary": "None", "logo": "None", "latitude": 45.443587712606245, "longitude": -76.1842754094586}, "838364693RR0001": {"name": "Carpe Diem 88 Inc.", "designationCode": "B", "categoryCode": "21", "address": "32 - 330 CARRIAGE RD", "city": "WINNIPEG", "province": "MB", "country": "CA", "postalCode": "R2Y2E7", "twitter": "None", "instagram": "None", "facebook": "None", "youtube": "None", "website": "None", "summary": "None", "logo": "None", "latitude": 49.89515797445685, "longitude": -97.28681503610757}, "846115301RR0001": {"name": "Carrefour b\u00e9n\u00e9vole Labrecque Lamarche", "designationCode": "C", "categoryCode": "59", "address": "108, RUE PRINCIPALE", "city": "LAMARCHE", "province": "QC", "country": "CA", "postalCode": "G0W1X0", "twitter": "None", "instagram": "None", "facebook": "None", "youtube": "None", "website": "None", "summary": "None", "logo": "None", "latitude": 48.791074976686474, "longitude": -71.42671823091354}, "851212886RR0001": {"name": "Carrefour chr\u00e9tien des Maskoutains / Maskoutain Christian Crossroads", "designationCode": "C", "categoryCode": "36", "address": "4335 BOUL LAURIER EST", "city": "SAINT-HYACINTHE", "province": "QC", "country": "CA", "postalCode": "J2R2B3", "twitter": "None", "instagram": "None", "facebook": "None", "youtube": "None", "website": "None", "summary": "None", "logo": "None", "latitude": 45.64039882448766, "longitude": -72.90598080465341}, "892079856RR0001": {"name": "Carrefour communautaire d'action, d'aide et d'entraide de Saguenay", "designationCode": "C", "categoryCode": "09", "address": "2261, RUE RACHEL", "city": "JONQUIERE", "province": "QC", "country": "CA", "postalCode": "G7S3Y3", "twitter": "None", "instagram": "None", "facebook": "None", "youtube": "None", "website": "None", "summary": "None", "logo": "None", "latitude": 48.43268961117192, "longitude": -71.13679123022105}, "129797965RR0001": {"name": "Carrefour d'action b\u00e9n\u00e9vole du Haut St-Maurice", "designationCode": "C", "categoryCode": "09", "address": "1120,RUE DES ERABLES", "city": "LA TUQUE", "province": "QC", "country": "CA", "postalCode": "G9X4L5", "twitter": "None", "instagram": "None", "facebook": "None", "youtube": "None", "website": "None", "summary": "None", "logo": "None", "latitude": 47.40311047403209, "longitude": -72.78228016763806}, "892490277RR0001": {"name": "Carrefour d'aide aux non-syndiqu\u00e9-es Inc.", "designationCode": "C", "categoryCode": "09", "address": "39, RUE BELLERIVE", "city": "TROIS-RIVIERES", "province": "QC", "country": "CA", "postalCode": "G8T6J4", "twitter": "None", "instagram": "None", "facebook": "None", "youtube": "None", "website": "None", "summary": "None", "logo": "None", "latitude": 46.360832280599, "longitude": -72.51229795268047}, "789847894RR0001": {"name": "Carrefour d'Action interculturelle", "designationCode": "C", "categoryCode": "09", "address": "14 RUE DAUPHINE", "city": "QUEBEC", "province": "QC", "country": "CA", "postalCode": "G1R3W8", "twitter": "None", "instagram": "None", "facebook": "None", "youtube": "None", "website": "None", "summary": "None", "logo": "None", "latitude": 46.812342006116836, "longitude": -71.2117456490564}, "837596162RR0001": {"name": "Carrefour des femmes du Sud-Ouest de l'Ontario", "designationCode": "C", "categoryCode": "09", "address": "285 KING ST                   SUITE 200", "city": "LONDON", "province": "ON", "country": "CA", "postalCode": "N6B3M6", "twitter": "None", "instagram": "None", "facebook": "None", "youtube": "None", "website": "None", "summary": "None", "logo": "None", "latitude": 42.983848049656814, "longitude": -81.2442353531653}, "856712393RR0001": {"name": "Carrefour des g\u00e9n\u00e9rations de Qu\u00e9bec", "designationCode": "C", "categoryCode": "09", "address": "205-265 BOUL.REN\u00c9-L\u00c9VESQUE O.", "city": "QU\u00c9BEC", "province": "QC", "country": "CA", "postalCode": "G1R2A7", "twitter": "None", "instagram": "None", "facebook": "None", "youtube": "None", "website": "None", "summary": "None", "logo": "None", "latitude": 46.80373466495236, "longitude": -71.22759510960057}, "846468908RR0001": {"name": "Carrefour des loisirs, des arts et de la culture", "designationCode": "C", "categoryCode": "56", "address": "143, ROUTE DE SAINT-ALPHONSE", "city": "SAINT-ALPHONSE", "province": "QC", "country": "CA", "postalCode": "G0C2V0", "twitter": "None", "instagram": "None", "facebook": "None", "youtube": "None", "website": "None", "summary": "None", "logo": "None", "latitude": 48.18519081600197, "longitude": -65.62995363993845}, "829535368RR0001": {"name": "Carrefour des organismes de Lanaudi\u00e8re", "designationCode": "C", "categoryCode": "59", "address": "144 RUE ST-JOSEPH", "city": "JOLIETTE", "province": "QC", "country": "CA", "postalCode": "J6E5C4", "twitter": "None", "instagram": "None", "facebook": "None", "youtube": "None", "website": "None", "summary": "None", "logo": "None", "latitude": 46.026606530122855, "longitude": -73.44158207325879}, "830515144RR0001": {"name": "Carrefour des proches aidants de Qu\u00e9bec", "designationCode": "C", "categoryCode": "11", "address": "7260 BOUL CLOUTIER            BUREAU 34", "city": "QU\u00c9BEC", "province": "QC", "country": "CA", "postalCode": "G1H3E8", "twitter": "None", "instagram": "None", "facebook": "None", "youtube": "None", "website": "None", "summary": "None", "logo": "None", "latitude": 46.85359350207748, "longitude": -71.27384134566348}, "854560166RR0001": {"name": "Carrefour des Amis Inc.", "designationCode": "C", "categoryCode": "01", "address": "28 RUE BELMONT", "city": "MONCTON", "province": "NB", "country": "CA", "postalCode": "E1C6X4", "twitter": "None", "instagram": "None", "facebook": "None", "youtube": "None", "website": "None", "summary": "None", "logo": "None", "latitude": 46.09647059755327, "longitude": -64.80172376521999}, "813777406RR0001": {"name": "Carrefour foi et spiritualit\u00e9", "designationCode": "C", "categoryCode": "49", "address": "12075 RUE VALMONT", "city": "MONTR\u00c9AL", "province": "QC", "country": "CA", "postalCode": "H3M2V6", "twitter": "None", "instagram": "None", "facebook": "None", "youtube": "None", "website": "None", "summary": "None", "logo": "None", "latitude": 45.542193683882466, "longitude": -73.69718168497897}, "857465132RR0001": {"name": "Carrefour jeunesse-emploi de la Jam\u00e9sie", "designationCode": "C", "categoryCode": "09", "address": "110 BOUL. MATAGAMI            C.P. 669", "city": "MATAGAMI", "province": "QC", "country": "CA", "postalCode": "J0Y2A0", "twitter": "None", "instagram": "None", "facebook": "None", "youtube": "None", "website": "None", "summary": "None", "logo": "None", "latitude": 49.756112282878036, "longitude": -77.63044822895162}, "107971061RR0001": {"name": "Carrefour jeunesse-emploi de Verdun", "designationCode": "C", "categoryCode": "59", "address": "4005 RUE WELLINGTON", "city": "VERDUN", "province": "QC", "country": "CA", "postalCode": "H4G1V6", "twitter": "None", "instagram": "None", "facebook": "None", "youtube": "None", "website": "None", "summary": "None", "logo": "None", "latitude": 45.4637269067459, "longitude": -73.56698981989712}, "119028553RR0001": {"name": "Carrefour le Point Tournant", "designationCode": "C", "categoryCode": "57", "address": "1111, RUE BEAUREGARD", "city": "LONGUEUIL", "province": "QC", "country": "CA", "postalCode": "J4K2L2", "twitter": "None", "instagram": "None", "facebook": "None", "youtube": "None", "website": "None", "summary": "None", "logo": "None", "latitude": 45.514037032200335, "longitude": -73.48421158148176}, "834023632RR0001": {"name": "Carrefour revival / Revival Crossroad", "designationCode": "C", "categoryCode": "39", "address": "164 MONTEE DE LA SOURCE", "city": "CANTLEY", "province": "QC", "country": "CA", "postalCode": "J8V3J2", "twitter": "None", "instagram": "None", "facebook": "None", "youtube": "None", "website": "None", "summary": "None", "logo": "None", "latitude": 45.52046926562403, "longitude": -75.77152157741374}, "819989625RR0001": {"name": "Carrefour B\u00e9thanie", "designationCode": "C", "categoryCode": "49", "address": "377, RANG ST-VINCENT", "city": "SAINT-PLACIDE", "province": "QC", "country": "CA", "postalCode": "J0V2B0", "twitter": "None", "instagram": "None", "facebook": "None", "youtube": "None", "website": "None", "summary": "None", "logo": "None", "latitude": 45.5484567305095, "longitude": -74.20474106301567}, "865626170RR0001": {"name": "Carrefour BLE", "designationCode": "C", "categoryCode": "59", "address": "4770, RUE DE SALABERRY", "city": "MONTREAL", "province": "QC", "country": "CA", "postalCode": "H4J1H6", "twitter": "None", "instagram": "None", "facebook": "None", "youtube": "None", "website": "None", "summary": "None", "logo": "None", "latitude": 45.53307889618566, "longitude": -73.7060530563219}, "867031494RR0001": {"name": "Carrefour Jeunesse Emploi la Pini\u00e8re", "designationCode": "C", "categoryCode": "59", "address": "6300 AVENUE AUTEUIL BUREAU 100", "city": "BROSSARD", "province": "QC", "country": "CA", "postalCode": "J4Z3P2", "twitter": "None", "instagram": "None", "facebook": "None", "youtube": "None", "website": "None", "summary": "None", "logo": "None", "latitude": 45.46806954227056, "longitude": -73.46429856535295}, "846497626RR0001": {"name": "Carrefour Jeunesse-Emploi comt\u00e9s Iberville/St-Jean", "designationCode": "C", "categoryCode": "59", "address": "215 RUE SAINT-PAUL            SUITE 120", "city": "SAINT-JEAN-SUR-RICHELIEU", "province": "QC", "country": "CA", "postalCode": "J3B0H9", "twitter": "None", "instagram": "None", "facebook": "None", "youtube": "None", "website": "None", "summary": "None", "logo": "None", "latitude": 45.31123546378897, "longitude": -73.26158383236194}, "898208194RR0001": {"name": "Carrefour Jeunesse-Emploi de Montcalm", "designationCode": "C", "categoryCode": "09", "address": "2417 RUE VICTORIA", "city": "SAINTE-JULIENNE", "province": "QC", "country": "CA", "postalCode": "J0K2T0", "twitter": "None", "instagram": "None", "facebook": "None", "youtube": "None", "website": "None", "summary": "None", "logo": "None", "latitude": 45.96231024565738, "longitude": -73.71426536190786}, "891109563RR0001": {"name": "Carrefour Parenfants", "designationCode": "C", "categoryCode": "09", "address": "4650 RUE ONTARIO E", "city": "MONTREAL", "province": "QC", "country": "CA", "postalCode": "H1V1L2", "twitter": "None", "instagram": "None", "facebook": "None", "youtube": "None", "website": "None", "summary": "None", "logo": "None"}, "800982381RR0001": {"name": "Carrefour S\u00e9curit\u00e9 en Violence Conjugale", "designationCode": "C", "categoryCode": "59", "address": "2605 RUE MARIE-LENEUF", "city": "TROIS-RIVIERES", "province": "QC", "country": "CA", "postalCode": "G8Z3T7", "twitter": "None", "instagram": "None", "facebook": "None", "youtube": "None", "website": "None", "summary": "None", "logo": "None", "latitude": 46.360998869553924, "longitude": -72.56313275301497}, "119288918RR0347": {"name": "Carrot River Congregation of Jehovah's Witnesses, Carrot River, Saskatchewan", "designationCode": "C", "categoryCode": "61", "address": "BOX 208", "city": "CARROT RIVER", "province": "SK", "country": "CA", "postalCode": "S0E0L0", "twitter": "None", "instagram": "None", "facebook": "None", "youtube": "None", "website": "None", "summary": "None", "logo": "None", "latitude": 53.28401000000008, "longitude": -103.58754999999996}, "784577298RR0001": {"name": "Carry the Torch Ministries", "designationCode": "C", "categoryCode": "39", "address": "4209 STAGECOACH AVE", "city": "WINDSOR", "province": "ON", "country": "CA", "postalCode": "N9G2W8", "twitter": "None", "instagram": "None", "facebook": "None", "youtube": "None", "website": "None", "summary": "None", "logo": "None", "latitude": 42.24516942215358, "longitude": -82.97678592411548}, "106877897RR0001": {"name": "Carstairs Bancroft United Church", "designationCode": "C", "categoryCode": "44", "address": "BOX 34", "city": "CARSTAIRS", "province": "AB", "country": "CA", "postalCode": "T0M0N0", "twitter": "None", "instagram": "None", "facebook": "None", "youtube": "None", "website": "None", "summary": "None", "logo": "None", "latitude": 51.562880000000064, "longitude": -114.09537999999998}, "815947403RR0001": {"name": "Carswell Family Foundation", "designationCode": "B", "categoryCode": "03", "address": "17 VALLONCLIFFE ROAD", "city": "THORNHILL", "province": "ON", "country": "CA", "postalCode": "L3T2W6", "twitter": "None", "instagram": "None", "facebook": "None", "youtube": "None", "website": "None", "summary": "None", "logo": "None", "latitude": 43.80791745712388, "longitude": -79.38904477751191}, "119288918RR1709": {"name": "Cartagena Congregation of Jehovah's Witnesses, Mississauga, Ontario", "designationCode": "C", "categoryCode": "61", "address": "4351 DIXIE RD", "city": "MISSISSAUGA", "province": "ON", "country": "CA", "postalCode": "L4W1M9", "twitter": "None", "instagram": "None", "facebook": "None", "youtube": "None", "website": "None", "summary": "None", "logo": "None", "latitude": 43.62960737027508, "longitude": -79.61219583856568}, "809975394RR0001": {"name": "Carters Forever Rescue and Sanctuary Ltd.", "designationCode": "C", "categoryCode": "54", "address": "2102 FRASERBURG RD.", "city": "BRACEBRIDGE", "province": "ON", "country": "CA", "postalCode": "P1L1X3", "twitter": "None", "instagram": "None", "facebook": "None", "youtube": "None", "website": "None", "summary": "None", "logo": "None", "latitude": 45.06006209899651, "longitude": -79.18278242278875}, "848428447RR0001": {"name": "Cartwright and District Early Learning Center Inc.", "designationCode": "C", "categoryCode": "01", "address": "PO BOX 420", "city": "CARTWRIGHT", "province": "MB", "country": "CA", "postalCode": "R0K0L0", "twitter": "None", "instagram": "None", "facebook": "None", "youtube": "None", "website": "None", "summary": "None", "logo": "None", "latitude": 49.09414000000004, "longitude": -99.34137999999996}, "770072098RR0001": {"name": "Cartwright Centre Centre Cartwright", "designationCode": "C", "categoryCode": "21", "address": "265 - 438 E VICTORIA AVE", "city": "REGINA", "province": "SK", "country": "CA", "postalCode": "S4N0N7", "twitter": "None", "instagram": "None", "facebook": "None", "youtube": "None", "website": "None", "summary": "None", "logo": "None", "latitude": 50.447321696435885, "longitude": -104.57817774837065}, "873157754RR0001": {"name": "Cartwright-Mather Health Auxiliary", "designationCode": "C", "categoryCode": "19", "address": "P.O. BOX 264", "city": "CARTWRIGHT", "province": "MB", "country": "CA", "postalCode": "R0K0L0", "twitter": "None", "instagram": "None", "facebook": "None", "youtube": "None", "website": "None", "summary": "None", "logo": "None", "latitude": 49.09414000000004, "longitude": -99.34137999999996}, "833764293RR0001": {"name": "Carty House", "designationCode": "C", "categoryCode": "09", "address": "PO BOX 4758 STN E", "city": "OTTAWA", "province": "ON", "country": "CA", "postalCode": "K1S5H9", "twitter": "None", "instagram": "None", "facebook": "None", "youtube": "None", "website": "None", "summary": "None", "logo": "None", "latitude": 45.42177300000006, "longitude": -75.69115999999994}, "845245133RR0001": {"name": "Carving on the Edge Festival Society", "designationCode": "C", "categoryCode": "22", "address": "PO BOX 796                    9 WEST STREET", "city": "TOFINO", "province": "BC", "country": "CA", "postalCode": "V0R2Z0", "twitter": "None", "instagram": "None", "facebook": "None", "youtube": "None", "website": "None", "summary": "None", "logo": "None", "latitude": 49.15314501385713, "longitude": -125.91178800082093}, "118823475RR0001": {"name": "Carya Society of Calgary", "designationCode": "C", "categoryCode": "09", "address": "200-1000 8TH AVENUE S.W.", "city": "CALGARY", "province": "AB", "country": "CA", "postalCode": "T2P3M7", "twitter": "None", "instagram": "None", "facebook": "None", "youtube": "None", "website": "None", "summary": "None", "logo": "None", "latitude": 51.04590663887669, "longitude": -114.07575818403993}, "830992939RR0001": {"name": "Cas & Marie Broda Family Foundation Inc.", "designationCode": "B", "categoryCode": "03", "address": "STN MMP                       RR2, SITE 4, COMP. 207", "city": "PRINCE ALBERT", "province": "SK", "country": "CA", "postalCode": "S6V5P9", "twitter": "None", "instagram": "None", "facebook": "None", "youtube": "None", "website": "None", "summary": "None", "logo": "None", "latitude": 53.199456000000055, "longitude": -105.74863099999993}, "860437540RR0001": {"name": "Casa de Dios International", "designationCode": "C", "categoryCode": "39", "address": "931 LEATHORNE ST              UNIT B-C", "city": "LONDON", "province": "ON", "country": "CA", "postalCode": "N5Z3M5", "twitter": "None", "instagram": "None", "facebook": "None", "youtube": "None", "website": "None", "summary": "None", "logo": "None", "latitude": 42.96210956116933, "longitude": -81.21527375007211}, "812803443RR0001": {"name": "Casa de Oracion Cristo Viene", "designationCode": "B", "categoryCode": "39", "address": "7 AV JULIEN                   RR 4", "city": "LEAMINGTON", "province": "ON", "country": "CA", "postalCode": "N8H3V7", "twitter": "None", "instagram": "None", "facebook": "None", "youtube": "None", "website": "None", "summary": "None", "logo": "None", "latitude": 42.042807449362236, "longitude": -82.4810222200935}, "119106193RR0001": {"name": "Casa Canadiense - Pueblito Canada", "designationCode": "C", "categoryCode": "09", "address": "107A - 2238 DUNDAS ST W", "city": "TORONTO", "province": "ON", "country": "CA", "postalCode": "M6R3A9", "twitter": "None", "instagram": "None", "facebook": "None", "youtube": "None", "website": "None", "summary": "None", "logo": "None", "latitude": 43.65258315160868, "longitude": -79.44912761159188}, "758951693RR0001": {"name": "Casa Luz House of Light", "designationCode": "B", "categoryCode": "09", "address": "23 SILVERGROVE CRES NW", "city": "CALGARY", "province": "AB", "country": "CA", "postalCode": "T3B4M6", "twitter": "None", "instagram": "None", "facebook": "None", "youtube": "None", "website": "None", "summary": "None", "logo": "None", "latitude": 51.1188264893242, "longitude": -114.2015317440995}, "806216651RR0001": {"name": "Cascade Christian School Society", "designationCode": "C", "categoryCode": "49", "address": "45635C YALE ROAD", "city": "CHILLIWACK", "province": "BC", "country": "CA", "postalCode": "V2P2N1", "twitter": "None", "instagram": "None", "facebook": "None", "youtube": "None", "website": "None", "summary": "None", "logo": "None", "latitude": 49.15526916488369, "longitude": -121.9611810427745}, "859800021RR0001": {"name": "Cascadia Green Building 2008 Society", "designationCode": "C", "categoryCode": "59", "address": "1800 - 510 GEORGIA ST W", "city": "VANCOUVER", "province": "BC", "country": "CA", "postalCode": "V6B0M3", "twitter": "None", "instagram": "None", "facebook": "None", "youtube": "None", "website": "None", "summary": "None", "logo": "None", "latitude": 49.281267759207665, "longitude": -123.11633309804196}, "818732646RR0001": {"name": "Cascadia Wind Ensemble Society", "designationCode": "C", "categoryCode": "22", "address": "47653 FORESTER RD", "city": "CHILLIWACK", "province": "BC", "country": "CA", "postalCode": "V2R4M6", "twitter": "None", "instagram": "None", "facebook": "None", "youtube": "None", "website": "None", "summary": "None", "logo": "None", "latitude": 49.0976188112701, "longitude": -121.90537587575675}, "843434333RR0001": {"name": "Cascara Charitable Foundation", "designationCode": "B", "categoryCode": "03", "address": "300 - 100 PARK ROYAL S", "city": "WEST VANCOUVER", "province": "BC", "country": "CA", "postalCode": "V7T1A2", "twitter": "None", "instagram": "None", "facebook": "None", "youtube": "None", "website": "None", "summary": "None", "logo": "None", "latitude": 49.32569590460703, "longitude": -123.14032646493908}, "118840297RR0001": {"name": "Cassel Mennonite Church", "designationCode": "C", "categoryCode": "34", "address": "69 6556 17TH LINE             RR 1", "city": "TAVISTOCK", "province": "ON", "country": "CA", "postalCode": "N0B2R0", "twitter": "None", "instagram": "None", "facebook": "None", "youtube": "None", "website": "None", "summary": "None", "logo": "None", "latitude": 43.32363000000005, "longitude": -80.82729799999993}, "809180201RR0001": {"name": "Cassie and Friends: A Society for Children with Juvenile Arthritis and Other Rheumatic Diseases", "designationCode": "C", "categoryCode": "11", "address": "100 - 33 8TH AVE E", "city": "VANCOUVER", "province": "BC", "country": "CA", "postalCode": "V5T1R5", "twitter": "None", "instagram": "None", "facebook": "None", "youtube": "None", "website": "None", "summary": "None", "logo": "None", "latitude": 49.263760486005964, "longitude": -123.10380938773156}, "806867933RR0001": {"name": "Cassils Community Centre", "designationCode": "C", "categoryCode": "55", "address": "PO BOX 1983", "city": "BROOKS", "province": "AB", "country": "CA", "postalCode": "T1R1C7", "twitter": "None", "instagram": "None", "facebook": "None", "youtube": "None", "website": "None", "summary": "None", "logo": "None"}, "821057544RR0001": {"name": "Casteliers", "designationCode": "C", "categoryCode": "22", "address": "999, AVENUE MCEACHRAN         BUREAU 222", "city": "MONTR\u00c9AL", "province": "QC", "country": "CA", "postalCode": "H2V3T2", "twitter": "None", "instagram": "None", "facebook": "None", "youtube": "None", "website": "None", "summary": "None", "logo": "None", "latitude": 45.51968113047475, "longitude": -73.61969833455498}, "838039261RR0001": {"name": "Castiglione Family Foundation", "designationCode": "B", "categoryCode": "03", "address": "BOX 10  SITE 10  R.R. 1", "city": "OKOTOKS", "province": "AB", "country": "CA", "postalCode": "T1S1A1", "twitter": "None", "instagram": "None", "facebook": "None", "youtube": "None", "website": "None", "summary": "None", "logo": "None", "latitude": 50.72589600000006, "longitude": -113.97494149999994}, "118933951RR0001": {"name": "Castlegar Christian Fellowship", "designationCode": "C", "categoryCode": "39", "address": "1801 CONNORS RD", "city": "CASTLEGAR", "province": "BC", "country": "CA", "postalCode": "V1N3N9", "twitter": "None", "instagram": "None", "facebook": "None", "youtube": "None", "website": "None", "summary": "None", "logo": "None", "latitude": 49.3002964312688, "longitude": -117.65377683620369}, "829004662RR0001": {"name": "Castlegar Sculpturewalk Society", "designationCode": "C", "categoryCode": "50", "address": "PO BOX 3586 STN MAIN", "city": "CASTLEGAR", "province": "BC", "country": "CA", "postalCode": "V1N3W3", "twitter": "None", "instagram": "None", "facebook": "None", "youtube": "None", "website": "None", "summary": "None", "logo": "None", "latitude": 49.296228000000056, "longitude": -117.65424049999993}, "119288918RR0246": {"name": "Castlegar, British Columbia, Congregation of Jehovah's Witnesses", "designationCode": "C", "categoryCode": "61", "address": "1680-WOODLAND DRIVE", "city": "CASTLEGAR", "province": "BC", "country": "CA", "postalCode": "V1N4J4", "twitter": "None", "instagram": "None", "facebook": "None", "youtube": "None", "website": "None", "summary": "None", "logo": "None", "latitude": 49.30304544656362, "longitude": -117.66042317635105}, "805195757RR0001": {"name": "Cat Busters Animal Rescue", "designationCode": "C", "categoryCode": "54", "address": "280 WELLESLEY ST. E. #1516", "city": "TORONTO", "province": "ON", "country": "CA", "postalCode": "M4X1G7", "twitter": "None", "instagram": "None", "facebook": "None", "youtube": "None", "website": "None", "summary": "None", "logo": "None", "latitude": 43.66804019848205, "longitude": -79.37029668916257}, "812791069RR0001": {"name": "Cat-a-Match Rescue (C.A.M.R.)", "designationCode": "C", "categoryCode": "54", "address": "4890 ST PAUL                  PO BOX 16", "city": "ST EUGENE", "province": "ON", "country": "CA", "postalCode": "K0B1P0", "twitter": "None", "instagram": "None", "facebook": "None", "youtube": "None", "website": "None", "summary": "None", "logo": "None", "latitude": 45.50152425535223, "longitude": -74.46585946575085}, "856275557RR0001": {"name": "Cat's Cradle Animal Rescue", "designationCode": "C", "categoryCode": "54", "address": "101 - 9780 SECOND STREET", "city": "SIDNEY", "province": "BC", "country": "CA", "postalCode": "V8L3C4", "twitter": "None", "instagram": "None", "facebook": "None", "youtube": "None", "website": "None", "summary": "None", "logo": "None", "latitude": 48.64841404314744, "longitude": -123.39660518507668}, "813857893RR0001": {"name": "Catapult Leadership Society", "designationCode": "C", "categoryCode": "56", "address": "60 ADLINGTON COURT", "city": "BEDFORD", "province": "NS", "country": "CA", "postalCode": "B4A3Z1", "twitter": "None", "instagram": "None", "facebook": "None", "youtube": "None", "website": "None", "summary": "None", "logo": "None", "latitude": 44.73330842824177, "longitude": -63.646968173206645}, "840494330RR0001": {"name": "Catch the Fire - Halifax", "designationCode": "C", "categoryCode": "39", "address": "95 LOGGEN ROAD", "city": "MIDDLE SACKVILLE", "province": "NS", "country": "CA", "postalCode": "B4E1V8", "twitter": "None", "instagram": "None", "facebook": "None", "youtube": "None", "website": "None", "summary": "None", "logo": "None", "latitude": 44.788414022217005, "longitude": -63.69910430215311}, "803935923RR0001": {"name": "Catch the Fire Barrie", "designationCode": "C", "categoryCode": "39", "address": "20 EDER TRAIL", "city": "MINESING", "province": "ON", "country": "CA", "postalCode": "L9X0G8", "twitter": "None", "instagram": "None", "facebook": "None", "youtube": "None", "website": "None", "summary": "None", "logo": "None", "latitude": 44.413906440215634, "longitude": -79.78787091967207}, "820670172RR0001": {"name": "Catch the Fire Calgary", "designationCode": "C", "categoryCode": "39", "address": "256 WOODHAVEN PLACE SW", "city": "CALGARY", "province": "AB", "country": "CA", "postalCode": "T2W5P9", "twitter": "None", "instagram": "None", "facebook": "None", "youtube": "None", "website": "None", "summary": "None", "logo": "None", "latitude": 50.93494410574757, "longitude": -114.12977846185572}, "800523565RR0001": {"name": "Catch the Fire Moncton Inc.", "designationCode": "C", "categoryCode": "39", "address": "21 BLUE LAKE ST", "city": "MONCTON", "province": "NB", "country": "CA", "postalCode": "E1E4A7", "twitter": "None", "instagram": "None", "facebook": "None", "youtube": "None", "website": "None", "summary": "None", "logo": "None", "latitude": 46.05908403026708, "longitude": -64.84892957314321}, "802512632RR0001": {"name": "Catch the Fire Newmarket", "designationCode": "C", "categoryCode": "39", "address": "337 QUEEN ST", "city": "NEWMARKET", "province": "ON", "country": "CA", "postalCode": "L3Y2G5", "twitter": "None", "instagram": "None", "facebook": "None", "youtube": "None", "website": "None", "summary": "None", "logo": "None", "latitude": 44.055011000836735, "longitude": -79.46450872675858}, "801901760RR0001": {"name": "Catch the Fire Ottawa", "designationCode": "C", "categoryCode": "39", "address": "27 JOHANNA ST", "city": "ALMONTE", "province": "ON", "country": "CA", "postalCode": "K0A1A0", "twitter": "None", "instagram": "None", "facebook": "None", "youtube": "None", "website": "None", "summary": "None", "logo": "None", "latitude": 45.227454127964585, "longitude": -76.18244785348242}, "809073778RR0001": {"name": "Catch the Fire Scarborough", "designationCode": "C", "categoryCode": "39", "address": "318-5 DU MAURIER BLVD", "city": "TORONTO", "province": "ON", "country": "CA", "postalCode": "M4N1V1", "twitter": "None", "instagram": "None", "facebook": "None", "youtube": "None", "website": "None", "summary": "None", "logo": "None", "latitude": 43.72561500000006, "longitude": -79.40225599999994}, "801620279RR0001": {"name": "Catch the Fire Winnipeg", "designationCode": "C", "categoryCode": "39", "address": "86 GEORGETOWN DRIVE", "city": "WINNIPEG", "province": "MB", "country": "CA", "postalCode": "R3Y1V1", "twitter": "None", "instagram": "None", "facebook": "None", "youtube": "None", "website": "None", "summary": "None", "logo": "None", "latitude": 49.80542917733293, "longitude": -97.21250196528952}, "803545367RR0001": {"name": "Catch The Fire Kitchener", "designationCode": "C", "categoryCode": "39", "address": "288B CAMILLE CRES", "city": "WATERLOO", "province": "ON", "country": "CA", "postalCode": "N2K3B4", "twitter": "None", "instagram": "None", "facebook": "None", "youtube": "None", "website": "None", "summary": "None", "logo": "None", "latitude": 43.49567200769361, "longitude": -80.49965792019754}, "815902366RR0001": {"name": "Cathedral of Glory", "designationCode": "C", "categoryCode": "47", "address": "1 BELLHAVEN CRES", "city": "BRAMPTON", "province": "ON", "country": "CA", "postalCode": "L6R0W7", "twitter": "None", "instagram": "None", "facebook": "None", "youtube": "None", "website": "None", "summary": "None", "logo": "None", "latitude": 43.75970767361066, "longitude": -79.76280327505907}, "848623575RR0002": {"name": "Cathedral of St Peter-in-Chains", "designationCode": "C", "categoryCode": "38", "address": "411 REID ST", "city": "PETERBOROUGH", "province": "ON", "country": "CA", "postalCode": "K9H4G7", "twitter": "None", "instagram": "None", "facebook": "None", "youtube": "None", "website": "None", "summary": "None", "logo": "None", "latitude": 44.3058730932541, "longitude": -78.3279504928153}, "844262493RR0001": {"name": "Cathedral on the Lake Inc.", "designationCode": "C", "categoryCode": "39", "address": "304 - 10 DEAN PARK RD", "city": "SCARBOROUGH", "province": "ON", "country": "CA", "postalCode": "M1B3G8", "twitter": "None", "instagram": "None", "facebook": "None", "youtube": "None", "website": "None", "summary": "None", "logo": "None", "latitude": 43.80411188533697, "longitude": -79.16903464749853}, "836815779RR0001": {"name": "Cathedral Heritage Foundation Inc.", "designationCode": "A", "categoryCode": "03", "address": "1 BAYARD DRIVE", "city": "SAINT JOHN", "province": "NB", "country": "CA", "postalCode": "E2L3L5", "twitter": "None", "instagram": "None", "facebook": "None", "youtube": "None", "website": "None", "summary": "None", "logo": "None", "latitude": 45.279610143516486, "longitude": -66.05691635899367}, "815343231RR0001": {"name": "Catherine and Peter Cordy Foundation", "designationCode": "B", "categoryCode": "03", "address": "607-1717 AVENUE RD", "city": "TORONTO", "province": "ON", "country": "CA", "postalCode": "M5M0A2", "twitter": "None", "instagram": "None", "facebook": "None", "youtube": "None", "website": "None", "summary": "None", "logo": "None", "latitude": 43.728437272837375, "longitude": -79.4180486932602}, "843253295RR0001": {"name": "Catherine Elizabeth Griffin Charitable Foundation", "designationCode": "B", "categoryCode": "05", "address": "1002 SHERBROOKE STREET WEST   SUITE 540", "city": "MONTREAL", "province": "QC", "country": "CA", "postalCode": "H3A3L6", "twitter": "None", "instagram": "None", "facebook": "None", "youtube": "None", "website": "None", "summary": "None", "logo": "None", "latitude": 45.502789852876845, "longitude": -73.57558716772498}, "870600335RR0001": {"name": "Catherine Wilson Foundation", "designationCode": "A", "categoryCode": "03", "address": "2 FERRY DOCK HILL", "city": "SARNIA", "province": "ON", "country": "CA", "postalCode": "N7T7L8", "twitter": "None", "instagram": "None", "facebook": "None", "youtube": "None", "website": "None", "summary": "None", "logo": "None", "latitude": 42.971309677964676, "longitude": -82.40893417034063}, "130375124RR0002": {"name": "Catholic Charities Lottery", "designationCode": "A", "categoryCode": "21", "address": "PO BOX 95", "city": "KITCHENER", "province": "ON", "country": "CA", "postalCode": "N2G3W9", "twitter": "None", "instagram": "None", "facebook": "None", "youtube": "None", "website": "None", "summary": "None", "logo": "None", "latitude": 43.45123200000006, "longitude": -80.49304249999993}, "802218461RR0001": {"name": "Catholic Community Foundation of Southwestern Ontario / La fondation de la communaut\u00e9 Catholique du Sud-Ouest de l\"ontario", "designationCode": "A", "categoryCode": "03", "address": "1070 WATERLOO ST", "city": "LONDON", "province": "ON", "country": "CA", "postalCode": "N6A3Y2", "twitter": "None", "instagram": "None", "facebook": "None", "youtube": "None", "website": "None", "summary": "None", "logo": "None", "latitude": 43.01155863809214, "longitude": -81.25570305851494}, "770844124RR0001": {"name": "Catholic Congregational Legacy Charity", "designationCode": "A", "categoryCode": "13", "address": "CARE OF CHSO                  1801 - 1 YONGE STREET", "city": "TORONTO", "province": "ON", "country": "CA", "postalCode": "M5E1W7", "twitter": "None", "instagram": "None", "facebook": "None", "youtube": "None", "website": "None", "summary": "None", "logo": "None", "latitude": 43.64240744465904, "longitude": -79.3749228855681}, "890036122RR0001": {"name": "Catholic Education Foundation of Ottawa", "designationCode": "A", "categoryCode": "21", "address": "570 WEST HUNT CLUB ROAD", "city": "NEPEAN", "province": "ON", "country": "CA", "postalCode": "K2G3R4", "twitter": "None", "instagram": "None", "facebook": "None", "youtube": "None", "website": "None", "summary": "None", "logo": "None", "latitude": 45.33298800579972, "longitude": -75.72819528377299}, "816763965RR0001": {"name": "Catholic Foundation of the Diocese of Nelson Society", "designationCode": "C", "categoryCode": "43", "address": "3665 BENVOULIN RD             CATHOLIC PASTORAL CENTRE", "city": "KELOWNA", "province": "BC", "country": "CA", "postalCode": "V1W4M7", "twitter": "None", "instagram": "None", "facebook": "None", "youtube": "None", "website": "None", "summary": "None", "logo": "None", "latitude": 49.85056104631423, "longitude": -119.46776856721908}, "835245614RR0001": {"name": "Catholic Girls' School of Greater Toronto", "designationCode": "C", "categoryCode": "20", "address": "2241 MISSISSAUGA ROAD", "city": "MISSISSAUGA", "province": "ON", "country": "CA", "postalCode": "L5H2K8", "twitter": "None", "instagram": "None", "facebook": "None", "youtube": "None", "website": "None", "summary": "None", "logo": "None", "latitude": 43.54150341332411, "longitude": -79.6373165534937}, "118841154RR0001": {"name": "Catholic Health Alliance of Canada", "designationCode": "C", "categoryCode": "19", "address": "ANNEX C, 60 CAMBRIDGE STREET N", "city": "OTTAWA", "province": "ON", "country": "CA", "postalCode": "K1R7A5", "twitter": "None", "instagram": "None", "facebook": "None", "youtube": "None", "website": "None", "summary": "None", "logo": "None", "latitude": 45.41350042296164, "longitude": -75.70818360387165}, "887180115RR0002": {"name": "Catholic Health Corporation of Manitoba / Corporation Catholique de la sant\u00e9 du Manitoba", "designationCode": "C", "categoryCode": "59", "address": "413 TACH\u00c9 AVENUE              ROOM N-5072", "city": "WINNIPEG", "province": "MB", "country": "CA", "postalCode": "R2H2A6", "twitter": "None", "instagram": "None", "facebook": "None", "youtube": "None", "website": "None", "summary": "None", "logo": "None", "latitude": 49.885036642136136, "longitude": -97.12380052990345}, "876823675RR0001": {"name": "Catholic Health Partners Foundation", "designationCode": "A", "categoryCode": "03", "address": "1773 WATER ST", "city": "MIRAMICHI", "province": "NB", "country": "CA", "postalCode": "E1N1B2", "twitter": "None", "instagram": "None", "facebook": "None", "youtube": "None", "website": "None", "summary": "None", "logo": "None", "latitude": 47.03048712199257, "longitude": -65.46972727694934}, "863893137RR0001": {"name": "Catholic Health Partners Inc. / Partenariat Catholique de la sant\u00e9 inc.", "designationCode": "C", "categoryCode": "49", "address": "1773 WATER STREET", "city": "MIRAMICHI", "province": "NB", "country": "CA", "postalCode": "E1N4P9", "twitter": "None", "instagram": "None", "facebook": "None", "youtube": "None", "website": "None", "summary": "None", "logo": "None", "latitude": 47.03048712199257, "longitude": -65.46972727694934}, "820959864RR0001": {"name": "Catholic New Life Tamil Ministry of Canada", "designationCode": "C", "categoryCode": "39", "address": "11 STELLA DRIVE,", "city": "MARKHAM", "province": "ON", "country": "CA", "postalCode": "L3S4H2", "twitter": "None", "instagram": "None", "facebook": "None", "youtube": "None", "website": "None", "summary": "None", "logo": "None", "latitude": 43.84766089312724, "longitude": -79.25744400929082}, "877929901RR0001": {"name": "Catholic Pacific College Society", "designationCode": "C", "categoryCode": "20", "address": "7720 GLOVER RD", "city": "LANGLEY", "province": "BC", "country": "CA", "postalCode": "V2Y2S9", "twitter": "None", "instagram": "None", "facebook": "None", "youtube": "None", "website": "None", "summary": "None", "logo": "None", "latitude": 49.14349899053628, "longitude": -122.60178346260646}, "766766299RR0001": {"name": "Catholic Street Missionaries", "designationCode": "C", "categoryCode": "47", "address": "5251 JOYCE STREET", "city": "VANCOUVER", "province": "BC", "country": "CA", "postalCode": "V5R4G8", "twitter": "None", "instagram": "None", "facebook": "None", "youtube": "None", "website": "None", "summary": "None", "logo": "None", "latitude": 49.237062187003616, "longitude": -123.03313677427673}, "829615178RR0001": {"name": "Catholic Voices Canada Society", "designationCode": "C", "categoryCode": "49", "address": "1 - 130 17TH ST E", "city": "NORTH VANCOUVER", "province": "BC", "country": "CA", "postalCode": "V7L2V5", "twitter": "None", "instagram": "None", "facebook": "None", "youtube": "None", "website": "None", "summary": "None", "logo": "None", "latitude": 49.323995214584976, "longitude": -123.05928003813173}, "826861734RR0001": {"name": "Catholic Women's Leadership Foundation", "designationCode": "A", "categoryCode": "03", "address": "C-702 SCOTLAND AVENUE", "city": "WINNIPEG", "province": "MB", "country": "CA", "postalCode": "R3M1X5", "twitter": "None", "instagram": "None", "facebook": "None", "youtube": "None", "website": "None", "summary": "None", "logo": "None", "latitude": 49.861672158095836, "longitude": -97.16022374742681}, "845708668RR0001": {"name": "Cats Mainstage Theatre Company", "designationCode": "C", "categoryCode": "22", "address": "360 A BLOOR WEST              PO BOX 68513 WALMER", "city": "TORONTO", "province": "ON", "country": "CA", "postalCode": "M5S3C9", "twitter": "None", "instagram": "None", "facebook": "None", "youtube": "None", "website": "None", "summary": "None", "logo": "None", "latitude": 43.666463187373566, "longitude": -79.40494880573019}, "850422601RR0001": {"name": "Cats R Us Cat Rescue", "designationCode": "C", "categoryCode": "54", "address": "80 APPEL STREET", "city": "LONDON", "province": "ON", "country": "CA", "postalCode": "N5Y1R2", "twitter": "None", "instagram": "None", "facebook": "None", "youtube": "None", "website": "None", "summary": "None", "logo": "None", "latitude": 43.00833437552653, "longitude": -81.22199034038336}, "842542375RR0001": {"name": "Cats TNR and Rescue", "designationCode": "C", "categoryCode": "54", "address": "PO BOX 7", "city": "RIDING MOUNTAIN", "province": "MB", "country": "CA", "postalCode": "R0J1T0", "twitter": "None", "instagram": "None", "facebook": "None", "youtube": "None", "website": "None", "summary": "None", "logo": "None", "latitude": 50.531930000000045, "longitude": -99.46731999999997}}