{"119288918RR1712": {"name": "Tagalog West Congregation of Jehovah's Witnesses, Surrey, British Columbia", "designationCode": "C", "categoryCode": "61", "address": "12250 82 AVE", "city": "SURREY", "province": "BC", "country": "CA", "postalCode": "V3W3E3", "twitter": "None", "instagram": "None", "facebook": "None", "youtube": "None", "website": "None", "summary": "None", "logo": "None", "latitude": 49.15213049235397, "longitude": -122.88343388926077}, "836009514RR0001": {"name": "Taggart Parkes Foundation", "designationCode": "B", "categoryCode": "03", "address": "3187 ALBION ROAD SOUTH", "city": "OTTAWA", "province": "ON", "country": "CA", "postalCode": "K1V8Y3", "twitter": "None", "instagram": "None", "facebook": "None", "youtube": "None", "website": "None", "summary": "None", "logo": "None", "latitude": 45.364365637457944, "longitude": -75.64879131766261}, "736372129RR0001": {"name": "Tagliani Foundation Fondation Tagliani", "designationCode": "A", "categoryCode": "03", "address": "12 RUE DE MULHOUSE", "city": "LORRAINE", "province": "QC", "country": "CA", "postalCode": "J6Z0B5", "twitter": "None", "instagram": "None", "facebook": "None", "youtube": "None", "website": "None", "summary": "None", "logo": "None", "latitude": 45.669553921720905, "longitude": -73.80280191421906}, "801364951RR0001": {"name": "Tahir Foundation Inc.", "designationCode": "A", "categoryCode": "53", "address": "75 FIRST STREET SUITE 251", "city": "ORANGEVILLE", "province": "ON", "country": "CA", "postalCode": "L9W5B6", "twitter": "None", "instagram": "None", "facebook": "None", "youtube": "None", "website": "None", "summary": "None", "logo": "None", "latitude": 43.92694858618496, "longitude": -80.09931477791595}, "861620714RR0001": {"name": "Tahsis Heritage Society", "designationCode": "C", "categoryCode": "50", "address": "P.O. BOX 289", "city": "TAHSIS", "province": "BC", "country": "CA", "postalCode": "V0P1X0", "twitter": "None", "instagram": "None", "facebook": "None", "youtube": "None", "website": "None", "summary": "None", "logo": "None", "latitude": 49.78331988056369, "longitude": -126.05044247435742}, "825388614RR0001": {"name": "Tails from Greece Rescue", "designationCode": "C", "categoryCode": "54", "address": "25 THE ESPLANADE              SUITE 614", "city": "TORONTO", "province": "ON", "country": "CA", "postalCode": "M5E1W5", "twitter": "None", "instagram": "None", "facebook": "None", "youtube": "None", "website": "None", "summary": "None", "logo": "None", "latitude": 43.646270826245114, "longitude": -79.375320294189}, "828941732RR0001": {"name": "Tails of Help", "designationCode": "C", "categoryCode": "54", "address": "BLDG 3, ELM BUSINESS PARK     104, 9452-51 AVE. NW", "city": "EDMONTON", "province": "AB", "country": "CA", "postalCode": "T6E5A6", "twitter": "None", "instagram": "None", "facebook": "None", "youtube": "None", "website": "None", "summary": "None", "logo": "None", "latitude": 53.48819648831365, "longitude": -113.47406099999999}, "852483312RR0001": {"name": "Tails to Tell Animal Rescue Shelter Ltd.", "designationCode": "B", "categoryCode": "54", "address": "1121 - 403 MACKENZIE WAY SW", "city": "AIRDRIE", "province": "AB", "country": "CA", "postalCode": "T4B3V7", "twitter": "None", "instagram": "None", "facebook": "None", "youtube": "None", "website": "None", "summary": "None", "logo": "None", "latitude": 51.2885123055638, "longitude": -114.02226219895162}, "129886065RR0001": {"name": "Talbot Street Christian Reformed Church", "designationCode": "C", "categoryCode": "39", "address": "513 TALBOT ST", "city": "LONDON", "province": "ON", "country": "CA", "postalCode": "N6A2S5", "twitter": "None", "instagram": "None", "facebook": "None", "youtube": "None", "website": "None", "summary": "None", "logo": "None", "latitude": 42.98656768275727, "longitude": -81.25369371068709}, "888057023RR0001": {"name": "Talbot Street Christian Reformed Church Foundation", "designationCode": "A", "categoryCode": "39", "address": "513 TALBOT STREET", "city": "LONDON", "province": "ON", "country": "CA", "postalCode": "N6A2S5", "twitter": "None", "instagram": "None", "facebook": "None", "youtube": "None", "website": "None", "summary": "None", "logo": "None", "latitude": 42.98656768275727, "longitude": -81.25369371068709}, "888261245RR0001": {"name": "Talmudical Academy of Toronto Mishkan HaTorah Charitable Trust", "designationCode": "C", "categoryCode": "21", "address": "83 SULTANA AVENUE", "city": "TORONTO", "province": "ON", "country": "CA", "postalCode": "M6A1T4", "twitter": "None", "instagram": "None", "facebook": "None", "youtube": "None", "website": "None", "summary": "None", "logo": "None", "latitude": 43.7273978748054, "longitude": -79.43805748666979}, "822420287RR0001": {"name": "Tamara Gordon Foundation", "designationCode": "C", "categoryCode": "21", "address": "7 RIVER FOREST STREET", "city": "MARKHAM", "province": "ON", "country": "CA", "postalCode": "L3S3T9", "twitter": "None", "instagram": "None", "facebook": "None", "youtube": "None", "website": "None", "summary": "None", "logo": "None", "latitude": 43.85251685899368, "longitude": -79.23984876865377}, "809006919RR0001": {"name": "Tamarra Cherryholme Foundation", "designationCode": "C", "categoryCode": "11", "address": "19 EASTBOURNE AVE", "city": "BRANTFORD", "province": "ON", "country": "CA", "postalCode": "N3R2A5", "twitter": "None", "instagram": "None", "facebook": "None", "youtube": "None", "website": "None", "summary": "None", "logo": "None", "latitude": 43.15671912998367, "longitude": -80.2708752117984}, "119288918RR1635": {"name": "Tamil Circuit 1 of Jehovah's Witnesses", "designationCode": "C", "categoryCode": "61", "address": "1849 MISTHOLLOW DRIVE", "city": "PICKERING", "province": "ON", "country": "CA", "postalCode": "L1X0A8", "twitter": "None", "instagram": "None", "facebook": "None", "youtube": "None", "website": "None", "summary": "None", "logo": "None", "latitude": 43.87703486037865, "longitude": -79.08120634456695}, "119288918RR1444": {"name": "Tamil Congregation of Jehovah's Witnesses, Mississauga, Ontario", "designationCode": "C", "categoryCode": "61", "address": "4351 DIXIE ROAD (SOUTH SIDE)", "city": "MISSISSAUGA", "province": "ON", "country": "CA", "postalCode": "L4W1M9", "twitter": "None", "instagram": "None", "facebook": "None", "youtube": "None", "website": "None", "summary": "None", "logo": "None", "latitude": 43.62960737027508, "longitude": -79.61219583856568}, "861071371RR0001": {"name": "Tamil Literary Garden", "designationCode": "C", "categoryCode": "21", "address": "76 LEGACY DR", "city": "MARKHAM", "province": "ON", "country": "CA", "postalCode": "L3S4B5", "twitter": "None", "instagram": "None", "facebook": "None", "youtube": "None", "website": "None", "summary": "None", "logo": "None", "latitude": 43.863165701915875, "longitude": -79.23606206552583}, "803929710RR0001": {"name": "Tamil United Church", "designationCode": "C", "categoryCode": "44", "address": "618-45 GREENBRAE CIRCUIT", "city": "SCARBOROUGH", "province": "ON", "country": "CA", "postalCode": "M1H1P9", "twitter": "None", "instagram": "None", "facebook": "None", "youtube": "None", "website": "None", "summary": "None", "logo": "None", "latitude": 43.759650470685216, "longitude": -79.2312998445383}, "803315068RR0001": {"name": "Tanbur African Aid Society", "designationCode": "C", "categoryCode": "21", "address": "366 MACEWAN RD SW", "city": "EDMONTON", "province": "AB", "country": "CA", "postalCode": "T6W1G5", "twitter": "None", "instagram": "None", "facebook": "None", "youtube": "None", "website": "None", "summary": "None", "logo": "None", "latitude": 53.430122041375604, "longitude": -113.53562873648211}, "844393520RR0001": {"name": "Tangled Art + Disability", "designationCode": "C", "categoryCode": "22", "address": "122 - 401 RICHMOND ST W", "city": "TORONTO", "province": "ON", "country": "CA", "postalCode": "M5V3A8", "twitter": "None", "instagram": "None", "facebook": "None", "youtube": "None", "website": "None", "summary": "None", "logo": "None", "latitude": 43.64792255983254, "longitude": -79.39538964100468}, "792807687RR0001": {"name": "Tangye Foundation", "designationCode": "B", "categoryCode": "05", "address": "500 - 1681 CHESTNUT ST", "city": "VANCOUVER", "province": "BC", "country": "CA", "postalCode": "V6J4M6", "twitter": "None", "instagram": "None", "facebook": "None", "youtube": "None", "website": "None", "summary": "None", "logo": "None", "latitude": 49.270914953372966, "longitude": -123.14648602334218}, "833645963RR0001": {"name": "Tantramar Family Resource Centre Inc.", "designationCode": "C", "categoryCode": "09", "address": "PO BOX 6395 STN MAIN", "city": "SACKVILLE", "province": "NB", "country": "CA", "postalCode": "E4L1G6", "twitter": "None", "instagram": "None", "facebook": "None", "youtube": "None", "website": "None", "summary": "None", "logo": "None", "latitude": 45.926131695268, "longitude": -64.3573668135333}, "822204897RR0001": {"name": "Tantramar Seniors' College Inc.", "designationCode": "C", "categoryCode": "20", "address": "P.O. BOX 6324", "city": "SACKVILLE", "province": "NB", "country": "CA", "postalCode": "E4L1G6", "twitter": "None", "instagram": "None", "facebook": "None", "youtube": "None", "website": "None", "summary": "None", "logo": "None", "latitude": 45.89997900000006, "longitude": -64.37448349999994}, "830251583RR0001": {"name": "Tanya Howe Damsgaard Memorial Scholarship Inc.", "designationCode": "B", "categoryCode": "21", "address": "74 - 325 4TH AVE. SW", "city": "MOOSE JAW", "province": "SK", "country": "CA", "postalCode": "S6H5V2", "twitter": "None", "instagram": "None", "facebook": "None", "youtube": "None", "website": "None", "summary": "None", "logo": "None", "latitude": 50.381848769628036, "longitude": -105.5446975399854}, "829450394RR0001": {"name": "Tanzanian Children's Fund of Canada", "designationCode": "C", "categoryCode": "21", "address": "246 IRON HILL ROAD", "city": "COWANSVILLE", "province": "QC", "country": "CA", "postalCode": "J2K3G8", "twitter": "None", "instagram": "None", "facebook": "None", "youtube": "None", "website": "None", "summary": "None", "logo": "None", "latitude": 45.18897900000006, "longitude": -72.75696199999993}, "826593964RR0001": {"name": "Tao Fellowship Canada", "designationCode": "C", "categoryCode": "39", "address": "68241 KENNY DAM RD", "city": "VANDERHOOF", "province": "BC", "country": "CA", "postalCode": "V0J3A1", "twitter": "None", "instagram": "None", "facebook": "None", "youtube": "None", "website": "None", "summary": "None", "logo": "None", "latitude": 53.99862300000001, "longitude": -124.0465095}, "108064114RR0001": {"name": "Tapawingo Day Care", "designationCode": "C", "categoryCode": "01", "address": "9 CLARENDON AVENUE", "city": "HAMILTON", "province": "ON", "country": "CA", "postalCode": "L9A2Z9", "twitter": "None", "instagram": "None", "facebook": "None", "youtube": "None", "website": "None", "summary": "None", "logo": "None", "latitude": 43.23595686819892, "longitude": -79.87418235159576}, "838670503RR0001": {"name": "Tapestry Christian Pre-School Association", "designationCode": "C", "categoryCode": "20", "address": "9280 NO. 2 ROAD", "city": "RICHMOND", "province": "BC", "country": "CA", "postalCode": "V7E2C8", "twitter": "None", "instagram": "None", "facebook": "None", "youtube": "None", "website": "None", "summary": "None", "logo": "None", "latitude": 49.14578700000001, "longitude": -123.15893898545865}, "851209098RR0001": {"name": "Tapestry Church Tuscany", "designationCode": "C", "categoryCode": "31", "address": "PO BOX 594 STN MAIN", "city": "COCHRANE", "province": "AB", "country": "CA", "postalCode": "T4C1A7", "twitter": "None", "instagram": "None", "facebook": "None", "youtube": "None", "website": "None", "summary": "None", "logo": "None", "latitude": 51.19089900000006, "longitude": -114.46804249999994}, "777629098RR0001": {"name": "Tapwewin Christian Assembly", "designationCode": "C", "categoryCode": "39", "address": "2650 6TH AVE E", "city": "PRINCE ALBERT", "province": "SK", "country": "CA", "postalCode": "S6V2K8", "twitter": "None", "instagram": "None", "facebook": "None", "youtube": "None", "website": "None", "summary": "None", "logo": "None", "latitude": 53.188694999999996, "longitude": -105.73748510987386}, "856410329RR0001": {"name": "Tara Luz Danse", "designationCode": "C", "categoryCode": "22", "address": "245, BOULEVARD CENTRUM        SUITE 260", "city": "OTTAWA", "province": "ON", "country": "CA", "postalCode": "K1E0A1", "twitter": "None", "instagram": "None", "facebook": "None", "youtube": "None", "website": "None", "summary": "None", "logo": "None", "latitude": 45.480353560678395, "longitude": -75.51103315378826}, "841464381RR0001": {"name": "Tarbiyah Learning Academy", "designationCode": "C", "categoryCode": "20", "address": "572 MOODIE DR", "city": "NEPEAN", "province": "ON", "country": "CA", "postalCode": "K2H6P6", "twitter": "None", "instagram": "None", "facebook": "None", "youtube": "None", "website": "None", "summary": "None", "logo": "None", "latitude": 45.31191014207418, "longitude": -75.82735315649997}, "809489594RR0001": {"name": "Tarjuma Foundation", "designationCode": "C", "categoryCode": "60", "address": "1108 - 10180 104 ST NW", "city": "EDMONTON", "province": "AB", "country": "CA", "postalCode": "T5J1A7", "twitter": "None", "instagram": "None", "facebook": "None", "youtube": "None", "website": "None", "summary": "None", "logo": "None", "latitude": 53.5425657485429, "longitude": -113.49930871761198}, "838208817RR0001": {"name": "Tartan Alumni Fund", "designationCode": "C", "categoryCode": "21", "address": "466 BALDOON RD", "city": "CHATHAM", "province": "ON", "country": "CA", "postalCode": "N7L4V9", "twitter": "None", "instagram": "None", "facebook": "None", "youtube": "None", "website": "None", "summary": "None", "logo": "None", "latitude": 42.40903970304105, "longitude": -82.21800371285147}, "819475229RR0001": {"name": "Tatamagouche Society for Educational Transformation", "designationCode": "C", "categoryCode": "20", "address": "259 LOOP PF ROUTE 6", "city": "TATAMAGOUCHE", "province": "NS", "country": "CA", "postalCode": "B0K1V0", "twitter": "None", "instagram": "None", "facebook": "None", "youtube": "None", "website": "None", "summary": "None", "logo": "None", "latitude": 45.73932359257328, "longitude": -63.36542759257329}, "809897184RR0001": {"name": "Tate Canada Foundation", "designationCode": "C", "categoryCode": "50", "address": "400-77 KING STREET WEST", "city": "TORONTO", "province": "ON", "country": "CA", "postalCode": "M5K0A1", "twitter": "None", "instagram": "None", "facebook": "None", "youtube": "None", "website": "None", "summary": "None", "logo": "None", "latitude": 43.65297695366795, "longitude": -79.36278576296198}, "836461301RR0001": {"name": "Tavistock Assistance Program Inc.", "designationCode": "C", "categoryCode": "09", "address": "77 MOGK STREET NORTH,         BOX 220", "city": "TAVISTOCK", "province": "ON", "country": "CA", "postalCode": "N0B2R0", "twitter": "None", "instagram": "None", "facebook": "None", "youtube": "None", "website": "None", "summary": "None", "logo": "None", "latitude": 43.32166284433679, "longitude": -80.83864990200557}, "841953094RR0001": {"name": "Taylor Argent Legacy Foundation", "designationCode": "C", "categoryCode": "57", "address": "BOX 20025 MOUNTAINVIEW", "city": "RED DEER", "province": "AB", "country": "CA", "postalCode": "T4N6X5", "twitter": "None", "instagram": "None", "facebook": "None", "youtube": "None", "website": "None", "summary": "None", "logo": "None", "latitude": 52.26852300000006, "longitude": -113.80901299999994}, "812294395RR0001": {"name": "Taylor Phillips Charitable Foundation", "designationCode": "B", "categoryCode": "03", "address": "5103 - 1128 GEORGIA ST W", "city": "VANCOUVER", "province": "BC", "country": "CA", "postalCode": "V6E0A8", "twitter": "None", "instagram": "None", "facebook": "None", "youtube": "None", "website": "None", "summary": "None", "logo": "None", "latitude": 49.28595472993258, "longitude": -123.12361924995655}, "818686768RR0001": {"name": "Teach to Grow Canada Foundation", "designationCode": "C", "categoryCode": "09", "address": "234 ELGIN MEADOWS PK SE", "city": "CALGARY", "province": "AB", "country": "CA", "postalCode": "T2Z1B4", "twitter": "None", "instagram": "None", "facebook": "None", "youtube": "None", "website": "None", "summary": "None", "logo": "None", "latitude": 50.909636179294836, "longitude": -113.95052528963002}, "819967282RR0001": {"name": "Teach For Canada / Enseigner pour le Canada", "designationCode": "C", "categoryCode": "20", "address": "202 - 720 BATHURST ST", "city": "TORONTO", "province": "ON", "country": "CA", "postalCode": "M5S2R4", "twitter": "None", "instagram": "None", "facebook": "None", "youtube": "None", "website": "None", "summary": "None", "logo": "None", "latitude": 43.66323143574358, "longitude": -79.41047606191914}, "837496363RR0001": {"name": "Teacher Mentors Abroad", "designationCode": "C", "categoryCode": "21", "address": "15920 LAKE RIDGE ROAD         R.R. 2", "city": "SUNDERLAND", "province": "ON", "country": "CA", "postalCode": "L0C1H0", "twitter": "None", "instagram": "None", "facebook": "None", "youtube": "None", "website": "None", "summary": "None", "logo": "None", "latitude": 44.25692001996664, "longitude": -79.13383559250335}, "801075003RR0001": {"name": "Teaching and Learning Canada (TLC) / Enseignement et apprentissage Canada (EAC)", "designationCode": "C", "categoryCode": "21", "address": "1280 MAIN ST. W., L-504", "city": "HAMILTON", "province": "ON", "country": "CA", "postalCode": "L8S4L6", "twitter": "None", "instagram": "None", "facebook": "None", "youtube": "None", "website": "None", "summary": "None", "logo": "None", "latitude": 43.25797708006465, "longitude": -79.91932472220606}, "107526196RR0001": {"name": "TeachBeyond, Inc.", "designationCode": "C", "categoryCode": "47", "address": "2121 HENDERSON HWY", "city": "WINNIPEG", "province": "MB", "country": "CA", "postalCode": "R2G1P8", "twitter": "None", "instagram": "None", "facebook": "None", "youtube": "None", "website": "None", "summary": "None", "logo": "None", "latitude": 49.96003488646215, "longitude": -97.06829625044749}, "816601900RR0001": {"name": "Team Broken Earth", "designationCode": "C", "categoryCode": "19", "address": "PO BOX 23004 RPO CHURCHILL SQ.", "city": "ST. JOHN'S", "province": "NL", "country": "CA", "postalCode": "A1B4J9", "twitter": "None", "instagram": "None", "facebook": "None", "youtube": "None", "website": "None", "summary": "None", "logo": "None", "latitude": 47.57470538694076, "longitude": -52.7226658486743}, "811255371RR0001": {"name": "Team Cat Rescue Incorporated", "designationCode": "C", "categoryCode": "54", "address": "PO BOX 53061 RPO ROYAL ORCHARD", "city": "THORNHILL", "province": "ON", "country": "CA", "postalCode": "L3T7R9", "twitter": "None", "instagram": "None", "facebook": "None", "youtube": "None", "website": "None", "summary": "None", "logo": "None", "latitude": 43.82435584784899, "longitude": -79.41199011752603}, "815687843RR0001": {"name": "Team Dog Rescue Incorporated", "designationCode": "C", "categoryCode": "54", "address": "200 BAY ST.,ROYAL BANK PLAZA  PO BOX 64043", "city": "TORONTO", "province": "ON", "country": "CA", "postalCode": "M5J2T6", "twitter": "None", "instagram": "None", "facebook": "None", "youtube": "None", "website": "None", "summary": "None", "logo": "None", "latitude": 43.64635885622373, "longitude": -79.37932458843532}, "814106605RR0001": {"name": "Team Finn Foundation", "designationCode": "A", "categoryCode": "03", "address": "1466 MILL ST", "city": "NORTH VANCOUVER", "province": "BC", "country": "CA", "postalCode": "V7K1V4", "twitter": "None", "instagram": "None", "facebook": "None", "youtube": "None", "website": "None", "summary": "None", "logo": "None", "latitude": 49.349684522649696, "longitude": -123.033053085204}, "755968096RR0001": {"name": "Team Rubicon Canada", "designationCode": "C", "categoryCode": "02", "address": "181 BAY STREET                SUITE 4400", "city": "TORONTO", "province": "ON", "country": "CA", "postalCode": "M5J2T3", "twitter": "None", "instagram": "None", "facebook": "None", "youtube": "None", "website": "None", "summary": "None", "logo": "None", "latitude": 43.64715434416293, "longitude": -79.37959157588452}, "834024853RR0001": {"name": "Team Shan Breast Cancer Awareness for Young Women", "designationCode": "C", "categoryCode": "11", "address": "497 PRINCESS STREET,", "city": "WOODSTOCK", "province": "ON", "country": "CA", "postalCode": "N4S4G8", "twitter": "None", "instagram": "None", "facebook": "None", "youtube": "None", "website": "None", "summary": "None", "logo": "None", "latitude": 43.131865452680465, "longitude": -80.75655473036528}, "801717349RR0001": {"name": "Team Trap Neuter Return (TEAMTNR) Society", "designationCode": "C", "categoryCode": "54", "address": "173 VIRGINIA RD RR 1", "city": "CLEMENTSVALE", "province": "NS", "country": "CA", "postalCode": "B0S1G0", "twitter": "None", "instagram": "None", "facebook": "None", "youtube": "None", "website": "None", "summary": "None", "logo": "None", "latitude": 44.63255250000002, "longitude": -65.53491075}, "871645230RR0001": {"name": "Team Work Cooperative Limited", "designationCode": "C", "categoryCode": "20", "address": "501 - 7051 BAYERS RD", "city": "HALIFAX", "province": "NS", "country": "CA", "postalCode": "B3L2C1", "twitter": "None", "instagram": "None", "facebook": "None", "youtube": "None", "website": "None", "summary": "None", "logo": "None", "latitude": 44.65377548658288, "longitude": -63.62594002553523}, "808508394RR0001": {"name": "Teammates For Kids Foundation - Canada", "designationCode": "A", "categoryCode": "03", "address": "1400 - 45 ST CLAIR AVE W", "city": "TORONTO", "province": "ON", "country": "CA", "postalCode": "M4V1L3", "twitter": "None", "instagram": "None", "facebook": "None", "youtube": "None", "website": "None", "summary": "None", "logo": "None", "latitude": 43.68788710460182, "longitude": -79.39487415272116}, "858380017RR0001": {"name": "Teamwork Children's Services International", "designationCode": "C", "categoryCode": "01", "address": "5983 LADYBURN CRESCENT", "city": "MISSISSAUGA", "province": "ON", "country": "CA", "postalCode": "L5M4V9", "twitter": "None", "instagram": "None", "facebook": "None", "youtube": "None", "website": "None", "summary": "None", "logo": "None", "latitude": 43.59301411766413, "longitude": -79.71018483210213}, "118836519RR0001": {"name": "Technion Canada", "designationCode": "A", "categoryCode": "21", "address": "970 LAWRENCE AVE W SUITE 206", "city": "TORONTO", "province": "ON", "country": "CA", "postalCode": "M6A3B6", "twitter": "None", "instagram": "None", "facebook": "None", "youtube": "None", "website": "None", "summary": "None", "logo": "None", "latitude": 43.713414238444024, "longitude": -79.45809593770547}, "838264182RR0001": {"name": "Technology 4 Everyone Inc.", "designationCode": "C", "categoryCode": "59", "address": "825 MANITOBA AVE", "city": "WINNIPEG", "province": "MB", "country": "CA", "postalCode": "R2X0J5", "twitter": "None", "instagram": "None", "facebook": "None", "youtube": "None", "website": "None", "summary": "None", "logo": "None", "latitude": 49.921493855415676, "longitude": -97.157451600179}, "805217361RR0001": {"name": "Technology, Engineering and Science Leadership Activities", "designationCode": "C", "categoryCode": "29", "address": "1919 19 ST SW", "city": "CALGARY", "province": "AB", "country": "CA", "postalCode": "T2T5E2", "twitter": "None", "instagram": "None", "facebook": "None", "youtube": "None", "website": "None", "summary": "None", "logo": "None", "latitude": 51.0366094154885, "longitude": -114.10628635042399}, "805810090RR0001": {"name": "Ted Harrison Foundation", "designationCode": "B", "categoryCode": "23", "address": "4551-20TH AVENUE N E", "city": "SALMON ARM", "province": "BC", "country": "CA", "postalCode": "V1E1Z3", "twitter": "None", "instagram": "None", "facebook": "None", "youtube": "None", "website": "None", "summary": "None", "logo": "None", "latitude": 50.714457525967916, "longitude": -119.23254}, "823254206RR0001": {"name": "Teddy Bears Anonymous", "designationCode": "C", "categoryCode": "09", "address": "7711 DISCOVERY RD", "city": "REGINA", "province": "SK", "country": "CA", "postalCode": "S4Y1E8", "twitter": "None", "instagram": "None", "facebook": "None", "youtube": "None", "website": "None", "summary": "None", "logo": "None", "latitude": 50.48339056506449, "longitude": -104.69227527713655}, "820769289RR0001": {"name": "Teen Legal Helpline (TLH)", "designationCode": "C", "categoryCode": "59", "address": "147 LIBERTY STREET", "city": "TORONTO", "province": "ON", "country": "CA", "postalCode": "M6K3G3", "twitter": "None", "instagram": "None", "facebook": "None", "youtube": "None", "website": "None", "summary": "None", "logo": "None", "latitude": 43.637480780454766, "longitude": -79.42448553344107}, "824221667RR0001": {"name": "Teens 2 Serve Jesus", "designationCode": "C", "categoryCode": "45", "address": "210-12170 222ND STREET", "city": "MAPLE RIDGE", "province": "BC", "country": "CA", "postalCode": "V2X8H1", "twitter": "None", "instagram": "None", "facebook": "None", "youtube": "None", "website": "None", "summary": "None", "logo": "None", "latitude": 49.2236631618097, "longitude": -122.60691943943718}, "842876211RR0001": {"name": "Tehillah Outreach Inc.", "designationCode": "C", "categoryCode": "49", "address": "P.O. BOX 303", "city": "CARNDUFF", "province": "SK", "country": "CA", "postalCode": "S0C0J0", "twitter": "None", "instagram": "None", "facebook": "None", "youtube": "None", "website": "None", "summary": "None", "logo": "None", "latitude": 49.17721000000006, "longitude": -101.79901999999998}, "846038685RR0001": {"name": "Tei wa Syana Community Initiative", "designationCode": "C", "categoryCode": "50", "address": "500 FORDELL AVE", "city": "KANATA", "province": "ON", "country": "CA", "postalCode": "K2W0B3", "twitter": "None", "instagram": "None", "facebook": "None", "youtube": "None", "website": "None", "summary": "None", "logo": "None", "latitude": 45.36314989618566, "longitude": -75.93040976882666}, "848506838RR0001": {"name": "Tele-Drive Albert County Inc.", "designationCode": "C", "categoryCode": "09", "address": "41 NICHOLAS DR", "city": "HILLSBOROUGH", "province": "NB", "country": "CA", "postalCode": "E4H2Z9", "twitter": "None", "instagram": "None", "facebook": "None", "youtube": "None", "website": "None", "summary": "None", "logo": "None", "latitude": 45.90795524946744, "longitude": -64.64461063833593}, "822571113RR0001": {"name": "Telephone Pioneers Amateur Radio Club", "designationCode": "C", "categoryCode": "59", "address": "921 ANDERS ROAD", "city": "WEST KELOWNA", "province": "BC", "country": "CA", "postalCode": "V1Z1K2", "twitter": "None", "instagram": "None", "facebook": "None", "youtube": "None", "website": "None", "summary": "None", "logo": "None", "latitude": 49.860277492353966, "longitude": -119.55289333389115}, "804575504RR0001": {"name": "Telmexw Awtexw Healing Centre Association", "designationCode": "C", "categoryCode": "57", "address": "4690 SALISH RD", "city": "AGASSIZ", "province": "BC", "country": "CA", "postalCode": "V0M1A1", "twitter": "None", "instagram": "None", "facebook": "None", "youtube": "None", "website": "None", "summary": "None", "logo": "None", "latitude": 49.29791549621907, "longitude": -121.91438565350762}, "819419037RR0001": {"name": "Temagami Environmental Research and Stewardship", "designationCode": "C", "categoryCode": "54", "address": "1720 LAKE TEMAGAMI ACCESS RD.", "city": "TEMAGAMI", "province": "ON", "country": "CA", "postalCode": "P0H2H0", "twitter": "None", "instagram": "None", "facebook": "None", "youtube": "None", "website": "None", "summary": "None", "logo": "None", "latitude": 46.98591510283866, "longitude": -79.91852721250682}, "819541665RR0001": {"name": "Tembo-Kenya Community Development Society", "designationCode": "C", "categoryCode": "09", "address": "203-920 PARK BLVD.", "city": "VICTORIA", "province": "BC", "country": "CA", "postalCode": "V8V2T3", "twitter": "None", "instagram": "None", "facebook": "None", "youtube": "None", "website": "None", "summary": "None", "logo": "None", "latitude": 48.41287147489748, "longitude": -123.35975083236193}, "871956181RR0001": {"name": "Temerty Family Foundation", "designationCode": "B", "categoryCode": "23", "address": "30 ST CLAIR AVENUE WEST       17TH FLOOR", "city": "TORONTO", "province": "ON", "country": "CA", "postalCode": "M4V3A2", "twitter": "None", "instagram": "None", "facebook": "None", "youtube": "None", "website": "None", "summary": "None", "logo": "None", "latitude": 43.687922383865086, "longitude": -79.39526422468113}, "129892972RR0001": {"name": "Temiskaming Hospital Auxiliary", "designationCode": "C", "categoryCode": "19", "address": "421 SHEPHERDSON ROAD", "city": "NEW LISKEARD", "province": "ON", "country": "CA", "postalCode": "P0J1P0", "twitter": "None", "instagram": "None", "facebook": "None", "youtube": "None", "website": "None", "summary": "None", "logo": "None", "latitude": 47.4945236024636, "longitude": -79.69560349994472}, "118950443RR0001": {"name": "Temiskaming Pentecostal Church", "designationCode": "C", "categoryCode": "36", "address": "PO BOX 453", "city": "HAILEYBURY", "province": "ON", "country": "CA", "postalCode": "P0J1K0", "twitter": "None", "instagram": "None", "facebook": "None", "youtube": "None", "website": "None", "summary": "None", "logo": "None", "latitude": 47.449380000000076, "longitude": -79.63766999999996}, "850849514RR0001": {"name": "Temple of Hope Pentecostal Church", "designationCode": "C", "categoryCode": "39", "address": "5 BURKE ST", "city": "NEW TECUMSETH", "province": "ON", "country": "CA", "postalCode": "L9R0L4", "twitter": "None", "instagram": "None", "facebook": "None", "youtube": "None", "website": "None", "summary": "None", "logo": "None", "latitude": 44.15743661212999, "longitude": -79.78515855686443}, "820725349RR0001": {"name": "Temple of Navagaraha", "designationCode": "C", "categoryCode": "48", "address": "850 TAPSCOTT ROAD             UNIT #48", "city": "SCARBOROUGH", "province": "ON", "country": "CA", "postalCode": "M1X1L4", "twitter": "None", "instagram": "None", "facebook": "None", "youtube": "None", "website": "None", "summary": "None", "logo": "None", "latitude": 43.82110009074393, "longitude": -79.24111552060087}, "836712299RR0001": {"name": "Temple of Praise New Testament Church of God", "designationCode": "C", "categoryCode": "39", "address": "3975 JANE STREET              PO BOX 21137", "city": "TORONTO", "province": "ON", "country": "CA", "postalCode": "M3N2K1", "twitter": "None", "instagram": "None", "facebook": "None", "youtube": "None", "website": "None", "summary": "None", "logo": "None", "latitude": 43.75645356832767, "longitude": -79.51741267626893}, "822347258RR0001": {"name": "Temple Shri Guru Ravi Dass Sabha (Montr\u00e9al)", "designationCode": "C", "categoryCode": "62", "address": "8205, RUE DUROCHER", "city": "MONTR\u00c9AL", "province": "QC", "country": "CA", "postalCode": "H3N2A8", "twitter": "None", "instagram": "None", "facebook": "None", "youtube": "None", "website": "None", "summary": "None", "logo": "None", "latitude": 45.5331808698424, "longitude": -73.63689478183976}, "896009081RR0001": {"name": "Templeton United Church", "designationCode": "C", "categoryCode": "44", "address": "942 NOTRE-DAME", "city": "GATINEAU", "province": "QC", "country": "CA", "postalCode": "J8P1N9", "twitter": "None", "instagram": "None", "facebook": "None", "youtube": "None", "website": "None", "summary": "None", "logo": "None", "latitude": 45.486732333862484, "longitude": -75.60202388576964}, "877404004RR0001": {"name": "Templo Cristiano La Buena Semilla", "designationCode": "C", "categoryCode": "36", "address": "39 TALBOT STREET EAST", "city": "LEAMINGTON", "province": "ON", "country": "CA", "postalCode": "N8H1L1", "twitter": "None", "instagram": "None", "facebook": "None", "youtube": "None", "website": "None", "summary": "None", "logo": "None", "latitude": 42.053287136303126, "longitude": -82.59905013985248}, "857450092RR0001": {"name": "Ten Yad of Ottawa/ Ten Yad d'Ottawa", "designationCode": "C", "categoryCode": "09", "address": "1363 WOODROFFE AVE            PO BOX 33005", "city": "OTTAWA", "province": "ON", "country": "CA", "postalCode": "K2C3Y9", "twitter": "None", "instagram": "None", "facebook": "None", "youtube": "None", "website": "None", "summary": "None", "logo": "None", "latitude": 45.35195277408725, "longitude": -75.76305081435832}, "836011254RR0001": {"name": "Tennille's Hope Kommunity Kitchen Fellowship", "designationCode": "C", "categoryCode": "09", "address": "POST OFFICE BOX 1684", "city": "WHITE COURT", "province": "AB", "country": "CA", "postalCode": "T7S1P5", "twitter": "None", "instagram": "None", "facebook": "None", "youtube": "None", "website": "None", "summary": "None", "logo": "None", "latitude": 38.1453075, "longitude": -120.865185}, "811815109RR0001": {"name": "Tennycape Cemetery Perpetual Care Committee", "designationCode": "B", "categoryCode": "59", "address": "1895 HIGHWAY 215", "city": "WALTON", "province": "NS", "country": "CA", "postalCode": "B0N2R0", "twitter": "None", "instagram": "None", "facebook": "None", "youtube": "None", "website": "None", "summary": "None", "logo": "None", "latitude": 45.24307305242685, "longitude": -63.99092264895372}, "884276916RR0001": {"name": "Tent of David Assembly of Edmonton", "designationCode": "C", "categoryCode": "39", "address": "6505 140 AVENUE", "city": "EDMONTON", "province": "AB", "country": "CA", "postalCode": "T5A1H1", "twitter": "None", "instagram": "None", "facebook": "None", "youtube": "None", "website": "None", "summary": "None", "logo": "None", "latitude": 53.6021675323159, "longitude": -113.44055327699232}, "813487220RR0001": {"name": "Tentmakersministry-Youth with a Mission", "designationCode": "C", "categoryCode": "39", "address": "105 SHEPPARD AVENUE EAST", "city": "NORTH YORK", "province": "ON", "country": "CA", "postalCode": "M2N3A3", "twitter": "None", "instagram": "None", "facebook": "None", "youtube": "None", "website": "None", "summary": "None", "logo": "None", "latitude": 43.76281276934628, "longitude": -79.40485529211153}, "840069710RR0001": {"name": "Terence & Svea McKillen Foundation", "designationCode": "B", "categoryCode": "03", "address": "965 DAVECATH ROAD", "city": "MISSISSAUGA", "province": "ON", "country": "CA", "postalCode": "L5J2R7", "twitter": "None", "instagram": "None", "facebook": "None", "youtube": "None", "website": "None", "summary": "None", "logo": "None", "latitude": 43.520282045530536, "longitude": -79.61825166859035}, "832901862RR0001": {"name": "Tergar Montreal / Tergar Montr\u00e9al", "designationCode": "C", "categoryCode": "35", "address": "82 BOUL DU DOMAINE", "city": "NOTRE-DAME-DE-L'ILE-PERROT", "province": "QC", "country": "CA", "postalCode": "J7V7P2", "twitter": "None", "instagram": "None", "facebook": "None", "youtube": "None", "website": "None", "summary": "None", "logo": "None", "latitude": 45.39498025287073, "longitude": -73.9017691090658}, "874967508RR0001": {"name": "Terrace and District Museum Society", "designationCode": "C", "categoryCode": "50", "address": "P.O.BOX 512", "city": "TERRACE", "province": "BC", "country": "CA", "postalCode": "V8G4B5", "twitter": "None", "instagram": "None", "facebook": "None", "youtube": "None", "website": "None", "summary": "None", "logo": "None", "latitude": 54.51590400000006, "longitude": -128.60321299999993}, "108068636RR0001": {"name": "Terrace Art Association", "designationCode": "C", "categoryCode": "22", "address": "4610 PARK AVENUE", "city": "TERRACE", "province": "BC", "country": "CA", "postalCode": "V8G1V6", "twitter": "None", "instagram": "None", "facebook": "None", "youtube": "None", "website": "None", "summary": "None", "logo": "None", "latitude": 54.51817745772946, "longitude": -128.58718855285946}, "808356224RR0001": {"name": "Terrace Crime Stoppers Society", "designationCode": "C", "categoryCode": "59", "address": "4635 GREIG AVE", "city": "TERRACE", "province": "BC", "country": "CA", "postalCode": "V8G5P9", "twitter": "None", "instagram": "None", "facebook": "None", "youtube": "None", "website": "None", "summary": "None", "logo": "None", "latitude": 54.51573191739664, "longitude": -128.5893264178972}, "855903266RR0001": {"name": "Terralingua Society for Biocultural Diversity", "designationCode": "C", "categoryCode": "29", "address": "217 BAKER ROAD", "city": "SALT SPRING ISLAND", "province": "BC", "country": "CA", "postalCode": "V8K2N6", "twitter": "None", "instagram": "None", "facebook": "None", "youtube": "None", "website": "None", "summary": "None", "logo": "None", "latitude": 48.86814190059996, "longitude": -123.532742610905}, "821295003RR0001": {"name": "TerraTundra Foundation", "designationCode": "A", "categoryCode": "03", "address": "207-517 WELLINGTON ST. WEST", "city": "TORONTO", "province": "ON", "country": "CA", "postalCode": "M5V1G1", "twitter": "None", "instagram": "None", "facebook": "None", "youtube": "None", "website": "None", "summary": "None", "logo": "None", "latitude": 43.64244993859917, "longitude": -79.40306966835217}, "841495609RR0001": {"name": "Terre Native (LA)", "designationCode": "C", "categoryCode": "49", "address": "97 ROUTE DE TADOUSSAC", "city": "ST-FULGENCE", "province": "QC", "country": "CA", "postalCode": "G0V1S0", "twitter": "None", "instagram": "None", "facebook": "None", "youtube": "None", "website": "None", "summary": "None", "logo": "None", "latitude": 48.45834637722863, "longitude": -70.96947815055695}, "857395628RR0001": {"name": "Terrequity Children's Foundation", "designationCode": "A", "categoryCode": "03", "address": "211 CONSUMERS ROAD            SUITE 105", "city": "TORONTO", "province": "ON", "country": "CA", "postalCode": "M2J4G8", "twitter": "None", "instagram": "None", "facebook": "None", "youtube": "None", "website": "None", "summary": "None", "logo": "None", "latitude": 43.77184433666111, "longitude": -79.3316761063245}, "837165042RR0001": {"name": "Terry Fox Centre", "designationCode": "C", "categoryCode": "53", "address": "675 WEST 10TH AVENUE          14 FLOOR", "city": "VANCOUVER", "province": "BC", "country": "CA", "postalCode": "V5Z1L3", "twitter": "None", "instagram": "None", "facebook": "None", "youtube": "None", "website": "None", "summary": "None", "logo": "None", "latitude": 49.26234748600598, "longitude": -123.11872166472386}, "836447045RR0001": {"name": "Tessa Beauchamp Foundation Society", "designationCode": "C", "categoryCode": "23", "address": "1250 - 1500 GEORGIA ST W", "city": "VANCOUVER", "province": "BC", "country": "CA", "postalCode": "V6G2Z6", "twitter": "None", "instagram": "None", "facebook": "None", "youtube": "None", "website": "None", "summary": "None", "logo": "None", "latitude": 49.29013479542975, "longitude": -123.1300069287031}, "844991398RR0001": {"name": "Testicular Cancer Canada", "designationCode": "C", "categoryCode": "11", "address": "35 RUE DANTE", "city": "MONTREAL", "province": "QC", "country": "CA", "postalCode": "H2S1J6", "twitter": "None", "instagram": "None", "facebook": "None", "youtube": "None", "website": "None", "summary": "None", "logo": "None", "latitude": 45.53311779684339, "longitude": -73.61359747282}, "819094806RR0001": {"name": "Tett Centre for Creativity and Learning", "designationCode": "C", "categoryCode": "22", "address": "309 - 370 KING ST W", "city": "KINGSTON", "province": "ON", "country": "CA", "postalCode": "K7L2X4", "twitter": "None", "instagram": "None", "facebook": "None", "youtube": "None", "website": "None", "summary": "None", "logo": "None", "latitude": 44.22159855612038, "longitude": -76.5061289121416}, "864514823RR0001": {"name": "Tewegan Housing for Aboriginal Youth", "designationCode": "C", "categoryCode": "09", "address": "65 HARVEY STREET", "city": "OTTAWA", "province": "ON", "country": "CA", "postalCode": "K1S0A8", "twitter": "None", "instagram": "None", "facebook": "None", "youtube": "None", "website": "None", "summary": "None", "logo": "None", "latitude": 45.4140015601015, "longitude": -75.680050022217}, "805159597RR0001": {"name": "Text Your Mind Counselling", "designationCode": "C", "categoryCode": "11", "address": "28 KAMLOOPS DR", "city": "BRAMPTON", "province": "ON", "country": "CA", "postalCode": "L6R2X6", "twitter": "None", "instagram": "None", "facebook": "None", "youtube": "None", "website": "None", "summary": "None", "logo": "None", "latitude": 43.77139571885275, "longitude": -79.74248397267577}, "869589192RR0001": {"name": "Textil'Art Laval", "designationCode": "C", "categoryCode": "29", "address": "2615 BOUL. LE CORBUSIER", "city": "LAVAL", "province": "QC", "country": "CA", "postalCode": "H7S2E8", "twitter": "None", "instagram": "None", "facebook": "None", "youtube": "None", "website": "None", "summary": "None", "logo": "None", "latitude": 45.57818238721197, "longitude": -73.74421581317469}, "856629472RR0001": {"name": "Th\u00e9\u00e2tre de musique ancienne (TEM) / Theatre of Early Music (TEM)", "designationCode": "C", "categoryCode": "22", "address": "6476 RUE CLARK", "city": "MONTREAL", "province": "QC", "country": "CA", "postalCode": "H2S3E6", "twitter": "None", "instagram": "None", "facebook": "None", "youtube": "None", "website": "None", "summary": "None", "logo": "None", "latitude": 45.52986973131756, "longitude": -73.60953463310047}, "119214187RR0001": {"name": "Th\u00e9\u00e2tre du Rideau Vert", "designationCode": "C", "categoryCode": "22", "address": "355, RUE GILFORT", "city": "MONTR\u00c9AL", "province": "QC", "country": "CA", "postalCode": "H2T1M6", "twitter": "None", "instagram": "None", "facebook": "None", "youtube": "None", "website": "None", "summary": "None", "logo": "None", "latitude": 45.52432022952855, "longitude": -73.58529306523737}, "831659628RR0001": {"name": "Th\u00e9\u00e2tre point d'Orgue", "designationCode": "C", "categoryCode": "22", "address": "6410 CHRISTOPHE-COLOMB", "city": "MONTR\u00c9AL", "province": "QC", "country": "CA", "postalCode": "H2S2G7", "twitter": "None", "instagram": "None", "facebook": "None", "youtube": "None", "website": "None", "summary": "None", "logo": "None", "latitude": 45.53748877127953, "longitude": -73.60087184459562}}