{"107508970RR0001": {"name": "INSTITUT PHILIPPE PINEL DE MONTREAL", "designationCode": "C", "categoryCode": "10", "address": "10905, BOUL. HENRI-BOURASSA E", "city": "MONTREAL", "province": "QC", "country": "CA", "postalCode": "H1C1H1", "twitter": "None", "instagram": "None", "facebook": "None", "youtube": "None", "website": "None", "summary": "None", "logo": "None", "latitude": 45.65436950780353, "longitude": -73.53245333252805}, "118969633RR0001": {"name": "INSTITUT POUR LA PROMOTION DE COMMUNAUTES CHRETIENNES (MONTREAL) INSTITUTE FOR CHRISTIAN COMMUNITIES (MONTREAL)", "designationCode": "C", "categoryCode": "46", "address": "324-40E AVENUE", "city": "LACHINE", "province": "QC", "country": "CA", "postalCode": "H8T2E8", "twitter": "None", "instagram": "None", "facebook": "None", "youtube": "None", "website": "None", "summary": "None", "logo": "None"}, "118969641RR0001": {"name": "INSTITUT PRESENCE ET VIE INC.", "designationCode": "C", "categoryCode": "09", "address": "200, AVENUE PONT-SCOTT #307", "city": "QU\u00c9BEC", "province": "QC", "country": "CA", "postalCode": "G1M3J7", "twitter": "None", "instagram": "None", "facebook": "None", "youtube": "None", "website": "None", "summary": "None", "logo": "None", "latitude": 46.810191351116494, "longitude": -71.25686623053817}, "839685146RR0001": {"name": "INSTITUT QUEBECOIS DE LA BIODIVERSITE, INC.", "designationCode": "C", "categoryCode": "29", "address": "DEPT. SUCC BIOLOGIQUE         UNIV. MTL CP 6128 SUCC CTRE-V", "city": "MONTREAL", "province": "QC", "country": "CA", "postalCode": "H3C3J7", "twitter": "None", "instagram": "None", "facebook": "None", "youtube": "None", "website": "None", "summary": "None", "logo": "None", "latitude": 45.49833600000005, "longitude": -73.55148649999994}, "856833876RR0001": {"name": "INSTITUT ROCHER", "designationCode": "C", "categoryCode": "20", "address": "2417, RUE VICTORIA", "city": "STE-JULIENNE", "province": "QC", "country": "CA", "postalCode": "J0K2T0", "twitter": "None", "instagram": "None", "facebook": "None", "youtube": "None", "website": "None", "summary": "None", "logo": "None", "latitude": 45.96231024565738, "longitude": -73.71426536190786}, "138878384RR0001": {"name": "INSTITUT SCIENTIFIQUE DU SAGUENAY-LAC-ST-JEAN INC", "designationCode": "C", "categoryCode": "21", "address": "637 BOUL.TALBOT, BUREAU 107", "city": "CHICOUTIMI", "province": "QC", "country": "CA", "postalCode": "G7H6A4", "twitter": "None", "instagram": "None", "facebook": "None", "youtube": "None", "website": "None", "summary": "None", "logo": "None", "latitude": 48.41925892143243, "longitude": -71.04392059261986}, "895655256RR0001": {"name": "INSTITUT SECONDAIRE KERANNA (1992) INC.", "designationCode": "C", "categoryCode": "20", "address": "6205, BOUL. DES CHENAUX", "city": "TROIS-RIVIERES", "province": "QC", "country": "CA", "postalCode": "G9A5S3", "twitter": "None", "instagram": "None", "facebook": "None", "youtube": "None", "website": "None", "summary": "None", "logo": "None"}, "118969690RR0001": {"name": "INSTITUT SECULIER PIE X", "designationCode": "C", "categoryCode": "49", "address": "CP 87731 SUCC CHARLESBOURG    1645 BOUL. LOUIS XIV", "city": "QUEBEC", "province": "QC", "country": "CA", "postalCode": "G1G5W6", "twitter": "None", "instagram": "None", "facebook": "None", "youtube": "None", "website": "None", "summary": "None", "logo": "None", "latitude": 46.87673100000005, "longitude": -71.28341899999994}, "118969690RR0002": {"name": "INSTITUT SECULIER PIE X SECTION ALMA", "designationCode": "C", "categoryCode": "49", "address": "200 DELAGE", "city": "ALMA", "province": "QC", "country": "CA", "postalCode": "G8B6A4", "twitter": "None", "instagram": "None", "facebook": "None", "youtube": "None", "website": "None", "summary": "None", "logo": "None", "latitude": 48.52867348153392, "longitude": -71.64769015096098}, "118969724RR0001": {"name": "INSTITUT SECULIER PIE X SECTION QUEBEC", "designationCode": "C", "categoryCode": "49", "address": "1007 RUE JOSEPHINE-FOUQUET", "city": "LEVIS", "province": "QC", "country": "CA", "postalCode": "G6Z1S1", "twitter": "None", "instagram": "None", "facebook": "None", "youtube": "None", "website": "None", "summary": "None", "logo": "None", "latitude": 46.715353125165954, "longitude": -71.19555658661766}, "118969732RR0001": {"name": "INSTITUT SECULIER PIE X SECTION SAGUENAY", "designationCode": "C", "categoryCode": "49", "address": "200 DELAGE", "city": "ALMA", "province": "QC", "country": "CA", "postalCode": "G8B6A4", "twitter": "None", "instagram": "None", "facebook": "None", "youtube": "None", "website": "None", "summary": "None", "logo": "None", "latitude": 48.52867348153392, "longitude": -71.64769015096098}, "118969740RR0001": {"name": "INSTITUT SECULIER PIE X SECTION ST-GEORGES", "designationCode": "C", "categoryCode": "49", "address": "4325, 10E AVENUE SUD", "city": "ST-GEORGES", "province": "QC", "country": "CA", "postalCode": "G5Y1P5", "twitter": "None", "instagram": "None", "facebook": "None", "youtube": "None", "website": "None", "summary": "None", "logo": "None", "latitude": 46.13826425903757, "longitude": -70.6885211244471}, "888973393RR0001": {"name": "INSTITUT SECULIER PIE X, ROBERVAL", "designationCode": "A", "categoryCode": "49", "address": "1835 BL. HORACE \"J\" BEEMER", "city": "ROBERVAL", "province": "QC", "country": "CA", "postalCode": "G8H2N2", "twitter": "None", "instagram": "None", "facebook": "None", "youtube": "None", "website": "None", "summary": "None", "logo": "None", "latitude": 48.5449747868314, "longitude": -72.22310217640928}, "118969716RR0001": {"name": "INSTITUT SECULIER PIE X, SECTION MONTREAL", "designationCode": "C", "categoryCode": "49", "address": "242 SIMON SALADIN", "city": "BOUCHERVILLE", "province": "QC", "country": "CA", "postalCode": "J4B1L4", "twitter": "None", "instagram": "None", "facebook": "None", "youtube": "None", "website": "None", "summary": "None", "logo": "None", "latitude": 45.590010068526944, "longitude": -73.45330665113386}, "107509168RR0001": {"name": "INSTITUT ST-JOSEPH INC.", "designationCode": "C", "categoryCode": "20", "address": "900 AVENUE JOFFRE", "city": "QUEBEC", "province": "QC", "country": "CA", "postalCode": "G1S4Z3", "twitter": "None", "instagram": "None", "facebook": "None", "youtube": "None", "website": "None", "summary": "None", "logo": "None", "latitude": 46.79609550066384, "longitude": -71.2444823543478}, "868136896RR0001": {"name": "INSTITUT T.O.R.A. / T.O.R.A. INSTITUTE", "designationCode": "C", "categoryCode": "49", "address": "4691, AVENUE VAN HORNE", "city": "MONTREAL", "province": "QC", "country": "CA", "postalCode": "H3W1H8", "twitter": "None", "instagram": "None", "facebook": "None", "youtube": "None", "website": "None", "summary": "None", "logo": "None", "latitude": 45.49530578963004, "longitude": -73.6368464839285}, "129926036RR0001": {"name": "INSTITUT THOMAS MORE/THOMAS MORE INSTITUTE", "designationCode": "C", "categoryCode": "20", "address": "3405 ATWATER AVENUE", "city": "MONTREAL", "province": "QC", "country": "CA", "postalCode": "H3H1Y2", "twitter": "None", "instagram": "None", "facebook": "None", "youtube": "None", "website": "None", "summary": "None", "logo": "None", "latitude": 45.492180841248754, "longitude": -73.58932236412957}, "889264172RR0001": {"name": "INSTITUT UNIVERSITAIRE DU TROISIEME AGE DE MONTREAL", "designationCode": "C", "categoryCode": "20", "address": "1474 RUE FLEURY EST", "city": "MONTREAL", "province": "QC", "country": "CA", "postalCode": "H2C1S1", "twitter": "None", "instagram": "None", "facebook": "None", "youtube": "None", "website": "None", "summary": "None", "logo": "None", "latitude": 45.562346780454774, "longitude": -73.65663291990322}, "119020493RR0001": {"name": "INSTITUT VOLUNTAS DEI", "designationCode": "C", "categoryCode": "46", "address": "7385 BOUL PARENT", "city": "TROIS-RIVIERES", "province": "QC", "country": "CA", "postalCode": "G9A5E1", "twitter": "None", "instagram": "None", "facebook": "None", "youtube": "None", "website": "None", "summary": "None", "logo": "None", "latitude": 46.36327706520871, "longitude": -72.6256077571699}, "897326294RR0001": {"name": "INSTITUT VOLUNTAS DEI-DISTRICT CANADIEN", "designationCode": "C", "categoryCode": "46", "address": "2053 RUE NADEAU", "city": "THETFORD MINES", "province": "QC", "country": "CA", "postalCode": "G6H3K4", "twitter": "None", "instagram": "None", "facebook": "None", "youtube": "None", "website": "None", "summary": "None", "logo": "None", "latitude": 46.16101264530548, "longitude": -71.25555881663713}, "889801148RR0001": {"name": "INSTITUT YAVNE", "designationCode": "C", "categoryCode": "20", "address": "7946 WAVELL", "city": "COTE ST-LUC", "province": "QC", "country": "CA", "postalCode": "H4W1L7", "twitter": "None", "instagram": "None", "facebook": "None", "youtube": "None", "website": "None", "summary": "None", "logo": "None", "latitude": 45.461170351924565, "longitude": -73.6645510799239}, "118969344RR0001": {"name": "INSTITUTE FOR ADVANCED JUDAIC STUDIES", "designationCode": "C", "categoryCode": "20", "address": "515 COLDSTREAM AVE.", "city": "TORONTO", "province": "ON", "country": "CA", "postalCode": "M6B2K7", "twitter": "None", "instagram": "None", "facebook": "None", "youtube": "None", "website": "None", "summary": "None", "logo": "None", "latitude": 43.71470882763007, "longitude": -79.43008531473257}, "824305551RR0001": {"name": "INSTITUTE FOR ADVANCED TALMUDIC AND HALACHIC STUDIES", "designationCode": "C", "categoryCode": "20", "address": "477 LAWRENCE AVE. W.", "city": "TORONTO", "province": "ON", "country": "CA", "postalCode": "M5M1C6", "twitter": "None", "instagram": "None", "facebook": "None", "youtube": "None", "website": "None", "summary": "None", "logo": "None", "latitude": 43.719641823734946, "longitude": -79.42796736969815}, "870445046RR0001": {"name": "INSTITUTE FOR BIBLICAL PREACHING", "designationCode": "C", "categoryCode": "43", "address": "PO BOX 726                    486 MAIN ST E", "city": "CAMBRIDGE", "province": "ON", "country": "CA", "postalCode": "N1R5W6", "twitter": "None", "instagram": "None", "facebook": "None", "youtube": "None", "website": "None", "summary": "None", "logo": "None", "latitude": 43.35795330783633, "longitude": -80.28871710672853}, "889809737RR0001": {"name": "INSTITUTE FOR BIOREGIONAL STUDIES LIMITED", "designationCode": "C", "categoryCode": "20", "address": "P.O. BOX 672", "city": "CHARLOTTETOWN", "province": "PE", "country": "CA", "postalCode": "C1A7L3", "twitter": "None", "instagram": "None", "facebook": "None", "youtube": "None", "website": "None", "summary": "None", "logo": "None", "latitude": 46.23659700000006, "longitude": -63.12815449999994}, "823034145RR0001": {"name": "INSTITUTE FOR CANADIAN CITIZENSHIP/INSTITUT POUR LA CITOYENNETE CANADIENNE", "designationCode": "C", "categoryCode": "21", "address": "260 SPADINA AVE               SUITE 500", "city": "TORONTO", "province": "ON", "country": "CA", "postalCode": "M5T2E4", "twitter": "None", "instagram": "None", "facebook": "None", "youtube": "None", "website": "None", "summary": "None", "logo": "None", "latitude": 43.651794205118506, "longitude": -79.39820668526743}, "107508434RR0001": {"name": "INSTITUTE FOR CHRISTIAN STUDIES", "designationCode": "C", "categoryCode": "21", "address": "DIR. OF FINANCE & ADMIN.      100-229 COLLEGE ST", "city": "TORONTO", "province": "ON", "country": "CA", "postalCode": "M5T1R4", "twitter": "None", "instagram": "None", "facebook": "None", "youtube": "None", "website": "None", "summary": "None", "logo": "None", "latitude": 43.65835976545114, "longitude": -79.39753812447347}, "887478071RR0001": {"name": "INSTITUTE FOR CHURCH PARTNERSHIP EVANGELISM", "designationCode": "C", "categoryCode": "49", "address": "BOX 49093, 7740-18TH ST SE", "city": "CALGARY", "province": "AB", "country": "CA", "postalCode": "T2C2N5", "twitter": "None", "instagram": "None", "facebook": "None", "youtube": "None", "website": "None", "summary": "None", "logo": "None", "latitude": 50.98315545045878, "longitude": -114.01575790184116}, "132941782RR0001": {"name": "INSTITUTE FOR CLINICAL EVALUATIVE SCIENCES", "designationCode": "C", "categoryCode": "19", "address": "G106, 2075 BAYVIEW AVENUE", "city": "TORONTO", "province": "ON", "country": "CA", "postalCode": "M4N3M5", "twitter": "None", "instagram": "None", "facebook": "None", "youtube": "None", "website": "None", "summary": "None", "logo": "None", "latitude": 43.72146646433722, "longitude": -79.37898625976698}, "876800673RR0001": {"name": "INSTITUTE FOR CONSCIOUSNESS RESEARCH", "designationCode": "C", "categoryCode": "21", "address": "165 VALLEY CRES               RR 4", "city": "MARKDALE", "province": "ON", "country": "CA", "postalCode": "N0C1H0", "twitter": "None", "instagram": "None", "facebook": "None", "youtube": "None", "website": "None", "summary": "None", "logo": "None", "latitude": 44.34645599999999, "longitude": -80.5678130758272}, "862601077RR0001": {"name": "INSTITUTE FOR CROSS-CULTURAL EXCHANGE (ICE) / INSTITUT D'ECHANGES INTERCULTURELS (IEI)", "designationCode": "A", "categoryCode": "21", "address": "SITE 23 COMP 107              RR 2 STN MAIN", "city": "STRATHMORE", "province": "AB", "country": "CA", "postalCode": "T1P1K5", "twitter": "None", "instagram": "None", "facebook": "None", "youtube": "None", "website": "None", "summary": "None", "logo": "None", "latitude": 51.041247000000055, "longitude": -113.40029149999994}, "854816162RR0001": {"name": "INSTITUTE FOR FREEDOM AND JUSTICE", "designationCode": "C", "categoryCode": "21", "address": "1250-1500 WEST GEORGIA ST     BOX 62", "city": "VANCOUVER", "province": "BC", "country": "CA", "postalCode": "V6G2Z6", "twitter": "None", "instagram": "None", "facebook": "None", "youtube": "None", "website": "None", "summary": "None", "logo": "None", "latitude": 49.290187500000016, "longitude": -123.130035}, "118969377RR0001": {"name": "INSTITUTE FOR NEW ECONOMICS PUBLIC INTEREST RESEARCH ASSOCIATION INC.", "designationCode": "C", "categoryCode": "21", "address": "800 BARDSEY LANE", "city": "SAANICHTON", "province": "BC", "country": "CA", "postalCode": "V8M1S4", "twitter": "None", "instagram": "None", "facebook": "None", "youtube": "None", "website": "None", "summary": "None", "logo": "None", "latitude": 48.600831618950785, "longitude": -123.46694461895078}, "132310384RR0001": {"name": "INSTITUTE FOR POSITIVE HEALTH FOR SENIORS INC /INSTITUT DE SANTE POSITIVE POUR AINE(E)S INC", "designationCode": "C", "categoryCode": "11", "address": "3349 NAVAN RD", "city": "ORLEANS", "province": "ON", "country": "CA", "postalCode": "K1W0K7", "twitter": "None", "instagram": "None", "facebook": "None", "youtube": "None", "website": "None", "summary": "None", "logo": "None", "latitude": 45.427700457729436, "longitude": -75.50441451985107}, "872324868RR0001": {"name": "INSTITUTE FOR RELIGION AND CULTURE", "designationCode": "C", "categoryCode": "23", "address": "BOX 703, 186-8120 NO. 2 RD.", "city": "RICHMOND", "province": "BC", "country": "CA", "postalCode": "V7C5J8", "twitter": "None", "instagram": "None", "facebook": "None", "youtube": "None", "website": "None", "summary": "None", "logo": "None", "latitude": 49.16565617631162, "longitude": -123.15890895856707}, "118969393RR0001": {"name": "INSTITUTE FOR RESEARCH ON PUBLIC POLICY L'INSTITUT DE RECHERCHE EN POLITIQUES PUBLIQUES", "designationCode": "C", "categoryCode": "59", "address": "200-1470 PEEL ST", "city": "MONTREAL", "province": "QC", "country": "CA", "postalCode": "H3A1T1", "twitter": "None", "instagram": "None", "facebook": "None", "youtube": "None", "website": "None", "summary": "None", "logo": "None", "latitude": 45.502285816834025, "longitude": -73.57740999230029}, "891598575RR0001": {"name": "INSTITUTE FOR THE STUDY AND TREATMENT OF PAIN", "designationCode": "C", "categoryCode": "20", "address": "280 - 5655 CAMBIE ST", "city": "VANCOUVER", "province": "BC", "country": "CA", "postalCode": "V5Z3A4", "twitter": "None", "instagram": "None", "facebook": "None", "youtube": "None", "website": "None", "summary": "None", "logo": "None", "latitude": 49.23398812101101, "longitude": -123.1163924689535}, "888880622RR0001": {"name": "INSTITUTE FOR UNDERSTANDING SIKHISM / INSTITUT D'APPROFONDISSEMENT DU SIKHISME", "designationCode": "C", "categoryCode": "62", "address": "4418 RUE MARTIN PLOUFFE", "city": "LAVAL", "province": "QC", "country": "CA", "postalCode": "H7W5L9", "twitter": "None", "instagram": "None", "facebook": "None", "youtube": "None", "website": "None", "summary": "None", "logo": "None", "latitude": 45.546029697184, "longitude": -73.76668656950788}, "773628698RR0001": {"name": "INSTITUTE OF BIBLICAL COUNSELLING INTERNATIONAL SOCIETY", "designationCode": "C", "categoryCode": "49", "address": "1428 WALNUT STREET            BOX 711", "city": "TELKWA", "province": "BC", "country": "CA", "postalCode": "V0J2X0", "twitter": "None", "instagram": "None", "facebook": "None", "youtube": "None", "website": "None", "summary": "None", "logo": "None", "latitude": 54.68573176278756, "longitude": -127.05865813336692}, "875774879RR0001": {"name": "INSTITUTE OF CHINESE LANGUAGE CULTURE AND ARTS INC.", "designationCode": "C", "categoryCode": "22", "address": "51 MONCRIEF LANE", "city": "WINNIPEG", "province": "MB", "country": "CA", "postalCode": "R3Y1Y5", "twitter": "None", "instagram": "None", "facebook": "None", "youtube": "None", "website": "None", "summary": "None", "logo": "None", "latitude": 49.81602651263771, "longitude": -97.20594688103779}, "887318590RR0001": {"name": "INSTITUTE OF DIVINE METAPHYSICAL RESEARCH", "designationCode": "C", "categoryCode": "49", "address": "64 22E AV", "city": "SAINTE-MARTHE-SUR-LE-LAC", "province": "QC", "country": "CA", "postalCode": "J0N1P0", "twitter": "None", "instagram": "None", "facebook": "None", "youtube": "None", "website": "None", "summary": "None", "logo": "None"}, "871832705RR0001": {"name": "INSTITUTE OF GURMAT STUDIES", "designationCode": "C", "categoryCode": "49", "address": "9658 GOREWAY DRIVE", "city": "BRAMPTON", "province": "ON", "country": "CA", "postalCode": "L6P0M6", "twitter": "None", "instagram": "None", "facebook": "None", "youtube": "None", "website": "None", "summary": "None", "logo": "None", "latitude": 43.76585376461441, "longitude": -79.70163044563998}, "891266942RR0001": {"name": "INSTITUTE OF ITALIAN STUDIES - LAKEHEAD UNIVERSITY", "designationCode": "C", "categoryCode": "21", "address": "1121 BARTON STREET", "city": "THUNDER BAY", "province": "ON", "country": "CA", "postalCode": "P7B5N3", "twitter": "None", "instagram": "None", "facebook": "None", "youtube": "None", "website": "None", "summary": "None", "logo": "None", "latitude": 48.40356532944776, "longitude": -89.25976909109063}, "889845996RR0001": {"name": "INSTITUTE OF LATIN AMERICAN ARCHAEOLOGY", "designationCode": "C", "categoryCode": "21", "address": "205-12TH ST NE", "city": "CALGARY", "province": "AB", "country": "CA", "postalCode": "T2E4P7", "twitter": "None", "instagram": "None", "facebook": "None", "youtube": "None", "website": "None", "summary": "None", "logo": "None", "latitude": 51.053624245628725, "longitude": -114.03376618471917}, "894650597RR0001": {"name": "INSTITUTE OF MUNICIPAL ASSESSORS SCHOLARSHIP TRUST FUND", "designationCode": "C", "categoryCode": "21", "address": "10720 YONGE ST                SUITE 206", "city": "RICHMOND HILL", "province": "ON", "country": "CA", "postalCode": "L4C3C9", "twitter": "None", "instagram": "None", "facebook": "None", "youtube": "None", "website": "None", "summary": "None", "logo": "None", "latitude": 43.888725388279816, "longitude": -79.44133968269901}, "107797243RR0001": {"name": "INSTITUTE OF NATUROPATHIC EDUCATION AND RESEARCH", "designationCode": "C", "categoryCode": "20", "address": "1255 SHEPPARD AVENUE EAST", "city": "NORTH YORK", "province": "ON", "country": "CA", "postalCode": "M2K1E2", "twitter": "None", "instagram": "None", "facebook": "None", "youtube": "None", "website": "None", "summary": "None", "logo": "None", "latitude": 43.77109018574899, "longitude": -79.36719631150264}, "872228754RR0001": {"name": "INSTITUTE OF TIBETAN CLASSICS/INSTITUT DES CLASSIQUES TIBETAINS", "designationCode": "C", "categoryCode": "21", "address": "304 ABERDARE ROAD", "city": "MONTREAL", "province": "QC", "country": "CA", "postalCode": "H3P3K3", "twitter": "None", "instagram": "None", "facebook": "None", "youtube": "None", "website": "None", "summary": "None", "logo": "None", "latitude": 45.51605990755397, "longitude": -73.63114839537761}, "885697102RR0001": {"name": "INSTITUTION SAINT-JEAN", "designationCode": "C", "categoryCode": "21", "address": "200 BOULEVARD WALLBERG", "city": "DOLBEAU-MISTASSINI", "province": "QC", "country": "CA", "postalCode": "G8L6A5", "twitter": "None", "instagram": "None", "facebook": "None", "youtube": "None", "website": "None", "summary": "None", "logo": "None", "latitude": 48.861293428241765, "longitude": -72.21474215012427}, "119049815RR0001": {"name": "INSTRUMENTAL SOCIETY OF CALGARY", "designationCode": "C", "categoryCode": "22", "address": "1121 14 AVE SW", "city": "CALGARY", "province": "AB", "country": "CA", "postalCode": "T2R0P3", "twitter": "None", "instagram": "None", "facebook": "None", "youtube": "None", "website": "None", "summary": "None", "logo": "None", "latitude": 51.0401805212074, "longitude": -114.0876122216227}, "140998840RR0001": {"name": "INTEGRATION ACTION FOR INCLUSION IN EDUCATION & COMMUNITY (ONTARIO)", "designationCode": "C", "categoryCode": "09", "address": "4-199 SAGINAW PARKWAY", "city": "CAMBRIDGE", "province": "ON", "country": "CA", "postalCode": "N1T1T9", "twitter": "None", "instagram": "None", "facebook": "None", "youtube": "None", "website": "None", "summary": "None", "logo": "None", "latitude": 43.391298346327304, "longitude": -80.29974760926734}, "890117997RR0001": {"name": "INTEGRATION COMMUNAUTAIRE CHAPLEAU COMMUNITY LIVING", "designationCode": "C", "categoryCode": "11", "address": "BOX 1377", "city": "CHAPLEAU", "province": "ON", "country": "CA", "postalCode": "P0M1K0", "twitter": "None", "instagram": "None", "facebook": "None", "youtube": "None", "website": "None", "summary": "None", "logo": "None", "latitude": 47.84247000000005, "longitude": -83.40489999999994}, "118969807RR0001": {"name": "INTEGRATION JEUNESSE DU QUEBEC INC.", "designationCode": "C", "categoryCode": "59", "address": "1212 RUE ONTARIO E", "city": "MONTREAL", "province": "QC", "country": "CA", "postalCode": "H2L1R4", "twitter": "None", "instagram": "None", "facebook": "None", "youtube": "None", "website": "None", "summary": "None", "logo": "None", "latitude": 45.52130987148717, "longitude": -73.56223079944047}, "820037075RR0001": {"name": "INTEGRATION SOCIALE DES ENFANTS HANDICAPES EN MILIEU DE GARDE (ISEHMG)", "designationCode": "C", "categoryCode": "09", "address": "105 - 386 RUE DE GENTILLY O", "city": "LONGUEUIL", "province": "QC", "country": "CA", "postalCode": "J4H2A2", "twitter": "None", "instagram": "None", "facebook": "None", "youtube": "None", "website": "None", "summary": "None", "logo": "None", "latitude": 45.53156468497899, "longitude": -73.5001150876855}, "891978249RR0001": {"name": "INTEGRITY/TORONTO", "designationCode": "C", "categoryCode": "47", "address": "P.O. BOX 873, STATION F", "city": "TORONTO", "province": "ON", "country": "CA", "postalCode": "M4Y2N9", "twitter": "None", "instagram": "None", "facebook": "None", "youtube": "None", "website": "None", "summary": "None", "logo": "None"}, "776862724RR0001": {"name": "INTEGRITY'S HAVEN EQUINE RESCUE CENTRE SOCIETY (IHERC)", "designationCode": "C", "categoryCode": "54", "address": "275 HIGHWAY 12", "city": "CHESTER BASIN", "province": "NS", "country": "CA", "postalCode": "B0J1K0", "twitter": "None", "instagram": "None", "facebook": "None", "youtube": "None", "website": "None", "summary": "None", "logo": "None", "latitude": 44.574025841876, "longitude": -64.31374944555587}, "848315966RR0001": {"name": "INTER ARTS MATRIX", "designationCode": "C", "categoryCode": "22", "address": "PO BOX 40083                  RPO WATERLOO SQUARE", "city": "WATERLOO", "province": "ON", "country": "CA", "postalCode": "N2J4V1", "twitter": "None", "instagram": "None", "facebook": "None", "youtube": "None", "website": "None", "summary": "None", "logo": "None", "latitude": 43.46219009212306, "longitude": -80.50748526325414}, "118971100RR0001": {"name": "INTER PARES", "designationCode": "C", "categoryCode": "09", "address": "221 LAURIER AVENUE EST", "city": "OTTAWA", "province": "ON", "country": "CA", "postalCode": "K1N6P1", "twitter": "None", "instagram": "None", "facebook": "None", "youtube": "None", "website": "None", "summary": "None", "logo": "None", "latitude": 45.42581538525007, "longitude": -75.68178149529679}, "135827087RR0001": {"name": "INTER-A STUDENTS SOCIETY", "designationCode": "C", "categoryCode": "21", "address": "13022 101 AVE", "city": "SURREY", "province": "BC", "country": "CA", "postalCode": "V3T1L1", "twitter": "None", "instagram": "None", "facebook": "None", "youtube": "None", "website": "None", "summary": "None", "logo": "None", "latitude": 49.186391543424406, "longitude": -122.86153252553522}, "118969823RR0001": {"name": "INTER-ACT THEATRE SOCIETY", "designationCode": "C", "categoryCode": "22", "address": "BOX 625", "city": "MEDICINE HAT", "province": "AB", "country": "CA", "postalCode": "T1A7G5", "twitter": "None", "instagram": "None", "facebook": "None", "youtube": "None", "website": "None", "summary": "None", "logo": "None", "latitude": 50.04107700000006, "longitude": -110.67813349999993}, "107509838RR0001": {"name": "INTER-CULTURAL ASSOCIATION OF GREATER VICTORIA", "designationCode": "C", "categoryCode": "22", "address": "930 BALMORAL RD", "city": "VICTORIA", "province": "BC", "country": "CA", "postalCode": "V8T1A8", "twitter": "None", "instagram": "None", "facebook": "None", "youtube": "None", "website": "None", "summary": "None", "logo": "None", "latitude": 48.42893547879262, "longitude": -123.35801999847078}, "131107898RR0001": {"name": "INTER-FEMMES INC.", "designationCode": "C", "categoryCode": "09", "address": "21, RUE ALAIN", "city": "REPENTIGNY", "province": "QC", "country": "CA", "postalCode": "J6A5C9", "twitter": "None", "instagram": "None", "facebook": "None", "youtube": "None", "website": "None", "summary": "None", "logo": "None", "latitude": 45.755350858993694, "longitude": -73.42997366876324}, "122286255RR0001": {"name": "INTER-LOGE CENTRE-SUD", "designationCode": "C", "categoryCode": "59", "address": "1503 RUE LA FONTAINE", "city": "MONTREAL", "province": "QC", "country": "CA", "postalCode": "H2L1T7", "twitter": "None", "instagram": "None", "facebook": "None", "youtube": "None", "website": "None", "summary": "None", "logo": "None", "latitude": 45.523099518466104, "longitude": -73.55828451514786}, "895261345RR0001": {"name": "INTER-MENNONITE CHAPLAINCY ASSOCIATION INC.", "designationCode": "C", "categoryCode": "47", "address": "106 - 130 CREEK BEND RD", "city": "WINNIPEG", "province": "MB", "country": "CA", "postalCode": "R2N0K1", "twitter": "None", "instagram": "None", "facebook": "None", "youtube": "None", "website": "None", "summary": "None", "logo": "None", "latitude": 49.81064100000006, "longitude": -97.07196499999993}, "118971126RR0001": {"name": "INTER-PROVINCIAL MUSIC CAMP FOUNDATION", "designationCode": "C", "categoryCode": "22", "address": "PO BOX 1184", "city": "BRADFORD", "province": "ON", "country": "CA", "postalCode": "L3Z2B6", "twitter": "None", "instagram": "None", "facebook": "None", "youtube": "None", "website": "None", "summary": "None", "logo": "None", "latitude": 44.11482000000005, "longitude": -79.56249199999993}, "132275603RR0001": {"name": "INTER-VAL 1175", "designationCode": "C", "categoryCode": "09", "address": "C.P. 22102, C.S.P. IBERVILLE", "city": "MONTREAL", "province": "QC", "country": "CA", "postalCode": "H1Y3K8", "twitter": "None", "instagram": "None", "facebook": "None", "youtube": "None", "website": "None", "summary": "None", "logo": "None", "latitude": 45.54880800000005, "longitude": -73.57828399999994}, "107513160RR0001": {"name": "INTER-VARSITY CHRISTIAN FELLOWSHIP OF CANADA", "designationCode": "C", "categoryCode": "47", "address": "1 INTERNATIONAL BOULEVARD", "city": "TORONTO", "province": "ON", "country": "CA", "postalCode": "M9W6H3", "twitter": "None", "instagram": "None", "facebook": "None", "youtube": "None", "website": "None", "summary": "None", "logo": "None", "latitude": 43.6770198997637, "longitude": -79.5903753734204}, "876051004RR0001": {"name": "INTER-VARSITY MINISTRIES FOUNDATION", "designationCode": "A", "categoryCode": "03", "address": "1 INTERNATIONAL BLVD", "city": "TORONTO", "province": "ON", "country": "CA", "postalCode": "M9W6H3", "twitter": "None", "instagram": "None", "facebook": "None", "youtube": "None", "website": "None", "summary": "None", "logo": "None", "latitude": 43.6770198997637, "longitude": -79.5903753734204}, "743201923RR0001": {"name": "INTERaXIONS", "designationCode": "C", "categoryCode": "09", "address": "301 - 2969 AV D'ENTREMONT", "city": "QUEBEC", "province": "QC", "country": "CA", "postalCode": "G1X4N1", "twitter": "None", "instagram": "None", "facebook": "None", "youtube": "None", "website": "None", "summary": "None", "logo": "None", "latitude": 46.780298948641104, "longitude": -71.31192490325479}, "107509507RR0001": {"name": "INTERACT MINISTRIES OF CANADA", "designationCode": "C", "categoryCode": "47", "address": "BOX 559", "city": "CROSSFIELD", "province": "AB", "country": "CA", "postalCode": "T0M0S0", "twitter": "None", "instagram": "None", "facebook": "None", "youtube": "None", "website": "None", "summary": "None", "logo": "None", "latitude": 51.42757000000006, "longitude": -114.02818999999994}, "894901875RR0001": {"name": "INTERACTION FAMILLE HOCHELAGA-MAISONNEUVE", "designationCode": "C", "categoryCode": "09", "address": "2560 THEODORE", "city": "MONTREAL", "province": "QC", "country": "CA", "postalCode": "H1V3C6", "twitter": "None", "instagram": "None", "facebook": "None", "youtube": "None", "website": "None", "summary": "None", "logo": "None", "latitude": 45.560396253938606, "longitude": -73.54444996531817}, "873993398RR0001": {"name": "INTERACTIVE SCIENCE AND TECHNOLOGY CENTRE OF WINDSOR INC.", "designationCode": "C", "categoryCode": "21", "address": "749 FELIX AVE", "city": "WINDSOR", "province": "ON", "country": "CA", "postalCode": "N9C3K9", "twitter": "None", "instagram": "None", "facebook": "None", "youtube": "None", "website": "None", "summary": "None", "logo": "None", "latitude": 42.29888908379037, "longitude": -83.0697206838242}, "864967922RR0001": {"name": "INTERAGENCY COALITION ON AIDS AND DEVELOPMENT-COALITION INTERAGENCE SIDA ET D\u00c9VELOPPEMENT", "designationCode": "C", "categoryCode": "11", "address": "PO BOX 4612 STN E", "city": "OTTAWA", "province": "ON", "country": "CA", "postalCode": "K1S5H8", "twitter": "None", "instagram": "None", "facebook": "None", "youtube": "None", "website": "None", "summary": "None", "logo": "None", "latitude": 45.42177300000006, "longitude": -75.69115999999994}, "869273706RR0001": {"name": "INTERAMERICANA COMMUNITY SELF-DEVELOPMENT SOCIETY", "designationCode": "C", "categoryCode": "59", "address": "1310 WALNUT ST", "city": "VANCOUVER", "province": "BC", "country": "CA", "postalCode": "V6J3R3", "twitter": "None", "instagram": "None", "facebook": "None", "youtube": "None", "website": "None", "summary": "None", "logo": "None", "latitude": 49.274325013283324, "longitude": -123.14883096882117}, "107627903RR0001": {"name": "INTERASSOCIATION DES PERSONNES HANDICAPEES DU SAGUENAY", "designationCode": "C", "categoryCode": "59", "address": "138 PRICE WEST                SUITE 107", "city": "CHICOUTIMI", "province": "QC", "country": "CA", "postalCode": "G7J1G8", "twitter": "None", "instagram": "None", "facebook": "None", "youtube": "None", "website": "None", "summary": "None", "logo": "None", "latitude": 48.42525165551995, "longitude": -71.07321907103709}, "130520802RR0001": {"name": "INTERCEDE INTERNATIONAL", "designationCode": "C", "categoryCode": "49", "address": "201 STANTON ST", "city": "FORT ERIE", "province": "ON", "country": "CA", "postalCode": "L2A3N8", "twitter": "None", "instagram": "None", "facebook": "None", "youtube": "None", "website": "None", "summary": "None", "logo": "None", "latitude": 42.91278479156327, "longitude": -78.91446519995395}, "118969849RR0001": {"name": "INTERCESSORS FOR CANADA", "designationCode": "C", "categoryCode": "47", "address": "15881 28 AVE", "city": "SURREY", "province": "BC", "country": "CA", "postalCode": "V3Z0E5", "twitter": "None", "instagram": "None", "facebook": "None", "youtube": "None", "website": "None", "summary": "None", "logo": "None", "latitude": 49.05290416126973, "longitude": -122.78265932800228}, "887101053RR0001": {"name": "INTERCHANGE: INTERNATIONAL INSTITUTE FOR COMMUNITY-BASED PEACEBUILDING", "designationCode": "C", "categoryCode": "59", "address": "TLC - 7TH FLOOR, OISE         252 BLOOR ST W", "city": "TORONTO", "province": "ON", "country": "CA", "postalCode": "M5S1V6", "twitter": "None", "instagram": "None", "facebook": "None", "youtube": "None", "website": "None", "summary": "None", "logo": "None", "latitude": 43.66784912245331, "longitude": -79.39836597005004}, "890261175RR0001": {"name": "INTERCHURCH HEALTH MINISTRIES CANADA", "designationCode": "C", "categoryCode": "11", "address": "624 - 701 ROSSLAND RD E", "city": "WHITBY", "province": "ON", "country": "CA", "postalCode": "L1N8Y9", "twitter": "None", "instagram": "None", "facebook": "None", "youtube": "None", "website": "None", "summary": "None", "logo": "None", "latitude": 43.902493945558355, "longitude": -78.92788466814449}, "892905316RR0001": {"name": "INTERCOMMUNAUTAIRE L'ARCHE DE DIEU/INTERCOMMUNITY THE ARK OF GOD", "designationCode": "C", "categoryCode": "47", "address": "8621, BOUL. SAINT-LAURENT", "city": "MONTREAL", "province": "QC", "country": "CA", "postalCode": "H2P2M9", "twitter": "None", "instagram": "None", "facebook": "None", "youtube": "None", "website": "None", "summary": "None", "logo": "None", "latitude": 45.54131392480798, "longitude": -73.63930421536162}, "833547870RR0001": {"name": "INTERCORDIA CANADA", "designationCode": "C", "categoryCode": "23", "address": "144 OAKCREST AVE", "city": "TORONTO", "province": "ON", "country": "CA", "postalCode": "M4C1C1", "twitter": "None", "instagram": "None", "facebook": "None", "youtube": "None", "website": "None", "summary": "None", "logo": "None", "latitude": 43.684655603958575, "longitude": -79.30646001930282}, "867901902RR0001": {"name": "INTERCULTURAL CHURCH & MINISTRIES", "designationCode": "C", "categoryCode": "39", "address": "1501 ISLINGTON AVENUE", "city": "ETOBICOKE", "province": "ON", "country": "CA", "postalCode": "M9A3L9", "twitter": "None", "instagram": "None", "facebook": "None", "youtube": "None", "website": "None", "summary": "None", "logo": "None"}, "107509853RR0001": {"name": "INTERDENOMINATIONAL CHRISTIAN COMMUNITY CENTRE CHURCH OF CAMROSE", "designationCode": "C", "categoryCode": "47", "address": "5204-53 AVE", "city": "CAMROSE", "province": "AB", "country": "CA", "postalCode": "T4V0Y5", "twitter": "None", "instagram": "None", "facebook": "None", "youtube": "None", "website": "None", "summary": "None", "logo": "None", "latitude": 53.02713647100232, "longitude": -112.82895352553523}, "118969922RR0001": {"name": "INTERDENOMINATIONAL CHRISTIAN COUNSELLING INC.", "designationCode": "C", "categoryCode": "09", "address": "1009-2 CARLTON STREET.", "city": "TORONTO", "province": "ON", "country": "CA", "postalCode": "M5B1J3", "twitter": "None", "instagram": "None", "facebook": "None", "youtube": "None", "website": "None", "summary": "None", "logo": "None", "latitude": 43.66142348211082, "longitude": -79.38282201832186}, "118969948RR0001": {"name": "INTERDENOMINATIONAL FOREIGN MISSION ASSOCIATION OF CANADA", "designationCode": "C", "categoryCode": "47", "address": "100 ONTARIO STREET", "city": "OSHAWA", "province": "ON", "country": "CA", "postalCode": "L1G4Z1", "twitter": "None", "instagram": "None", "facebook": "None", "youtube": "None", "website": "None", "summary": "None", "logo": "None", "latitude": 43.90054098389985, "longitude": -78.86379378824505}, "887241271RR0001": {"name": "INTERFAITH COMMITTEE ON CHAPLAINCY IN THE CORRECTIONAL SERVICE OF CANADA INC./COMITE INTERCONFESSIONNEL DE L'AUMONERIE DU SERVICE CORRECTIONNEL DU CANADA INC.", "designationCode": "C", "categoryCode": "49", "address": "POST OFFICE BOX 761           14 MAIN STREET", "city": "DOWLING", "province": "ON", "country": "CA", "postalCode": "P0M1R0", "twitter": "None", "instagram": "None", "facebook": "None", "youtube": "None", "website": "None", "summary": "None", "logo": "None", "latitude": 46.586176478792616, "longitude": -81.33036299999999}, "119055234RR0001": {"name": "INTERFAITH COMMUNITY COUNSELLING CENTRE", "designationCode": "C", "categoryCode": "09", "address": "23B CHURCH ST", "city": "NEW HAMBURG", "province": "ON", "country": "CA", "postalCode": "N3A1J1", "twitter": "None", "instagram": "None", "facebook": "None", "youtube": "None", "website": "None", "summary": "None", "logo": "None", "latitude": 43.37563820803548, "longitude": -80.70720458883086}, "877744383RR0001": {"name": "INTERFAITH COMMUNITY FOOD BANK SOCIETY (VALLEYVIEW)", "designationCode": "C", "categoryCode": "09", "address": "BOX 1283", "city": "VALLEYVIEW", "province": "AB", "country": "CA", "postalCode": "T0H3N0", "twitter": "None", "instagram": "None", "facebook": "None", "youtube": "None", "website": "None", "summary": "None", "logo": "None", "latitude": 55.05383002553526, "longitude": -117.28028991776837}, "132743576RR0001": {"name": "INTERFAITH FOOD BANK SOCIETY OF LETHBRIDGE", "designationCode": "C", "categoryCode": "01", "address": "1103 3 AVENUE NORTH", "city": "LETHBRIDGE", "province": "AB", "country": "CA", "postalCode": "T1H0H7", "twitter": "None", "instagram": "None", "facebook": "None", "youtube": "None", "website": "None", "summary": "None", "logo": "None", "latitude": 49.70310749047805, "longitude": -112.8311035453863}, "898028675RR0001": {"name": "INTERFAITH GOODWILL CENTRE", "designationCode": "C", "categoryCode": "09", "address": "PO BOX 1565", "city": "LEWISPORTE", "province": "NL", "country": "CA", "postalCode": "A0G3A0", "twitter": "None", "instagram": "None", "facebook": "None", "youtube": "None", "website": "None", "summary": "None", "logo": "None", "latitude": 49.24179000000004, "longitude": -55.05992999999995}, "118970029RR0001": {"name": "INTERGROUPE OA FRANCAIS DE MONTREAL", "designationCode": "C", "categoryCode": "57", "address": "312 BEAUBIEN EST", "city": "MONTREAL", "province": "QC", "country": "CA", "postalCode": "H2S1R8", "twitter": "None", "instagram": "None", "facebook": "None", "youtube": "None", "website": "None", "summary": "None", "logo": "None", "latitude": 45.5329941448728, "longitude": -73.6058696293209}, "107510059RR0001": {"name": "INTERIM PLACE", "designationCode": "C", "categoryCode": "01", "address": "P.O. BOX 45070", "city": "MISSISSAUGA", "province": "ON", "country": "CA", "postalCode": "L5G1C9", "twitter": "None", "instagram": "None", "facebook": "None", "youtube": "None", "website": "None", "summary": "None", "logo": "None", "latitude": 43.552122000000054, "longitude": -79.58502349999993}, "118977131RR0001": {"name": "INTERIOR COMMUNITY SERVICES", "designationCode": "C", "categoryCode": "09", "address": "765 TRANQUILLE RD", "city": "KAMLOOPS", "province": "BC", "country": "CA", "postalCode": "V2B3J3", "twitter": "None", "instagram": "None", "facebook": "None", "youtube": "None", "website": "None", "summary": "None", "logo": "None", "latitude": 50.69829095031453, "longitude": -120.36254101113715}, "888534849RR0001": {"name": "INTERIOR HEALTH AUTHORITY", "designationCode": "C", "categoryCode": "19", "address": "4TH FLOOR                     505 DOYLE AVENUE", "city": "KELOWNA", "province": "BC", "country": "CA", "postalCode": "V1Y6V8", "twitter": "None", "instagram": "None", "facebook": "None", "youtube": "None", "website": "None", "summary": "None", "logo": "None", "latitude": 49.888891342384596, "longitude": -119.49333036865383}, "867598146RR0001": {"name": "INTERLAKE ADULT LEARNING ASSOCIATION INC", "designationCode": "C", "categoryCode": "21", "address": "234 TUDOR LANE                PO BOX 2240", "city": "GIMILI", "province": "MB", "country": "CA", "postalCode": "R0C1B0", "twitter": "None", "instagram": "None", "facebook": "None", "youtube": "None", "website": "None", "summary": "None", "logo": "None", "latitude": 50.63523585746837, "longitude": -97.04070552969156}, "107510208RR0001": {"name": "INTERLAKE CO-OP NURSERY INC.", "designationCode": "C", "categoryCode": "01", "address": "BOX 452", "city": "PETERSFIELD", "province": "MB", "country": "CA", "postalCode": "R0C2L0", "twitter": "None", "instagram": "None", "facebook": "None", "youtube": "None", "website": "None", "summary": "None", "logo": "None", "latitude": 50.305500000000016, "longitude": -96.96204}, "890756299RR0001": {"name": "INTERLAKE FOOD BANK", "designationCode": "C", "categoryCode": "09", "address": "PO BOX 713", "city": "STONEWALL", "province": "MB", "country": "CA", "postalCode": "R0C2Z0", "twitter": "None", "instagram": "None", "facebook": "None", "youtube": "None", "website": "None", "summary": "None", "logo": "None", "latitude": 50.36947800000006, "longitude": -96.84479599999993}, "118970086RR0001": {"name": "INTERLAKE FULL GOSPEL ASSEMBLY INCORPORATED", "designationCode": "C", "categoryCode": "39", "address": "PO BOX 97", "city": "KOMARNO", "province": "MB", "country": "CA", "postalCode": "R0C1R0", "twitter": "None", "instagram": "None", "facebook": "None", "youtube": "None", "website": "None", "summary": "None", "logo": "None", "latitude": 50.506763989270866, "longitude": -97.00312871633386}, "830945168RR0001": {"name": "INTERLAKE GOSPEL TRUST", "designationCode": "C", "categoryCode": "39", "address": "12 SOLVASON AVENUE            BOX 135", "city": "WOODLANDS", "province": "MB", "country": "CA", "postalCode": "R0C3H0", "twitter": "None", "instagram": "None", "facebook": "None", "youtube": "None", "website": "None", "summary": "None", "logo": "None", "latitude": 50.209278000000054, "longitude": -97.66558249999993}, "118970094RR0001": {"name": "INTERLAKE MENNONITE FELLOWSHIP CHURCH", "designationCode": "C", "categoryCode": "34", "address": "BOX 973", "city": "ARBORG", "province": "MB", "country": "CA", "postalCode": "R0C0A0", "twitter": "None", "instagram": "None", "facebook": "None", "youtube": "None", "website": "None", "summary": "None", "logo": "None", "latitude": 50.91022850109325, "longitude": -97.2043884534773}, "107356016RR0001": {"name": "INTERLAKE WOMEN'S RESOURCE CENTRE INC.", "designationCode": "C", "categoryCode": "09", "address": "PO BOX 1991                   87 5TH AVE", "city": "GIMLI", "province": "MB", "country": "CA", "postalCode": "R0C1B0", "twitter": "None", "instagram": "None", "facebook": "None", "youtube": "None", "website": "None", "summary": "None", "logo": "None", "latitude": 50.630992994171635, "longitude": -96.9917477016274}}