{"840686000RR0001": {"name": "SOUTH NIAGARA LIFE MINISTRIES", "designationCode": "C", "categoryCode": "49", "address": "143 GILMORE ROAD", "city": "FORT ERIE", "province": "ON", "country": "CA", "postalCode": "L2A2L9", "twitter": "None", "instagram": "None", "facebook": "None", "youtube": "None", "website": "None", "summary": "None", "logo": "None", "latitude": 42.920437506780665, "longitude": -78.91872258090484}, "119158020RR0001": {"name": "SOUTH NISSOURI PRESBYTERIAN CHURCH", "designationCode": "C", "categoryCode": "37", "address": "64 GRENFELL CRES", "city": "LONDON", "province": "ON", "country": "CA", "postalCode": "N5X2M7", "twitter": "None", "instagram": "None", "facebook": "None", "youtube": "None", "website": "None", "summary": "None", "logo": "None", "latitude": 43.0409428529055, "longitude": -81.25251079612224}, "889127999RR0001": {"name": "SOUTH NORWICH HISTORICAL SOCIETY", "designationCode": "C", "categoryCode": "50", "address": "SHIRLEY GYORI                 P O BOX 149", "city": "OTTERVILLE", "province": "ON", "country": "CA", "postalCode": "N0J1R0", "twitter": "None", "instagram": "None", "facebook": "None", "youtube": "None", "website": "None", "summary": "None", "logo": "None", "latitude": 42.9288347646566, "longitude": -80.58724173562274}, "864553227RR0001": {"name": "SOUTH OHIO COMMUNITY CENTRE SOCIETY", "designationCode": "C", "categoryCode": "56", "address": "307 LAKE GEORGE RD", "city": "SOUTH OHIO", "province": "NS", "country": "CA", "postalCode": "B5A5M9", "twitter": "None", "instagram": "None", "facebook": "None", "youtube": "None", "website": "None", "summary": "None", "logo": "None", "latitude": 43.93321396892487, "longitude": -66.0583343621094}, "892401563RR0001": {"name": "SOUTH OKANAGAN - SIMILKAMEEN CRIMESTOPPERS ASSOCIATION", "designationCode": "C", "categoryCode": "59", "address": "BOX 24097", "city": "PENTICTON", "province": "BC", "country": "CA", "postalCode": "V2A8L9", "twitter": "None", "instagram": "None", "facebook": "None", "youtube": "None", "website": "None", "summary": "None", "logo": "None", "latitude": 49.50021300000006, "longitude": -119.59384399999993}, "890648348RR0001": {"name": "SOUTH OKANAGAN CHILDREN'S CHARITY", "designationCode": "C", "categoryCode": "11", "address": "P.O.BOX 21024                 CHERRY LANE POST OFFICE", "city": "PENTICTON", "province": "BC", "country": "CA", "postalCode": "V2A8K8", "twitter": "None", "instagram": "None", "facebook": "None", "youtube": "None", "website": "None", "summary": "None", "logo": "None", "latitude": 49.4773177235777, "longitude": -119.5749673486338}, "891165979RR0001": {"name": "SOUTH OKANAGAN GENEALOGICAL SOCIETY", "designationCode": "C", "categoryCode": "21", "address": "PO BOX 1097 STN MAIN", "city": "PENTICTON", "province": "BC", "country": "CA", "postalCode": "V2A6J9", "twitter": "None", "instagram": "None", "facebook": "None", "youtube": "None", "website": "None", "summary": "None", "logo": "None", "latitude": 49.48779893232429, "longitude": -119.58722160008561}, "119158061RR0001": {"name": "SOUTH OKANAGAN GIRL GUIDE CAMP-SITE SOCIETY", "designationCode": "C", "categoryCode": "29", "address": "109 - 1692 ATKINSON ST", "city": "PENTICTON", "province": "BC", "country": "CA", "postalCode": "V2A6B5", "twitter": "None", "instagram": "None", "facebook": "None", "youtube": "None", "website": "None", "summary": "None", "logo": "None", "latitude": 49.47963454010619, "longitude": -119.58858334303775}, "866565625RR0001": {"name": "SOUTH OKANAGAN INTEGRATED COMMUNITY SERVICES SOCIETY", "designationCode": "C", "categoryCode": "11", "address": "PO1890                        35649-97TH STREET", "city": "OLIVER", "province": "BC", "country": "CA", "postalCode": "V0H1T0", "twitter": "None", "instagram": "None", "facebook": "None", "youtube": "None", "website": "None", "summary": "None", "logo": "None", "latitude": 49.18259400000005, "longitude": -119.55046399999993}, "107996746RR0001": {"name": "SOUTH OKANAGAN LEARNING FOR LITTLE PEOPLE SOCIETY", "designationCode": "C", "categoryCode": "01", "address": "PO BOX 22032 RPO PENTICTON PLA", "city": "PENTICTON", "province": "BC", "country": "CA", "postalCode": "V2A8L1", "twitter": "None", "instagram": "None", "facebook": "None", "youtube": "None", "website": "None", "summary": "None", "logo": "None", "latitude": 49.48995274861973, "longitude": -119.56786836438616}, "893019323RR0001": {"name": "SOUTH OKANAGAN MONTESSORI SCHOOL SOCIETY", "designationCode": "C", "categoryCode": "20", "address": "POST OFFICE BOX 603", "city": "SUMMERLAND", "province": "BC", "country": "CA", "postalCode": "V0H1Z0", "twitter": "None", "instagram": "None", "facebook": "None", "youtube": "None", "website": "None", "summary": "None", "logo": "None", "latitude": 49.60131900000006, "longitude": -119.67899299999993}, "866644057RR0001": {"name": "SOUTH OKANAGAN PERFORMING ARTS CENTRE SOCIETY", "designationCode": "A", "categoryCode": "53", "address": "765-650 DUNCAN AVENUE WEST", "city": "PENTICTON", "province": "BC", "country": "CA", "postalCode": "V2A7N1", "twitter": "None", "instagram": "None", "facebook": "None", "youtube": "None", "website": "None", "summary": "None", "logo": "None", "latitude": 49.48697909602406, "longitude": -119.60438762934956}, "119158095RR0001": {"name": "SOUTH OKANAGAN RECOPE SOCIETY", "designationCode": "C", "categoryCode": "11", "address": "PO BOX 1625", "city": "SUMMERLAND", "province": "BC", "country": "CA", "postalCode": "V0H1Z0", "twitter": "None", "instagram": "None", "facebook": "None", "youtube": "None", "website": "None", "summary": "None", "logo": "None", "latitude": 49.60131900000006, "longitude": -119.67899299999993}, "119158103RR0001": {"name": "SOUTH OKANAGAN REHABILITATION CENTRE FOR OWLS (S.O.R.C.O.)", "designationCode": "C", "categoryCode": "54", "address": "PO BOX 1166", "city": "OLIVER", "province": "BC", "country": "CA", "postalCode": "V0H1T0", "twitter": "None", "instagram": "None", "facebook": "None", "youtube": "None", "website": "None", "summary": "None", "logo": "None", "latitude": 49.182600000000036, "longitude": -119.55045999999999}, "870821584RR0001": {"name": "SOUTH OKANAGAN SENIORS WELLNESS SOCIETY", "designationCode": "C", "categoryCode": "09", "address": "330 ELLIS ST", "city": "PENTICTON", "province": "BC", "country": "CA", "postalCode": "V2A4L7", "twitter": "None", "instagram": "None", "facebook": "None", "youtube": "None", "website": "None", "summary": "None", "logo": "None", "latitude": 49.498434639188645, "longitude": -119.59052918192056}, "119090793RR0001": {"name": "SOUTH OKANAGAN SIMILKAMEEN MEDICAL FOUNDATION", "designationCode": "A", "categoryCode": "13", "address": "550 CARMI AVENUE", "city": "PENTICTON", "province": "BC", "country": "CA", "postalCode": "V2A3G6", "twitter": "None", "instagram": "None", "facebook": "None", "youtube": "None", "website": "None", "summary": "None", "logo": "None", "latitude": 49.48263050346246, "longitude": -119.5783335}, "881369318RR0001": {"name": "SOUTH OKANAGAN TRANSIT SOCIETY", "designationCode": "C", "categoryCode": "09", "address": "6210 97TH ST", "city": "OSOYOOS", "province": "BC", "country": "CA", "postalCode": "V0H1V4", "twitter": "None", "instagram": "None", "facebook": "None", "youtube": "None", "website": "None", "summary": "None", "logo": "None", "latitude": 49.02509080766344, "longitude": -119.47465308788705}, "132910555RR0001": {"name": "SOUTH OKANAGAN VICTIM ASSISTANCE SOCIETY", "designationCode": "C", "categoryCode": "59", "address": "204-304 MARTIN ST", "city": "PENTICTON", "province": "BC", "country": "CA", "postalCode": "V2A5K4", "twitter": "None", "instagram": "None", "facebook": "None", "youtube": "None", "website": "None", "summary": "None", "logo": "None", "latitude": 49.49845742714524, "longitude": -119.59351031389585}, "129987665RR0001": {"name": "SOUTH OKANAGAN WOMEN IN NEED SOCIETY", "designationCode": "C", "categoryCode": "09", "address": "BOX 427", "city": "PENTICTON", "province": "BC", "country": "CA", "postalCode": "V2A6J9", "twitter": "None", "instagram": "None", "facebook": "None", "youtube": "None", "website": "None", "summary": "None", "logo": "None", "latitude": 49.50021300000006, "longitude": -119.59384399999993}, "896149457RR0001": {"name": "SOUTH OKANAGAN/SIMILKAMEEN BRAIN INJURY SOCIETY", "designationCode": "C", "categoryCode": "19", "address": "2-996 MAIN ST", "city": "PENTICTON", "province": "BC", "country": "CA", "postalCode": "V2A5E4", "twitter": "None", "instagram": "None", "facebook": "None", "youtube": "None", "website": "None", "summary": "None", "logo": "None", "latitude": 49.4894978170985, "longitude": -119.58775605063775}, "107996779RR0001": {"name": "SOUTH OSBORNE NURSERY SCHOOL INC.", "designationCode": "C", "categoryCode": "20", "address": "379 CHURCHILL DR", "city": "WINNIPEG", "province": "MB", "country": "CA", "postalCode": "R3L1W1", "twitter": "None", "instagram": "None", "facebook": "None", "youtube": "None", "website": "None", "summary": "None", "logo": "None", "latitude": 49.85913349460431, "longitude": -97.1217218488948}, "119158152RR0001": {"name": "SOUTH PALMERSTON COMMUNITY CENTRE", "designationCode": "C", "categoryCode": "55", "address": "1460 RAGGED CHUTES RD         PO BOX 1034", "city": "SNOW ROAD STATION", "province": "ON", "country": "CA", "postalCode": "K0H2R0", "twitter": "None", "instagram": "None", "facebook": "None", "youtube": "None", "website": "None", "summary": "None", "logo": "None", "latitude": 44.96393705092238, "longitude": -76.73100220404432}, "889499372RR0001": {"name": "SOUTH PARK CEMETERY, CO", "designationCode": "C", "categoryCode": "59", "address": "BOX 144", "city": "SANGUDO", "province": "AB", "country": "CA", "postalCode": "T0E2A0", "twitter": "None", "instagram": "None", "facebook": "None", "youtube": "None", "website": "None", "summary": "None", "logo": "None", "latitude": 53.88934000000006, "longitude": -114.90204999999997}, "107996795RR0001": {"name": "SOUTH PARK CHILD CARE CO-OP INC.", "designationCode": "C", "categoryCode": "20", "address": "194 BURLAND AVE", "city": "WINNIPEG", "province": "MB", "country": "CA", "postalCode": "R2N2T9", "twitter": "None", "instagram": "None", "facebook": "None", "youtube": "None", "website": "None", "summary": "None", "logo": "None", "latitude": 49.80463009626916, "longitude": -97.1077830577615}, "131164360RR0001": {"name": "SOUTH PARK MENNONITE BRETHREN CHURCH", "designationCode": "C", "categoryCode": "34", "address": "335 6TH ST SE", "city": "ALTONA", "province": "MB", "country": "CA", "postalCode": "R0G0B3", "twitter": "None", "instagram": "None", "facebook": "None", "youtube": "None", "website": "None", "summary": "None", "logo": "None", "latitude": 49.096551287180596, "longitude": -97.55021128718059}, "119158194RR0001": {"name": "SOUTH PEACE ART SOCIETY", "designationCode": "C", "categoryCode": "22", "address": "101 - 816 ALASKA AVENUE", "city": "DAWSON CREEK", "province": "BC", "country": "CA", "postalCode": "V1G4T6", "twitter": "None", "instagram": "None", "facebook": "None", "youtube": "None", "website": "None", "summary": "None", "logo": "None", "latitude": 55.7588258515198, "longitude": -120.22579871057998}, "119158202RR0001": {"name": "SOUTH PEACE CENTENNIAL MUSEUM ASSOCIATION", "designationCode": "C", "categoryCode": "50", "address": "PO BOX 493", "city": "BEAVERLODGE", "province": "AB", "country": "CA", "postalCode": "T0H0C0", "twitter": "None", "instagram": "None", "facebook": "None", "youtube": "None", "website": "None", "summary": "None", "logo": "None", "latitude": 55.209100000000035, "longitude": -119.42957999999999}, "107996845RR0001": {"name": "SOUTH PEACE CHILD DEVELOPMENT SOCIETY", "designationCode": "C", "categoryCode": "11", "address": "9001 10TH ST", "city": "DAWSON CREEK", "province": "BC", "country": "CA", "postalCode": "V1G4T1", "twitter": "None", "instagram": "None", "facebook": "None", "youtube": "None", "website": "None", "summary": "None", "logo": "None", "latitude": 55.77366597890818, "longitude": -120.22964220174202}, "107996860RR0001": {"name": "SOUTH PEACE COMMUNITY RESOURCES SOCIETY", "designationCode": "C", "categoryCode": "09", "address": "PO BOX 713", "city": "DAWSON CREEK", "province": "BC", "country": "CA", "postalCode": "V1G4H7", "twitter": "None", "instagram": "None", "facebook": "None", "youtube": "None", "website": "None", "summary": "None", "logo": "None", "latitude": 55.76171100000006, "longitude": -120.23704249999994}, "865818025RR0001": {"name": "SOUTH PEACE DISTRICT CRIME PREVENTION ASSOCIATION", "designationCode": "C", "categoryCode": "59", "address": "1230-102 AVENUE               DAWSON CREEK RCMP DETACHMENT", "city": "DAWSON CREEK", "province": "BC", "country": "CA", "postalCode": "V1G4V3", "twitter": "None", "instagram": "None", "facebook": "None", "youtube": "None", "website": "None", "summary": "None", "logo": "None", "latitude": 55.75957001558063, "longitude": -120.2367799489295}, "832207328RR0001": {"name": "SOUTH PEACE EMERGENCY RESPONSE TEAM", "designationCode": "C", "categoryCode": "59", "address": "1636 99TH AVE                 PRRD WAREHOUSE", "city": "DAWSON CREEK", "province": "BC", "country": "CA", "postalCode": "V1G1V1", "twitter": "None", "instagram": "None", "facebook": "None", "youtube": "None", "website": "None", "summary": "None", "logo": "None", "latitude": 55.7628194787926, "longitude": -120.24909}, "107996936RR0001": {"name": "SOUTH PEACE HISTORICAL SOCIETY", "designationCode": "C", "categoryCode": "50", "address": "900 ALASKA AVE", "city": "DAWSON CREEK", "province": "BC", "country": "CA", "postalCode": "V1G4T6", "twitter": "None", "instagram": "None", "facebook": "None", "youtube": "None", "website": "None", "summary": "None", "logo": "None", "latitude": 55.759050324617704, "longitude": -120.22674100916998}, "892411166RR0001": {"name": "SOUTH PEACE HOSPICE/PALLIATIVE CARE SOCIETY", "designationCode": "C", "categoryCode": "11", "address": "3-929 106TH AVE", "city": "DAWSON CREEK", "province": "BC", "country": "CA", "postalCode": "V1G2N8", "twitter": "None", "instagram": "None", "facebook": "None", "youtube": "None", "website": "None", "summary": "None", "logo": "None", "latitude": 55.75487778377298, "longitude": -120.23093966515655}, "830287546RR0001": {"name": "SOUTH PEACE RIVER STOCKMEN'S FOUNDATION", "designationCode": "B", "categoryCode": "21", "address": "RR 1 SITE 3 COMP 13           6670 ROAD 231", "city": "DAWSON CREEK", "province": "BC", "country": "CA", "postalCode": "V1G4E7", "twitter": "None", "instagram": "None", "facebook": "None", "youtube": "None", "website": "None", "summary": "None", "logo": "None", "latitude": 55.76171100000006, "longitude": -120.23704249999994}, "888907375RR0001": {"name": "SOUTH PEACE SENIOR CITIZENS ASSOCIATION BRANCH NO 74", "designationCode": "C", "categoryCode": "09", "address": "1101 MCKELLAR AVE", "city": "DAWSON CREEK", "province": "BC", "country": "CA", "postalCode": "V1G2S2", "twitter": "None", "instagram": "None", "facebook": "None", "youtube": "None", "website": "None", "summary": "None", "logo": "None", "latitude": 55.754101583386344, "longitude": -120.23580275160133}, "856986922RR0001": {"name": "SOUTH PEACE SENIORS ACCESS SERVICE SOCIETY (SPSASS)", "designationCode": "C", "categoryCode": "09", "address": "117 - 10200 8 ST", "city": "DAWSON CREEK", "province": "BC", "country": "CA", "postalCode": "V1G3P8", "twitter": "None", "instagram": "None", "facebook": "None", "youtube": "None", "website": "None", "summary": "None", "logo": "None", "latitude": 55.757199795689566, "longitude": -120.22452527156891}, "107996969RR0001": {"name": "SOUTH PEACE UNITED CHURCH", "designationCode": "C", "categoryCode": "44", "address": "1300 104TH AVE", "city": "DAWSON CREEK", "province": "BC", "country": "CA", "postalCode": "V1G2J6", "twitter": "None", "instagram": "None", "facebook": "None", "youtube": "None", "website": "None", "summary": "None", "logo": "None", "latitude": 55.758256500432694, "longitude": -120.23811}, "888701265RR0001": {"name": "SOUTH PEEL NATURALISTS' CLUB", "designationCode": "C", "categoryCode": "59", "address": "P.O. BOX 69629                109 THOMAS STREET", "city": "OAKVILLE", "province": "ON", "country": "CA", "postalCode": "L6J3A7", "twitter": "None", "instagram": "None", "facebook": "None", "youtube": "None", "website": "None", "summary": "None", "logo": "None", "latitude": 43.44513056869984, "longitude": -79.66950799832655}, "887223121RR0001": {"name": "SOUTH POINT COMMUNITY CHURCH", "designationCode": "C", "categoryCode": "39", "address": "475 BEVEL LINE RD             RR 1", "city": "LEAMINGTON", "province": "ON", "country": "CA", "postalCode": "N8H3V4", "twitter": "None", "instagram": "None", "facebook": "None", "youtube": "None", "website": "None", "summary": "None", "logo": "None", "latitude": 42.02883752481407, "longitude": -82.58170225122595}, "805122249RR0001": {"name": "SOUTH POINT COMMUNITY CHURCH OF LEAMINGTON", "designationCode": "C", "categoryCode": "31", "address": "475 BEVEL LINE RD RR #1", "city": "LEAMINGTON", "province": "ON", "country": "CA", "postalCode": "N8H3V4", "twitter": "None", "instagram": "None", "facebook": "None", "youtube": "None", "website": "None", "summary": "None", "logo": "None", "latitude": 42.02883752481407, "longitude": -82.58170225122595}, "864720024RR0001": {"name": "SOUTH POINT MENNONITE CHURCH", "designationCode": "C", "categoryCode": "39", "address": "1947 FOX RUN ROAD             RR#2", "city": "WHEATLEY", "province": "ON", "country": "CA", "postalCode": "N0P2P0", "twitter": "None", "instagram": "None", "facebook": "None", "youtube": "None", "website": "None", "summary": "None", "logo": "None", "latitude": 42.07543800000006, "longitude": -82.45706299999993}, "888557063RR0001": {"name": "SOUTH PORCUPINE FOOD BANK INC", "designationCode": "C", "categoryCode": "09", "address": "32 MAIN STREET", "city": "SOUTH PORCUPINE", "province": "ON", "country": "CA", "postalCode": "P0N1H0", "twitter": "None", "instagram": "None", "facebook": "None", "youtube": "None", "website": "None", "summary": "None", "logo": "None", "latitude": 48.47719170662393, "longitude": -81.21047729337607}, "871744140RR0001": {"name": "SOUTH PORCUPINE PENTECOSTAL CHURCH", "designationCode": "C", "categoryCode": "36", "address": "260 LEGION DRIVE", "city": "SOUTH PORCUPINE", "province": "ON", "country": "CA", "postalCode": "P0N1H0", "twitter": "None", "instagram": "None", "facebook": "None", "youtube": "None", "website": "None", "summary": "None", "logo": "None", "latitude": 48.48650050067643, "longitude": -81.21525507977898}, "107997017RR0001": {"name": "SOUTH PORTAGE BAPTIST BIBLE CHURCH INC.", "designationCode": "C", "categoryCode": "31", "address": "3225 ROUTE 148", "city": "NASHWAAK BRIDGE", "province": "NB", "country": "CA", "postalCode": "E6C1W8", "twitter": "None", "instagram": "None", "facebook": "None", "youtube": "None", "website": "None", "summary": "None", "logo": "None", "latitude": 46.27195555190753, "longitude": -66.59690552514353}, "891533440RR0001": {"name": "SOUTH RANGE CEMETERY FUND", "designationCode": "C", "categoryCode": "59", "address": "2495 RIDGE RD, RR2", "city": "DIGBY", "province": "NS", "country": "CA", "postalCode": "B0V1A0", "twitter": "None", "instagram": "None", "facebook": "None", "youtube": "None", "website": "None", "summary": "None", "logo": "None", "latitude": 44.554001898147575, "longitude": -65.77646590968875}, "119158319RR0001": {"name": "SOUTH RANGE CHRISTIAN CHURCH", "designationCode": "C", "categoryCode": "39", "address": "2495 RIDGE ROAD RR 2", "city": "DIGBY", "province": "NS", "country": "CA", "postalCode": "B0V1A0", "twitter": "None", "instagram": "None", "facebook": "None", "youtube": "None", "website": "None", "summary": "None", "logo": "None", "latitude": 44.554001898147575, "longitude": -65.77646590968875}, "892934571RR0001": {"name": "SOUTH RAWDON UNITED BAPTIST CHURCH,", "designationCode": "C", "categoryCode": "31", "address": "181 LAKEWOOD DRIVE", "city": "NEWPORT", "province": "NS", "country": "CA", "postalCode": "B0N2A0", "twitter": "None", "instagram": "None", "facebook": "None", "youtube": "None", "website": "None", "summary": "None", "logo": "None", "latitude": 44.99938220566678, "longitude": -64.01362582607221}, "861547321RR0001": {"name": "SOUTH REGION PARENTS AS TEACHERS SOCIETY", "designationCode": "C", "categoryCode": "20", "address": "309B - 1701 5 AVE S", "city": "LETHBRIDGE", "province": "AB", "country": "CA", "postalCode": "T1J0W4", "twitter": "None", "instagram": "None", "facebook": "None", "youtube": "None", "website": "None", "summary": "None", "logo": "None", "latitude": 49.69352631382448, "longitude": -112.81768473936691}, "119158392RR0001": {"name": "SOUTH RIVER - MACHAR AGRICULTURAL SOCIETY", "designationCode": "C", "categoryCode": "56", "address": "BOX 459", "city": "SOUTH RIVER", "province": "ON", "country": "CA", "postalCode": "P0A1X0", "twitter": "None", "instagram": "None", "facebook": "None", "youtube": "None", "website": "None", "summary": "None", "logo": "None", "latitude": 45.83340000000004, "longitude": -79.38292999999999}, "119158350RR0001": {"name": "SOUTH RIVER CHRISTIAN ASSEMBLY", "designationCode": "C", "categoryCode": "39", "address": "63 OTTAWA AVE. E.             PO BOX 599", "city": "SOUTH RIVER", "province": "ON", "country": "CA", "postalCode": "P0A1X0", "twitter": "None", "instagram": "None", "facebook": "None", "youtube": "None", "website": "None", "summary": "None", "logo": "None", "latitude": 45.84268994030257, "longitude": -79.37381671827582}, "119158368RR0001": {"name": "SOUTH RIVER CHURCH OF CHRIST", "designationCode": "C", "categoryCode": "39", "address": "PO BOX 549", "city": "SOUTH RIVER", "province": "ON", "country": "CA", "postalCode": "P0A1X0", "twitter": "None", "instagram": "None", "facebook": "None", "youtube": "None", "website": "None", "summary": "None", "logo": "None", "latitude": 45.660326070379305, "longitude": -79.63452456354597}, "107797383RR0053": {"name": "SOUTH RIVER SEVENTH-DAY ADVENTIST CHURCH", "designationCode": "C", "categoryCode": "41", "address": "179 BUNKER HILL RD RR # 1", "city": "SOUTH RIVER", "province": "ON", "country": "CA", "postalCode": "P0A1X0", "twitter": "None", "instagram": "None", "facebook": "None", "youtube": "None", "website": "None", "summary": "None", "logo": "None", "latitude": 45.839959654440776, "longitude": -79.45812271700385}, "119158426RR0001": {"name": "SOUTH RIVER UNITED CHURCH PASTORAL CHARGE", "designationCode": "C", "categoryCode": "44", "address": "P.O. BOX 26", "city": "SOUTH RIVER", "province": "ON", "country": "CA", "postalCode": "P0A1X0", "twitter": "None", "instagram": "None", "facebook": "None", "youtube": "None", "website": "None", "summary": "None", "logo": "None", "latitude": 45.660326070379305, "longitude": -79.63452456354597}, "119158376RR0001": {"name": "SOUTH RIVERDALE CHILD-PARENT CENTRE", "designationCode": "C", "categoryCode": "59", "address": "765 QUEEN STREET EAST", "city": "TORONTO", "province": "ON", "country": "CA", "postalCode": "M4M1H3", "twitter": "None", "instagram": "None", "facebook": "None", "youtube": "None", "website": "None", "summary": "None", "logo": "None", "latitude": 43.65934188591388, "longitude": -79.34760537010217}, "107997165RR0001": {"name": "SOUTH RIVERDALE COMMUNITY HEALTH CENTRE", "designationCode": "C", "categoryCode": "11", "address": "955 QUEEN STREET EAST", "city": "TORONTO", "province": "ON", "country": "CA", "postalCode": "M4M3P3", "twitter": "None", "instagram": "None", "facebook": "None", "youtube": "None", "website": "None", "summary": "None", "logo": "None", "latitude": 43.661212827630074, "longitude": -79.33924542838598}, "891961427RR0001": {"name": "SOUTH ROCK LTD EMPLOYEES' CHARITABLE FOUNDATION", "designationCode": "B", "categoryCode": "75", "address": "P.O BOX 460", "city": "MEDICINE HAT", "province": "AB", "country": "CA", "postalCode": "T1A7G2", "twitter": "None", "instagram": "None", "facebook": "None", "youtube": "None", "website": "None", "summary": "None", "logo": "None"}, "894090463RR0001": {"name": "SOUTH SASKATCHEWAN DISTRICT OF THE APOSTOLIC CHURCH OF PENTECOST OF CANADA", "designationCode": "C", "categoryCode": "39", "address": "P.O. BOX 1336", "city": "GRENFELL", "province": "SK", "country": "CA", "postalCode": "S0G2B0", "twitter": "None", "instagram": "None", "facebook": "None", "youtube": "None", "website": "None", "summary": "None", "logo": "None", "latitude": 50.411193000000054, "longitude": -102.92259049999993}, "137897542RR0001": {"name": "SOUTH SASKATCHEWAN INDEPENDENT LIVING CENTRE INC.", "designationCode": "C", "categoryCode": "11", "address": "2220 ALBERT STREET", "city": "REGINA", "province": "SK", "country": "CA", "postalCode": "S4P2V2", "twitter": "None", "instagram": "None", "facebook": "None", "youtube": "None", "website": "None", "summary": "None", "logo": "None", "latitude": 50.44360572300769, "longitude": -104.61815610967138}, "119158434RR0001": {"name": "SOUTH SAUBLE BEACH COMMUNITY CHURCH", "designationCode": "C", "categoryCode": "44", "address": "300 NORMANDY AVE", "city": "WATERLOO", "province": "ON", "country": "CA", "postalCode": "N2K1X7", "twitter": "None", "instagram": "None", "facebook": "None", "youtube": "None", "website": "None", "summary": "None", "logo": "None", "latitude": 43.497808825437026, "longitude": -80.5099768780367}, "119158442RR0001": {"name": "SOUTH SHORE BIG BROTHERS/BIG SISTERS ASSOCIATION", "designationCode": "C", "categoryCode": "09", "address": "7-821 KING ST.", "city": "BRIDGEWATER", "province": "NS", "country": "CA", "postalCode": "B4V1B7", "twitter": "None", "instagram": "None", "facebook": "None", "youtube": "None", "website": "None", "summary": "None", "logo": "None", "latitude": 44.38122996834795, "longitude": -64.52262421847738}, "118782630RR0019": {"name": "SOUTH SHORE CHINESE ALLIANCE CHURCH", "designationCode": "C", "categoryCode": "39", "address": "598 BELLEVUE NORTH", "city": "GREENFIELD PARK", "province": "QC", "country": "CA", "postalCode": "J4V1C8", "twitter": "None", "instagram": "None", "facebook": "None", "youtube": "None", "website": "None", "summary": "None", "logo": "None", "latitude": 45.487972382739905, "longitude": -73.45697043412746}, "849959648RR0001": {"name": "SOUTH SHORE CHRISTIAN SCHOOL", "designationCode": "C", "categoryCode": "20", "address": "475 BEVEL LINE RD", "city": "LEAMINGTON", "province": "ON", "country": "CA", "postalCode": "N8H3V4", "twitter": "None", "instagram": "None", "facebook": "None", "youtube": "None", "website": "None", "summary": "None", "logo": "None", "latitude": 42.02883752481407, "longitude": -82.58170225122595}, "889981502RR0001": {"name": "SOUTH SHORE COMMUNITY JUSTICE SOCIETY", "designationCode": "C", "categoryCode": "59", "address": "208 - 129 ABERDEEN RD", "city": "BRIDGEWATER", "province": "NS", "country": "CA", "postalCode": "B4V2S7", "twitter": "None", "instagram": "None", "facebook": "None", "youtube": "None", "website": "None", "summary": "None", "logo": "None", "latitude": 44.38386753069978, "longitude": -64.51598833726669}, "119158459RR0001": {"name": "SOUTH SHORE COMMUNITY SERVICE ASSOCIATION", "designationCode": "C", "categoryCode": "09", "address": "PO BOX 560", "city": "CHESTER", "province": "NS", "country": "CA", "postalCode": "B0J1J0", "twitter": "None", "instagram": "None", "facebook": "None", "youtube": "None", "website": "None", "summary": "None", "logo": "None", "latitude": 44.549654888646664, "longitude": -64.2288348174421}, "897209052RR0001": {"name": "SOUTH SHORE FAMILY RESOURCE ASSOCIATION", "designationCode": "C", "categoryCode": "09", "address": "11-821 KING ST", "city": "BRIDGEWATER", "province": "NS", "country": "CA", "postalCode": "B4V1B7", "twitter": "None", "instagram": "None", "facebook": "None", "youtube": "None", "website": "None", "summary": "None", "logo": "None", "latitude": 44.38122996834795, "longitude": -64.52262421847738}, "119158467RR0001": {"name": "SOUTH SHORE MISSIONARY CHAPEL", "designationCode": "C", "categoryCode": "39", "address": "1892 HWY 654 WEST             RR #1", "city": "CALLANDER", "province": "ON", "country": "CA", "postalCode": "P0H1H0", "twitter": "None", "instagram": "None", "facebook": "None", "youtube": "None", "website": "None", "summary": "None", "logo": "None", "latitude": 46.17628916988988, "longitude": -79.45959619972977}, "119272623RR0001": {"name": "SOUTH SHORE PASTORAL CHARGE", "designationCode": "C", "categoryCode": "44", "address": "PO BOX 2679 STN CENTRAL", "city": "CHARLOTTETOWN", "province": "PE", "country": "CA", "postalCode": "C1A8C3", "twitter": "None", "instagram": "None", "facebook": "None", "youtube": "None", "website": "None", "summary": "None", "logo": "None", "latitude": 46.23659700000006, "longitude": -63.12815449999994}, "118883180RR0001": {"name": "SOUTH SHORE REGIONAL HOSPITAL AUXILIARY", "designationCode": "A", "categoryCode": "19", "address": "90 GLEN ALLAN DRIVE", "city": "BRIDGEWATER", "province": "NS", "country": "CA", "postalCode": "B4V3S6", "twitter": "None", "instagram": "None", "facebook": "None", "youtube": "None", "website": "None", "summary": "None", "logo": "None", "latitude": 44.382063834600004, "longitude": -64.51188447996711}, "129814034RR0001": {"name": "SOUTH SHORE REGIONAL LIBRARY BOARD", "designationCode": "C", "categoryCode": "50", "address": "135 NORTH PARK STREET         UNIT B", "city": "BRIDGEWATER", "province": "NS", "country": "CA", "postalCode": "B4V9B3", "twitter": "None", "instagram": "None", "facebook": "None", "youtube": "None", "website": "None", "summary": "None", "logo": "None", "latitude": 44.385328944900486, "longitude": -64.53703661101352}, "858509540RR0001": {"name": "SOUTH SHORE REGIONAL SCHOOL BOARD", "designationCode": "C", "categoryCode": "20", "address": "130 NORTH PARK STREET", "city": "BRIDGEWATER", "province": "NS", "country": "CA", "postalCode": "B4V4G9", "twitter": "None", "instagram": "None", "facebook": "None", "youtube": "None", "website": "None", "summary": "None", "logo": "None", "latitude": 44.38538327861297, "longitude": -64.53719866302433}, "118793074RR0024": {"name": "SOUTH SHORE SEVENTH-DAY ADVENTIST CHURCH", "designationCode": "C", "categoryCode": "41", "address": "395 AV OAK", "city": "SAINT-LAMBERT", "province": "QC", "country": "CA", "postalCode": "J4P2P9", "twitter": "None", "instagram": "None", "facebook": "None", "youtube": "None", "website": "None", "summary": "None", "logo": "None", "latitude": 45.50580540714995, "longitude": -73.51196397835992}, "119158525RR0001": {"name": "SOUTH SHORE TRANSITION HOUSE ASSOCIATION", "designationCode": "C", "categoryCode": "09", "address": "P.O. BOX 355", "city": "BRIDGEWATER", "province": "NS", "country": "CA", "postalCode": "B4V2W9", "twitter": "None", "instagram": "None", "facebook": "None", "youtube": "None", "website": "None", "summary": "None", "logo": "None", "latitude": 44.38048200000006, "longitude": -64.52305099999994}, "896789294RR0001": {"name": "SOUTH SHORE WALDORF SCHOOL ASSOCIATION", "designationCode": "C", "categoryCode": "20", "address": "PO BOX 177", "city": "BLOCKHOUSE", "province": "NS", "country": "CA", "postalCode": "B0J1E0", "twitter": "None", "instagram": "None", "facebook": "None", "youtube": "None", "website": "None", "summary": "None", "logo": "None", "latitude": 44.37696638346857, "longitude": -64.30372742452168}, "862187721RR0001": {"name": "SOUTH SHUSWAP FIRST RESPONDERS ASSOCIATION", "designationCode": "C", "categoryCode": "59", "address": "2516 REEDMAN POINT RD         BOX 555", "city": "SORRENTO", "province": "BC", "country": "CA", "postalCode": "V0E2W0", "twitter": "None", "instagram": "None", "facebook": "None", "youtube": "None", "website": "None", "summary": "None", "logo": "None", "latitude": 50.901015752957655, "longitude": -119.37652590538957}, "873805329RR0001": {"name": "SOUTH SHUSWAP RECREATION TRAIL SOCIETY", "designationCode": "C", "categoryCode": "56", "address": "PO BOX 44", "city": "SORRENTO", "province": "BC", "country": "CA", "postalCode": "V0E2W0", "twitter": "None", "instagram": "None", "facebook": "None", "youtube": "None", "website": "None", "summary": "None", "logo": "None", "latitude": 50.876960000000054, "longitude": -119.46544999999998}, "818682676RR0001": {"name": "SOUTH SIDE CHRISTIAN SCHOOL", "designationCode": "C", "categoryCode": "20", "address": "BOX 219", "city": "RED DEER", "province": "AB", "country": "CA", "postalCode": "T4N5E8", "twitter": "None", "instagram": "None", "facebook": "None", "youtube": "None", "website": "None", "summary": "None", "logo": "None", "latitude": 52.26852300000006, "longitude": -113.80901299999994}, "107997421RR0001": {"name": "SOUTH SIDE UNITED BAPTIST CHURCH", "designationCode": "C", "categoryCode": "31", "address": "955 CENTREVILLE/SOUTH SIDE RD RR 1", "city": "CLARK'S HARBOUR", "province": "NS", "country": "CA", "postalCode": "B0W1P0", "twitter": "None", "instagram": "None", "facebook": "None", "youtube": "None", "website": "None", "summary": "None", "logo": "None", "latitude": 43.43617350568415, "longitude": -65.60502789909985}, "119158608RR0001": {"name": "SOUTH SIMCOE COMMUNITY INFORMATION CENTRE", "designationCode": "C", "categoryCode": "09", "address": "PO BOX 932", "city": "ALLISTON", "province": "ON", "country": "CA", "postalCode": "L9R1W1", "twitter": "None", "instagram": "None", "facebook": "None", "youtube": "None", "website": "None", "summary": "None", "logo": "None", "latitude": 44.15432100000005, "longitude": -79.86752449999993}, "875296923RR0001": {"name": "SOUTH SIMCOE RAILWAY HERITAGE FOUNDATION", "designationCode": "C", "categoryCode": "50", "address": "26 MILL ST WEST", "city": "TOTTENHAM", "province": "ON", "country": "CA", "postalCode": "L0G1W0", "twitter": "None", "instagram": "None", "facebook": "None", "youtube": "None", "website": "None", "summary": "None", "logo": "None", "latitude": 44.022043578420266, "longitude": -79.80773954989218}, "124378852RR0001": {"name": "SOUTH SIMCOE 4-H ASSOCIATION", "designationCode": "C", "categoryCode": "29", "address": "3399 LINE 6", "city": "BRADFORD", "province": "ON", "country": "CA", "postalCode": "L3Z2J5", "twitter": "None", "instagram": "None", "facebook": "None", "youtube": "None", "website": "None", "summary": "None", "logo": "None", "latitude": 44.11572900000006, "longitude": -79.62258049999993}, "107997447RR0001": {"name": "SOUTH SIMILKAMEEN MUSEUM SOCIETY", "designationCode": "C", "categoryCode": "50", "address": "BOX 135", "city": "KEREMEOS", "province": "BC", "country": "CA", "postalCode": "V0X1N0", "twitter": "None", "instagram": "None", "facebook": "None", "youtube": "None", "website": "None", "summary": "None", "logo": "None", "latitude": 49.20514000000003, "longitude": -119.82412}, "861550044RR0001": {"name": "SOUTH SLAVE DIVISIONAL EDUCATION COUNCIL", "designationCode": "C", "categoryCode": "20", "address": "BOX 510", "city": "FORT SMITH", "province": "NT", "country": "CA", "postalCode": "X0E0P0", "twitter": "None", "instagram": "None", "facebook": "None", "youtube": "None", "website": "None", "summary": "None", "logo": "None", "latitude": 60.01262014865944, "longitude": -112.05264672940851}, "119288918RR0428": {"name": "SOUTH SLOCAN CONGREGATION OF JEHOVAH'S WITNESSES", "designationCode": "C", "categoryCode": "61", "address": "PO BOX 70", "city": "SOUTH SLOCAN", "province": "BC", "country": "CA", "postalCode": "V0G2G0", "twitter": "None", "instagram": "None", "facebook": "None", "youtube": "None", "website": "None", "summary": "None", "logo": "None", "latitude": 49.75601565656991, "longitude": -117.46831645737132}, "118793074RR0005": {"name": "SOUTH STUKELY SEVENTH-DAY ADVENTIST CHURCH", "designationCode": "C", "categoryCode": "41", "address": "506 ROUTE 243 NORTH", "city": "CLEVELAND", "province": "QC", "country": "CA", "postalCode": "J0B2H0", "twitter": "None", "instagram": "None", "facebook": "None", "youtube": "None", "website": "None", "summary": "None", "logo": "None", "latitude": 45.675228251191974, "longitude": -72.17541405248846}, "139606917RR0001": {"name": "SOUTH SURREY INDEPENDENT SCHOOL SOCIETY", "designationCode": "C", "categoryCode": "20", "address": "2656 160 ST", "city": "SURREY", "province": "BC", "country": "CA", "postalCode": "V3Z0B7", "twitter": "None", "instagram": "None", "facebook": "None", "youtube": "None", "website": "None", "summary": "None", "logo": "None", "latitude": 49.050062999999994, "longitude": -122.77917104157807}, "119288918RR1203": {"name": "SOUTH THOMPSON CONGREGATION OF JEHOVAH'S WITNESSES", "designationCode": "C", "categoryCode": "61", "address": "2420 QU'APPELLE BLVD", "city": "KAMLOOPS", "province": "BC", "country": "CA", "postalCode": "V2E1T4", "twitter": "None", "instagram": "None", "facebook": "None", "youtube": "None", "website": "None", "summary": "None", "logo": "None", "latitude": 50.66179545657562, "longitude": -120.24858063044607}, "119288918RR0087": {"name": "SOUTH TRANSCONA CONGREGATION OF JEHOVAH'S WITNESSES, WINNIPEG, MANITOBA", "designationCode": "C", "categoryCode": "61", "address": "63 TRUDELL BAY", "city": "WINNIPEG", "province": "MB", "country": "CA", "postalCode": "R2C4Y1", "twitter": "None", "instagram": "None", "facebook": "None", "youtube": "None", "website": "None", "summary": "None", "logo": "None", "latitude": 49.89303229283269, "longitude": -97.04454508061639}, "107404030RR0001": {"name": "SOUTH VANCOUVER COMMUNITY CHURCH", "designationCode": "C", "categoryCode": "39", "address": "2325 EAST 54TH AVENUE", "city": "VANCOUVER", "province": "BC", "country": "CA", "postalCode": "V5S1X1", "twitter": "None", "instagram": "None", "facebook": "None", "youtube": "None", "website": "None", "summary": "None", "logo": "None", "latitude": 49.22025446436587, "longitude": -123.05899252553522}, "895315075RR0001": {"name": "SOUTH VANCOUVER COMMUNITY CRIME PREVENTION SOCIETY", "designationCode": "C", "categoryCode": "59", "address": "5435 VICTORIA DR", "city": "VANCOUVER", "province": "BC", "country": "CA", "postalCode": "V5P3V9", "twitter": "None", "instagram": "None", "facebook": "None", "youtube": "None", "website": "None", "summary": "None", "logo": "None", "latitude": 49.23492392200936, "longitude": -123.06553409273448}, "856818802RR0001": {"name": "SOUTH VANCOUVER ISLAND ASSESSMENT AND RESOURCE SERVICE SOCIETY", "designationCode": "C", "categoryCode": "59", "address": "#305  394 DUNCAN STREET", "city": "DUNCAN", "province": "BC", "country": "CA", "postalCode": "V9L3W4", "twitter": "None", "instagram": "None", "facebook": "None", "youtube": "None", "website": "None", "summary": "None", "logo": "None", "latitude": 48.77866960283338, "longitude": -123.70651462057833}, "883138927RR0001": {"name": "SOUTH VANCOUVER ISLAND DISTRICT WOMEN'S INSTITUTE", "designationCode": "C", "categoryCode": "29", "address": "1 - 3202 HERONS WAY", "city": "DUNCAN", "province": "BC", "country": "CA", "postalCode": "V9L0B7", "twitter": "None", "instagram": "None", "facebook": "None", "youtube": "None", "website": "None", "summary": "None", "logo": "None", "latitude": 48.79597488068144, "longitude": -123.73058973295839}, "107997488RR0001": {"name": "SOUTH VANCOUVER ISLAND ZONE HOUSING SOCIETY", "designationCode": "C", "categoryCode": "09", "address": "2045 CADBORO BAY RD", "city": "VICTORIA", "province": "BC", "country": "CA", "postalCode": "V8R5G4", "twitter": "None", "instagram": "None", "facebook": "None", "youtube": "None", "website": "None", "summary": "None", "logo": "None", "latitude": 48.432300713316394, "longitude": -123.32117766686196}, "899774418RR0001": {"name": "SOUTH VANCOUVER PACIFIC GRACE MB CHURCH", "designationCode": "C", "categoryCode": "34", "address": "611 E 50TH AVE", "city": "VANCOUVER", "province": "BC", "country": "CA", "postalCode": "V5X1A9", "twitter": "None", "instagram": "None", "facebook": "None", "youtube": "None", "website": "None", "summary": "None", "logo": "None", "latitude": 49.224569467684105, "longitude": -123.09236958090483}, "135734622RR0001": {"name": "SOUTH WEST CENTRE FOR COMMUNITY PROGRAMME DEVELOPMENT INC.", "designationCode": "C", "categoryCode": "59", "address": "40 METCALFE ST", "city": "WOODSTOCK", "province": "ON", "country": "CA", "postalCode": "N4S3E7", "twitter": "None", "instagram": "None", "facebook": "None", "youtube": "None", "website": "None", "summary": "None", "logo": "None", "latitude": 43.12842363918864, "longitude": -80.7564988909342}, "119158780RR0001": {"name": "SOUTH WEST CRISIS SERVICES INC.", "designationCode": "C", "categoryCode": "09", "address": "PO BOX 1102  STN MAIN", "city": "SWIFT CURRENT", "province": "SK", "country": "CA", "postalCode": "S9H3X3", "twitter": "None", "instagram": "None", "facebook": "None", "youtube": "None", "website": "None", "summary": "None", "logo": "None", "latitude": 50.292744000000056, "longitude": -107.80056349999994}, "887197713RR0001": {"name": "SOUTH WEST DISTRICT PALLIATIVE CARE, INC.", "designationCode": "C", "categoryCode": "11", "address": "PO BOX 1282                   321 MAIN ST", "city": "STONEWALL", "province": "MB", "country": "CA", "postalCode": "R0C2Z0", "twitter": "None", "instagram": "None", "facebook": "None", "youtube": "None", "website": "None", "summary": "None", "logo": "None", "latitude": 50.13555274854292, "longitude": -97.32668388317259}, "139613731RR0001": {"name": "SOUTH WEST PORT MOUTON COMMUNITY CEMETERY SOCIETY", "designationCode": "C", "categoryCode": "59", "address": "RR #1", "city": "PORT MOUTON", "province": "NS", "country": "CA", "postalCode": "B0T1T0", "twitter": "None", "instagram": "None", "facebook": "None", "youtube": "None", "website": "None", "summary": "None", "logo": "None", "latitude": 44.0363520951217, "longitude": -64.72037703170723}, "891130544RR0001": {"name": "SOUTH WEST UKRAINIAN CANADIAN HISTORICAL SOCIETY", "designationCode": "C", "categoryCode": "50", "address": "1024 - 112A ST NW", "city": "EDMONTON", "province": "AB", "country": "CA", "postalCode": "T6J6S1", "twitter": "None", "instagram": "None", "facebook": "None", "youtube": "None", "website": "None", "summary": "None", "logo": "None", "latitude": 53.44085695946113, "longitude": -113.52205663047474}, "140614538RR0001": {"name": "SOUTH WEST VICTIM SERVICES INC.", "designationCode": "C", "categoryCode": "09", "address": "2 1ST AVE NE                  BOX 998", "city": "SWIFT CURRENT", "province": "SK", "country": "CA", "postalCode": "S9H4W4", "twitter": "None", "instagram": "None", "facebook": "None", "youtube": "None", "website": "None", "summary": "None", "logo": "None", "latitude": 50.282011055779755, "longitude": -107.79860346024212}, "132007030RR0001": {"name": "SOUTH WINNIPEG FAMILY INFORMATION CENTRE INC", "designationCode": "C", "categoryCode": "09", "address": "800 POINT ROAD", "city": "WINNIPEG", "province": "MB", "country": "CA", "postalCode": "R3T3L8", "twitter": "None", "instagram": "None", "facebook": "None", "youtube": "None", "website": "None", "summary": "None", "logo": "None", "latitude": 49.8466287254892, "longitude": -97.14348500750182}}