{"118843804RR0001": {"name": "CENTRAL SAANICH COMMUNITY SERVICE SOCIETY", "designationCode": "C", "categoryCode": "56", "address": "PO BOX 148", "city": "BRENTWOOD BAY", "province": "BC", "country": "CA", "postalCode": "V8M1R3", "twitter": "None", "instagram": "None", "facebook": "None", "youtube": "None", "website": "None", "summary": "None", "logo": "None", "latitude": 48.57470872006489, "longitude": -123.46431733175481}, "118843812RR0001": {"name": "CENTRAL SAANICH SENIOR CITIZENS ASSOCIATION", "designationCode": "C", "categoryCode": "59", "address": "1229 CLARKE ROAD", "city": "BRENTWOOD BAY", "province": "BC", "country": "CA", "postalCode": "V8M1E2", "twitter": "None", "instagram": "None", "facebook": "None", "youtube": "None", "website": "None", "summary": "None", "logo": "None", "latitude": 48.576055593340996, "longitude": -123.44890793127152}, "135400737RR0001": {"name": "CENTRAL SASKATCHEWAN MILITARY FAMILY RESOURCE CENTRE INC. / CENTRE DE RESSOURCES POUR LES FAMILLES DES MILITAIRES DU CENTRE DE LA SASKATCHEWAN INC.", "designationCode": "C", "categoryCode": "09", "address": "17 WING DETACHMENT DUNDURN", "city": "DUNDURN", "province": "SK", "country": "CA", "postalCode": "S0K1K0", "twitter": "None", "instagram": "None", "facebook": "None", "youtube": "None", "website": "None", "summary": "None", "logo": "None", "latitude": 51.81099000000006, "longitude": -106.50013099999994}, "118843838RR0001": {"name": "CENTRAL SASKATCHEWAN MUSIC FESTIVAL ASSOCIATION", "designationCode": "C", "categoryCode": "22", "address": "FAY MCJANNET                  BOX 174", "city": "DAVIDSON", "province": "SK", "country": "CA", "postalCode": "S0G1A0", "twitter": "None", "instagram": "None", "facebook": "None", "youtube": "None", "website": "None", "summary": "None", "logo": "None", "latitude": 51.26741700000005, "longitude": -105.99598249999994}, "129471082RR0001": {"name": "CENTRAL SPEECH AND HEARING CLINIC INC", "designationCode": "C", "categoryCode": "09", "address": "2-1325 MARKHAM RD", "city": "WINNIPEG", "province": "MB", "country": "CA", "postalCode": "R3T4J6", "twitter": "None", "instagram": "None", "facebook": "None", "youtube": "None", "website": "None", "summary": "None", "logo": "None", "latitude": 49.808486817863916, "longitude": -97.15533616785393}, "118843853RR0001": {"name": "CENTRAL SPORTS GARDEN AND HUGHENDEN AGRICULTURAL SOCIETY", "designationCode": "C", "categoryCode": "56", "address": "BOX 2", "city": "HUGHENDEN", "province": "AB", "country": "CA", "postalCode": "T0B2E0", "twitter": "None", "instagram": "None", "facebook": "None", "youtube": "None", "website": "None", "summary": "None", "logo": "None", "latitude": 52.51683000000003, "longitude": -110.98494999999997}, "124838004RR0001": {"name": "CENTRAL TORONTO COMMUNITY HEALTH CENTRES", "designationCode": "C", "categoryCode": "11", "address": "168 BATHURST ST", "city": "TORONTO", "province": "ON", "country": "CA", "postalCode": "M5V2R4", "twitter": "None", "instagram": "None", "facebook": "None", "youtube": "None", "website": "None", "summary": "None", "logo": "None", "latitude": 43.646644634745265, "longitude": -79.40381696228842}, "130530843RR0001": {"name": "CENTRAL TORONTO YOUTH SERVICES", "designationCode": "C", "categoryCode": "09", "address": "65 WELLESLEY ST E 3RD FL", "city": "TORONTO", "province": "ON", "country": "CA", "postalCode": "M4Y1G7", "twitter": "None", "instagram": "None", "facebook": "None", "youtube": "None", "website": "None", "summary": "None", "logo": "None", "latitude": 43.66563271827582, "longitude": -79.38115773674191}, "892095688RR0001": {"name": "CENTRAL TORONTO YOUTH SERVICES FOUNDATION", "designationCode": "C", "categoryCode": "09", "address": "65 WELLESLEYST EAST           3RD FL", "city": "TORONTO", "province": "ON", "country": "CA", "postalCode": "M4Y1G7", "twitter": "None", "instagram": "None", "facebook": "None", "youtube": "None", "website": "None", "summary": "None", "logo": "None", "latitude": 43.66563271827582, "longitude": -79.38115773674191}, "118843903RR0001": {"name": "CENTRAL TRUST", "designationCode": "C", "categoryCode": "21", "address": "PO BOX 640", "city": "STOUGHTON", "province": "SK", "country": "CA", "postalCode": "S0G4T0", "twitter": "None", "instagram": "None", "facebook": "None", "youtube": "None", "website": "None", "summary": "None", "logo": "None", "latitude": 49.676720000000046, "longitude": -103.02253999999999}, "106888712RR0001": {"name": "CENTRAL UNITED CHURCH", "designationCode": "C", "categoryCode": "44", "address": "150 QUEEN ST., SUITE C010", "city": "MONCTON", "province": "NB", "country": "CA", "postalCode": "E1C1K8", "twitter": "None", "instagram": "None", "facebook": "None", "youtube": "None", "website": "None", "summary": "None", "logo": "None", "latitude": 46.08951782041672, "longitude": -64.77888517262973}, "106888746RR0001": {"name": "CENTRAL UNITED CHURCH", "designationCode": "C", "categoryCode": "44", "address": "54 ROSS STREET", "city": "BARRIE", "province": "ON", "country": "CA", "postalCode": "L4N1G3", "twitter": "None", "instagram": "None", "facebook": "None", "youtube": "None", "website": "None", "summary": "None", "logo": "None", "latitude": 44.39081446378896, "longitude": -79.696251}, "106888829RR0001": {"name": "CENTRAL UNITED CHURCH", "designationCode": "C", "categoryCode": "44", "address": "327-8TH STREET", "city": "BRANDON", "province": "MB", "country": "CA", "postalCode": "R7A3X5", "twitter": "None", "instagram": "None", "facebook": "None", "youtube": "None", "website": "None", "summary": "None", "logo": "None", "latitude": 49.84500524562873, "longitude": -99.94866894820841}, "118843994RR0001": {"name": "CENTRAL UNITED CHURCH", "designationCode": "C", "categoryCode": "44", "address": "135 WELLINGTON STREET", "city": "ST. THOMAS", "province": "ON", "country": "CA", "postalCode": "N5R2R7", "twitter": "None", "instagram": "None", "facebook": "None", "youtube": "None", "website": "None", "summary": "None", "logo": "None", "latitude": 42.77528817549532, "longitude": -81.19087648015932}, "118844018RR0001": {"name": "CENTRAL UNITED CHURCH", "designationCode": "C", "categoryCode": "44", "address": "699-30 TUSCARORA STREET", "city": "WINDSOR", "province": "ON", "country": "CA", "postalCode": "N9A6Y6", "twitter": "None", "instagram": "None", "facebook": "None", "youtube": "None", "website": "None", "summary": "None", "logo": "None", "latitude": 42.31317148075451, "longitude": -83.03526203000727}, "118844042RR0001": {"name": "CENTRAL UNITED CHURCH", "designationCode": "C", "categoryCode": "44", "address": "131-7 AVE S W", "city": "CALGARY", "province": "AB", "country": "CA", "postalCode": "T2P0W5", "twitter": "None", "instagram": "None", "facebook": "None", "youtube": "None", "website": "None", "summary": "None", "logo": "None", "latitude": 51.046476517889175, "longitude": -114.06505469608747}, "119288389RR0001": {"name": "CENTRAL UNITED CHURCH", "designationCode": "C", "categoryCode": "44", "address": "BOX 321", "city": "WARBURG", "province": "AB", "country": "CA", "postalCode": "T0C2T0", "twitter": "None", "instagram": "None", "facebook": "None", "youtube": "None", "website": "None", "summary": "None", "logo": "None", "latitude": 53.18105000000003, "longitude": -114.31863999999996}, "130530611RR0001": {"name": "CENTRAL UNITED CHURCH", "designationCode": "C", "categoryCode": "44", "address": "220 GEORGE STREET", "city": "SARNIA", "province": "ON", "country": "CA", "postalCode": "N7T4N9", "twitter": "None", "instagram": "None", "facebook": "None", "youtube": "None", "website": "None", "summary": "None", "logo": "None", "latitude": 42.974534446590496, "longitude": -82.40295014104403}, "130828254RR0001": {"name": "CENTRAL UNITED CHURCH", "designationCode": "C", "categoryCode": "44", "address": "131 MAIN STREET", "city": "UNIONVILLE", "province": "ON", "country": "CA", "postalCode": "L3R2G3", "twitter": "None", "instagram": "None", "facebook": "None", "youtube": "None", "website": "None", "summary": "None", "logo": "None", "latitude": 43.86396828365743, "longitude": -79.31018515413497}, "118844075RR0001": {"name": "CENTRAL UNITED CHURCH OF PORT COLBORNE, ONTARIO", "designationCode": "C", "categoryCode": "44", "address": "30 DELHI ST", "city": "PORT COLBORNE", "province": "ON", "country": "CA", "postalCode": "L3K3K6", "twitter": "None", "instagram": "None", "facebook": "None", "youtube": "None", "website": "None", "summary": "None", "logo": "None", "latitude": 42.88958753952925, "longitude": -79.25274969164407}, "122000714RR0001": {"name": "CENTRAL UNITED CHURCH,", "designationCode": "C", "categoryCode": "44", "address": "160 SPRING ST", "city": "SAULT STE MARIE", "province": "ON", "country": "CA", "postalCode": "P6A3A5", "twitter": "None", "instagram": "None", "facebook": "None", "youtube": "None", "website": "None", "summary": "None", "logo": "None", "latitude": 46.51125278100304, "longitude": -84.32954701552323}, "130724685RR0001": {"name": "CENTRAL UNITED CHURCH,", "designationCode": "C", "categoryCode": "44", "address": "1 KING STREET", "city": "WESTON", "province": "ON", "country": "CA", "postalCode": "M9N1K8", "twitter": "None", "instagram": "None", "facebook": "None", "youtube": "None", "website": "None", "summary": "None", "logo": "None", "latitude": 43.70167898583307, "longitude": -79.52036913569754}, "859842106RR0001": {"name": "CENTRAL UNITED CHURCH, TWILLINGATE, NL", "designationCode": "C", "categoryCode": "44", "address": "P. O. BOX 189", "city": "TWILLINGATE", "province": "NL", "country": "CA", "postalCode": "A0G4M0", "twitter": "None", "instagram": "None", "facebook": "None", "youtube": "None", "website": "None", "summary": "None", "logo": "None", "latitude": 49.65692000000007, "longitude": -54.77596999999997}, "885717835RR0001": {"name": "CENTRAL URBAN METIS FEDERATION (1993) INC.", "designationCode": "C", "categoryCode": "09", "address": "315 AVENUE M SOUTH            ATTENTION:  TRINA LAROSE", "city": "SASKATOON", "province": "SK", "country": "CA", "postalCode": "S7M2K5", "twitter": "None", "instagram": "None", "facebook": "None", "youtube": "None", "website": "None", "summary": "None", "logo": "None", "latitude": 52.12547993782106, "longitude": -106.68889572387306}, "886635796RR0001": {"name": "CENTRAL VALLEY ACADEMY OF MUSIC SOCIETY", "designationCode": "C", "categoryCode": "22", "address": "BOX 8000 - 334", "city": "ABBOTSFORD", "province": "BC", "country": "CA", "postalCode": "V2S6H1", "twitter": "None", "instagram": "None", "facebook": "None", "youtube": "None", "website": "None", "summary": "None", "logo": "None", "latitude": 49.03851300000005, "longitude": -122.29441549999993}, "132399015RR0001": {"name": "CENTRAL VALLEY BAPTIST CHURCH OF CLEARBROOK", "designationCode": "C", "categoryCode": "31", "address": "33393 OLD YALE ROAD", "city": "ABBOTSFORD", "province": "BC", "country": "CA", "postalCode": "V2S2J6", "twitter": "None", "instagram": "None", "facebook": "None", "youtube": "None", "website": "None", "summary": "None", "logo": "None", "latitude": 49.050101041375605, "longitude": -122.29932521536162}, "135599074RR0001": {"name": "CENTRAL VALLEY CHURCH OF CHRIST", "designationCode": "C", "categoryCode": "39", "address": "#4 3292 ELMWOOD DR", "city": "ABBOTSFORD", "province": "BC", "country": "CA", "postalCode": "V2S6B2", "twitter": "None", "instagram": "None", "facebook": "None", "youtube": "None", "website": "None", "summary": "None", "logo": "None", "latitude": 49.06172474715793, "longitude": -122.27798135495432}, "885969022RR0001": {"name": "CENTRAL VANCOUVER ISLAND DRAGON BOAT SOCIETY", "designationCode": "C", "categoryCode": "11", "address": "PO BOX 336", "city": "LANTZVILLE", "province": "BC", "country": "CA", "postalCode": "V0R2H0", "twitter": "None", "instagram": "None", "facebook": "None", "youtube": "None", "website": "None", "summary": "None", "logo": "None", "latitude": 49.252985410367124, "longitude": -124.09511789416992}, "884925918RR0001": {"name": "CENTRAL VANCOUVER ISLAND JEWISH COMMUNITY SOCIETY", "designationCode": "C", "categoryCode": "29", "address": "1352 MADRONA DRIVE", "city": "NANOOSE BAY", "province": "BC", "country": "CA", "postalCode": "V9P9C9", "twitter": "None", "instagram": "None", "facebook": "None", "youtube": "None", "website": "None", "summary": "None", "logo": "None", "latitude": 49.31131719940947, "longitude": -124.2391764287326}, "895776250RR0001": {"name": "CENTRAL VANCOUVER ISLAND JOB OPPORTUNITIES BUILDING SOCIETY", "designationCode": "C", "categoryCode": "59", "address": "PO BOX 1362", "city": "PARKSVILLE", "province": "BC", "country": "CA", "postalCode": "V9P2H3", "twitter": "None", "instagram": "None", "facebook": "None", "youtube": "None", "website": "None", "summary": "None", "logo": "None", "latitude": 49.31968200000006, "longitude": -124.31365099999994}, "132018235RR0001": {"name": "CENTRAL VANCOUVER ISLAND MULTICULTURAL SOCIETY", "designationCode": "C", "categoryCode": "22", "address": "101-319 SELBY STREET", "city": "NANAIMO", "province": "BC", "country": "CA", "postalCode": "V9R2R4", "twitter": "None", "instagram": "None", "facebook": "None", "youtube": "None", "website": "None", "summary": "None", "logo": "None", "latitude": 49.16443221507317, "longitude": -123.9421935804139}, "129569232RR0001": {"name": "CENTRAL VOLUNTEER BUREAU BELLEVILLE INC", "designationCode": "C", "categoryCode": "55", "address": "121 199 FRONT STREET", "city": "BELLEVILLE", "province": "ON", "country": "CA", "postalCode": "K8N5H5", "twitter": "None", "instagram": "None", "facebook": "None", "youtube": "None", "website": "None", "summary": "None", "logo": "None", "latitude": 44.16343821178361, "longitude": -77.38396157043151}, "895036358RR0001": {"name": "CENTRAL WESTCOAST FOREST SOCIETY", "designationCode": "C", "categoryCode": "59", "address": "P.O BOX# 641", "city": "UCLUELET", "province": "BC", "country": "CA", "postalCode": "V0R3A0", "twitter": "None", "instagram": "None", "facebook": "None", "youtube": "None", "website": "None", "summary": "None", "logo": "None", "latitude": 48.938210000000026, "longitude": -125.54276999999996}, "118844166RR0001": {"name": "CENTRAL WICKHAM BAPTIST CHURCH INC.", "designationCode": "C", "categoryCode": "31", "address": "1929 RTE 705", "city": "WICKHAM", "province": "NB", "country": "CA", "postalCode": "E5T3Z5", "twitter": "None", "instagram": "None", "facebook": "None", "youtube": "None", "website": "None", "summary": "None", "logo": "None", "latitude": 45.70243930813835, "longitude": -66.04875478732983}, "118844174RR0001": {"name": "CENTRAL WOOD HARBOUR UNITED BAPTIST CHURCH", "designationCode": "C", "categoryCode": "31", "address": "P.O. BOX 77", "city": "LOWER WOODS HARBOUR", "province": "NS", "country": "CA", "postalCode": "B0W2E0", "twitter": "None", "instagram": "None", "facebook": "None", "youtube": "None", "website": "None", "summary": "None", "logo": "None", "latitude": 43.532800000000066, "longitude": -65.73322999999993}, "118843267RR0001": {"name": "CENTRALIA FAITH TABERNACLE", "designationCode": "C", "categoryCode": "39", "address": "140 VICTORIA DRIVE", "city": "CENTRALIA", "province": "ON", "country": "CA", "postalCode": "N0M1K0", "twitter": "None", "instagram": "None", "facebook": "None", "youtube": "None", "website": "None", "summary": "None", "logo": "None", "latitude": 43.28769037275657, "longitude": -81.47285365961757}, "118843275RR0001": {"name": "CENTRALIA PASTORAL CHARGE", "designationCode": "C", "categoryCode": "44", "address": "256 VICTORIA DR", "city": "CENTRALIA", "province": "ON", "country": "CA", "postalCode": "N0M1K0", "twitter": "None", "instagram": "None", "facebook": "None", "youtube": "None", "website": "None", "summary": "None", "logo": "None", "latitude": 43.283474747994646, "longitude": -81.47201377402081}, "100875244RR0001": {"name": "CENTRAMI", "designationCode": "C", "categoryCode": "09", "address": "6387 BOUL MONK", "city": "MONTREAL", "province": "QC", "country": "CA", "postalCode": "H4E3H8", "twitter": "None", "instagram": "None", "facebook": "None", "youtube": "None", "website": "None", "summary": "None", "logo": "None", "latitude": 45.454708854838756, "longitude": -73.59464793577224}, "106889041RR0001": {"name": "CENTRAP INC.", "designationCode": "C", "categoryCode": "59", "address": "1111 PARC INDUSTRIEL          CP 188", "city": "MONT-JOLI", "province": "QC", "country": "CA", "postalCode": "G5H3K9", "twitter": "None", "instagram": "None", "facebook": "None", "youtube": "None", "website": "None", "summary": "None", "logo": "None", "latitude": 48.58862198505368, "longitude": -68.20943027416504}, "118846740RR0001": {"name": "CENTRE \u00c9COLOGIQUE DE PORT-AU-SAUMON", "designationCode": "C", "categoryCode": "20", "address": "3330 BOULEVARD MALCOLM-FRASER", "city": "LA MALBAIE", "province": "QC", "country": "CA", "postalCode": "G5A2J5", "twitter": "None", "instagram": "None", "facebook": "None", "youtube": "None", "website": "None", "summary": "None", "logo": "None", "latitude": 47.76468300032934, "longitude": -69.95247071039024}, "889591798RR0001": {"name": "CENTRE \u00c9DUCATIF LE PHARE", "designationCode": "C", "categoryCode": "20", "address": "4149, RUE D'AMIENS            SUITE 206", "city": "MONTREAL-NORD", "province": "QC", "country": "CA", "postalCode": "H1H2G3", "twitter": "None", "instagram": "None", "facebook": "None", "youtube": "None", "website": "None", "summary": "None", "logo": "None", "latitude": 45.58967498058161, "longitude": -73.63460698863169}, "878581826RR0001": {"name": "CENTRE \u00c9DUCATIF MULTICULTUREL L'ARCHE DE NO\u00c9", "designationCode": "C", "categoryCode": "09", "address": "1094, DE L'EGLISE RTE", "city": "QUEBEC", "province": "QC", "country": "CA", "postalCode": "G1V3V9", "twitter": "None", "instagram": "None", "facebook": "None", "youtube": "None", "website": "None", "summary": "None", "logo": "None", "latitude": 46.77104929502572, "longitude": -71.2944675148594}, "824042741RR0001": {"name": "CENTRE \u00c9QUESTRE TH\u00c9RAPEUTIQUE EQUI-SENS", "designationCode": "C", "categoryCode": "56", "address": "1285 CH ST ROCH", "city": "TERREBONNE", "province": "QC", "country": "CA", "postalCode": "J6Y1E1", "twitter": "None", "instagram": "None", "facebook": "None", "youtube": "None", "website": "None", "summary": "None", "logo": "None", "latitude": 45.70311240550516, "longitude": -73.77334389078997}, "135239655RR0002": {"name": "CENTRE \u00c9VANG\u00c9LIQUE DE JONQUI\u00c8RE", "designationCode": "C", "categoryCode": "36", "address": "2899 RUE BERTHIER", "city": "JONQUIERE", "province": "QC", "country": "CA", "postalCode": "G7S2J6", "twitter": "None", "instagram": "None", "facebook": "None", "youtube": "None", "website": "None", "summary": "None", "logo": "None", "latitude": 48.43360854674262, "longitude": -71.18591039064574}, "862123395RR0001": {"name": "CENTRE \u00c9VANG\u00c9LIQUE FOI ET VICTOIRE EN J\u00c9SUS-CHRIST", "designationCode": "C", "categoryCode": "39", "address": "700-702 BANK ST.PO BOX 14003", "city": "OTTAWA", "province": "ON", "country": "CA", "postalCode": "K1S3V2", "twitter": "None", "instagram": "None", "facebook": "None", "youtube": "None", "website": "None", "summary": "None", "logo": "None", "latitude": 45.404836470713875, "longitude": -75.68946221928543}, "801922949RR0001": {"name": "CENTRE \u00c9VANG\u00c9LIQUE INTERNATIONAL PLEIN R\u00c9VEIL", "designationCode": "C", "categoryCode": "39", "address": "6-3765 RUE RACHEL E", "city": "MONTREAL", "province": "QC", "country": "CA", "postalCode": "H1X1Y7", "twitter": "None", "instagram": "None", "facebook": "None", "youtube": "None", "website": "None", "summary": "None", "logo": "None", "latitude": 45.551727, "longitude": -73.556766}, "814213674RR0001": {"name": "CENTRE \u00c9VANG\u00c9LIQUE PAROLE DE VIE QU\u00c9BEC/WORD OF LIFE EVANGELICAL CENTER QU\u00c9BEC", "designationCode": "C", "categoryCode": "39", "address": "240 BOUL PIERRE-BERTRAND", "city": "QU\u00c9BEC", "province": "QC", "country": "CA", "postalCode": "G1M2C6", "twitter": "None", "instagram": "None", "facebook": "None", "youtube": "None", "website": "None", "summary": "None", "logo": "None", "latitude": 46.8135002087252, "longitude": -71.26264721645815}, "106897721RR0001": {"name": "CENTRE \u00c9VANG\u00c9LIQUE PORTNEUF", "designationCode": "C", "categoryCode": "36", "address": "961 RANG ST-ANGELIQUE", "city": "ST-BASILE", "province": "QC", "country": "CA", "postalCode": "G0A3G0", "twitter": "None", "instagram": "None", "facebook": "None", "youtube": "None", "website": "None", "summary": "None", "logo": "None", "latitude": 46.808845724912274, "longitude": -71.77218667886214}, "882943467RR0001": {"name": "CENTRE \u00c9VANGELIQUE UNIVERSEL DE MONTR\u00c9AL (C.E.U.M.)", "designationCode": "C", "categoryCode": "39", "address": "524 RUE DE COUBERTIN", "city": "REPENTIGNY", "province": "QC", "country": "CA", "postalCode": "J5Y3Z7", "twitter": "None", "instagram": "None", "facebook": "None", "youtube": "None", "website": "None", "summary": "None", "logo": "None", "latitude": 45.77459479655494, "longitude": -73.44629163076318}, "107609620RR0001": {"name": "CENTRE \u00c9VOLUTION JEUNESSE / YOUTH EVOLUTION CENTER INC.", "designationCode": "C", "categoryCode": "01", "address": "695 RUE PRINCIPALE", "city": "PETIT ROCHER", "province": "NB", "country": "CA", "postalCode": "E8J1G1", "twitter": "None", "instagram": "None", "facebook": "None", "youtube": "None", "website": "None", "summary": "None", "logo": "None", "latitude": 47.77443421149515, "longitude": -65.71561606157336}, "129221172RR0001": {"name": "CENTRE \"AU COEUR DES FEMMES\" INC", "designationCode": "C", "categoryCode": "09", "address": "183 RUE SAINTE-LOUISE", "city": "ST-JEAN-DE-MATHA", "province": "QC", "country": "CA", "postalCode": "J0K2S0", "twitter": "None", "instagram": "None", "facebook": "None", "youtube": "None", "website": "None", "summary": "None", "logo": "None", "latitude": 46.23040022153578, "longitude": -73.5341588943384}, "120791777RR0001": {"name": "CENTRE \"LE SOLEIL LEVANT\"", "designationCode": "B", "categoryCode": "20", "address": "222 DE L'ETOILE", "city": "STE-SOPHIE", "province": "QC", "country": "CA", "postalCode": "J5J2M7", "twitter": "None", "instagram": "None", "facebook": "None", "youtube": "None", "website": "None", "summary": "None", "logo": "None", "latitude": 45.81565832272532, "longitude": -73.97384667672641}, "101945418RR0001": {"name": "CENTRE A LA PETITE ENFANCE \"LA BECQUEE\"", "designationCode": "C", "categoryCode": "01", "address": "1601, RUE CONWAY", "city": "QU\u00c9BEC", "province": "QC", "country": "CA", "postalCode": "G1J3S3", "twitter": "None", "instagram": "None", "facebook": "None", "youtube": "None", "website": "None", "summary": "None", "logo": "None", "latitude": 46.832584232038705, "longitude": -71.22747299004534}, "133582916RR0001": {"name": "CENTRE A LA PETITE ENFANCE AU JARDIN DE DOMINIQUE INC.", "designationCode": "C", "categoryCode": "20", "address": "99 107E RUE", "city": "BEAUCEVILLE", "province": "QC", "country": "CA", "postalCode": "G5X2P9", "twitter": "None", "instagram": "None", "facebook": "None", "youtube": "None", "website": "None", "summary": "None", "logo": "None", "latitude": 46.20575315569286, "longitude": -70.77342205591788}, "107418105RR0001": {"name": "CENTRE A LA PETITE ENFANCE PASSE-PARTOUT ET SES AMIS", "designationCode": "C", "categoryCode": "01", "address": "4797, RUE GASPE", "city": "SHERBROOKE", "province": "QC", "country": "CA", "postalCode": "J1N2C7", "twitter": "None", "instagram": "None", "facebook": "None", "youtube": "None", "website": "None", "summary": "None", "logo": "None", "latitude": 45.37118151875456, "longitude": -71.98333285928213}, "101946846RR0001": {"name": "CENTRE A LA PETITE ENFANCE VILLENEUVE", "designationCode": "C", "categoryCode": "01", "address": "4652 RUE JEANNE-MANCE", "city": "MONTREAL", "province": "QC", "country": "CA", "postalCode": "H2V4J4", "twitter": "None", "instagram": "None", "facebook": "None", "youtube": "None", "website": "None", "summary": "None", "logo": "None", "latitude": 45.5182896547119, "longitude": -73.59038387443002}, "133287219RR0001": {"name": "CENTRE ACADEMIQUE DE LANAUDIERE", "designationCode": "C", "categoryCode": "20", "address": "930 BOUL L'ASSOMPTION", "city": "REPENTIGNY", "province": "QC", "country": "CA", "postalCode": "J6A5H5", "twitter": "None", "instagram": "None", "facebook": "None", "youtube": "None", "website": "None", "summary": "None", "logo": "None", "latitude": 45.76872878485397, "longitude": -73.44903129115701}, "106889082RR0001": {"name": "CENTRE ACCALMIE", "designationCode": "C", "categoryCode": "09", "address": "66 RUE ALEXANDRE              C.P. 9", "city": "POINTE-A-LA-CROIX", "province": "QC", "country": "CA", "postalCode": "G0C1L0", "twitter": "None", "instagram": "None", "facebook": "None", "youtube": "None", "website": "None", "summary": "None", "logo": "None", "latitude": 48.018039853165305, "longitude": -66.67772550929082}, "884835026RR0001": {"name": "CENTRE ACTION", "designationCode": "C", "categoryCode": "20", "address": "2214 DOLLARD", "city": "LASALLE", "province": "QC", "country": "CA", "postalCode": "H8N1S6", "twitter": "None", "instagram": "None", "facebook": "None", "youtube": "None", "website": "None", "summary": "None", "logo": "None", "latitude": 45.431732872583694, "longitude": -73.63614167462028}, "892203274RR0001": {"name": "CENTRE ACTION G\u00c9N\u00c9RATIONS DES A\u00ceN\u00c9S DE LA VALL\u00c9E-DE-LA-LI\u00c8VRE", "designationCode": "C", "categoryCode": "09", "address": "390 AVE DE BUCKINGHAM", "city": "BUCKINGHAM", "province": "QC", "country": "CA", "postalCode": "J8L2G7", "twitter": "None", "instagram": "None", "facebook": "None", "youtube": "None", "website": "None", "summary": "None", "logo": "None", "latitude": 45.589864452680466, "longitude": -75.41715517482275}, "141182881RR0001": {"name": "CENTRE ADRIENNE ROY SHAWINIGAN INC", "designationCode": "C", "categoryCode": "57", "address": "2092 LAVERGNE", "city": "SHAWINIGAN", "province": "QC", "country": "CA", "postalCode": "G9N3S9", "twitter": "None", "instagram": "None", "facebook": "None", "youtube": "None", "website": "None", "summary": "None", "logo": "None", "latitude": 46.563452380806666, "longitude": -72.74568350816565}, "875349011RR0001": {"name": "CENTRE AFRICAIN DE DEVELOPPEMENT ET D'ENTRAIDE INC.", "designationCode": "C", "categoryCode": "09", "address": "2390 RUE RYDE                 BUREAU 202", "city": "MONTREAL", "province": "QC", "country": "CA", "postalCode": "H3K1R6", "twitter": "None", "instagram": "None", "facebook": "None", "youtube": "None", "website": "None", "summary": "None", "logo": "None", "latitude": 45.477137326937594, "longitude": -73.56333938118202}, "894261874RR0001": {"name": "CENTRE AIDE ET PR\u00c9VENTION JEUNESSE DE L\u00c9VIS", "designationCode": "C", "categoryCode": "09", "address": "302 RUE ST-JOSEPH", "city": "LEVIS", "province": "QC", "country": "CA", "postalCode": "G6V1G2", "twitter": "None", "instagram": "None", "facebook": "None", "youtube": "None", "website": "None", "summary": "None", "logo": "None", "latitude": 46.826219725489196, "longitude": -71.16388485039533}, "141580381RR0001": {"name": "CENTRE ALIMENTAIRE AYLMER", "designationCode": "C", "categoryCode": "09", "address": "70 CHEMIN EARDLEY", "city": "GATINEAU", "province": "QC", "country": "CA", "postalCode": "J9H4K2", "twitter": "None", "instagram": "None", "facebook": "None", "youtube": "None", "website": "None", "summary": "None", "logo": "None", "latitude": 45.40039041606539, "longitude": -75.85275501745647}, "107606568RR0001": {"name": "CENTRE ALPHA LE TRAC\u00c9 INC.", "designationCode": "C", "categoryCode": "09", "address": "1322 BOUL. SACRE-COEUR        CP 85", "city": "ST-FELICIEN", "province": "QC", "country": "CA", "postalCode": "G8K2P8", "twitter": "None", "instagram": "None", "facebook": "None", "youtube": "None", "website": "None", "summary": "None", "logo": "None", "latitude": 48.656882386923485, "longitude": -72.4499651481337}, "127610079RR0001": {"name": "CENTRE ALPHA LIRA INC.", "designationCode": "C", "categoryCode": "21", "address": "425 AV ARNAUD", "city": "SEPT-ILES", "province": "QC", "country": "CA", "postalCode": "G4R3B3", "twitter": "None", "instagram": "None", "facebook": "None", "youtube": "None", "website": "None", "summary": "None", "logo": "None", "latitude": 50.2044209800047, "longitude": -66.38648087541095}, "136735248RR0001": {"name": "CENTRE ALPHA SAINTE-ANNE (CASA)", "designationCode": "C", "categoryCode": "09", "address": "6450 AVE CHRISTOPHE-COLOMB", "city": "MONTR\u00c9AL", "province": "QC", "country": "CA", "postalCode": "H2S2G7", "twitter": "None", "instagram": "None", "facebook": "None", "youtube": "None", "website": "None", "summary": "None", "logo": "None", "latitude": 45.537677855098536, "longitude": -73.6013040960527}, "890779945RR0001": {"name": "CENTRE ALPHA-SOURD", "designationCode": "C", "categoryCode": "21", "address": "605-6300 RUE DU PARC", "city": "MONTR\u00c9AL", "province": "QC", "country": "CA", "postalCode": "H2V4H8", "twitter": "None", "instagram": "None", "facebook": "None", "youtube": "None", "website": "None", "summary": "None", "logo": "None", "latitude": 45.52650066192527, "longitude": -73.61232384168142}, "120817465RR0001": {"name": "CENTRE ALTERNATIF EN SANTE MENTALE ET SOCIALE LE MARIGOT DE MATANE", "designationCode": "C", "categoryCode": "01", "address": "196 RUE ST GEORGES", "city": "MATANE", "province": "QC", "country": "CA", "postalCode": "G4W2B4", "twitter": "None", "instagram": "None", "facebook": "None", "youtube": "None", "website": "None", "summary": "None", "logo": "None", "latitude": 48.84661317958327, "longitude": -67.5331498230711}, "106889264RR0001": {"name": "CENTRE AMITIE-JEUNESSE CHAMBLY INC.", "designationCode": "C", "categoryCode": "09", "address": "505, RUE BRASSARD", "city": "CHAMBLY", "province": "QC", "country": "CA", "postalCode": "J3L4V6", "twitter": "None", "instagram": "None", "facebook": "None", "youtube": "None", "website": "None", "summary": "None", "logo": "None", "latitude": 45.45117232748586, "longitude": -73.30279332102323}, "120423462RR0001": {"name": "CENTRE ARC-EN-CI-ELLE INC", "designationCode": "C", "categoryCode": "01", "address": "141 ST-JACQUES", "city": "ST MICHEL DES SAINTS", "province": "QC", "country": "CA", "postalCode": "J0K3B0", "twitter": "None", "instagram": "None", "facebook": "None", "youtube": "None", "website": "None", "summary": "None", "logo": "None", "latitude": 46.677438503462454, "longitude": -73.91845327990652}, "809067077RR0001": {"name": "CENTRE ASSOCIATIF POLYVALENT D'AIDE H\u00c9PATITE C (CAPAHC)", "designationCode": "C", "categoryCode": "11", "address": "502 - 2000 RUE NOTRE-DAME E", "city": "MONTREAL", "province": "QC", "country": "CA", "postalCode": "H2K2N3", "twitter": "None", "instagram": "None", "facebook": "None", "youtube": "None", "website": "None", "summary": "None", "logo": "None", "latitude": 45.531120464521386, "longitude": -73.54344552812708}, "131736696RR0001": {"name": "CENTRE AU PUITS", "designationCode": "C", "categoryCode": "09", "address": "3505, RUE BAGOT", "city": "MONTR\u00c9AL", "province": "QC", "country": "CA", "postalCode": "H1X1C4", "twitter": "None", "instagram": "None", "facebook": "None", "youtube": "None", "website": "None", "summary": "None", "logo": "None", "latitude": 45.558729890097496, "longitude": -73.59007989122266}, "141331009RR0001": {"name": "CENTRE AUX SOURCES D'ARGENTEUIL", "designationCode": "C", "categoryCode": "11", "address": "546 RUE SYDNEY", "city": "LACHUTE", "province": "QC", "country": "CA", "postalCode": "J8H1L1", "twitter": "None", "instagram": "None", "facebook": "None", "youtube": "None", "website": "None", "summary": "None", "logo": "None", "latitude": 45.65363073270256, "longitude": -74.33233679932489}, "887419687RR0001": {"name": "CENTRE B\u00c9N\u00c9VOLE UNI-JOIE", "designationCode": "C", "categoryCode": "09", "address": "C.P.847", "city": "BARRAUTE", "province": "QC", "country": "CA", "postalCode": "J0Y1A0", "twitter": "None", "instagram": "None", "facebook": "None", "youtube": "None", "website": "None", "summary": "None", "logo": "None", "latitude": 48.44190300000005, "longitude": -77.63984899999993}, "891291189RR0001": {"name": "CENTRE BERNARD-HAMEL / Centre Familial", "designationCode": "C", "categoryCode": "09", "address": "101 11E RUE", "city": "ROUYN-NORANDA", "province": "QC", "country": "CA", "postalCode": "J9X2E8", "twitter": "None", "instagram": "None", "facebook": "None", "youtube": "None", "website": "None", "summary": "None", "logo": "None", "latitude": 48.247549270615686, "longitude": -79.02408026585422}, "121773113RR0001": {"name": "CENTRE BERTHE-ROUSSEAU", "designationCode": "C", "categoryCode": "01", "address": "285 RTE MOONEY", "city": "DURHAM-SUD", "province": "QC", "country": "CA", "postalCode": "J0H2C0", "twitter": "None", "instagram": "None", "facebook": "None", "youtube": "None", "website": "None", "summary": "None", "logo": "None", "latitude": 45.651340072393424, "longitude": -72.3117687191708}, "886209394RR0001": {"name": "CENTRE BIBLIQUE \"L'ARCHE\"", "designationCode": "C", "categoryCode": "47", "address": "307 RUE DE L'AUBIER", "city": "SAINTE-MARTHE-SUR-LE-LAC", "province": "QC", "country": "CA", "postalCode": "J0N1P0", "twitter": "None", "instagram": "None", "facebook": "None", "youtube": "None", "website": "None", "summary": "None", "logo": "None", "latitude": 45.52919889035729, "longitude": -73.96558509212892}, "895070761RR0001": {"name": "CENTRE BIBLIQUE HAR'EL", "designationCode": "C", "categoryCode": "49", "address": "5000 RUE CLEMENT-LOCKQUELL", "city": "ST-AUGUSTIN DE DESMAURES", "province": "QC", "country": "CA", "postalCode": "G3A1B3", "twitter": "None", "instagram": "None", "facebook": "None", "youtube": "None", "website": "None", "summary": "None", "logo": "None", "latitude": 46.737437903081904, "longitude": -71.39924824274318}, "888373248RR0001": {"name": "CENTRE BIENVENUE INC", "designationCode": "C", "categoryCode": "09", "address": "12694 BOUL GOUIN", "city": "PIERREFONDS", "province": "QC", "country": "CA", "postalCode": "H8Z1W4", "twitter": "None", "instagram": "None", "facebook": "None", "youtube": "None", "website": "None", "summary": "None", "logo": "None", "latitude": 45.50444646015363, "longitude": -73.83644792212492}, "140678962RR0001": {"name": "CENTRE BONNE-ENTENTE", "designationCode": "C", "categoryCode": "09", "address": "1229 AV DU CHANOINE-MOREL", "city": "QUEBEC", "province": "QC", "country": "CA", "postalCode": "G1S4B1", "twitter": "None", "instagram": "None", "facebook": "None", "youtube": "None", "website": "None", "summary": "None", "logo": "None", "latitude": 46.78552808546382, "longitude": -71.24941376412346}, "897176467RR0001": {"name": "CENTRE BOUDDHIQUE HUYEN KHONG", "designationCode": "C", "categoryCode": "35", "address": "1292, ROSEMONT", "city": "MONTREAL", "province": "QC", "country": "CA", "postalCode": "H2S2A7", "twitter": "None", "instagram": "None", "facebook": "None", "youtube": "None", "website": "None", "summary": "None", "logo": "None", "latitude": 45.536756334150944, "longitude": -73.5932869028221}, "883066771RR0001": {"name": "CENTRE BOUDDHISTE MANJUSHRI - MANJUSHRI BUDDHIST CENTRE", "designationCode": "C", "categoryCode": "35", "address": "705 CHEMIN DE CHAMBLY", "city": "LONGUEUIL", "province": "QC", "country": "CA", "postalCode": "J4H3M2", "twitter": "None", "instagram": "None", "facebook": "None", "youtube": "None", "website": "None", "summary": "None", "logo": "None", "latitude": 45.53682041078527, "longitude": -73.4991405047032}, "861091973RR0001": {"name": "CENTRE BOUDDHISTE SHAMATA", "designationCode": "C", "categoryCode": "35", "address": "700, RUE CHAMPFLOUR", "city": "TROIS-RIVIERES", "province": "QC", "country": "CA", "postalCode": "G9A1Z4", "twitter": "None", "instagram": "None", "facebook": "None", "youtube": "None", "website": "None", "summary": "None", "logo": "None"}, "861240075RR0001": {"name": "CENTRE BOUDDHISTE TOUSHITA", "designationCode": "C", "categoryCode": "35", "address": "141 RUE ST-JEAN", "city": "QUEBEC", "province": "QC", "country": "CA", "postalCode": "G1R1N4", "twitter": "None", "instagram": "None", "facebook": "None", "youtube": "None", "website": "None", "summary": "None", "logo": "None", "latitude": 46.80761720731156, "longitude": -71.22611499567216}, "836904474RR0001": {"name": "CENTRE BOUDDHISTE VAJRAPANI", "designationCode": "C", "categoryCode": "35", "address": "450 BOUL. MANSEAU", "city": "JOLIETTE", "province": "QC", "country": "CA", "postalCode": "J6E3E1", "twitter": "None", "instagram": "None", "facebook": "None", "youtube": "None", "website": "None", "summary": "None", "logo": "None", "latitude": 46.02493180711517, "longitude": -73.44002049751849}, "118844257RR0001": {"name": "CENTRE BRAS D'OR ASSOCIATION", "designationCode": "C", "categoryCode": "22", "address": "PO BOX 626", "city": "BADDECK", "province": "NS", "country": "CA", "postalCode": "B0E1B0", "twitter": "None", "instagram": "None", "facebook": "None", "youtube": "None", "website": "None", "summary": "None", "logo": "None", "latitude": 46.087500000000034, "longitude": -60.780119999999954}, "132165242RR0001": {"name": "CENTRE BRONFMAN DE L'EDUCATION JUIVE/BRONFMAN JEWISH EDUCATION CENTRE", "designationCode": "C", "categoryCode": "21", "address": "1 CARRE CUMMINGS SQUARE       SUITE 502", "city": "MONTREAL", "province": "QC", "country": "CA", "postalCode": "H3W1M6", "twitter": "None", "instagram": "None", "facebook": "None", "youtube": "None", "website": "None", "summary": "None", "logo": "None", "latitude": 45.48925656614425, "longitude": -73.63588473115946}, "118844265RR0001": {"name": "CENTRE CANADIEN D'OECUMENISME - CANADIAN CENTRE FOR ECUMENISM", "designationCode": "C", "categoryCode": "49", "address": "2715, CHEMIN DE LA COTE       STE-CATHERINE", "city": "MONTREAL", "province": "QC", "country": "CA", "postalCode": "H3T1B6", "twitter": "None", "instagram": "None", "facebook": "None", "youtube": "None", "website": "None", "summary": "None", "logo": "None", "latitude": 45.50668659703366, "longitude": -73.62023772932606}, "137871620RR0001": {"name": "CENTRE CANADIEN ISLAMIQUE AL JAMIEH/CANADIAN ISLAMIC CENTRE AL JAMIEH", "designationCode": "C", "categoryCode": "49", "address": "241 RUE LAVIGNE", "city": "L'ILE-BIZARD", "province": "QC", "country": "CA", "postalCode": "H9C2Y2", "twitter": "None", "instagram": "None", "facebook": "None", "youtube": "None", "website": "None", "summary": "None", "logo": "None", "latitude": 45.50125355288812, "longitude": -73.87763358713725}, "891423634RR0001": {"name": "CENTRE CASA (1997)", "designationCode": "C", "categoryCode": "57", "address": "4965 RUE LIONEL-GROULX", "city": "SAINT-AUGUSTIN-DE-DESMAURES", "province": "QC", "country": "CA", "postalCode": "G3A1V3", "twitter": "None", "instagram": "None", "facebook": "None", "youtube": "None", "website": "None", "summary": "None", "logo": "None", "latitude": 46.74326486955394, "longitude": -71.38933030197927}, "118844273RR0001": {"name": "CENTRE CEMETERY", "designationCode": "C", "categoryCode": "59", "address": "RR# 2 LUNENBURG", "city": "LUNENBURG CO.", "province": "NS", "country": "CA", "postalCode": "B0J2C0", "twitter": "None", "instagram": "None", "facebook": "None", "youtube": "None", "website": "None", "summary": "None", "logo": "None", "latitude": 44.37886006217898, "longitude": -64.31792993782098}, "100876143RR0001": {"name": "CENTRE CHARISMATIQUE LE JOURDAIN", "designationCode": "C", "categoryCode": "47", "address": "12 775 RUE ALLARD", "city": "MONTR\u00c9AL-NORD", "province": "QC", "country": "CA", "postalCode": "H1G6E9", "twitter": "None", "instagram": "None", "facebook": "None", "youtube": "None", "website": "None", "summary": "None", "logo": "None", "latitude": 45.621022871139054, "longitude": -73.61763080647572}, "863752416RR0001": {"name": "CENTRE CHARISMATIQUE PAROLE DE GRACE", "designationCode": "C", "categoryCode": "39", "address": "179 ECCLESTON DRIVE", "city": "BRAMPTON", "province": "ON", "country": "CA", "postalCode": "L6X3R1", "twitter": "None", "instagram": "None", "facebook": "None", "youtube": "None", "website": "None", "summary": "None", "logo": "None", "latitude": 43.70041037356464, "longitude": -79.78684302319795}, "131530453RR0001": {"name": "CENTRE CHARLES-EMILE CLAUDE CENTRE POLYVALENT DES AINE(E)S INC", "designationCode": "C", "categoryCode": "09", "address": "146B CHEVRIER AVE", "city": "CORNWALL", "province": "ON", "country": "CA", "postalCode": "K6H1S1", "twitter": "None", "instagram": "None", "facebook": "None", "youtube": "None", "website": "None", "summary": "None", "logo": "None", "latitude": 45.02019013230777, "longitude": -74.71295848430628}, "825651540RR0001": {"name": "CENTRE CHR\u00c9TIEN \u00c9VANG\u00c9LIQUE DE MALARTIC", "designationCode": "C", "categoryCode": "47", "address": "491, 1ERE AVENUE", "city": "MALARTIC", "province": "QC", "country": "CA", "postalCode": "J0Y1Z0", "twitter": "None", "instagram": "None", "facebook": "None", "youtube": "None", "website": "None", "summary": "None", "logo": "None", "latitude": 48.1404306217035, "longitude": -78.12597287541097}, "106889942RR0001": {"name": "CENTRE CHR\u00c9TIEN \u00c9VANGELIQUE DE ROUYN-NORANDA INC.", "designationCode": "C", "categoryCode": "36", "address": "C.P. 2185", "city": "ROUNY NORANDA", "province": "QC", "country": "CA", "postalCode": "J9X5A6", "twitter": "None", "instagram": "None", "facebook": "None", "youtube": "None", "website": "None", "summary": "None", "logo": "None", "latitude": 48.237252000000055, "longitude": -79.01455399999993}, "132345810RR0001": {"name": "CENTRE CHR\u00c9TIEN DE LACHINE", "designationCode": "C", "categoryCode": "36", "address": "760 AV 44E", "city": "LACHINE", "province": "QC", "country": "CA", "postalCode": "H8T2K8", "twitter": "None", "instagram": "None", "facebook": "None", "youtube": "None", "website": "None", "summary": "None", "logo": "None", "latitude": 45.44470721561401, "longitude": -73.70545409101247}, "837139146RR0001": {"name": "CENTRE CHR\u00c9TIEN DIEU NOTRE PAIX (C.C.D.N.P.)", "designationCode": "C", "categoryCode": "39", "address": "C.P. 145, SUCC. BUREAU-CHEF", "city": "SALABERRY-DE-VALLEYFIELD", "province": "QC", "country": "CA", "postalCode": "J6S4V5", "twitter": "None", "instagram": "None", "facebook": "None", "youtube": "None", "website": "None", "summary": "None", "logo": "None", "latitude": 45.25893600000006, "longitude": -74.10716449999994}, "837551126RR0001": {"name": "CENTRE CHR\u00c9TIEN LUMI\u00c8RE ET VIE/ LIGHT AND LIFE CHRISTIAN CENTRE", "designationCode": "C", "categoryCode": "39", "address": "1290, BOUL. JACQUES-CARTIER", "city": "MONT-JOLI", "province": "QC", "country": "CA", "postalCode": "G5H2T1", "twitter": "None", "instagram": "None", "facebook": "None", "youtube": "None", "website": "None", "summary": "None", "logo": "None", "latitude": 48.591472234231745, "longitude": -68.19718601959127}}