{"119057180RR0001": {"name": "NIAGARA COLLEGE OF APPLIED ARTS & TECHNOLOGY", "designationCode": "C", "categoryCode": "20", "address": "300 WOODLAWN ROAD", "city": "WELLAND", "province": "ON", "country": "CA", "postalCode": "L3C7L3", "twitter": "None", "instagram": "None", "facebook": "None", "youtube": "None", "website": "None", "summary": "None", "logo": "None", "latitude": 43.01308514899049, "longitude": -79.26451769643799}, "107773228RR0001": {"name": "NIAGARA COMMUNITY CHURCH", "designationCode": "C", "categoryCode": "39", "address": "4025 DORCHESTER ROAD,         SUITE 259", "city": "NIAGARA FALLS", "province": "ON", "country": "CA", "postalCode": "L2E7K8", "twitter": "None", "instagram": "None", "facebook": "None", "youtube": "None", "website": "None", "summary": "None", "logo": "None", "latitude": 43.11436468581571, "longitude": -79.11181954544361}, "867105322RR0001": {"name": "NIAGARA COMMUNITY FOUNDATION FONDATION COMMUNAUTAIRE DE NIAGARA", "designationCode": "A", "categoryCode": "03", "address": "8 CHURCH STREET               SUITE 301", "city": "ST. CATHARINES", "province": "ON", "country": "CA", "postalCode": "L2R3B3", "twitter": "None", "instagram": "None", "facebook": "None", "youtube": "None", "website": "None", "summary": "None", "logo": "None", "latitude": 43.15747262225178, "longitude": -79.24917782970755}, "131253593RR0001": {"name": "NIAGARA CONCERTS", "designationCode": "C", "categoryCode": "22", "address": "8114 ALPINE DR", "city": "NIAGARA FALLS", "province": "ON", "country": "CA", "postalCode": "L2H3C1", "twitter": "None", "instagram": "None", "facebook": "None", "youtube": "None", "website": "None", "summary": "None", "logo": "None", "latitude": 43.10968937050622, "longitude": -79.13401076784572}, "119250363RR0001": {"name": "NIAGARA FALLS ART GALLERY - THE PASSION OF CHRIST WILLIAM KURELEK ART COLLECTION", "designationCode": "C", "categoryCode": "22", "address": "8058 OAKWOOD DR", "city": "NIAGARA FALLS", "province": "ON", "country": "CA", "postalCode": "L2E6S5", "twitter": "None", "instagram": "None", "facebook": "None", "youtube": "None", "website": "None", "summary": "None", "logo": "None", "latitude": 43.05926849847081, "longitude": -79.12182240839162}, "107449571RR0001": {"name": "NIAGARA FALLS BIG BROTHERS BIG SISTERS ASSOCIATION INC.", "designationCode": "C", "categoryCode": "09", "address": "7150 MONTROSE ROAD            UNIT 7", "city": "NIAGARA FALLS", "province": "ON", "country": "CA", "postalCode": "L2H3N3", "twitter": "None", "instagram": "None", "facebook": "None", "youtube": "None", "website": "None", "summary": "None", "logo": "None", "latitude": 43.07298447902374, "longitude": -79.12541716559018}, "883743817RR0001": {"name": "NIAGARA FALLS COMMUNITY OUTREACH", "designationCode": "C", "categoryCode": "09", "address": "4865 ST LAWRENCE AVE", "city": "NIAGARA FALLS", "province": "ON", "country": "CA", "postalCode": "L2E3Y1", "twitter": "None", "instagram": "None", "facebook": "None", "youtube": "None", "website": "None", "summary": "None", "logo": "None", "latitude": 43.103653386346586, "longitude": -79.07025161757723}, "119057271RR0001": {"name": "NIAGARA FALLS HUMANE SOCIETY", "designationCode": "C", "categoryCode": "54", "address": "6025 CHIPPAWA PARKWAY", "city": "NIAGARA FALLS", "province": "ON", "country": "CA", "postalCode": "L2G0E4", "twitter": "None", "instagram": "None", "facebook": "None", "youtube": "None", "website": "None", "summary": "None", "logo": "None", "latitude": 43.04951863122454, "longitude": -79.09272117271664}, "119057305RR0001": {"name": "NIAGARA FALLS MUSIC THEATRE SOCIETY", "designationCode": "C", "categoryCode": "22", "address": "4990 WALNUT ST.", "city": "NIAGARA FALLS", "province": "ON", "country": "CA", "postalCode": "L2G3N3", "twitter": "None", "instagram": "None", "facebook": "None", "youtube": "None", "website": "None", "summary": "None", "logo": "None", "latitude": 43.095371249783646, "longitude": -79.07609051696554}, "890888860RR0001": {"name": "NIAGARA FALLS NATURE CLUB", "designationCode": "C", "categoryCode": "52", "address": "BOX 901", "city": "NIAGARA FALLS", "province": "ON", "country": "CA", "postalCode": "L2E6V8", "twitter": "None", "instagram": "None", "facebook": "None", "youtube": "None", "website": "None", "summary": "None", "logo": "None", "latitude": 43.10663100000005, "longitude": -79.06433299999993}, "107773400RR0001": {"name": "NIAGARA FALLS PUBLIC LIBRARY BOARD", "designationCode": "C", "categoryCode": "50", "address": "4848 VICTORIA AVE", "city": "NIAGARA FALLS", "province": "ON", "country": "CA", "postalCode": "L2E4C5", "twitter": "None", "instagram": "None", "facebook": "None", "youtube": "None", "website": "None", "summary": "None", "logo": "None", "latitude": 43.10405145045877, "longitude": -79.07310241459443}, "107797383RR0014": {"name": "NIAGARA FALLS SEVENTH-DAY ADVENTIST CHURCH", "designationCode": "C", "categoryCode": "41", "address": "5355 BELMONT AVE", "city": "NIAGARA FALLS", "province": "ON", "country": "CA", "postalCode": "L2H3H6", "twitter": "None", "instagram": "None", "facebook": "None", "youtube": "None", "website": "None", "summary": "None", "logo": "None", "latitude": 43.09509789592586, "longitude": -79.12054608428038}, "869389148RR0001": {"name": "NIAGARA FOUNDATION FOR FAMILY AND CHILDREN SERVICES", "designationCode": "A", "categoryCode": "03", "address": "P O BOX 24028,82 HANNOVER DRIV", "city": "ST CATHARINES", "province": "ON", "country": "CA", "postalCode": "L2R7P7", "twitter": "None", "instagram": "None", "facebook": "None", "youtube": "None", "website": "None", "summary": "None", "logo": "None", "latitude": 43.15634700000005, "longitude": -79.24869349999993}, "893947416RR0001": {"name": "NIAGARA HEALTH SYSTEM", "designationCode": "C", "categoryCode": "10", "address": "1200 FOURTH AVENUE", "city": "ST CATHARINES", "province": "ON", "country": "CA", "postalCode": "L2S0A9", "twitter": "None", "instagram": "None", "facebook": "None", "youtube": "None", "website": "None", "summary": "None", "logo": "None", "latitude": 43.15496838780776, "longitude": -79.27985352023887}, "891706772RR0001": {"name": "NIAGARA HINDU SAMAJ", "designationCode": "C", "categoryCode": "48", "address": "P.O. BOX 25008, PEN CENTRE RPO", "city": "ST. CATHARINES", "province": "ON", "country": "CA", "postalCode": "L2T4C4", "twitter": "None", "instagram": "None", "facebook": "None", "youtube": "None", "website": "None", "summary": "None", "logo": "None", "latitude": 43.13345000000004, "longitude": -79.22460999999998}, "119057370RR0001": {"name": "NIAGARA HISTORICAL SOCIETY", "designationCode": "C", "categoryCode": "50", "address": "PO BOX 208                    43 CASTLEREAGH ST.", "city": "NIAGARA-ON-LK", "province": "ON", "country": "CA", "postalCode": "L0S1J0", "twitter": "None", "instagram": "None", "facebook": "None", "youtube": "None", "website": "None", "summary": "None", "logo": "None", "latitude": 43.25197783847878, "longitude": -79.07183903690353}, "877625384RR0001": {"name": "NIAGARA INA GRAFTON GAGE FOUNDATION", "designationCode": "A", "categoryCode": "03", "address": "413 LINWELL RD.", "city": "ST. CATHARINES", "province": "ON", "country": "CA", "postalCode": "L2M7Y2", "twitter": "None", "instagram": "None", "facebook": "None", "youtube": "None", "website": "None", "summary": "None", "logo": "None", "latitude": 43.20055449027555, "longitude": -79.22333004616476}, "124581612RR0001": {"name": "NIAGARA INA GRAFTON GAGE VILLAGE", "designationCode": "C", "categoryCode": "01", "address": "413 LINWELL RD", "city": "ST CATHARINES", "province": "ON", "country": "CA", "postalCode": "L2M7Y2", "twitter": "None", "instagram": "None", "facebook": "None", "youtube": "None", "website": "None", "summary": "None", "logo": "None", "latitude": 43.20055449027555, "longitude": -79.22333004616476}, "108090168RR0001": {"name": "NIAGARA INSTITUTE FOR INTERNATIONAL STUDIES", "designationCode": "C", "categoryCode": "23", "address": "509 GLENDALE AVE E            SS 4", "city": "NIAGARA-ON-THE-LAKE", "province": "ON", "country": "CA", "postalCode": "L0S1J0", "twitter": "None", "instagram": "None", "facebook": "None", "youtube": "None", "website": "None", "summary": "None", "logo": "None", "latitude": 43.15420263848244, "longitude": -79.16600203759896}, "107773491RR0001": {"name": "NIAGARA KOREAN PRESBYTERIAN CHURCH", "designationCode": "C", "categoryCode": "37", "address": "3585 9TH STREET LOUTH", "city": "ST. CATHERINES", "province": "ON", "country": "CA", "postalCode": "L2R6P7", "twitter": "None", "instagram": "None", "facebook": "None", "youtube": "None", "website": "None", "summary": "None", "logo": "None", "latitude": 43.14504929957676, "longitude": -79.31721213288102}, "138724463RR0001": {"name": "NIAGARA LIFE CENTRE", "designationCode": "C", "categoryCode": "11", "address": "65 LAKESHORE RD", "city": "ST CATHARINES", "province": "ON", "country": "CA", "postalCode": "L2N2T3", "twitter": "None", "instagram": "None", "facebook": "None", "youtube": "None", "website": "None", "summary": "None", "logo": "None", "latitude": 43.20188241136221, "longitude": -79.24765137249678}, "863278768RR0001": {"name": "NIAGARA LIFE WELLAND CENTRE", "designationCode": "C", "categoryCode": "09", "address": "O/A ELISHA HOUSE PREGNANCY & FAMILY SUPPORT CTR,48 BURGAR ST", "city": "WELLAND", "province": "ON", "country": "CA", "postalCode": "L3B2S8", "twitter": "None", "instagram": "None", "facebook": "None", "youtube": "None", "website": "None", "summary": "None", "logo": "None", "latitude": 42.991651780743226, "longitude": -79.24340693891757}, "855057204RR0001": {"name": "NIAGARA LIVING FAITH CHURCH", "designationCode": "C", "categoryCode": "39", "address": "102 AFTON AVE.", "city": "WELLAND", "province": "ON", "country": "CA", "postalCode": "L3B1V9", "twitter": "None", "instagram": "None", "facebook": "None", "youtube": "None", "website": "None", "summary": "None", "logo": "None", "latitude": 42.979545, "longitude": -79.23500105539827}, "119057420RR0001": {"name": "NIAGARA MARCO POLO FOUNDATION", "designationCode": "B", "categoryCode": "21", "address": "2525 MONTROSE ROAD", "city": "NIAGARA FALLS", "province": "ON", "country": "CA", "postalCode": "L2E6S4", "twitter": "None", "instagram": "None", "facebook": "None", "youtube": "None", "website": "None", "summary": "None", "logo": "None", "latitude": 43.13314325060699, "longitude": -79.13827020096224}, "107773541RR0001": {"name": "NIAGARA NURSERY SCHOOL", "designationCode": "C", "categoryCode": "20", "address": "14 ANDERSON LANE", "city": "NIAGARA ON THE LAKE", "province": "ON", "country": "CA", "postalCode": "L0S1J0", "twitter": "None", "instagram": "None", "facebook": "None", "youtube": "None", "website": "None", "summary": "None", "logo": "None", "latitude": 43.24790278261916, "longitude": -79.08655849656621}, "858839442RR0001": {"name": "NIAGARA ORTHOPAEDICS WORLDWIDE", "designationCode": "C", "categoryCode": "11", "address": "184 KING ST.", "city": "ST. CATHARINES", "province": "ON", "country": "CA", "postalCode": "L2R3J7", "twitter": "None", "instagram": "None", "facebook": "None", "youtube": "None", "website": "None", "summary": "None", "logo": "None", "latitude": 43.16138349457566, "longitude": -79.24342799345047}, "119057487RR0001": {"name": "NIAGARA PENINSULA CANADIAN-HUNGARIAN CULTURAL SPORT CENTRE", "designationCode": "C", "categoryCode": "56", "address": "5986 ALLENDALE AVE", "city": "NIAGARA FALLS", "province": "ON", "country": "CA", "postalCode": "L2G3Z3", "twitter": "None", "instagram": "None", "facebook": "None", "youtube": "None", "website": "None", "summary": "None", "logo": "None", "latitude": 43.087986900917535, "longitude": -79.08629510834464}, "119057503RR0001": {"name": "NIAGARA PENINSULA CHAPTER ARCHAEOLOGICAL INSTITUTE OF AMERICA", "designationCode": "C", "categoryCode": "21", "address": "BROCK UNIVERSITY              DEPARTMENT OF CLASSICS", "city": "ST CATHARINES", "province": "ON", "country": "CA", "postalCode": "L2S3A1", "twitter": "None", "instagram": "None", "facebook": "None", "youtube": "None", "website": "None", "summary": "None", "logo": "None", "latitude": 43.120070000000055, "longitude": -79.24368999999996}, "890468994RR0001": {"name": "NIAGARA PENINSULA CHILDREN'S CENTRE FOUNDATION", "designationCode": "A", "categoryCode": "13", "address": "12-111 FOURTH AVE             SUITE 229", "city": "ST CATHARINES", "province": "ON", "country": "CA", "postalCode": "L2S3P5", "twitter": "None", "instagram": "None", "facebook": "None", "youtube": "None", "website": "None", "summary": "None", "logo": "None", "latitude": 43.15709070235222, "longitude": -79.26002970794204}, "885707497RR0001": {"name": "NIAGARA PENINSULA COMMUNITY RESOURCE CENTRE", "designationCode": "C", "categoryCode": "09", "address": "41 VICTORIA ST", "city": "WELLAND", "province": "ON", "country": "CA", "postalCode": "L3B4L7", "twitter": "None", "instagram": "None", "facebook": "None", "youtube": "None", "website": "None", "summary": "None", "logo": "None", "latitude": 42.98606252120741, "longitude": -79.24444102553522}, "107773624RR0001": {"name": "NIAGARA PENINSULA CONSERVATION AUTHORITY", "designationCode": "C", "categoryCode": "55", "address": "250 THOROLD ROAD WEST         3RD FLOOR", "city": "WELLAND", "province": "ON", "country": "CA", "postalCode": "L3C3W2", "twitter": "None", "instagram": "None", "facebook": "None", "youtube": "None", "website": "None", "summary": "None", "logo": "None", "latitude": 43.00381513723964, "longitude": -79.27018363723964}, "858981723RR0001": {"name": "NIAGARA RAILWAY MUSEUM", "designationCode": "C", "categoryCode": "50", "address": "6521 BURDETTE DRIVE", "city": "NIAGARA FALLS", "province": "ON", "country": "CA", "postalCode": "L2E5H4", "twitter": "None", "instagram": "None", "facebook": "None", "youtube": "None", "website": "None", "summary": "None", "logo": "None", "latitude": 43.10362946436587, "longitude": -79.10448138634658}, "135633295RR0001": {"name": "NIAGARA REFORMED CHRISTIAN EDUCATION ASSOCIATION", "designationCode": "C", "categoryCode": "20", "address": "PO BOX 400", "city": "JORDAN STATION", "province": "ON", "country": "CA", "postalCode": "L0R1S0", "twitter": "None", "instagram": "None", "facebook": "None", "youtube": "None", "website": "None", "summary": "None", "logo": "None", "latitude": 43.1561250316656, "longitude": -79.35975663896875}, "861734366RR0001": {"name": "NIAGARA REGION CHRISTIAN COMMUNITY CHURCH", "designationCode": "C", "categoryCode": "39", "address": "2750 14TH AVENUE              SUITE G-05", "city": "MARKHAM", "province": "ON", "country": "CA", "postalCode": "L3R0B6", "twitter": "None", "instagram": "None", "facebook": "None", "youtube": "None", "website": "None", "summary": "None", "logo": "None", "latitude": 43.83015298424562, "longitude": -79.35888136612013}, "868552365RR0001": {"name": "NIAGARA REGION POLICE ASSOCIATION CHARITABLE FUND", "designationCode": "A", "categoryCode": "53", "address": "1706 MERRITVILLE HWY,         RR #2", "city": "WELLAND", "province": "ON", "country": "CA", "postalCode": "L3B5N5", "twitter": "None", "instagram": "None", "facebook": "None", "youtube": "None", "website": "None", "summary": "None", "logo": "None", "latitude": 43.028088000000054, "longitude": -79.27004149999993}, "889289245RR0001": {"name": "NIAGARA REGION RIGHT TO LIFE INC", "designationCode": "C", "categoryCode": "09", "address": "302-104 BOND STREET", "city": "TORONTO", "province": "ON", "country": "CA", "postalCode": "M5B1X9", "twitter": "None", "instagram": "None", "facebook": "None", "youtube": "None", "website": "None", "summary": "None", "logo": "None", "latitude": 43.65665210046747, "longitude": -79.37847278492683}, "119057545RR0001": {"name": "NIAGARA REGIONAL LITERACY COUNCIL", "designationCode": "C", "categoryCode": "01", "address": "285 BUNTING ROAD, UNIT 7", "city": "ST CATHARINES", "province": "ON", "country": "CA", "postalCode": "L2M7T9", "twitter": "None", "instagram": "None", "facebook": "None", "youtube": "None", "website": "None", "summary": "None", "logo": "None", "latitude": 43.17683112028895, "longitude": -79.21024943277114}, "891858243RR0001": {"name": "NIAGARA REGIONAL SCIENCE FAIR COMMITTEE", "designationCode": "C", "categoryCode": "21", "address": "4221 TAYLOR CRT", "city": "BEAMSVILLE", "province": "ON", "country": "CA", "postalCode": "L0R1B8", "twitter": "None", "instagram": "None", "facebook": "None", "youtube": "None", "website": "None", "summary": "None", "logo": "None", "latitude": 43.16350445325739, "longitude": -79.48482299999999}, "899919088RR0001": {"name": "NIAGARA RESOURCE SERVICE FOR YOUTH", "designationCode": "C", "categoryCode": "09", "address": "17 CENTRE ST", "city": "ST CATHARINES", "province": "ON", "country": "CA", "postalCode": "L2R3A6", "twitter": "None", "instagram": "None", "facebook": "None", "youtube": "None", "website": "None", "summary": "None", "logo": "None", "latitude": 43.16133431225106, "longitude": -79.24210676521999}, "888189263RR0001": {"name": "NIAGARA SHORTHILLS CHRISTIAN MINISTERIES", "designationCode": "C", "categoryCode": "56", "address": "392 KILMAN ROAD               RR 1", "city": "RIDGEVILLE", "province": "ON", "country": "CA", "postalCode": "L0S1M0", "twitter": "None", "instagram": "None", "facebook": "None", "youtube": "None", "website": "None", "summary": "None", "logo": "None", "latitude": 43.07071751760258, "longitude": -79.32217119787649}, "106962848RR0001": {"name": "NIAGARA SUPPORT SERVICES", "designationCode": "C", "categoryCode": "11", "address": "120 CANBY STREET", "city": "PORT ROBINSON", "province": "ON", "country": "CA", "postalCode": "L0S1K0", "twitter": "None", "instagram": "None", "facebook": "None", "youtube": "None", "website": "None", "summary": "None", "logo": "None", "latitude": 43.041837283454925, "longitude": -79.20114856636255}, "872273206RR0001": {"name": "NIAGARA TOURNAMENT OF HOPE", "designationCode": "A", "categoryCode": "03", "address": "4082 HIGHLAND PARK DRIVE      POST OFFICE BOX 1", "city": "BEAMSVILLE", "province": "ON", "country": "CA", "postalCode": "L0R1B0", "twitter": "None", "instagram": "None", "facebook": "None", "youtube": "None", "website": "None", "summary": "None", "logo": "None", "latitude": 43.15593153704775, "longitude": -79.48562682601396}, "107773780RR0001": {"name": "NIAGARA TRAINING & EMPLOYMENT AGENCY INC.", "designationCode": "C", "categoryCode": "20", "address": "PO BOX 190                    120 CANBY STREET", "city": "PORT ROBINSON", "province": "ON", "country": "CA", "postalCode": "L0S1K0", "twitter": "None", "instagram": "None", "facebook": "None", "youtube": "None", "website": "None", "summary": "None", "logo": "None", "latitude": 43.041837283454925, "longitude": -79.20114856636255}, "119057628RR0001": {"name": "NIAGARA UNITED MENNONITE CHURCH", "designationCode": "C", "categoryCode": "34", "address": "RR #2, 1775 HWY 55", "city": "NIAGARA-ON-THE-LAKE", "province": "ON", "country": "CA", "postalCode": "L0S1J0", "twitter": "None", "instagram": "None", "facebook": "None", "youtube": "None", "website": "None", "summary": "None", "logo": "None", "latitude": 43.23096718656967, "longitude": -79.07179133410176}, "870497849RR0001": {"name": "NIAGARA VICTIM CRISIS SUPPORT SERVICE INC", "designationCode": "C", "categoryCode": "09", "address": "5700 VALLEY WAY", "city": "NIAGARA FALLS", "province": "ON", "country": "CA", "postalCode": "L2E1X8", "twitter": "None", "instagram": "None", "facebook": "None", "youtube": "None", "website": "None", "summary": "None", "logo": "None", "latitude": 43.0982546422191, "longitude": -79.08870830970008}, "887140689RR0001": {"name": "NIAGARA WAREHOUSE OF HOPE", "designationCode": "C", "categoryCode": "09", "address": "46 BROADWAY AVENUE", "city": "ST CATHARINES", "province": "ON", "country": "CA", "postalCode": "L2M1M4", "twitter": "None", "instagram": "None", "facebook": "None", "youtube": "None", "website": "None", "summary": "None", "logo": "None", "latitude": 43.22107841626357, "longitude": -79.21218984154856}, "132019266RR0001": {"name": "NIAGARA WORSHIP CENTRE", "designationCode": "C", "categoryCode": "36", "address": "6846 FREDERICA STREET", "city": "NIAGARA FALLS", "province": "ON", "country": "CA", "postalCode": "L2G1E2", "twitter": "None", "instagram": "None", "facebook": "None", "youtube": "None", "website": "None", "summary": "None", "logo": "None", "latitude": 43.09426865494304, "longitude": -79.10970907825045}, "119057644RR0001": {"name": "NIAGARA YOUTH ORCHESTRA ASSOCIATION", "designationCode": "C", "categoryCode": "22", "address": "12-111 FOURTH AVE STE 148", "city": "ST CATHARINES", "province": "ON", "country": "CA", "postalCode": "L2S3P5", "twitter": "None", "instagram": "None", "facebook": "None", "youtube": "None", "website": "None", "summary": "None", "logo": "None", "latitude": 43.15709070235222, "longitude": -79.26002970794204}, "890762545RR0001": {"name": "NIAGARA-ON-THE LAKE HOSPITAL FOUNDATION", "designationCode": "A", "categoryCode": "13", "address": "POST OFFICE BOX 743", "city": "VIRGIL", "province": "ON", "country": "CA", "postalCode": "L0S1J0", "twitter": "None", "instagram": "None", "facebook": "None", "youtube": "None", "website": "None", "summary": "None", "logo": "None", "latitude": 43.21981000000005, "longitude": -79.12214999999998}, "119057446RR0001": {"name": "NIAGARA-ON-THE-LAKE COMMUNITY PALLIATIVE CARE SERVICE", "designationCode": "C", "categoryCode": "01", "address": "P.O. 130", "city": "NIAGARA-ON-LK", "province": "ON", "country": "CA", "postalCode": "L0S1J0", "twitter": "None", "instagram": "None", "facebook": "None", "youtube": "None", "website": "None", "summary": "None", "logo": "None", "latitude": 43.1519711258458, "longitude": -79.17204666079465}, "892207440RR0001": {"name": "NIAGARA-ON-THE-LAKE PUBLIC LIBRARY", "designationCode": "C", "categoryCode": "50", "address": "10 ANDERSON LANE, P.O. BOX 430", "city": "NIAGARA-ON-THE-LAKE", "province": "ON", "country": "CA", "postalCode": "L0S1J0", "twitter": "None", "instagram": "None", "facebook": "None", "youtube": "None", "website": "None", "summary": "None", "logo": "None", "latitude": 43.24788181320337, "longitude": -79.08645746655891}, "890681323RR0001": {"name": "NIAGARA-ON-THE-LAKE ROTARY FOUNDATION", "designationCode": "C", "categoryCode": "65", "address": "P.O. BOX 929", "city": "VIRGIL", "province": "ON", "country": "CA", "postalCode": "L0S1T0", "twitter": "None", "instagram": "None", "facebook": "None", "youtube": "None", "website": "None", "summary": "None", "logo": "None", "latitude": 43.21981000000005, "longitude": -79.12214999999998}, "862313699RR0001": {"name": "NIAGARA'S CANCER CARE RUN FOUNDATION", "designationCode": "A", "categoryCode": "13", "address": "PO BOX 20093 RPO GRANTHAM", "city": "ST CATHARINES", "province": "ON", "country": "CA", "postalCode": "L2M7W7", "twitter": "None", "instagram": "None", "facebook": "None", "youtube": "None", "website": "None", "summary": "None", "logo": "None", "latitude": 43.18595227267854, "longitude": -79.22077768144945}, "893358366RR0001": {"name": "NIAKWA PLACE SCHOOL PARENT ASSOCIATION", "designationCode": "C", "categoryCode": "21", "address": "200 PEBBLE BEACH ROAD", "city": "WINNIPEG", "province": "MB", "country": "CA", "postalCode": "R2J3K3", "twitter": "None", "instagram": "None", "facebook": "None", "youtube": "None", "website": "None", "summary": "None", "logo": "None", "latitude": 49.849166170119574, "longitude": -97.08122419034507}, "830750873RR0001": {"name": "NICARAGUA FUENTE DE VIDA SOCIETY", "designationCode": "C", "categoryCode": "09", "address": "5222 BACK ENDERBY RD", "city": "ARMSTRONG", "province": "BC", "country": "CA", "postalCode": "V0E1B8", "twitter": "None", "instagram": "None", "facebook": "None", "youtube": "None", "website": "None", "summary": "None", "logo": "None", "latitude": 50.50993002549172, "longitude": -119.10373977144053}, "865423701RR0001": {"name": "NICARAGUA INITIATIVE FOR COMMUNITY AID (NICA)", "designationCode": "C", "categoryCode": "01", "address": "9643 152 ST NW", "city": "EDMONTON", "province": "AB", "country": "CA", "postalCode": "T5P1W7", "twitter": "None", "instagram": "None", "facebook": "None", "youtube": "None", "website": "None", "summary": "None", "logo": "None", "latitude": 53.534340000000014, "longitude": -113.58325478570623}, "861821023RR0001": {"name": "NICHIREN SHOSHU TEMPLE", "designationCode": "C", "categoryCode": "35", "address": "659C MOBERLY RD", "city": "VANCOUVER", "province": "BC", "country": "CA", "postalCode": "V5Z4B2", "twitter": "None", "instagram": "None", "facebook": "None", "youtube": "None", "website": "None", "summary": "None", "logo": "None", "latitude": 49.266769592672084, "longitude": -123.11933765682068}, "883919417RR0001": {"name": "NICHOLSON MEMORIAL AWARD", "designationCode": "B", "categoryCode": "21", "address": "50 CLEARVIEW ST.", "city": "HALIFAX", "province": "NS", "country": "CA", "postalCode": "B3R1N6", "twitter": "None", "instagram": "None", "facebook": "None", "youtube": "None", "website": "None", "summary": "None", "logo": "None", "latitude": 44.60874822759531, "longitude": -63.62165837137159}, "869053512RR0001": {"name": "NICK & LYNN ROSS CHARITABLE FOUNDATION", "designationCode": "B", "categoryCode": "03", "address": "2 ORIOLE GARDENS", "city": "TORONTO", "province": "ON", "country": "CA", "postalCode": "M4V1V7", "twitter": "None", "instagram": "None", "facebook": "None", "youtube": "None", "website": "None", "summary": "None", "logo": "None", "latitude": 43.69125725618897, "longitude": -79.39568881724273}, "107774184RR0001": {"name": "NICKEL DISTRICT CONSERVATION AUTHORITY", "designationCode": "C", "categoryCode": "52", "address": "199 LARCH STREET              SUITE 401, 4TH FLOOR", "city": "SUDBURY", "province": "ON", "country": "CA", "postalCode": "P3E5P9", "twitter": "None", "instagram": "None", "facebook": "None", "youtube": "None", "website": "None", "summary": "None", "logo": "None", "latitude": 46.49126100000005, "longitude": -80.98926199999994}, "119057701RR0001": {"name": "NICKEL DISTRICT CONSERVATION FOUNDATION", "designationCode": "A", "categoryCode": "53", "address": "199 LARCH STREET              SUITE 401 4TH FLOOR", "city": "SUDBURY", "province": "ON", "country": "CA", "postalCode": "P3E5P9", "twitter": "None", "instagram": "None", "facebook": "None", "youtube": "None", "website": "None", "summary": "None", "logo": "None", "latitude": 46.49126100000005, "longitude": -80.98926199999994}, "136773611RR0001": {"name": "NICKEL PLATE CROSS COUNTRY SKI CLUB", "designationCode": "C", "categoryCode": "56", "address": "777-650 DUNCAN AVE W", "city": "PENTICTON", "province": "BC", "country": "CA", "postalCode": "V2A7N1", "twitter": "None", "instagram": "None", "facebook": "None", "youtube": "None", "website": "None", "summary": "None", "logo": "None", "latitude": 49.48697909602406, "longitude": -119.60438762934956}, "119057727RR0001": {"name": "NICKLE FAMILY FOUNDATION", "designationCode": "B", "categoryCode": "43", "address": "234-5149 COUNTRY HILLS BLVD NWSUITE 438", "city": "CALGARY", "province": "AB", "country": "CA", "postalCode": "T3A5K8", "twitter": "None", "instagram": "None", "facebook": "None", "youtube": "None", "website": "None", "summary": "None", "logo": "None", "latitude": 51.143453427708955, "longitude": -114.10821094021185}, "132146911RR0001": {"name": "NICOLA VALLEY ARCHIVES ASSOCIATION", "designationCode": "C", "categoryCode": "50", "address": "PO BOX 1262", "city": "MERRITT", "province": "BC", "country": "CA", "postalCode": "V1K1B8", "twitter": "None", "instagram": "None", "facebook": "None", "youtube": "None", "website": "None", "summary": "None", "logo": "None", "latitude": 50.111565000000056, "longitude": -120.78738349999993}, "886671254RR0001": {"name": "NICOLA VALLEY COMMUNITY ARTS COUNCIL", "designationCode": "C", "categoryCode": "22", "address": "BOX 2762", "city": "MERRITT", "province": "BC", "country": "CA", "postalCode": "V1K1B8", "twitter": "None", "instagram": "None", "facebook": "None", "youtube": "None", "website": "None", "summary": "None", "logo": "None", "latitude": 50.111565000000056, "longitude": -120.78738349999993}, "897228888RR0001": {"name": "NICOLA VALLEY COMMUNITY HUMAN SERVICES ASSOCIATION", "designationCode": "C", "categoryCode": "09", "address": "PO BOX 968", "city": "MERRITT", "province": "BC", "country": "CA", "postalCode": "V1K1B8", "twitter": "None", "instagram": "None", "facebook": "None", "youtube": "None", "website": "None", "summary": "None", "logo": "None", "latitude": 50.111565000000056, "longitude": -120.78738349999993}, "870958741RR0001": {"name": "NICOLA VALLEY HEALTH CARE AUXILIARY", "designationCode": "C", "categoryCode": "19", "address": "BOX 677", "city": "MERRITT", "province": "BC", "country": "CA", "postalCode": "V1K1B8", "twitter": "None", "instagram": "None", "facebook": "None", "youtube": "None", "website": "None", "summary": "None", "logo": "None", "latitude": 50.111565000000056, "longitude": -120.78738349999993}, "888510443RR0001": {"name": "NICOLA VALLEY HEALTH CARE ENDOWMENT FOUNDATION SOCIETY", "designationCode": "A", "categoryCode": "13", "address": "BOX 1423", "city": "MERRITT", "province": "BC", "country": "CA", "postalCode": "V1K1B8", "twitter": "None", "instagram": "None", "facebook": "None", "youtube": "None", "website": "None", "summary": "None", "logo": "None", "latitude": 50.111565000000056, "longitude": -120.78738349999993}, "895633329RR0001": {"name": "NICOLA VALLEY HERITAGE SOCIETY", "designationCode": "C", "categoryCode": "52", "address": "BOX 1105                      2202 VOGHT ST", "city": "MERRITT", "province": "BC", "country": "CA", "postalCode": "V1K1B8", "twitter": "None", "instagram": "None", "facebook": "None", "youtube": "None", "website": "None", "summary": "None", "logo": "None", "latitude": 50.1128249619713, "longitude": -120.78786213569754}, "107774598RR0001": {"name": "NICOLA VALLEY INSTITUTE OF TECHNOLOGY", "designationCode": "C", "categoryCode": "20", "address": "4155 BELSHAW ST", "city": "MERRITT", "province": "BC", "country": "CA", "postalCode": "V1K1R1", "twitter": "None", "instagram": "None", "facebook": "None", "youtube": "None", "website": "None", "summary": "None", "logo": "None", "latitude": 50.1246495165042, "longitude": -120.76586308924338}, "862334620RR0001": {"name": "NICOLA VALLEY SEARCH AND RESCUE", "designationCode": "C", "categoryCode": "59", "address": "2999 VOGHT STREET", "city": "MERRITT", "province": "BC", "country": "CA", "postalCode": "V1K1G9", "twitter": "None", "instagram": "None", "facebook": "None", "youtube": "None", "website": "None", "summary": "None", "logo": "None", "latitude": 50.118544976455354, "longitude": -120.78048228812949}, "898074729RR0001": {"name": "NICOLAAS AND REGINA VEENBOER FOUNDATION", "designationCode": "B", "categoryCode": "03", "address": "1402 - 1 KING ST W", "city": "HAMILTON", "province": "ON", "country": "CA", "postalCode": "L8P1A4", "twitter": "None", "instagram": "None", "facebook": "None", "youtube": "None", "website": "None", "summary": "None", "logo": "None", "latitude": 43.26019321073324, "longitude": -79.88135629363086}, "891844243RR0001": {"name": "NICOMEKL ENHANCEMENT SOCIETY", "designationCode": "C", "categoryCode": "52", "address": "5263 232ND ST", "city": "LANGLEY", "province": "BC", "country": "CA", "postalCode": "V2Z2P8", "twitter": "None", "instagram": "None", "facebook": "None", "youtube": "None", "website": "None", "summary": "None", "logo": "None", "latitude": 49.09752359986907, "longitude": -122.58131728717852}, "107774796RR0001": {"name": "NICTAUX AND DISTRICT VOLUNTEER FIRE DEPARTMENT", "designationCode": "C", "categoryCode": "59", "address": "SITE 2, COMP.49,9349 HWY 10,  R.R.#3", "city": "MIDDLETON", "province": "NS", "country": "CA", "postalCode": "B0S1P0", "twitter": "None", "instagram": "None", "facebook": "None", "youtube": "None", "website": "None", "summary": "None", "logo": "None", "latitude": 44.926565163264485, "longitude": -65.04841123628553}, "119057800RR0001": {"name": "NICTAUX UNITED BAPTIST CHURCH", "designationCode": "C", "categoryCode": "31", "address": "67 NICTAUX RD                 RR 3", "city": "NICTAUX", "province": "NS", "country": "CA", "postalCode": "B0S1P0", "twitter": "None", "instagram": "None", "facebook": "None", "youtube": "None", "website": "None", "summary": "None", "logo": "None", "latitude": 44.924301220641745, "longitude": -65.05829189358859}, "889408332RR0001": {"name": "NIDUS PERSONAL PLANNING RESOURCE CENTRE ASSOCIATION", "designationCode": "C", "categoryCode": "50", "address": "1440 12TH AVE W", "city": "VANCOUVER", "province": "BC", "country": "CA", "postalCode": "V6H1M8", "twitter": "None", "instagram": "None", "facebook": "None", "youtube": "None", "website": "None", "summary": "None", "logo": "None", "latitude": 49.26071949567217, "longitude": -123.13682148127411}, "806460689RR0001": {"name": "NIGERIAN PRESBYTERIAN CHURCH", "designationCode": "C", "categoryCode": "37", "address": "SUITE 8                       3615 WESTON ROAD", "city": "NORTH YORK", "province": "ON", "country": "CA", "postalCode": "M9L1V8", "twitter": "None", "instagram": "None", "facebook": "None", "youtube": "None", "website": "None", "summary": "None", "logo": "None", "latitude": 43.75794285596393, "longitude": -79.54378501379249}, "874722960RR0001": {"name": "NIGERIAN-CANADIAN MUSLIM ASSOCIATION", "designationCode": "C", "categoryCode": "60", "address": "7 - 190 MILVAN DR", "city": "NORTH YORK", "province": "ON", "country": "CA", "postalCode": "M9L1Z9", "twitter": "None", "instagram": "None", "facebook": "None", "youtube": "None", "website": "None", "summary": "None", "logo": "None", "latitude": 43.759425688585665, "longitude": -79.56602394633248}, "852038942RR0001": {"name": "NIGHTSHIFT STREET MINISTRIES SOCIETY", "designationCode": "C", "categoryCode": "39", "address": "10635 KING GEORGE BLVD", "city": "SURREY", "province": "BC", "country": "CA", "postalCode": "V3T2X6", "twitter": "None", "instagram": "None", "facebook": "None", "youtube": "None", "website": "None", "summary": "None", "logo": "None", "latitude": 49.195852274322654, "longitude": -122.84548082267094}, "866804495RR0001": {"name": "NIGHTSWIMMING REPERTORY THEATRE", "designationCode": "C", "categoryCode": "22", "address": "15 CASE GOODS LANE            STUDIO 310", "city": "TORONTO", "province": "ON", "country": "CA", "postalCode": "M5A3C4", "twitter": "None", "instagram": "None", "facebook": "None", "youtube": "None", "website": "None", "summary": "None", "logo": "None", "latitude": 43.649968882595665, "longitude": -79.3585262463212}, "123709339RR0001": {"name": "NIGHTWOOD THEATRE", "designationCode": "C", "categoryCode": "22", "address": "15 CASE GOODS LANE            STUDIO 306", "city": "TORONTO", "province": "ON", "country": "CA", "postalCode": "M5A3C4", "twitter": "None", "instagram": "None", "facebook": "None", "youtube": "None", "website": "None", "summary": "None", "logo": "None"}, "861514958RR0001": {"name": "NIGINAN HOUSING VENTURES", "designationCode": "C", "categoryCode": "09", "address": "200, 12120 - 106 AVENUE", "city": "EDMONTON", "province": "AB", "country": "CA", "postalCode": "T5N0Z2", "twitter": "None", "instagram": "None", "facebook": "None", "youtube": "None", "website": "None", "summary": "None", "logo": "None", "latitude": 53.54939046047074, "longitude": -113.53198066763807}, "103846143RR0001": {"name": "NIIGAANAKI DAY CARE CENTRE, INC.", "designationCode": "C", "categoryCode": "01", "address": "104 500 BALMORAL ST", "city": "WINNIPEG", "province": "MB", "country": "CA", "postalCode": "R3B2P8", "twitter": "None", "instagram": "None", "facebook": "None", "youtube": "None", "website": "None", "summary": "None", "logo": "None", "latitude": 49.89529519699838, "longitude": -97.15235133892801}, "891321143RR0001": {"name": "NIIJKIWENHWAG - FRIENDS OF LAKE SUPERIOR PARK / LES AMIS DU PARC DU LAC SUPERIEUR", "designationCode": "C", "categoryCode": "29", "address": "23 MCNEICE ST", "city": "SAULT STE. MARIE", "province": "ON", "country": "CA", "postalCode": "P6A4X5", "twitter": "None", "instagram": "None", "facebook": "None", "youtube": "None", "website": "None", "summary": "None", "logo": "None", "latitude": 46.50083611706168, "longitude": -84.26350661207773}, "889697884RR0001": {"name": "NIKANIHK OHCI FOUNDATION, INC", "designationCode": "C", "categoryCode": "21", "address": "30 SPEERS ROAD", "city": "WINNIPEG", "province": "MB", "country": "CA", "postalCode": "R2J1L9", "twitter": "None", "instagram": "None", "facebook": "None", "youtube": "None", "website": "None", "summary": "None", "logo": "None", "latitude": 49.873962717756235, "longitude": -97.07407070765827}, "856579834RR0001": {"name": "NIKKA HEALTH CARE SOCIETY", "designationCode": "C", "categoryCode": "11", "address": "1300 ROBSON STREET", "city": "VANCOUVER", "province": "BC", "country": "CA", "postalCode": "V6E1C5", "twitter": "None", "instagram": "None", "facebook": "None", "youtube": "None", "website": "None", "summary": "None", "logo": "None", "latitude": 49.287253653326914, "longitude": -123.128948239829}, "866135056RR0001": {"name": "NIKKEI PLACE FOUNDATION", "designationCode": "A", "categoryCode": "03", "address": "6688 SOUTHOAKS CRES", "city": "BURNABY", "province": "BC", "country": "CA", "postalCode": "V5E4M7", "twitter": "None", "instagram": "None", "facebook": "None", "youtube": "None", "website": "None", "summary": "None", "logo": "None", "latitude": 49.217862783224746, "longitude": -122.96481136395668}, "118972975RR0001": {"name": "NIKKEI SENIORS HEALTH CARE AND HOUSING SOCIETY", "designationCode": "C", "categoryCode": "01", "address": "6680 SOUTHOAKS CRESCENT", "city": "BURNABY", "province": "BC", "country": "CA", "postalCode": "V5E4N3", "twitter": "None", "instagram": "None", "facebook": "None", "youtube": "None", "website": "None", "summary": "None", "logo": "None", "latitude": 49.21776662334829, "longitude": -122.9651900523112}, "871369245RR0001": {"name": "NILE CREEK ENHANCEMENT SOCIETY", "designationCode": "C", "categoryCode": "52", "address": "P.O. BOX 116", "city": "BOWSER", "province": "BC", "country": "CA", "postalCode": "V0R1G0", "twitter": "None", "instagram": "None", "facebook": "None", "youtube": "None", "website": "None", "summary": "None", "logo": "None", "latitude": 49.4340082596226, "longitude": -124.66596648716988}, "124289943RR0001": {"name": "NILESTOWN MASONIC MEMORIAL PARK CHARITABLE FOUNDATION INC.", "designationCode": "C", "categoryCode": "56", "address": "34303 CLARKE RD               RR 2", "city": "GRANTON", "province": "ON", "country": "CA", "postalCode": "N0M1V0", "twitter": "None", "instagram": "None", "facebook": "None", "youtube": "None", "website": "None", "summary": "None", "logo": "None", "latitude": 43.215675396656906, "longitude": -81.27531285304192}, "863656757RR0001": {"name": "NIMATULLAHI SULTANALISHAHI GUNABADI (SUFISM) RELIGIOUS SOCIETY", "designationCode": "C", "categoryCode": "60", "address": "28 KECALA ROAD", "city": "SCARBOROUGH", "province": "ON", "country": "CA", "postalCode": "M1P1K6", "twitter": "None", "instagram": "None", "facebook": "None", "youtube": "None", "website": "None", "summary": "None", "logo": "None", "latitude": 43.754280410785285, "longitude": -79.28007205066642}, "895215325RR0001": {"name": "NIMKEE NUPIGAWAGAN HEALING CENTRE INC.", "designationCode": "C", "categoryCode": "57", "address": "PO BOX 381                    20850 MUNCEY RD  RR1", "city": "MUNCEY", "province": "ON", "country": "CA", "postalCode": "N0L1Y0", "twitter": "None", "instagram": "None", "facebook": "None", "youtube": "None", "website": "None", "summary": "None", "logo": "None", "latitude": 42.82697900748154, "longitude": -81.44324801865773}, "862698560RR0001": {"name": "NINA HAGGERTY CENTRE FOR THE ARTS", "designationCode": "C", "categoryCode": "22", "address": "9225 - 118 AVENUE", "city": "EDMONTON", "province": "AB", "country": "CA", "postalCode": "T5G0K6", "twitter": "None", "instagram": "None", "facebook": "None", "youtube": "None", "website": "None", "summary": "None", "logo": "None", "latitude": 53.57036250678069, "longitude": -113.483682}, "861375210RR0001": {"name": "NINE CIRCLES COMMUNITY HEALTH CENTRE INC", "designationCode": "C", "categoryCode": "11", "address": "705 BROADWAY AVE", "city": "WINNIPEG", "province": "MB", "country": "CA", "postalCode": "R3G0X2", "twitter": "None", "instagram": "None", "facebook": "None", "youtube": "None", "website": "None", "summary": "None", "logo": "None", "latitude": 49.885832460470745, "longitude": -97.16015858228981}, "119057867RR0001": {"name": "NINE MILE CREEK PRESBYTERIAN CHURCH", "designationCode": "C", "categoryCode": "37", "address": "5409 RTE 19/RICE POINT ROAD", "city": "RICE POINT", "province": "PE", "country": "CA", "postalCode": "C0A1H6", "twitter": "None", "instagram": "None", "facebook": "None", "youtube": "None", "website": "None", "summary": "None", "logo": "None", "latitude": 46.19687100000006, "longitude": -63.23390449999994}, "119057875RR0001": {"name": "NINE MILE RIVER UNITED CHURCH", "designationCode": "C", "categoryCode": "44", "address": "6167 HIGHWAY 14", "city": "NINE MILE RIVER", "province": "NS", "country": "CA", "postalCode": "B2S2X2", "twitter": "None", "instagram": "None", "facebook": "None", "youtube": "None", "website": "None", "summary": "None", "logo": "None", "latitude": 45.05871757748388, "longitude": -63.59519421292521}, "899377535RR0001": {"name": "NINE MOUNTAINS ZEN GATE SOCIETY", "designationCode": "C", "categoryCode": "39", "address": "134 SIXTH STREET", "city": "TORONTO", "province": "ON", "country": "CA", "postalCode": "M8V3A5", "twitter": "None", "instagram": "None", "facebook": "None", "youtube": "None", "website": "None", "summary": "None", "logo": "None", "latitude": 43.60117849602099, "longitude": -79.50426915450993}, "889498044RR0001": {"name": "NINETY-NINES CANADIAN AWARD IN AVIATION TRUST", "designationCode": "A", "categoryCode": "59", "address": "#1102-665 WINDERMERE RD", "city": "LONDON", "province": "ON", "country": "CA", "postalCode": "N5X2Y6", "twitter": "None", "instagram": "None", "facebook": "None", "youtube": "None", "website": "None", "summary": "None", "logo": "None", "latitude": 43.021376859964846, "longitude": -81.25494104433396}, "119057909RR0001": {"name": "NINGA PRESBYTERIAN CHURCH", "designationCode": "C", "categoryCode": "37", "address": "PO BOX 1055", "city": "BOISSEVAIN", "province": "MB", "country": "CA", "postalCode": "R0K0E0", "twitter": "None", "instagram": "None", "facebook": "None", "youtube": "None", "website": "None", "summary": "None", "logo": "None", "latitude": 49.23156000000006, "longitude": -100.05945999999994}, "890642945RR0001": {"name": "NIP INFORMATION POST", "designationCode": "C", "categoryCode": "59", "address": "269 GERRARD ST EAST", "city": "TORONTO", "province": "ON", "country": "CA", "postalCode": "M5A2G3", "twitter": "None", "instagram": "None", "facebook": "None", "youtube": "None", "website": "None", "summary": "None", "logo": "None", "latitude": 43.662018616134915, "longitude": -79.36785684124874}}