{"744084294RR0001": {"name": "Radiant City Church", "designationCode": "C", "categoryCode": "39", "address": "15 WESTWOOD CRES", "city": "KITCHENER", "province": "ON", "country": "CA", "postalCode": "N2M2L7", "twitter": "None", "instagram": "None", "facebook": "None", "youtube": "None", "website": "None", "summary": "None", "logo": "None", "latitude": 43.445726445178636, "longitude": -80.52839888193182}, "842156218RR0001": {"name": "Radio Aramesh Society", "designationCode": "C", "categoryCode": "47", "address": "PO BOX 16039", "city": "NORTH VANCOUVER", "province": "BC", "country": "CA", "postalCode": "V7J3S9", "twitter": "None", "instagram": "None", "facebook": "None", "youtube": "None", "website": "None", "summary": "None", "logo": "None", "latitude": 49.32107700000006, "longitude": -123.07521049999994}, "856591698RR0001": {"name": "Radio Ville-Marie-Bas-Saint-Laurent", "designationCode": "C", "categoryCode": "49", "address": "34,RUE DE L'EV\u00caCH\u00c9 OUEST", "city": "RIMOUSKI", "province": "QC", "country": "CA", "postalCode": "G5L4H5", "twitter": "None", "instagram": "None", "facebook": "None", "youtube": "None", "website": "None", "summary": "None", "logo": "None", "latitude": 48.44803701918723, "longitude": -68.52530080841323}, "842776791RR0001": {"name": "Radio-Immuno-Modulation (RIM)", "designationCode": "C", "categoryCode": "11", "address": "10430 RUE SAINT-URBAIN", "city": "MONTREAL", "province": "QC", "country": "CA", "postalCode": "H3L2T9", "twitter": "None", "instagram": "None", "facebook": "None", "youtube": "None", "website": "None", "summary": "None", "logo": "None", "latitude": 45.54752706076532, "longitude": -73.66769054330882}, "855640553RR0001": {"name": "Radisson School Before and After Program, Inc.", "designationCode": "C", "categoryCode": "01", "address": "1105 WINONA STREET", "city": "WINNIPEG", "province": "MB", "country": "CA", "postalCode": "R2C2P9", "twitter": "None", "instagram": "None", "facebook": "None", "youtube": "None", "website": "None", "summary": "None", "logo": "None", "latitude": 49.90261570191586, "longitude": -97.00803555958188}, "132519935RR0001": {"name": "Radium Hot Springs Seniors Club", "designationCode": "C", "categoryCode": "56", "address": "BOX 95", "city": "RADIUM HOT SPRINGS", "province": "BC", "country": "CA", "postalCode": "V0A1M0", "twitter": "None", "instagram": "None", "facebook": "None", "youtube": "None", "website": "None", "summary": "None", "logo": "None", "latitude": 50.62132994503449, "longitude": -116.07172003390237}, "137412656RR0001": {"name": "Radius Child and Youth Services", "designationCode": "C", "categoryCode": "09", "address": "60 LAKESHORE RD W", "city": "OAKVILLE", "province": "ON", "country": "CA", "postalCode": "L6K1E1", "twitter": "None", "instagram": "None", "facebook": "None", "youtube": "None", "website": "None", "summary": "None", "logo": "None", "latitude": 43.44042219732824, "longitude": -79.67385231152991}, "849171343RR0001": {"name": "Raging Asian Women Taiko Drummers", "designationCode": "C", "categoryCode": "22", "address": "424 CHRISTIE ST", "city": "TORONTO", "province": "ON", "country": "CA", "postalCode": "M6G3C6", "twitter": "None", "instagram": "None", "facebook": "None", "youtube": "None", "website": "None", "summary": "None", "logo": "None", "latitude": 43.67508346127881, "longitude": -79.42285558355923}, "107689861RR0001": {"name": "Rail City Industries Inc.", "designationCode": "C", "categoryCode": "09", "address": "799 FIRST AVENUE EAST         P.O. BOX 2318", "city": "MELVILLE", "province": "SK", "country": "CA", "postalCode": "S0A2P0", "twitter": "None", "instagram": "None", "facebook": "None", "youtube": "None", "website": "None", "summary": "None", "logo": "None", "latitude": 50.92381800000001, "longitude": -102.79527518937078}, "726538721RR0001": {"name": "Rainbow Coalition of Yellowknife", "designationCode": "C", "categoryCode": "09", "address": "PO BOX 1751 STN MAIN", "city": "YELLOWKNIFE", "province": "NT", "country": "CA", "postalCode": "X1A2P3", "twitter": "None", "instagram": "None", "facebook": "None", "youtube": "None", "website": "None", "summary": "None", "logo": "None", "latitude": 62.45446200000005, "longitude": -114.37092349999993}, "104384771RR0002": {"name": "Rainbow Day Nursery Inc.", "designationCode": "C", "categoryCode": "56", "address": "255 VERMILLION ROAD", "city": "WINNIPEG", "province": "MB", "country": "CA", "postalCode": "R2J3Z7", "twitter": "None", "instagram": "None", "facebook": "None", "youtube": "None", "website": "None", "summary": "None", "logo": "None", "latitude": 49.85378248600597, "longitude": -97.06574266763806}, "838889582RR0001": {"name": "Rainbow Foundation of Hope", "designationCode": "A", "categoryCode": "03", "address": "BOX 62                        1250-1500 WEST GEORGIA ST.", "city": "VANCOUVER", "province": "BC", "country": "CA", "postalCode": "V6G2Z6", "twitter": "None", "instagram": "None", "facebook": "None", "youtube": "None", "website": "None", "summary": "None", "logo": "None", "latitude": 49.29013479542975, "longitude": -123.1300069287031}, "811556208RR0001": {"name": "Rainbow Lake Family Centre", "designationCode": "C", "categoryCode": "01", "address": "2 MEANDER CRES                PO 367", "city": "RAINBOW LAKE", "province": "AB", "country": "CA", "postalCode": "T0H2Y0", "twitter": "None", "instagram": "None", "facebook": "None", "youtube": "None", "website": "None", "summary": "None", "logo": "None", "latitude": 58.505641358329555, "longitude": -119.39594975832479}, "807893649RR0001": {"name": "Rainbow Ministry", "designationCode": "C", "categoryCode": "39", "address": "1622B ST. MARY'S ROAD", "city": "WINNIPEG", "province": "MB", "country": "CA", "postalCode": "R2M3W7", "twitter": "None", "instagram": "None", "facebook": "None", "youtube": "None", "website": "None", "summary": "None", "logo": "None", "latitude": 49.82033517580041, "longitude": -97.113455788679}, "827142530RR0001": {"name": "Rainbow Railroad", "designationCode": "C", "categoryCode": "09", "address": "PO BOX 60053 RPO QUEEN BEVERLY", "city": "TORONTO", "province": "ON", "country": "CA", "postalCode": "M5V0C5", "twitter": "None", "instagram": "None", "facebook": "None", "youtube": "None", "website": "None", "summary": "None", "logo": "None", "latitude": 43.64868300000006, "longitude": -79.38544399999994}, "833497209RR0001": {"name": "Rainbow Refugee Society", "designationCode": "C", "categoryCode": "09", "address": "1170 BUTE ST", "city": "VANCOUVER", "province": "BC", "country": "CA", "postalCode": "V6E1Z6", "twitter": "None", "instagram": "None", "facebook": "None", "youtube": "None", "website": "None", "summary": "None", "logo": "None", "latitude": 49.28194679146052, "longitude": -123.13303142971827}, "892713082RR0001": {"name": "Rainbow Riders - Therapeutic Riding Newfoundland and Labrador Inc.", "designationCode": "C", "categoryCode": "56", "address": "PO BOX 23199 RPO CHURCHILL SQ.", "city": "ST. JOHN'S", "province": "NL", "country": "CA", "postalCode": "A1B4J9", "twitter": "None", "instagram": "None", "facebook": "None", "youtube": "None", "website": "None", "summary": "None", "logo": "None", "latitude": 47.57470538694076, "longitude": -52.7226658486743}, "873208136RR0001": {"name": "Rainbow Routes Association", "designationCode": "C", "categoryCode": "56", "address": "200 BRADY STREET              P.O. BOX 5000, STATION A", "city": "SUDBURY", "province": "ON", "country": "CA", "postalCode": "P3A5P3", "twitter": "None", "instagram": "None", "facebook": "None", "youtube": "None", "website": "None", "summary": "None", "logo": "None", "latitude": 43.623156580985544, "longitude": -80.14658893878459}, "811036623RR0001": {"name": "Rainbow Schools Learning Foundation", "designationCode": "C", "categoryCode": "21", "address": "408 WEMBLEY DR", "city": "SUDBURY", "province": "ON", "country": "CA", "postalCode": "P3E1P2", "twitter": "None", "instagram": "None", "facebook": "None", "youtube": "None", "website": "None", "summary": "None", "logo": "None", "latitude": 46.48027715145293, "longitude": -81.0051700237033}, "837479153RR0001": {"name": "Rainbow Songs Foundation", "designationCode": "C", "categoryCode": "09", "address": "7 RIDOUT ST", "city": "TORONTO", "province": "ON", "country": "CA", "postalCode": "M6R1Z1", "twitter": "None", "instagram": "None", "facebook": "None", "youtube": "None", "website": "None", "summary": "None", "logo": "None", "latitude": 43.65286480930821, "longitude": -79.45679854065443}, "897349296RR0001": {"name": "Rainbows for all Children Canada Inc. - Arc-En-Ciel pour tous les Enfants Canada Inc.", "designationCode": "C", "categoryCode": "19", "address": "545-80 BRADFORD ST", "city": "BARRIE", "province": "ON", "country": "CA", "postalCode": "L4N6S7", "twitter": "None", "instagram": "None", "facebook": "None", "youtube": "None", "website": "None", "summary": "None", "logo": "None", "latitude": 44.38314673688615, "longitude": -79.69383931308778}, "735859696RR0001": {"name": "Rainy Dayz Fund And Rescue", "designationCode": "C", "categoryCode": "54", "address": "11 ADAMS ST", "city": "HAMILTON", "province": "ON", "country": "CA", "postalCode": "L8L5Y1", "twitter": "None", "instagram": "None", "facebook": "None", "youtube": "None", "website": "None", "summary": "None", "logo": "None"}, "859017980RR0001": {"name": "Rainy River District Victim Services Program", "designationCode": "C", "categoryCode": "09", "address": "PO BOX 683", "city": "FORT FRANCES", "province": "ON", "country": "CA", "postalCode": "P9A3M9", "twitter": "None", "instagram": "None", "facebook": "None", "youtube": "None", "website": "None", "summary": "None", "logo": "None", "latitude": 48.610023000000055, "longitude": -93.39111349999993}, "853284206RR0001": {"name": "Rally4Life Foundation", "designationCode": "A", "categoryCode": "03", "address": "PO BOX 358", "city": "KASLO", "province": "BC", "country": "CA", "postalCode": "V0G1M0", "twitter": "None", "instagram": "None", "facebook": "None", "youtube": "None", "website": "None", "summary": "None", "logo": "None", "latitude": 49.91053000000005, "longitude": -116.90458999999998}, "814371795RR0001": {"name": "Ralph and Shirlee Medjuck Charitable Foundation", "designationCode": "B", "categoryCode": "05", "address": "700 - 1601 LOWER WATER ST", "city": "HALIFAX", "province": "NS", "country": "CA", "postalCode": "B3J3P6", "twitter": "None", "instagram": "None", "facebook": "None", "youtube": "None", "website": "None", "summary": "None", "logo": "None", "latitude": 44.644924866450175, "longitude": -63.57019890460725}, "813460318RR0001": {"name": "Ramara Historical Society", "designationCode": "C", "categoryCode": "50", "address": "3113 MUSKOKA STREET", "city": "WASHAGO", "province": "ON", "country": "CA", "postalCode": "L0K2B0", "twitter": "None", "instagram": "None", "facebook": "None", "youtube": "None", "website": "None", "summary": "None", "logo": "None", "latitude": 44.76244046514529, "longitude": -79.33121785919616}, "832270847RR0001": {"name": "Rameshwar Mandir & Cultural Sabha Inc.", "designationCode": "C", "categoryCode": "48", "address": "6731 COLUMBUS ROAD            UNIT 7 & 8", "city": "MISSISSAUGA", "province": "ON", "country": "CA", "postalCode": "L5T2M4", "twitter": "None", "instagram": "None", "facebook": "None", "youtube": "None", "website": "None", "summary": "None", "logo": "None", "latitude": 43.665514549598555, "longitude": -79.67044434422118}, "808022420RR0001": {"name": "Ranchlands Educational Enrichment Society", "designationCode": "C", "categoryCode": "21", "address": "32 RANCH RIDGE CRESENT NW", "city": "CALGARY", "province": "AB", "country": "CA", "postalCode": "T3G1T9", "twitter": "None", "instagram": "None", "facebook": "None", "youtube": "None", "website": "None", "summary": "None", "logo": "None", "latitude": 51.121477822926884, "longitude": -114.18061518982641}, "813515061RR0001": {"name": "Rand Kildare Charitable Foundation", "designationCode": "B", "categoryCode": "03", "address": "40 DUNDURN CRESCENT", "city": "THORNHILL", "province": "ON", "country": "CA", "postalCode": "L4J6Y9", "twitter": "None", "instagram": "None", "facebook": "None", "youtube": "None", "website": "None", "summary": "None", "logo": "None", "latitude": 43.816703216227026, "longitude": -79.44592664960466}, "803838556RR0001": {"name": "Random Access Networks Association", "designationCode": "C", "categoryCode": "47", "address": "PO BOX 3611 STN TERMINAL", "city": "VANCOUVER", "province": "BC", "country": "CA", "postalCode": "V6B3Y6", "twitter": "None", "instagram": "None", "facebook": "None", "youtube": "None", "website": "None", "summary": "None", "logo": "None", "latitude": 49.28024400000005, "longitude": -123.11294749999993}, "837185057RR0001": {"name": "Random Acts of Dance Performance", "designationCode": "C", "categoryCode": "22", "address": "211 - 100 RAGLAN AVE", "city": "YORK", "province": "ON", "country": "CA", "postalCode": "M6C2L3", "twitter": "None", "instagram": "None", "facebook": "None", "youtube": "None", "website": "None", "summary": "None", "logo": "None", "latitude": 43.68547918428651, "longitude": -79.42063540149444}, "825964695RR0001": {"name": "Randstad Canada Charitable Foundation / Fondation caritativeRandstad Canada", "designationCode": "B", "categoryCode": "03", "address": "3333 COTE VERTU               SUITE 500", "city": "VILLE ST-LAURENT", "province": "QC", "country": "CA", "postalCode": "H4R2N1", "twitter": "None", "instagram": "None", "facebook": "None", "youtube": "None", "website": "None", "summary": "None", "logo": "None", "latitude": 45.49623923364913, "longitude": -73.70562516582686}, "798262713RR0001": {"name": "Rangatira Charitable Foundation", "designationCode": "B", "categoryCode": "03", "address": "35 - 4360 EMILY CARR DR", "city": "VICTORIA", "province": "BC", "country": "CA", "postalCode": "V8X4Y4", "twitter": "None", "instagram": "None", "facebook": "None", "youtube": "None", "website": "None", "summary": "None", "logo": "None", "latitude": 48.4894315720467, "longitude": -123.3730652440126}, "123465775RR0001": {"name": "Raoul Wallenberg Centre for Human Rights/Centre Raoul Wallenberg pour les droits de la personne", "designationCode": "C", "categoryCode": "20", "address": "200 - 606 RUE CATHCART", "city": "MONTREAL", "province": "QC", "country": "CA", "postalCode": "H3B1K9", "twitter": "None", "instagram": "None", "facebook": "None", "youtube": "None", "website": "None", "summary": "None", "logo": "None", "latitude": 45.50352944489019, "longitude": -73.56822896984849}, "857078356RR0001": {"name": "Rapha Christian Centre Inc.", "designationCode": "C", "categoryCode": "39", "address": "1670 WYANDOTTE ST E", "city": "WINDSOR", "province": "ON", "country": "CA", "postalCode": "N8Y1C7", "twitter": "None", "instagram": "None", "facebook": "None", "youtube": "None", "website": "None", "summary": "None", "logo": "None", "latitude": 42.32194841078528, "longitude": -83.01521316431985}, "802887620RR0001": {"name": "Rat Terrier Rescue Canada, Inc.", "designationCode": "C", "categoryCode": "54", "address": "17 MOREAU TRAIL", "city": "SCARBOROUGH", "province": "ON", "country": "CA", "postalCode": "M1L4V3", "twitter": "None", "instagram": "None", "facebook": "None", "youtube": "None", "website": "None", "summary": "None", "logo": "None", "latitude": 43.70813795862443, "longitude": -79.28369828602335}, "894452796RR0001": {"name": "Ratanak International", "designationCode": "C", "categoryCode": "03", "address": "B0X 81038", "city": "BURNABY", "province": "BC", "country": "CA", "postalCode": "V5H4K1", "twitter": "None", "instagram": "None", "facebook": "None", "youtube": "None", "website": "None", "summary": "None", "logo": "None", "latitude": 49.23084300000005, "longitude": -123.00196399999993}, "845296870RR0001": {"name": "Raven Spirit Dance Society", "designationCode": "C", "categoryCode": "22", "address": "250 - 111 HASTINGS ST W", "city": "VANCOUVER", "province": "BC", "country": "CA", "postalCode": "V6B1H4", "twitter": "None", "instagram": "None", "facebook": "None", "youtube": "None", "website": "None", "summary": "None", "logo": "None", "latitude": 49.282138914441255, "longitude": -123.10753795129177}, "821459336RR0001": {"name": "Raven Theatre Performance Society", "designationCode": "C", "categoryCode": "22", "address": "304-1643 EAST 3RD AVENUE", "city": "VANCOUVER", "province": "BC", "country": "CA", "postalCode": "V5N5R6", "twitter": "None", "instagram": "None", "facebook": "None", "youtube": "None", "website": "None", "summary": "None", "logo": "None", "latitude": 49.267800511541196, "longitude": -123.07074185789716}, "840790885RR0001": {"name": "Raven's Moon Resource Society", "designationCode": "C", "categoryCode": "09", "address": "7707 PINTAIL ST", "city": "MISSION", "province": "BC", "country": "CA", "postalCode": "V2V6H3", "twitter": "None", "instagram": "None", "facebook": "None", "youtube": "None", "website": "None", "summary": "None", "logo": "None", "latitude": 49.14219597890817, "longitude": -122.32119188902962}, "119308005RR0001": {"name": "Ravi Zacharias International Ministries Canada", "designationCode": "C", "categoryCode": "47", "address": "315-50 GERVAIS DR", "city": "NORTH YORK", "province": "ON", "country": "CA", "postalCode": "M3C1Z3", "twitter": "None", "instagram": "None", "facebook": "None", "youtube": "None", "website": "None", "summary": "None", "logo": "None", "latitude": 43.72524896808814, "longitude": -79.33757831660755}, "857677298RR0001": {"name": "Ray Nissan Family Foundation", "designationCode": "B", "categoryCode": "03", "address": "11 ERICA ROAD", "city": "THORNHILL", "province": "ON", "country": "CA", "postalCode": "L4J2E9", "twitter": "None", "instagram": "None", "facebook": "None", "youtube": "None", "website": "None", "summary": "None", "logo": "None", "latitude": 43.815160706099455, "longitude": -79.43712171738179}, "836671065RR0001": {"name": "Rayjo Charitable Trust", "designationCode": "B", "categoryCode": "05", "address": "DUFFERIN LAWRENCE P.O.        P.O. BOX 58051", "city": "TORONTO", "province": "ON", "country": "CA", "postalCode": "M6A3C8", "twitter": "None", "instagram": "None", "facebook": "None", "youtube": "None", "website": "None", "summary": "None", "logo": "None", "latitude": 43.72086680006339, "longitude": -79.45620055834786}, "821815586RR0001": {"name": "Raymond Auxiliary to Healthcare Facilities", "designationCode": "A", "categoryCode": "13", "address": "POST OFFICE BOX 599", "city": "RAYMOND", "province": "AB", "country": "CA", "postalCode": "T0K2S0", "twitter": "None", "instagram": "None", "facebook": "None", "youtube": "None", "website": "None", "summary": "None", "logo": "None", "latitude": 49.465490000000045, "longitude": -112.66264999999999}, "832173900RR0001": {"name": "Raymond James Canada Foundation", "designationCode": "B", "categoryCode": "03", "address": "2100-925 WEST GEORGIA ST", "city": "VANCOUVER", "province": "BC", "country": "CA", "postalCode": "V6C3L2", "twitter": "None", "instagram": "None", "facebook": "None", "youtube": "None", "website": "None", "summary": "None", "logo": "None", "latitude": 49.28390922466058, "longitude": -123.1202009000431}, "829579697RR0001": {"name": "Rays of Hope for Uganda Inc.", "designationCode": "C", "categoryCode": "01", "address": "BOX 165 SITE 23 RR 5", "city": "PRINCE ALBERT", "province": "SK", "country": "CA", "postalCode": "S6V5R3", "twitter": "None", "instagram": "None", "facebook": "None", "youtube": "None", "website": "None", "summary": "None", "logo": "None", "latitude": 53.199456000000055, "longitude": -105.74863099999993}, "808742381RR0001": {"name": "Re-start", "designationCode": "A", "categoryCode": "23", "address": "6026 SILKEN LAUMANN WAY", "city": "MISSISSAUGA", "province": "ON", "country": "CA", "postalCode": "L5V3A3", "twitter": "None", "instagram": "None", "facebook": "None", "youtube": "None", "website": "None", "summary": "None", "logo": "None", "latitude": 43.607780728547596, "longitude": -79.70178077021166}, "806035168RR0001": {"name": "Re-Connection Ministry", "designationCode": "C", "categoryCode": "36", "address": "54 MERGANSER CRES", "city": "BRAMPTON", "province": "ON", "country": "CA", "postalCode": "L6W4G1", "twitter": "None", "instagram": "None", "facebook": "None", "youtube": "None", "website": "None", "summary": "None", "logo": "None", "latitude": 43.657033150412715, "longitude": -79.71959352527543}, "834487811RR0001": {"name": "Reach for the Skye Windsor", "designationCode": "C", "categoryCode": "11", "address": "1169 TECUMSEH RD E", "city": "WINDSOR", "province": "ON", "country": "CA", "postalCode": "N8W1B5", "twitter": "None", "instagram": "None", "facebook": "None", "youtube": "None", "website": "None", "summary": "None", "logo": "None", "latitude": 42.2998487726645, "longitude": -83.00736735039533}, "817446859RR0001": {"name": "Reach Africa Foundation", "designationCode": "B", "categoryCode": "09", "address": "10240 159 A STREET", "city": "SURREY", "province": "BC", "country": "CA", "postalCode": "V4N2N3", "twitter": "None", "instagram": "None", "facebook": "None", "youtube": "None", "website": "None", "summary": "None", "logo": "None", "latitude": 49.188896863725546, "longitude": -122.78034800608818}, "824670558RR0001": {"name": "Reach Child and Youth Development Charitable Foundation", "designationCode": "A", "categoryCode": "23", "address": "3800-72ND STREET              UNIT 3", "city": "DELTA", "province": "BC", "country": "CA", "postalCode": "V4K3N2", "twitter": "None", "instagram": "None", "facebook": "None", "youtube": "None", "website": "None", "summary": "None", "logo": "None", "latitude": 49.07081741901003, "longitude": -123.02414671254695}, "803381607RR0001": {"name": "Reach Out Niagara", "designationCode": "C", "categoryCode": "09", "address": "32 BAY BERRY LANE", "city": "NIAGARA ON THE LAKE", "province": "ON", "country": "CA", "postalCode": "L0S1J0", "twitter": "None", "instagram": "None", "facebook": "None", "youtube": "None", "website": "None", "summary": "None", "logo": "None", "latitude": 43.25343030642267, "longitude": -79.08884859836132}, "849873302RR0001": {"name": "Reach Suicide Prevention Center Inc.", "designationCode": "C", "categoryCode": "09", "address": "24 SORMANY STREET", "city": "EDMUNDSTON", "province": "NB", "country": "CA", "postalCode": "E3V1Y4", "twitter": "None", "instagram": "None", "facebook": "None", "youtube": "None", "website": "None", "summary": "None", "logo": "None", "latitude": 47.363170612239784, "longitude": -68.33576527575156}, "846003002RR0001": {"name": "Reach Worldwide Education", "designationCode": "C", "categoryCode": "09", "address": "P.O. BOX 144, STN. M", "city": "CALGARY", "province": "AB", "country": "CA", "postalCode": "T2P2H6", "twitter": "None", "instagram": "None", "facebook": "None", "youtube": "None", "website": "None", "summary": "None", "logo": "None", "latitude": 51.04531500000006, "longitude": -114.06301099999993}, "856912696RR0001": {"name": "Reaching out Through Music", "designationCode": "C", "categoryCode": "22", "address": "525 BLOOR STREET EAST", "city": "TORONTO", "province": "ON", "country": "CA", "postalCode": "M4W1J1", "twitter": "None", "instagram": "None", "facebook": "None", "youtube": "None", "website": "None", "summary": "None", "logo": "None", "latitude": 43.672179616134926, "longitude": -79.37386786678395}, "878089523RR0001": {"name": "Reaching Kids International Canada", "designationCode": "C", "categoryCode": "47", "address": "535 DUNDAS STREET EAST", "city": "BELLEVILLE", "province": "ON", "country": "CA", "postalCode": "K8N5P6", "twitter": "None", "instagram": "None", "facebook": "None", "youtube": "None", "website": "None", "summary": "None", "logo": "None", "latitude": 44.16808959059971, "longitude": -77.34781029946913}, "828829135RR0001": {"name": "Reaching Out to Zanzibar International Development Organization", "designationCode": "C", "categoryCode": "09", "address": "44 WAYMONT AVENUE,", "city": "RICHMOND HILL", "province": "ON", "country": "CA", "postalCode": "L4S2G5", "twitter": "None", "instagram": "None", "facebook": "None", "youtube": "None", "website": "None", "summary": "None", "logo": "None", "latitude": 43.9018351690517, "longitude": -79.46275605718729}, "840045074RR0001": {"name": "Reachout to Africa", "designationCode": "C", "categoryCode": "09", "address": "301 - 1050 BOWRON COURT", "city": "NORTH VANCOUVER", "province": "BC", "country": "CA", "postalCode": "V7H2X6", "twitter": "None", "instagram": "None", "facebook": "None", "youtube": "None", "website": "None", "summary": "None", "logo": "None", "latitude": 49.31490306523738, "longitude": -122.97458945972093}, "107880163RR0001": {"name": "ReachAcross Canada", "designationCode": "C", "categoryCode": "47", "address": "PO BOX 88520 NEWTON TOWN", "city": "SURREY", "province": "BC", "country": "CA", "postalCode": "V3W0X1", "twitter": "None", "instagram": "None", "facebook": "None", "youtube": "None", "website": "None", "summary": "None", "logo": "None", "latitude": 49.119138, "longitude": -122.870241}, "828681494RR0001": {"name": "Read Right Society", "designationCode": "C", "categoryCode": "29", "address": "P.O BOX 1299                  UNIT F, 895 3RD AVENUE", "city": "HOPE", "province": "BC", "country": "CA", "postalCode": "V0X1L0", "twitter": "None", "instagram": "None", "facebook": "None", "youtube": "None", "website": "None", "summary": "None", "logo": "None", "latitude": 49.37841068424391, "longitude": -121.44068042342371}, "842534307RR0001": {"name": "Reading is Right", "designationCode": "C", "categoryCode": "21", "address": "8691 COPELAND RD", "city": "ASHTON", "province": "ON", "country": "CA", "postalCode": "K0A1B0", "twitter": "None", "instagram": "None", "facebook": "None", "youtube": "None", "website": "None", "summary": "None", "logo": "None", "latitude": 45.12801120557707, "longitude": -75.97158911471755}, "840840029RR0001": {"name": "Reading Rescue Ontario", "designationCode": "C", "categoryCode": "21", "address": "684236 ROAD 30                R R #1", "city": "HOLLAND CENTRE", "province": "ON", "country": "CA", "postalCode": "N0H1R0", "twitter": "None", "instagram": "None", "facebook": "None", "youtube": "None", "website": "None", "summary": "None", "logo": "None", "latitude": 44.39111100000005, "longitude": -80.76440599999994}, "801635517RR0001": {"name": "Ready to Rent BC Association", "designationCode": "C", "categoryCode": "09", "address": "101-2860 QUADRA STREET", "city": "VICTORIA", "province": "BC", "country": "CA", "postalCode": "V8T4E7", "twitter": "None", "instagram": "None", "facebook": "None", "youtube": "None", "website": "None", "summary": "None", "logo": "None", "latitude": 48.44141107409552, "longitude": -123.35978151950435}, "824570972RR0001": {"name": "Ready, Set, Play Children's Charity", "designationCode": "C", "categoryCode": "09", "address": "150 CRAWFORD STREET,", "city": "TORONTO", "province": "ON", "country": "CA", "postalCode": "M6J2V4", "twitter": "None", "instagram": "None", "facebook": "None", "youtube": "None", "website": "None", "summary": "None", "logo": "None", "latitude": 43.64640988037397, "longitude": -79.41564586055155}, "705075323RR0001": {"name": "Ready, Set, Swim! Foundation Inc.", "designationCode": "C", "categoryCode": "09", "address": "360 MAIN STREET               30TH FLOOR", "city": "WINNIPEG", "province": "MB", "country": "CA", "postalCode": "R3C4G1", "twitter": "None", "instagram": "None", "facebook": "None", "youtube": "None", "website": "None", "summary": "None", "logo": "None", "latitude": 49.89459781320337, "longitude": -97.1381563866637}, "819454307RR0001": {"name": "ReadUP Reading Clubs, A Non-Profit Corporation", "designationCode": "C", "categoryCode": "21", "address": "39 FERRIER AVENUE", "city": "TORONTO", "province": "ON", "country": "CA", "postalCode": "M4K3H5", "twitter": "None", "instagram": "None", "facebook": "None", "youtube": "None", "website": "None", "summary": "None", "logo": "None", "latitude": 43.6794191976167, "longitude": -79.34869995057433}, "807109889RR0001": {"name": "Real Life Association of Alberta", "designationCode": "C", "categoryCode": "47", "address": "911 HIGHLAND GREEN DR NW", "city": "HIGH RIVER", "province": "AB", "country": "CA", "postalCode": "T1V1V8", "twitter": "None", "instagram": "None", "facebook": "None", "youtube": "None", "website": "None", "summary": "None", "logo": "None", "latitude": 50.59109521870851, "longitude": -113.88649367211012}, "107409492RR0001": {"name": "Real Life Church", "designationCode": "C", "categoryCode": "39", "address": "251 HEAD STREET NORTH", "city": "SIMCOE", "province": "ON", "country": "CA", "postalCode": "N3Y3X8", "twitter": "None", "instagram": "None", "facebook": "None", "youtube": "None", "website": "None", "summary": "None", "logo": "None", "latitude": 42.84208886955392, "longitude": -80.31084868428648}, "849389051RR0001": {"name": "Real Life Community Church", "designationCode": "C", "categoryCode": "34", "address": "7882 164B STREET", "city": "SURREY", "province": "BC", "country": "CA", "postalCode": "V4N0M5", "twitter": "None", "instagram": "None", "facebook": "None", "youtube": "None", "website": "None", "summary": "None", "logo": "None", "latitude": 49.14549386265768, "longitude": -122.76522865500036}, "814467627RR0001": {"name": "Real Time Outreach. CA", "designationCode": "C", "categoryCode": "39", "address": "35 WINGREEN LANE RR#3", "city": "KOMOKA", "province": "ON", "country": "CA", "postalCode": "N0L1R0", "twitter": "None", "instagram": "None", "facebook": "None", "youtube": "None", "website": "None", "summary": "None", "logo": "None", "latitude": 42.95422823007996, "longitude": -81.40463056455607}, "845513894RR0001": {"name": "Reality Church of Metro Vancouver Society", "designationCode": "C", "categoryCode": "34", "address": "808 19TH AVE E", "city": "VANCOUVER", "province": "BC", "country": "CA", "postalCode": "V5V1K5", "twitter": "None", "instagram": "None", "facebook": "None", "youtube": "None", "website": "None", "summary": "None", "logo": "None", "latitude": 49.25369147013695, "longitude": -123.08729263780367}, "856995535RR0001": {"name": "Realize / R\u00e9alise", "designationCode": "C", "categoryCode": "11", "address": "600-1240 BAY ST", "city": "TORONTO", "province": "ON", "country": "CA", "postalCode": "M5R2A7", "twitter": "None", "instagram": "None", "facebook": "None", "youtube": "None", "website": "None", "summary": "None", "logo": "None", "latitude": 43.67039708076062, "longitude": -79.38980700654952}, "107797383RR0123": {"name": "Really Living Seventh-day Adventist Church", "designationCode": "C", "categoryCode": "41", "address": "5-120 LANCING DRIVE", "city": "HAMILTON", "province": "ON", "country": "CA", "postalCode": "L8W3A1", "twitter": "None", "instagram": "None", "facebook": "None", "youtube": "None", "website": "None", "summary": "None", "logo": "None", "latitude": 43.19151832607221, "longitude": -79.84064997310846}, "835183666RR0001": {"name": "Reapers in the Rain International", "designationCode": "C", "categoryCode": "47", "address": "74 WAVERLY ST N", "city": "OSHAWA", "province": "ON", "country": "CA", "postalCode": "L1J8G6", "twitter": "None", "instagram": "None", "facebook": "None", "youtube": "None", "website": "None", "summary": "None", "logo": "None", "latitude": 43.89434879681473, "longitude": -78.88818190717859}, "842034654RR0001": {"name": "Reason d'\u00eatre Dance Productions", "designationCode": "C", "categoryCode": "22", "address": "306 GARDEN AVENUE,", "city": "TORONTO", "province": "ON", "country": "CA", "postalCode": "M6R1J6", "twitter": "None", "instagram": "None", "facebook": "None", "youtube": "None", "website": "None", "summary": "None", "logo": "None", "latitude": 43.641685172369925, "longitude": -79.45304615251885}, "838603231RR0001": {"name": "Rebalance Legacy Society", "designationCode": "C", "categoryCode": "11", "address": "104 - 3551 BLANSHARD ST", "city": "VICTORIA", "province": "BC", "country": "CA", "postalCode": "V8Z0B9", "twitter": "None", "instagram": "None", "facebook": "None", "youtube": "None", "website": "None", "summary": "None", "logo": "None", "latitude": 48.456382372562665, "longitude": -123.37459198874241}, "819269317RR0001": {"name": "Recherche et sauvetage Eur\u00eaka", "designationCode": "C", "categoryCode": "59", "address": "115 RUE JONETTE", "city": "SAINT-\u00c9TIENNE-DES-GR\u00c8S", "province": "QC", "country": "CA", "postalCode": "G0X2P0", "twitter": "None", "instagram": "None", "facebook": "None", "youtube": "None", "website": "None", "summary": "None", "logo": "None", "latitude": 46.44397496032652, "longitude": -72.76036811506707}, "740541321RR0001": {"name": "Recherche et Sauvetage du Qu\u00e9bec", "designationCode": "C", "categoryCode": "59", "address": "7441 RUE DES VIOLETTES", "city": "SAINT-HUBERT", "province": "QC", "country": "CA", "postalCode": "J3Y8R8", "twitter": "None", "instagram": "None", "facebook": "None", "youtube": "None", "website": "None", "summary": "None", "logo": "None", "latitude": 45.4798975500895, "longitude": -73.39649429528552}, "892554361RR0001": {"name": "Recherche et Sauvetage Cheticamp Search & Rescue", "designationCode": "C", "categoryCode": "59", "address": "BOX 159", "city": "CHETICAMP", "province": "NS", "country": "CA", "postalCode": "B0E1H0", "twitter": "None", "instagram": "None", "facebook": "None", "youtube": "None", "website": "None", "summary": "None", "logo": "None", "latitude": 46.60719600312706, "longitude": -61.03849596133188}, "821403599RR0001": {"name": "Reconciliation Canada - A New Way Forward Society", "designationCode": "C", "categoryCode": "59", "address": "SUITE 206-1999 MARINE DRIVE", "city": "NORTH VANCOUVER", "province": "BC", "country": "CA", "postalCode": "V7P3J3", "twitter": "None", "instagram": "None", "facebook": "None", "youtube": "None", "website": "None", "summary": "None", "logo": "None", "latitude": 49.32400022388572, "longitude": -123.122083141083}, "820576890RR0001": {"name": "Reconciliation Ministries of the LORD JESUS CHRIST International", "designationCode": "C", "categoryCode": "39", "address": "6983 206 ST", "city": "LANGLEY", "province": "BC", "country": "CA", "postalCode": "V2Y0W4", "twitter": "None", "instagram": "None", "facebook": "None", "youtube": "None", "website": "None", "summary": "None", "logo": "None", "latitude": 49.129184489738776, "longitude": -122.65167710025179}, "107352528RR0001": {"name": "Reconnect Community Health Services", "designationCode": "C", "categoryCode": "11", "address": "1281 ST CLAIR AVE W", "city": "TORONTO", "province": "ON", "country": "CA", "postalCode": "M6E1B8", "twitter": "None", "instagram": "None", "facebook": "None", "youtube": "None", "website": "None", "summary": "None", "logo": "None", "latitude": 43.676798323730004, "longitude": -79.4475222148589}, "809751282RR0001": {"name": "Recrear International Youth Organization", "designationCode": "C", "categoryCode": "20", "address": "PO BOX 160                    793 BEAVERTAIL ROAD", "city": "CARP", "province": "ON", "country": "CA", "postalCode": "K0A1L0", "twitter": "None", "instagram": "None", "facebook": "None", "youtube": "None", "website": "None", "summary": "None", "logo": "None", "latitude": 45.26873220866787, "longitude": -76.03270109763923}, "821026309RR0001": {"name": "Recreation Opportunities for Children (ROC) Eastman Inc.", "designationCode": "C", "categoryCode": "09", "address": "POST OFFICE BOX 5282", "city": "STEINBACH", "province": "MB", "country": "CA", "postalCode": "R5G1L5", "twitter": "None", "instagram": "None", "facebook": "None", "youtube": "None", "website": "None", "summary": "None", "logo": "None", "latitude": 49.52572800000006, "longitude": -96.68393449999994}, "839789138RR0001": {"name": "Recreation Youth and Young Adults Inc.", "designationCode": "C", "categoryCode": "09", "address": "PO BOX 68 RPO STREETSVILLE", "city": "MISSISSAUGA", "province": "ON", "country": "CA", "postalCode": "L5M2B7", "twitter": "None", "instagram": "None", "facebook": "None", "youtube": "None", "website": "None", "summary": "None", "logo": "None", "latitude": 43.58385991949925, "longitude": -79.71672003332544}, "830973251RR0001": {"name": "Recyclerie Beauharnois-Salaberry", "designationCode": "C", "categoryCode": "20", "address": "115, RUE SAINT-CHARLES", "city": "SALABERRY-DE-VALLEYFIELD", "province": "QC", "country": "CA", "postalCode": "J6S4A2", "twitter": "None", "instagram": "None", "facebook": "None", "youtube": "None", "website": "None", "summary": "None", "logo": "None", "latitude": 45.26373729084214, "longitude": -74.12393773238449}, "891785271RR0001": {"name": "Recyclo-Nord inc.", "designationCode": "C", "categoryCode": "59", "address": "129 3E AVENUE EST", "city": "LA SARRE", "province": "QC", "country": "CA", "postalCode": "J9Z1J1", "twitter": "None", "instagram": "None", "facebook": "None", "youtube": "None", "website": "None", "summary": "None", "logo": "None", "latitude": 48.80746452178432, "longitude": -79.19660407516244}, "777257122RR0001": {"name": "Recyk et Frip", "designationCode": "C", "categoryCode": "09", "address": "301 AV BROCHU", "city": "SEPT-ILES", "province": "QC", "country": "CA", "postalCode": "G4R4S7", "twitter": "None", "instagram": "None", "facebook": "None", "youtube": "None", "website": "None", "summary": "None", "logo": "None", "latitude": 50.20307041491156, "longitude": -66.38123277953113}, "119113348RR0001": {"name": "Red and White Educational Foundation / La Fondation Collegiale Rouge et Blanc", "designationCode": "A", "categoryCode": "23", "address": "450 DUFFERIN", "city": "STANSTEAD", "province": "QC", "country": "CA", "postalCode": "J0B3E0", "twitter": "None", "instagram": "None", "facebook": "None", "youtube": "None", "website": "None", "summary": "None", "logo": "None", "latitude": 45.011957087757466, "longitude": -72.0961223661693}, "888121266RR0001": {"name": "Red Deer / Lacombe Rural Community Crime Watch Association", "designationCode": "C", "categoryCode": "59", "address": "4405 SOUTH STREET             PO BOX 1780", "city": "BLACK FALDS", "province": "AB", "country": "CA", "postalCode": "T0M0J0", "twitter": "None", "instagram": "None", "facebook": "None", "youtube": "None", "website": "None", "summary": "None", "logo": "None", "latitude": 52.3754694488821, "longitude": -113.8092399488821}, "813842044RR0001": {"name": "Red Deer Chinese Christian Church", "designationCode": "C", "categoryCode": "39", "address": "54 INGLIS CRESCENT", "city": "RED DEER", "province": "AB", "country": "CA", "postalCode": "T4R3H4", "twitter": "None", "instagram": "None", "facebook": "None", "youtube": "None", "website": "None", "summary": "None", "logo": "None", "latitude": 52.23633163835193, "longitude": -113.78747472387306}, "130511272RR0001": {"name": "Red Deer Church of the Nazarene", "designationCode": "C", "categoryCode": "39", "address": "2 MCVICAR ST", "city": "RED DEER", "province": "AB", "country": "CA", "postalCode": "T4N0M1", "twitter": "None", "instagram": "None", "facebook": "None", "youtube": "None", "website": "None", "summary": "None", "logo": "None", "latitude": 52.256995500432694, "longitude": -113.78895283236193}, "811965128RR0001": {"name": "Red Deer Disciple Church", "designationCode": "C", "categoryCode": "39", "address": "5350 46 AVE", "city": "RED DEER", "province": "AB", "country": "CA", "postalCode": "T4N3N4", "twitter": "None", "instagram": "None", "facebook": "None", "youtube": "None", "website": "None", "summary": "None", "logo": "None", "latitude": 52.27337700000001, "longitude": -113.80306492425971}, "817370851RR0001": {"name": "Red Deer Fountain of Life Apostolic House Ministries", "designationCode": "C", "categoryCode": "39", "address": "C1 - 5580 45 ST", "city": "RED DEER", "province": "AB", "country": "CA", "postalCode": "T4N1L1", "twitter": "None", "instagram": "None", "facebook": "None", "youtube": "None", "website": "None", "summary": "None", "logo": "None", "latitude": 52.26564079130348, "longitude": -113.82870752175565}, "800858987RR0001": {"name": "Red Deer Korean Presbyterian Church", "designationCode": "C", "categoryCode": "39", "address": "4209 65 ST", "city": "STETTLER", "province": "AB", "country": "CA", "postalCode": "T0C2L1", "twitter": "None", "instagram": "None", "facebook": "None", "youtube": "None", "website": "None", "summary": "None", "logo": "None", "latitude": 52.31610900000001, "longitude": -112.73096506463179}, "896620226RR0001": {"name": "Red Deer Presbytery of the United Church of Canada", "designationCode": "C", "categoryCode": "44", "address": "28050 TOWNSHIP ROAD 342", "city": "RED DEER COUNTY", "province": "AB", "country": "CA", "postalCode": "T0M0K0", "twitter": "None", "instagram": "None", "facebook": "None", "youtube": "None", "website": "None", "summary": "None", "logo": "None", "latitude": 51.9108844899011, "longitude": -113.84791297446478}, "127863967RR0001": {"name": "Red Deer Presbytery Camps Society", "designationCode": "C", "categoryCode": "56", "address": "BOX 643", "city": "TROCHU", "province": "AB", "country": "CA", "postalCode": "T0M2C0", "twitter": "None", "instagram": "None", "facebook": "None", "youtube": "None", "website": "None", "summary": "None", "logo": "None", "latitude": 51.82281000000001, "longitude": -113.23290741784133}, "140706664RR0001": {"name": "Red Deer Regional Health Foundation", "designationCode": "A", "categoryCode": "19", "address": "3942 50A AVE", "city": "RED DEER", "province": "AB", "country": "CA", "postalCode": "T4N4E7", "twitter": "None", "instagram": "None", "facebook": "None", "youtube": "None", "website": "None", "summary": "None", "logo": "None", "latitude": 52.26067970884077, "longitude": -113.81684642232646}, "820624476RR0001": {"name": "Red Deer River Watershed Alliance Society", "designationCode": "C", "categoryCode": "52", "address": "4918-59 STREET", "city": "RED RIVER", "province": "AB", "country": "CA", "postalCode": "T4N2N1", "twitter": "None", "instagram": "None", "facebook": "None", "youtube": "None", "website": "None", "summary": "None", "logo": "None", "latitude": 52.278447346298414, "longitude": -113.81238028031123}, "842059800RR0001": {"name": "Red Deer Royals Alumni Association", "designationCode": "A", "categoryCode": "03", "address": "106-4320 50 AVE", "city": "RED DEER", "province": "AB", "country": "CA", "postalCode": "T4N3Z6", "twitter": "None", "instagram": "None", "facebook": "None", "youtube": "None", "website": "None", "summary": "None", "logo": "None", "latitude": 52.263071999999994, "longitude": -113.81410491430503}}