{"119154607RR0001": {"name": "SOCIETY FOR CANADIAN WOMEN IN SCIENCE AND TECHNOLOGY", "designationCode": "C", "categoryCode": "21", "address": "311-525 SEYMOUR STREET", "city": "VANCOUVER", "province": "BC", "country": "CA", "postalCode": "V6B3H7", "twitter": "None", "instagram": "None", "facebook": "None", "youtube": "None", "website": "None", "summary": "None", "logo": "None", "latitude": 49.283685302816, "longitude": -123.11443653124803}, "893350561RR0001": {"name": "SOCIETY FOR CATHOLIC LIFE AND CULTURE", "designationCode": "C", "categoryCode": "49", "address": "304 - 3335 YONGE ST", "city": "TORONTO", "province": "ON", "country": "CA", "postalCode": "M4N2M1", "twitter": "None", "instagram": "None", "facebook": "None", "youtube": "None", "website": "None", "summary": "None", "logo": "None", "latitude": 43.73101156647813, "longitude": -79.40371681026049}, "130602089RR0001": {"name": "SOCIETY FOR CHRISTIAN EDUCATION IN SOUTHERN ALBERTA", "designationCode": "C", "categoryCode": "20", "address": "802-6 AVE. NO.", "city": "LETHBRIDGE", "province": "AB", "country": "CA", "postalCode": "T1H0S1", "twitter": "None", "instagram": "None", "facebook": "None", "youtube": "None", "website": "None", "summary": "None", "logo": "None", "latitude": 49.707664830371385, "longitude": -112.83707965892415}, "119154623RR0001": {"name": "SOCIETY FOR CHRISTIAN INSTRUCTION AT DRAYTON AND VICINITY", "designationCode": "C", "categoryCode": "20", "address": "P.O. BOX 141", "city": "DRAYTON", "province": "ON", "country": "CA", "postalCode": "N0G1P0", "twitter": "None", "instagram": "None", "facebook": "None", "youtube": "None", "website": "None", "summary": "None", "logo": "None", "latitude": 43.77309915143594, "longitude": -80.9225621280716}, "899776256RR0001": {"name": "SOCIETY FOR HELPING LIVES IN POVERTY (HELP)", "designationCode": "C", "categoryCode": "09", "address": "3251-27 AVENUE NW", "city": "EDMONTON", "province": "AB", "country": "CA", "postalCode": "T6T1P8", "twitter": "None", "instagram": "None", "facebook": "None", "youtube": "None", "website": "None", "summary": "None", "logo": "None", "latitude": 53.45693550678069, "longitude": -113.38857386081135}, "859802530RR0001": {"name": "SOCIETY FOR HOMELESS, ILL, NEEDY AND ELDERLY (SHINE)", "designationCode": "C", "categoryCode": "09", "address": "3295 COAST MERIDIAN ROAD      SUITE 78104", "city": "PORT COQUITLAM", "province": "BC", "country": "CA", "postalCode": "V3B3N3", "twitter": "None", "instagram": "None", "facebook": "None", "youtube": "None", "website": "None", "summary": "None", "logo": "None", "latitude": 49.27185028282071, "longitude": -122.75615602060087}, "888405644RR0001": {"name": "SOCIETY FOR MANITOBANS WITH DISABILITIES FOUNDATION, INC.", "designationCode": "A", "categoryCode": "53", "address": "825 SHERBROOK STREET", "city": "WINNIPEG", "province": "MB", "country": "CA", "postalCode": "R3A1M5", "twitter": "None", "instagram": "None", "facebook": "None", "youtube": "None", "website": "None", "summary": "None", "logo": "None"}, "107990533RR0001": {"name": "SOCIETY FOR MANITOBANS WITH DISABILITIES INC.", "designationCode": "C", "categoryCode": "11", "address": "825 SHERBROOK STREET", "city": "WINNIPEG", "province": "MB", "country": "CA", "postalCode": "R3A1M5", "twitter": "None", "instagram": "None", "facebook": "None", "youtube": "None", "website": "None", "summary": "None", "logo": "None", "latitude": 49.90293714680605, "longitude": -97.15654520699444}, "119154664RR0001": {"name": "SOCIETY FOR MUSCULAR DYSTROPHY INFORMATION (INTERNATIONAL)", "designationCode": "C", "categoryCode": "19", "address": "4206 RR#1", "city": "SOUTH BROOKFIELD", "province": "NS", "country": "CA", "postalCode": "B0T1X0", "twitter": "None", "instagram": "None", "facebook": "None", "youtube": "None", "website": "None", "summary": "None", "logo": "None", "latitude": 44.374353000000056, "longitude": -64.97143549999993}, "870303591RR0001": {"name": "SOCIETY FOR PASTORAL COUNSELLING RESEARCH", "designationCode": "C", "categoryCode": "23", "address": "223 MAIN STREET", "city": "OTTAWA", "province": "ON", "country": "CA", "postalCode": "K1S1C4", "twitter": "None", "instagram": "None", "facebook": "None", "youtube": "None", "website": "None", "summary": "None", "logo": "None", "latitude": 45.408374558716496, "longitude": -75.67756136006155}, "858575087RR0001": {"name": "SOCIETY FOR QUALITY EDUCATION, CANADA", "designationCode": "C", "categoryCode": "21", "address": "748 SHANAHAN BLVD", "city": "NEWMARKET", "province": "ON", "country": "CA", "postalCode": "L3X1W6", "twitter": "None", "instagram": "None", "facebook": "None", "youtube": "None", "website": "None", "summary": "None", "logo": "None", "latitude": 44.029966935051085, "longitude": -79.47287859342697}, "851338145RR0001": {"name": "SOCIETY FOR SAFE AND CARING SCHOOLS & COMMUNITIES", "designationCode": "C", "categoryCode": "21", "address": "11010 142 ST NW", "city": "EDMONTON", "province": "AB", "country": "CA", "postalCode": "T5N2R1", "twitter": "None", "instagram": "None", "facebook": "None", "youtube": "None", "website": "None", "summary": "None", "logo": "None", "latitude": 53.55767700000001, "longitude": -113.56596971991966}, "139906655RR0001": {"name": "SOCIETY FOR SOCIALIST STUDIES", "designationCode": "C", "categoryCode": "21", "address": "789 MCMILLAN AVE", "city": "WINNIPEG", "province": "MB", "country": "CA", "postalCode": "R3M0S9", "twitter": "None", "instagram": "None", "facebook": "None", "youtube": "None", "website": "None", "summary": "None", "logo": "None", "latitude": 49.870581829880436, "longitude": -97.15720262574288}, "119012151RR0001": {"name": "SOCIETY FOR STAGEWORKS ACADEMY OF THE PERFORMING ARTS", "designationCode": "C", "categoryCode": "22", "address": "4611 44 STREET", "city": "LEDUC", "province": "AB", "country": "CA", "postalCode": "T9E5T3", "twitter": "None", "instagram": "None", "facebook": "None", "youtube": "None", "website": "None", "summary": "None", "logo": "None", "latitude": 53.262080863725544, "longitude": -113.53727460150665}, "119154698RR0001": {"name": "SOCIETY FOR STUDY OF ARCHITECTURE IN CANADA-SOCIETE POUR ETUDE DE L'ARCHITECTURE AU CANADA", "designationCode": "C", "categoryCode": "52", "address": "P.O.BOX 2302, STN D", "city": "OTTAWA", "province": "ON", "country": "CA", "postalCode": "K1P5W5", "twitter": "None", "instagram": "None", "facebook": "None", "youtube": "None", "website": "None", "summary": "None", "logo": "None", "latitude": 45.42177300000006, "longitude": -75.69115999999994}, "880726476RR0001": {"name": "SOCIETY FOR SUPPORT TO PREGNANT AND PARENTING TEENS (PREGNANT TEEN PROGRAM)", "designationCode": "C", "categoryCode": "11", "address": "9625 PRAIRIE RD", "city": "GRANDE PRAIRIE", "province": "AB", "country": "CA", "postalCode": "T8V6G5", "twitter": "None", "instagram": "None", "facebook": "None", "youtube": "None", "website": "None", "summary": "None", "logo": "None", "latitude": 55.153607608344664, "longitude": -118.78450791061239}, "119154706RR0001": {"name": "SOCIETY FOR TALENT EDUCATION", "designationCode": "C", "categoryCode": "22", "address": "10720 54 ST", "city": "EDMONTON", "province": "AB", "country": "CA", "postalCode": "T6A2H9", "twitter": "None", "instagram": "None", "facebook": "None", "youtube": "None", "website": "None", "summary": "None", "logo": "None", "latitude": 53.55520200000001, "longitude": -113.42172976767189}, "119154714RR0001": {"name": "SOCIETY FOR THE ADVANCEMENT OF ESTONIAN STUDIES IN CANADA", "designationCode": "C", "categoryCode": "21", "address": "6520 OAK STREET", "city": "VANCOUVER", "province": "BC", "country": "CA", "postalCode": "V6P3Z2", "twitter": "None", "instagram": "None", "facebook": "None", "youtube": "None", "website": "None", "summary": "None", "logo": "None", "latitude": 49.22620049125743, "longitude": -123.12831200161611}, "805886876RR0001": {"name": "SOCIETY FOR THE EDUCATION AND ASSISTANCE OF RURAL INDIAN CHILDREN-SEARIC", "designationCode": "C", "categoryCode": "09", "address": "PO BOX 76011                  SOUTHGATE POST OFFICE", "city": "EDMONTON", "province": "AB", "country": "CA", "postalCode": "T6H5Y7", "twitter": "None", "instagram": "None", "facebook": "None", "youtube": "None", "website": "None", "summary": "None", "logo": "None", "latitude": 53.494935000000055, "longitude": -113.54074099999994}, "892735986RR0001": {"name": "SOCIETY FOR THE EDUCATION OF RUSSIAN JEWS", "designationCode": "C", "categoryCode": "21", "address": "792 HARTLAND", "city": "OUTREMONT", "province": "QC", "country": "CA", "postalCode": "H2V2X6", "twitter": "None", "instagram": "None", "facebook": "None", "youtube": "None", "website": "None", "summary": "None", "logo": "None", "latitude": 45.51557681903173, "longitude": -73.61898409937092}, "868598764RR0001": {"name": "SOCIETY FOR THE ENHANCEMENT OF QUALITY OF LIFE", "designationCode": "C", "categoryCode": "23", "address": "1270 TOPAZ AVE", "city": "VICTORIA", "province": "BC", "country": "CA", "postalCode": "V8T2N1", "twitter": "None", "instagram": "None", "facebook": "None", "youtube": "None", "website": "None", "summary": "None", "logo": "None", "latitude": 48.443482423827014, "longitude": -123.35270706425642}, "119154748RR0001": {"name": "SOCIETY FOR THE INVOLVEMENT OF GOOD NEIGHBOURS INC.", "designationCode": "C", "categoryCode": "09", "address": "83 NORTH ST", "city": "YORKTON", "province": "SK", "country": "CA", "postalCode": "S3N0G9", "twitter": "None", "instagram": "None", "facebook": "None", "youtube": "None", "website": "None", "summary": "None", "logo": "None", "latitude": 51.21382547100232, "longitude": -102.47877055536961}, "119154763RR0001": {"name": "SOCIETY FOR THE PREVENTION OF CRUELTY TO ANIMALS SWIFT CURRENT BRANCH", "designationCode": "C", "categoryCode": "54", "address": "BOX 1163", "city": "SWIFT CURRENT", "province": "SK", "country": "CA", "postalCode": "S9H3X3", "twitter": "None", "instagram": "None", "facebook": "None", "youtube": "None", "website": "None", "summary": "None", "logo": "None", "latitude": 50.292744000000056, "longitude": -107.80056349999994}, "129951372RR0001": {"name": "SOCIETY FOR THE PROMOTION OF PARENTAL SCHOOLS FOR CHRISTIAN EDUCATION OF BRANTFORD AND VICINITY", "designationCode": "C", "categoryCode": "20", "address": "7 CALVIN STREET", "city": "BRANTFORD", "province": "ON", "country": "CA", "postalCode": "N3S3E4", "twitter": "None", "instagram": "None", "facebook": "None", "youtube": "None", "website": "None", "summary": "None", "logo": "None", "latitude": 43.142393369121244, "longitude": -80.21833837024641}, "106797020RR0001": {"name": "SOCIETY FOR THE PROTECTION AND PRESERVATION OF BLACK CULTURE IN NOVA SCOTIA", "designationCode": "C", "categoryCode": "22", "address": "1149 MAIN STREET", "city": "DARTMOUTH", "province": "NS", "country": "CA", "postalCode": "B2Z1A8", "twitter": "None", "instagram": "None", "facebook": "None", "youtube": "None", "website": "None", "summary": "None", "logo": "None", "latitude": 44.70297402666601, "longitude": -63.470683919470986}, "853400026RR0001": {"name": "SOCIETY FOR THE PROTECTION OF KALAMALKA LAKE / SOCI\u00c9T\u00c9 POUR LA PROTECTION DU LAC KALAMALKA", "designationCode": "C", "categoryCode": "52", "address": "13012 WESTKAL RD.", "city": "COLDSTREAM", "province": "BC", "country": "CA", "postalCode": "V1B1Y5", "twitter": "None", "instagram": "None", "facebook": "None", "youtube": "None", "website": "None", "summary": "None", "logo": "None", "latitude": 50.231245516504195, "longitude": -119.27087940354326}, "129124038RR0001": {"name": "SOCIETY FOR THE PROTECTION OF SARGEANT BAY", "designationCode": "C", "categoryCode": "52", "address": "P.O BOX 1486", "city": "SECHELT", "province": "BC", "country": "CA", "postalCode": "V0N3A0", "twitter": "None", "instagram": "None", "facebook": "None", "youtube": "None", "website": "None", "summary": "None", "logo": "None", "latitude": 49.473460000000046, "longitude": -123.75460999999996}, "886403195RR0001": {"name": "SOCIETY FOR THE REHABILITATION OF ALCOHOLICS", "designationCode": "C", "categoryCode": "57", "address": "1374 ROBIE STREET", "city": "HALIFAX", "province": "NS", "country": "CA", "postalCode": "B3H3E2", "twitter": "None", "instagram": "None", "facebook": "None", "youtube": "None", "website": "None", "summary": "None", "logo": "None", "latitude": 44.63950350207748, "longitude": -63.586494422586256}, "132329541RR0001": {"name": "SOCIETY FOR TREATMENT OF AUTISM (CALGARY REGION)", "designationCode": "C", "categoryCode": "11", "address": "404 94 AVE SE", "city": "CALGARY", "province": "AB", "country": "CA", "postalCode": "T2J0E8", "twitter": "None", "instagram": "None", "facebook": "None", "youtube": "None", "website": "None", "summary": "None", "logo": "None", "latitude": 50.96865945657561, "longitude": -114.06061294463038}, "134415256RR0001": {"name": "SOCIETY FOR TREATMENT OF AUTISM (NOVA SCOTIA)", "designationCode": "C", "categoryCode": "10", "address": "PO BOX 392  STN A             PRESIDENT", "city": "SYDNEY", "province": "NS", "country": "CA", "postalCode": "B1P6H2", "twitter": "None", "instagram": "None", "facebook": "None", "youtube": "None", "website": "None", "summary": "None", "logo": "None", "latitude": 46.137372000000056, "longitude": -60.19552249999994}, "878283126RR0001": {"name": "SOCIETY OF ALUMNI AND FRIENDS OF CRESCENT HEIGHTS HIGH SCHOOL", "designationCode": "C", "categoryCode": "21", "address": "609 ALEXANDER CRES NW", "city": "CALGARY", "province": "AB", "country": "CA", "postalCode": "T2M4B4", "twitter": "None", "instagram": "None", "facebook": "None", "youtube": "None", "website": "None", "summary": "None", "logo": "None", "latitude": 51.06325753621103, "longitude": -114.07504065736627}, "819937996RR0001": {"name": "SOCIETY OF ATLANTIC HEROES RECOVERY AND REINTEGRATION", "designationCode": "C", "categoryCode": "01", "address": "WBLI ACCOUNTING 100 VENTURE   RUN, SUITE 200", "city": "DARTMOUTH", "province": "NS", "country": "CA", "postalCode": "B3B0H9", "twitter": "None", "instagram": "None", "facebook": "None", "youtube": "None", "website": "None", "summary": "None", "logo": "None", "latitude": 44.705900630301855, "longitude": -63.58796295646003}, "119154862RR0001": {"name": "SOCIETY OF AUTUMN GLEN LODGE AUXILIARY", "designationCode": "C", "categoryCode": "09", "address": "35266 RG RD 10", "city": "COUNTY OF RED DEER", "province": "AB", "country": "CA", "postalCode": "T4G0H4", "twitter": "None", "instagram": "None", "facebook": "None", "youtube": "None", "website": "None", "summary": "None", "logo": "None", "latitude": 52.03335300000006, "longitude": -113.98629049999994}, "875420218RR0001": {"name": "SOCIETY OF BARNWELL PARENTS FOR QUALITY EDUCATION", "designationCode": "C", "categoryCode": "21", "address": "BOX 160", "city": "BARNWELL", "province": "AB", "country": "CA", "postalCode": "T0K0B0", "twitter": "None", "instagram": "None", "facebook": "None", "youtube": "None", "website": "None", "summary": "None", "logo": "None", "latitude": 49.76673000000005, "longitude": -112.25180999999998}, "868556408RR0001": {"name": "SOCIETY OF CANADIAN ARTISTS", "designationCode": "C", "categoryCode": "22", "address": "646 KERR TRAIL", "city": "MILTON", "province": "ON", "country": "CA", "postalCode": "L9T5W1", "twitter": "None", "instagram": "None", "facebook": "None", "youtube": "None", "website": "None", "summary": "None", "logo": "None", "latitude": 43.517329062438755, "longitude": -79.84729262127081}, "119154870RR0001": {"name": "SOCIETY OF CANADIAN CINE AMATEURS SOCIETE DES CINE AMATEURS CANADIENS", "designationCode": "C", "categoryCode": "22", "address": "257 ATHENIA DRIVE", "city": "STONEY CREEK", "province": "ON", "country": "CA", "postalCode": "L8J1T6", "twitter": "None", "instagram": "None", "facebook": "None", "youtube": "None", "website": "None", "summary": "None", "logo": "None", "latitude": 43.200112369409695, "longitude": -79.80023472387306}, "889804944RR0001": {"name": "SOCIETY OF CANADIAN ORNITHOLOGISTS/SOCIETE DES ORNITHOLOGISTES DU CANADA", "designationCode": "C", "categoryCode": "21", "address": "1023 FRASER ST", "city": "KAMLOOPS", "province": "BC", "country": "CA", "postalCode": "V2C3H8", "twitter": "None", "instagram": "None", "facebook": "None", "youtube": "None", "website": "None", "summary": "None", "logo": "None", "latitude": 50.66579313460101, "longitude": -120.31608385884944}, "888708864RR0001": {"name": "SOCIETY OF CANADIANS FOR PROGRESS IN INDIA", "designationCode": "C", "categoryCode": "01", "address": "15 NEWPORT DRIVE", "city": "SHERWOOD PARK", "province": "AB", "country": "CA", "postalCode": "T8A5L3", "twitter": "None", "instagram": "None", "facebook": "None", "youtube": "None", "website": "None", "summary": "None", "logo": "None", "latitude": 53.52253224063707, "longitude": -113.27265988790444}, "107990608RR0001": {"name": "SOCIETY OF DEAF AND HARD OF HEARING NOVA SCOTIANS", "designationCode": "C", "categoryCode": "09", "address": "805-1888 BRUNSWICK STREET", "city": "HALIFAX", "province": "NS", "country": "CA", "postalCode": "B3J3J8", "twitter": "None", "instagram": "None", "facebook": "None", "youtube": "None", "website": "None", "summary": "None", "logo": "None", "latitude": 44.64937092838598, "longitude": -63.5781734293956}, "868758376RR0001": {"name": "SOCIETY OF ECONOMIC GEOLOGISTS CANADA FOUNDATION/FONDATION DE LA SOCI\u00c9T\u00c9 DES G\u00c9OLOGUES \u00c9CONOMIQUES DU CANADA", "designationCode": "C", "categoryCode": "21", "address": "PO BOX 48113                  STN BENTALL CENTRE", "city": "VANCOUVER", "province": "BC", "country": "CA", "postalCode": "V7X1N8", "twitter": "None", "instagram": "None", "facebook": "None", "youtube": "None", "website": "None", "summary": "None", "logo": "None", "latitude": 49.286055733749365, "longitude": -123.11861287615625}, "869118661RR0001": {"name": "SOCIETY OF EMISSARIES OF DIVINE LIGHT OF ALBERTA", "designationCode": "C", "categoryCode": "39", "address": "111 CANDLE TERRACE SW", "city": "CALGARY", "province": "AB", "country": "CA", "postalCode": "T2W6G7", "twitter": "None", "instagram": "None", "facebook": "None", "youtube": "None", "website": "None", "summary": "None", "logo": "None", "latitude": 50.93716533527612, "longitude": -114.08363758979164}, "865997340RR0001": {"name": "SOCIETY OF EMMANUELLA HOUSE OF PRAYER", "designationCode": "C", "categoryCode": "47", "address": "471 LONG RIDGE DR", "city": "KELOWNA", "province": "BC", "country": "CA", "postalCode": "V1V2R9", "twitter": "None", "instagram": "None", "facebook": "None", "youtube": "None", "website": "None", "summary": "None", "logo": "None", "latitude": 49.934810462663776, "longitude": -119.44081474516736}, "807929948RR0001": {"name": "SOCIETY OF FIRST BAPTIST CHURCH OLDS ALBERTA", "designationCode": "C", "categoryCode": "31", "address": "5005 - 53RD AVENUE", "city": "OLDS", "province": "AB", "country": "CA", "postalCode": "T4H1H6", "twitter": "None", "instagram": "None", "facebook": "None", "youtube": "None", "website": "None", "summary": "None", "logo": "None", "latitude": 51.793211117664136, "longitude": -114.11246476565361}, "882498009RR0001": {"name": "SOCIETY OF FIRST BAPTIST FELLOWSHIP PEACE RIVER", "designationCode": "C", "categoryCode": "31", "address": "8602-98 ST", "city": "PEACE RIVER", "province": "AB", "country": "CA", "postalCode": "T8S1G4", "twitter": "None", "instagram": "None", "facebook": "None", "youtube": "None", "website": "None", "summary": "None", "logo": "None", "latitude": 56.24752458090484, "longitude": -117.29421042827042}, "891022865RR0001": {"name": "SOCIETY OF FRANCISCAN FATHERS OF ONTARIO", "designationCode": "C", "categoryCode": "46", "address": "1 RESSURECTION ROAD", "city": "TORONTO", "province": "ON", "country": "CA", "postalCode": "M9A5G1", "twitter": "None", "instagram": "None", "facebook": "None", "youtube": "None", "website": "None", "summary": "None", "logo": "None", "latitude": 43.643364149604665, "longitude": -79.53092027918537}, "121851414RR0001": {"name": "SOCIETY OF FRIENDS (QUAKERS) ARGENTA MONTHLY MEETING,", "designationCode": "C", "categoryCode": "39", "address": "GENERAL DELIVERY", "city": "ARGENTA", "province": "BC", "country": "CA", "postalCode": "V0G1B0", "twitter": "None", "instagram": "None", "facebook": "None", "youtube": "None", "website": "None", "summary": "None", "logo": "None", "latitude": 50.11587357288575, "longitude": -116.90666100818785}, "871113767RR0001": {"name": "SOCIETY OF FRIENDS OF ST ANN'S ACADEMY- VICTORIA, BC", "designationCode": "C", "categoryCode": "52", "address": "P.O. BOX 9188                 835 HUMBALT ST.", "city": "VICTORIA", "province": "BC", "country": "CA", "postalCode": "V8W9E6", "twitter": "None", "instagram": "None", "facebook": "None", "youtube": "None", "website": "None", "summary": "None", "logo": "None", "latitude": 48.42854700000005, "longitude": -123.36445249999994}, "131670002RR0001": {"name": "SOCIETY OF FRIENDS OF STRATHCONA PARK", "designationCode": "C", "categoryCode": "56", "address": "PO BOX 3404", "city": "COURTENAY", "province": "BC", "country": "CA", "postalCode": "V9N5N5", "twitter": "None", "instagram": "None", "facebook": "None", "youtube": "None", "website": "None", "summary": "None", "logo": "None", "latitude": 49.68669300000006, "longitude": -124.99317349999993}, "898942230RR0001": {"name": "SOCIETY OF FRIENDS OF THE LETHBRIDGE PUBLIC LIBRARY", "designationCode": "A", "categoryCode": "50", "address": "P.O. BOX 27078", "city": "LETHBRIDGE", "province": "AB", "country": "CA", "postalCode": "T1K6Z8", "twitter": "None", "instagram": "None", "facebook": "None", "youtube": "None", "website": "None", "summary": "None", "logo": "None", "latitude": 49.69383000000006, "longitude": -112.83373249999994}, "130725922RR0001": {"name": "SOCIETY OF GRASSLANDS NATURALISTS", "designationCode": "C", "categoryCode": "52", "address": "P.O. BOX 2491", "city": "MEDICINE HAT", "province": "AB", "country": "CA", "postalCode": "T1A8G8", "twitter": "None", "instagram": "None", "facebook": "None", "youtube": "None", "website": "None", "summary": "None", "logo": "None", "latitude": 50.04107700000006, "longitude": -110.67813349999993}, "119154961RR0001": {"name": "SOCIETY OF INDIAN MISSIONS INC.", "designationCode": "C", "categoryCode": "39", "address": "PO BOX 3624                   REDWOOD POSTAL OUTLET", "city": "WINNIPEG", "province": "MB", "country": "CA", "postalCode": "R2W3R4", "twitter": "None", "instagram": "None", "facebook": "None", "youtube": "None", "website": "None", "summary": "None", "logo": "None", "latitude": 49.9202268867527, "longitude": -97.14013748947589}, "119154979RR0001": {"name": "SOCIETY OF JAPAN MISSION OF CANADA FOR EVANGELISM", "designationCode": "C", "categoryCode": "47", "address": "306 FOXBORO CIR", "city": "SHERWOOD PARK", "province": "AB", "country": "CA", "postalCode": "T8A6K1", "twitter": "None", "instagram": "None", "facebook": "None", "youtube": "None", "website": "None", "summary": "None", "logo": "None", "latitude": 53.52596220483005, "longitude": -113.25751809440793}, "122930019RR0001": {"name": "SOCIETY OF NORTHERN ALBERTA PRINT-ARTISTS", "designationCode": "C", "categoryCode": "22", "address": "10123-121 STREET NW", "city": "EDMONTON", "province": "AB", "country": "CA", "postalCode": "T5N3W9", "twitter": "None", "instagram": "None", "facebook": "None", "youtube": "None", "website": "None", "summary": "None", "logo": "None", "latitude": 53.541495, "longitude": -113.53070780792324}, "888982196RR0001": {"name": "SOCIETY OF ONTARIO FREETHINKERS", "designationCode": "C", "categoryCode": "59", "address": "PO BOX 42036                  RPO CONESTOGA MALL", "city": "WATERLOO", "province": "ON", "country": "CA", "postalCode": "N2L6K5", "twitter": "None", "instagram": "None", "facebook": "None", "youtube": "None", "website": "None", "summary": "None", "logo": "None", "latitude": 43.49840000000006, "longitude": -80.52512999999999}, "119155000RR0001": {"name": "SOCIETY OF OUR LADY SAINT MARY", "designationCode": "C", "categoryCode": "09", "address": "#10275 HIGHWAY 217 WEST       P.O. BOX 762", "city": "DIGBY", "province": "NS", "country": "CA", "postalCode": "B0V1A0", "twitter": "None", "instagram": "None", "facebook": "None", "youtube": "None", "website": "None", "summary": "None", "logo": "None", "latitude": 44.58570489909805, "longitude": -65.90029636908456}, "868582081RR0001": {"name": "SOCIETY OF PARENTS AND FRIENDS OF MICHENER CENTRE", "designationCode": "C", "categoryCode": "22", "address": "BOX 1032", "city": "BENTLEY", "province": "AB", "country": "CA", "postalCode": "T0C0J0", "twitter": "None", "instagram": "None", "facebook": "None", "youtube": "None", "website": "None", "summary": "None", "logo": "None", "latitude": 52.45537747553501, "longitude": -113.96484692260027}, "883313520RR0001": {"name": "SOCIETY OF RICHMOND CHILDREN'S CENTRES", "designationCode": "C", "categoryCode": "20", "address": "UNIT 110-6100 BOWLING GREEN RD", "city": "RICHMOND", "province": "BC", "country": "CA", "postalCode": "V6Y4G2", "twitter": "None", "instagram": "None", "facebook": "None", "youtube": "None", "website": "None", "summary": "None", "logo": "None", "latitude": 49.170135907729936, "longitude": -123.14281645582268}, "132410671RR0294": {"name": "SOCIETY OF SAINT VINCENT DE PAUL - CATHEDRAL ST PETER-IN-CHAINS CONFERENCE", "designationCode": "C", "categoryCode": "09", "address": "308 ELIAS AVE", "city": "PETERBOROUGH", "province": "ON", "country": "CA", "postalCode": "K9J5G9", "twitter": "None", "instagram": "None", "facebook": "None", "youtube": "None", "website": "None", "summary": "None", "logo": "None", "latitude": 44.30141907744239, "longitude": -78.33284081346315}, "132410671RR0306": {"name": "SOCIETY OF SAINT VINCENT DE PAUL - CHRIST THE KING CONFERENCE", "designationCode": "C", "categoryCode": "09", "address": "3674 LAKE SHORE BL. W.", "city": "TORONTO", "province": "ON", "country": "CA", "postalCode": "M8W1N6", "twitter": "None", "instagram": "None", "facebook": "None", "youtube": "None", "website": "None", "summary": "None", "logo": "None", "latitude": 43.593629191845615, "longitude": -79.53771925134153}, "132410671RR0364": {"name": "SOCIETY OF SAINT VINCENT DE PAUL - HOLY REDEEMER CONFERENCE", "designationCode": "C", "categoryCode": "09", "address": "6 TAMARACK STREET", "city": "HUMBER VILLAGE", "province": "NL", "country": "CA", "postalCode": "A2H2N2", "twitter": "None", "instagram": "None", "facebook": "None", "youtube": "None", "website": "None", "summary": "None", "logo": "None", "latitude": 48.98768357279188, "longitude": -57.76202982702286}, "893724443RR0001": {"name": "SOCIETY OF SAINT VINCENT DE PAUL - HOPE COTTAGE", "designationCode": "C", "categoryCode": "09", "address": "2435 BRUNSWICK ST", "city": "HALIFAX", "province": "NS", "country": "CA", "postalCode": "B3K2Z4", "twitter": "None", "instagram": "None", "facebook": "None", "youtube": "None", "website": "None", "summary": "None", "logo": "None", "latitude": 44.65631178157995, "longitude": -63.58653613015761}, "132410671RR0298": {"name": "SOCIETY OF SAINT VINCENT DE PAUL - IMMACULATE CONCEPTION CONFERENCE", "designationCode": "C", "categoryCode": "09", "address": "486 ROGERS ST", "city": "PETERBOROUGH", "province": "ON", "country": "CA", "postalCode": "K9H1W9", "twitter": "None", "instagram": "None", "facebook": "None", "youtube": "None", "website": "None", "summary": "None", "logo": "None", "latitude": 44.30918047183906, "longitude": -78.30839929831528}, "132410671RR0040": {"name": "SOCIETY OF SAINT VINCENT DE PAUL - JOHN XXIII CONFERENCE, DON MILLS, ONTARIO", "designationCode": "C", "categoryCode": "11", "address": "150 GATEWAY BLVD", "city": "DON MILLS", "province": "ON", "country": "CA", "postalCode": "M3C3E2", "twitter": "None", "instagram": "None", "facebook": "None", "youtube": "None", "website": "None", "summary": "None", "logo": "None", "latitude": 43.714175289226006, "longitude": -79.3321187357323}, "132410671RR0249": {"name": "SOCIETY OF SAINT VINCENT DE PAUL - SACRED HEART CONFERENCE, LASALLE, ON", "designationCode": "C", "categoryCode": "09", "address": "1425 DIVINE ST.", "city": "LASALLE", "province": "ON", "country": "CA", "postalCode": "N9J0C5", "twitter": "None", "instagram": "None", "facebook": "None", "youtube": "None", "website": "None", "summary": "None", "logo": "None", "latitude": 42.2335341746625, "longitude": -83.09939298127708}, "132410671RR0296": {"name": "SOCIETY OF SAINT VINCENT DE PAUL - SACRED HEART ST JOHN THEBAPTIST CONFERENCE", "designationCode": "C", "categoryCode": "09", "address": "510 MONAGHAN RD", "city": "PETERBOROUGH", "province": "ON", "country": "CA", "postalCode": "K9J5H5", "twitter": "None", "instagram": "None", "facebook": "None", "youtube": "None", "website": "None", "summary": "None", "logo": "None", "latitude": 44.27451534277794, "longitude": -78.32438110765214}, "132410671RR0295": {"name": "SOCIETY OF SAINT VINCENT DE PAUL - ST ALPHONSUS CONFERENCE", "designationCode": "C", "categoryCode": "09", "address": "1066 WESTERN AVE", "city": "PETERBOROUGH", "province": "ON", "country": "CA", "postalCode": "K9J5W6", "twitter": "None", "instagram": "None", "facebook": "None", "youtube": "None", "website": "None", "summary": "None", "logo": "None", "latitude": 44.29174747183905, "longitude": -78.34140785659909}, "132410671RR0301": {"name": "SOCIETY OF SAINT VINCENT DE PAUL - ST ANNE'S CONFERENCE", "designationCode": "C", "categoryCode": "09", "address": "859 BARNARDO AVE", "city": "PETERBOROUGH", "province": "ON", "country": "CA", "postalCode": "K9H5W2", "twitter": "None", "instagram": "None", "facebook": "None", "youtube": "None", "website": "None", "summary": "None", "logo": "None", "latitude": 44.32211456477602, "longitude": -78.32603274652274}, "132410671RR0300": {"name": "SOCIETY OF SAINT VINCENT DE PAUL - ST FRANCIS OF ASSISI CONFERENCE", "designationCode": "C", "categoryCode": "09", "address": "214 KING AVE. EAST", "city": "NEWCASTLE", "province": "ON", "country": "CA", "postalCode": "L1B1H5", "twitter": "None", "instagram": "None", "facebook": "None", "youtube": "None", "website": "None", "summary": "None", "logo": "None", "latitude": 43.918489045270725, "longitude": -78.5846688043452}, "132410671RR0308": {"name": "SOCIETY OF SAINT VINCENT DE PAUL - ST IGNATIUS CONF ERENCE", "designationCode": "C", "categoryCode": "39", "address": "5 BEDFORD STREET", "city": "BEDFORD", "province": "NS", "country": "CA", "postalCode": "B4A1W5", "twitter": "None", "instagram": "None", "facebook": "None", "youtube": "None", "website": "None", "summary": "None", "logo": "None", "latitude": 44.72673543184843, "longitude": -63.66804994835263}, "132410671RR0302": {"name": "SOCIETY OF SAINT VINCENT DE PAUL - ST JAMES CONFERENCE", "designationCode": "C", "categoryCode": "09", "address": "33260 SHELLEY AVE", "city": "ABBOTSFORD", "province": "BC", "country": "CA", "postalCode": "V2S1A5", "twitter": "None", "instagram": "None", "facebook": "None", "youtube": "None", "website": "None", "summary": "None", "logo": "None", "latitude": 49.031854513994034, "longitude": -122.3027415}, "892487562RR0001": {"name": "SOCIETY OF SAINT VINCENT DE PAUL - ST JOHN VIANNEY CONFEREN", "designationCode": "C", "categoryCode": "09", "address": "4 BEAVERBANK RD", "city": "LOWER SACKVILLE", "province": "NS", "country": "CA", "postalCode": "B4E1G3", "twitter": "None", "instagram": "None", "facebook": "None", "youtube": "None", "website": "None", "summary": "None", "logo": "None", "latitude": 44.77728434306642, "longitude": -63.695396547232626}, "132410671RR0299": {"name": "SOCIETY OF SAINT VINCENT DE PAUL - ST JOSEPH CONFERENCE", "designationCode": "C", "categoryCode": "09", "address": "127 LIBERTY STREET", "city": "BOWMANVILLE", "province": "ON", "country": "CA", "postalCode": "L1C2P5", "twitter": "None", "instagram": "None", "facebook": "None", "youtube": "None", "website": "None", "summary": "None", "logo": "None", "latitude": 43.902937413555236, "longitude": -78.67685046595334}, "132410671RR0303": {"name": "SOCIETY OF SAINT VINCENT DE PAUL - ST JOSEPH CONFERENCE", "designationCode": "C", "categoryCode": "09", "address": "640 - 19 AVENUE N W", "city": "CALGARY", "province": "AB", "country": "CA", "postalCode": "T2M0Y8", "twitter": "None", "instagram": "None", "facebook": "None", "youtube": "None", "website": "None", "summary": "None", "logo": "None", "latitude": 51.06964347879261, "longitude": -114.07589172300767}, "132410671RR0200": {"name": "SOCIETY OF SAINT VINCENT DE PAUL - ST JOSEPH CONFERENCE IN COALHURST", "designationCode": "C", "categoryCode": "09", "address": "26 CANYON BLVD. W.", "city": "LETHBRIDGE", "province": "AB", "country": "CA", "postalCode": "T1K6X6", "twitter": "None", "instagram": "None", "facebook": "None", "youtube": "None", "website": "None", "summary": "None", "logo": "None", "latitude": 49.651471153471135, "longitude": -112.8462966852961}, "132410671RR0304": {"name": "SOCIETY OF SAINT VINCENT DE PAUL - ST JULIA'S CONFERENCE", "designationCode": "A", "categoryCode": "09", "address": "70 MOUNTAIN ST", "city": "ST CATHARINES", "province": "ON", "country": "CA", "postalCode": "L2T2S5", "twitter": "None", "instagram": "None", "facebook": "None", "youtube": "None", "website": "None", "summary": "None", "logo": "None", "latitude": 43.13169148600596, "longitude": -79.21017930391251}, "132410671RR0206": {"name": "SOCIETY OF SAINT VINCENT DE PAUL - ST KEVIN'S CONFERENCE", "designationCode": "C", "categoryCode": "09", "address": "2506 HIGHWAY 69 NORTH", "city": "VAL CARON", "province": "ON", "country": "CA", "postalCode": "P3N1K6", "twitter": "None", "instagram": "None", "facebook": "None", "youtube": "None", "website": "None", "summary": "None", "logo": "None", "latitude": 46.59678244457212, "longitude": -81.00707174232691}, "132410671RR0297": {"name": "SOCIETY OF SAINT VINCENT DE PAUL - ST MICHAELS COBOURG CONFERENCE", "designationCode": "C", "categoryCode": "09", "address": "106 - 145 THIRD ST", "city": "COBOURG", "province": "ON", "country": "CA", "postalCode": "K9A5X1", "twitter": "None", "instagram": "None", "facebook": "None", "youtube": "None", "website": "None", "summary": "None", "logo": "None", "latitude": 43.95660445938894, "longitude": -78.16740183885388}, "132410671RR0312": {"name": "SOCIETY OF SAINT VINCENT DE PAUL - ST THOMAS MORE CONFERENCE", "designationCode": "C", "categoryCode": "09", "address": "5638 HIGHLAND AVE", "city": "NIAGARA FALLS", "province": "ON", "country": "CA", "postalCode": "L2G4X1", "twitter": "None", "instagram": "None", "facebook": "None", "youtube": "None", "website": "None", "summary": "None", "logo": "None", "latitude": 43.09257700582839, "longitude": -79.10235587520941}, "132410671RR0037": {"name": "SOCIETY OF SAINT VINCENT DE PAUL - ST. BENEDICT CONFERENCE, HALIFAX, NS", "designationCode": "C", "categoryCode": "09", "address": "45 RADCLIFFE DR", "city": "HALIFAX", "province": "NS", "country": "CA", "postalCode": "B3M0E1", "twitter": "None", "instagram": "None", "facebook": "None", "youtube": "None", "website": "None", "summary": "None", "logo": "None", "latitude": 44.665764472415965, "longitude": -63.658929537653336}, "132410671RR0410": {"name": "SOCIETY OF SAINT VINCENT DE PAUL - ST. IGNATIUS LOYOLA CONFERENCE", "designationCode": "C", "categoryCode": "09", "address": "2300 BURNHAMTHORPE ROAD WEST", "city": "MISSISSAUGA", "province": "ON", "country": "CA", "postalCode": "L5L3T6", "twitter": "None", "instagram": "None", "facebook": "None", "youtube": "None", "website": "None", "summary": "None", "logo": "None", "latitude": 43.54343329721877, "longitude": -79.68952314014093}, "132410671RR0374": {"name": "SOCIETY OF SAINT VINCENT DE PAUL - ST. JOSEPH'S CONFERENCE", "designationCode": "C", "categoryCode": "09", "address": "1100 MARY ST. N.", "city": "OSHAWA", "province": "ON", "country": "CA", "postalCode": "L1G5G8", "twitter": "None", "instagram": "None", "facebook": "None", "youtube": "None", "website": "None", "summary": "None", "logo": "None", "latitude": 43.925737076317226, "longitude": -78.87269502723731}, "132410671RR0305": {"name": "SOCIETY OF SAINT VINCENT DE PAUL - WESTERN REGIONAL COUNCIL", "designationCode": "C", "categoryCode": "09", "address": "563 HODGSON ROAD", "city": "EDMONTON", "province": "AB", "country": "CA", "postalCode": "T6R3L2", "twitter": "None", "instagram": "None", "facebook": "None", "youtube": "None", "website": "None", "summary": "None", "logo": "None", "latitude": 53.45716544936226, "longitude": -113.55758717069648}, "132410671RR0318": {"name": "SOCIETY OF SAINT VINCENT DE PAUL - YORK SIMCOE PARTICULAR COUNCIL", "designationCode": "C", "categoryCode": "09", "address": "5 BROADVIEW AVE.", "city": "KESWICK", "province": "ON", "country": "CA", "postalCode": "L4P3C8", "twitter": "None", "instagram": "None", "facebook": "None", "youtube": "None", "website": "None", "summary": "None", "logo": "None", "latitude": 44.250139455738896, "longitude": -79.478604506752}, "132410671RR0474": {"name": "SOCIETY OF SAINT VINCENT DE PAUL CONFERENCE, MARY MOTHER OF GOD,OF OAKVILLE ON", "designationCode": "C", "categoryCode": "09", "address": "2745 NORTHRIDGE TR.", "city": "OAKVILLE", "province": "ON", "country": "CA", "postalCode": "L6H7A3", "twitter": "None", "instagram": "None", "facebook": "None", "youtube": "None", "website": "None", "summary": "None", "logo": "None", "latitude": 43.488662059957264, "longitude": -79.71261182030115}, "132410671RR0345": {"name": "SOCIETY OF SAINT VINCENT DE PAUL OF CANADA ST PATRICK'S MEDICINE HAT CONFERENCE", "designationCode": "C", "categoryCode": "09", "address": "P.O.BOX 24054 RPO CRESTWOOD", "city": "MEDECINE HAT", "province": "AB", "country": "CA", "postalCode": "T1A8M8", "twitter": "None", "instagram": "None", "facebook": "None", "youtube": "None", "website": "None", "summary": "None", "logo": "None", "latitude": 50.024387184490244, "longitude": -110.65787119342463}, "876642703RR0001": {"name": "SOCIETY OF SAINT VINCENT DE PAUL ONTARIO REGIONAL COUNCIL", "designationCode": "C", "categoryCode": "09", "address": "38 - 1502 WARBLER WOODS WALK", "city": "LONDON", "province": "ON", "country": "CA", "postalCode": "N6K0A7", "twitter": "None", "instagram": "None", "facebook": "None", "youtube": "None", "website": "None", "summary": "None", "logo": "None", "latitude": 42.96568949321932, "longitude": -81.35578255689883}, "132410671RR0310": {"name": "SOCIETY OF SAINT VINCENT DE PAUL SAINT CECILIA'S CONFERENCE", "designationCode": "C", "categoryCode": "09", "address": "161 ANNETTE STREET", "city": "TORONTO", "province": "ON", "country": "CA", "postalCode": "M6P1P5", "twitter": "None", "instagram": "None", "facebook": "None", "youtube": "None", "website": "None", "summary": "None", "logo": "None", "latitude": 43.66331683816166, "longitude": -79.46708582915929}, "850047010RR0001": {"name": "SOCIETY OF SAINT VINCENT DE PAUL WINDSOR ESSEX CENTRAL COUNCIL", "designationCode": "C", "categoryCode": "09", "address": "3707 QUEEN ST", "city": "WINDSOR", "province": "ON", "country": "CA", "postalCode": "N9C1P2", "twitter": "None", "instagram": "None", "facebook": "None", "youtube": "None", "website": "None", "summary": "None", "logo": "None", "latitude": 42.29043218525686, "longitude": -83.0794004503954}, "132410671RR0193": {"name": "SOCIETY OF SAINT VINCENT DE PAUL-ST MARK CONFERENCE, CALGARY", "designationCode": "C", "categoryCode": "09", "address": "5552 MADIGAN DR. NE", "city": "CALGARY", "province": "AB", "country": "CA", "postalCode": "T2A4P2", "twitter": "None", "instagram": "None", "facebook": "None", "youtube": "None", "website": "None", "summary": "None", "logo": "None", "latitude": 51.062399412718534, "longitude": -113.95430534263372}, "132410671RR0435": {"name": "SOCIETY OF SAINT VINCENT DE PAUL-ST. JOHN/HOLY SPIRIT CONFERENCE, EDMONTON AB", "designationCode": "C", "categoryCode": "09", "address": "8314-164 STREET", "city": "EDMONTON", "province": "AB", "country": "CA", "postalCode": "T5R2P8", "twitter": "None", "instagram": "None", "facebook": "None", "youtube": "None", "website": "None", "summary": "None", "logo": "None", "latitude": 53.517338664723866, "longitude": -113.60547771429377}, "132410671RR0466": {"name": "SOCIETY OF SAINT VINCENT DE PAUL, CANADIAN MARTYRS CONFERENCE, CALGARY AB", "designationCode": "C", "categoryCode": "09", "address": "835 NORTHMOUNT DR. N.W.", "city": "CALGARY", "province": "AB", "country": "CA", "postalCode": "T2L0A3", "twitter": "None", "instagram": "None", "facebook": "None", "youtube": "None", "website": "None", "summary": "None", "logo": "None", "latitude": 51.08432302663175, "longitude": -114.0994352498123}, "132410671RR0098": {"name": "SOCIETY OF SAINT VINCENT DE PAUL, PARTICULAR COUNCIL OF WINDSOR EAST IN TECUMSEH", "designationCode": "C", "categoryCode": "09", "address": "3707 QUEEN ST.", "city": "WINDSOR", "province": "ON", "country": "CA", "postalCode": "N9C1P2", "twitter": "None", "instagram": "None", "facebook": "None", "youtube": "None", "website": "None", "summary": "None", "logo": "None", "latitude": 42.29043218525686, "longitude": -83.0794004503954}, "890556848RR0001": {"name": "SOCIETY OF SAINT VINCENT DE PAUL, SAINT BARNABAS CONFERENCE", "designationCode": "C", "categoryCode": "09", "address": "20 GOODLESS COURT", "city": "SCARBOROUGH", "province": "ON", "country": "CA", "postalCode": "M1B1A1", "twitter": "None", "instagram": "None", "facebook": "None", "youtube": "None", "website": "None", "summary": "None", "logo": "None", "latitude": 43.79696660669988, "longitude": -79.227031022217}, "132410671RR0231": {"name": "SOCIETY OF SAINT VINCENT DE PAUL, SAINT MARY OF THE VISITATION CONFERENCE, CAMBRIDGE", "designationCode": "C", "categoryCode": "09", "address": "16 COOPER STREET", "city": "CAMBRIDGE", "province": "ON", "country": "CA", "postalCode": "N3C2N2", "twitter": "None", "instagram": "None", "facebook": "None", "youtube": "None", "website": "None", "summary": "None", "logo": "None", "latitude": 43.432098853165314, "longitude": -80.30762929753588}, "132410671RR0076": {"name": "SOCIETY OF SAINT VINCENT-DE-PAUL - CORPUS CHRISTI CONFERENCE", "designationCode": "C", "categoryCode": "09", "address": "12 WATERFORD HGTS. N.", "city": "ST. JOHN'S", "province": "NL", "country": "CA", "postalCode": "A1E1G6", "twitter": "None", "instagram": "None", "facebook": "None", "youtube": "None", "website": "None", "summary": "None", "logo": "None", "latitude": 47.52375339635856, "longitude": -52.758193618673744}, "132410671RR0449": {"name": "SOCIETY OF SAINT-VINCENT DE PAUL - ST. PATRICK CONFERENCE", "designationCode": "C", "categoryCode": "09", "address": "53 WELLINGTON STREET", "city": "CAMBRIDGE", "province": "ON", "country": "CA", "postalCode": "N1R3Y6", "twitter": "None", "instagram": "None", "facebook": "None", "youtube": "None", "website": "None", "summary": "None", "logo": "None", "latitude": 43.3614409103526, "longitude": -80.31127421536162}, "132410671RR0445": {"name": "SOCIETY OF SAINT-VINCENT DE PAUL, ST ANDREW CONFERENCE - WELLAND (ONTARIO)", "designationCode": "C", "categoryCode": "09", "address": "90 GRIFFITH STREET", "city": "WELLAND", "province": "ON", "country": "CA", "postalCode": "L3B4G4", "twitter": "None", "instagram": "None", "facebook": "None", "youtube": "None", "website": "None", "summary": "None", "logo": "None", "latitude": 42.98850349711448, "longitude": -79.24759166472387}, "107990699RR0001": {"name": "SOCIETY OF SHARING: INNER-CITY VOLUNTEERS", "designationCode": "C", "categoryCode": "59", "address": "25 LINDEN ST", "city": "TORONTO", "province": "ON", "country": "CA", "postalCode": "M4Y1V5", "twitter": "None", "instagram": "None", "facebook": "None", "youtube": "None", "website": "None", "summary": "None", "logo": "None", "latitude": 43.67052784927017, "longitude": -79.37719579349651}, "892779844RR0001": {"name": "SOCIETY OF SINGERS (SOS)", "designationCode": "C", "categoryCode": "22", "address": "1802 - 530 ST CLAIR AVE W", "city": "TORONTO", "province": "ON", "country": "CA", "postalCode": "M6C0A2", "twitter": "None", "instagram": "None", "facebook": "None", "youtube": "None", "website": "None", "summary": "None", "logo": "None", "latitude": 43.680757912631584, "longitude": -79.4305279062632}, "890560345RR0001": {"name": "SOCIETY OF ST VINCENT DE PAUL - CAMBRIDGE PARTICULAR COUNCIL", "designationCode": "C", "categoryCode": "09", "address": "#6C, 75 DUNDAS STREET", "city": "CAMBRIDGE", "province": "ON", "country": "CA", "postalCode": "N1R6G5", "twitter": "None", "instagram": "None", "facebook": "None", "youtube": "None", "website": "None", "summary": "None", "logo": "None", "latitude": 43.35817805308967, "longitude": -80.29327530131638}}