{"118901305RR0001": {"name": "ERIE STREET UNITED CHURCH", "designationCode": "C", "categoryCode": "44", "address": "PO BOX 247", "city": "RIDGETOWN", "province": "ON", "country": "CA", "postalCode": "N0P2C0", "twitter": "None", "instagram": "None", "facebook": "None", "youtube": "None", "website": "None", "summary": "None", "logo": "None", "latitude": 42.42687003390246, "longitude": -81.90498998889144}, "131651317RR0001": {"name": "ERIE VIEW UNITED MENNONITE CHURCH", "designationCode": "C", "categoryCode": "34", "address": "220 CONC 6 RD", "city": "WALSINGHAM", "province": "ON", "country": "CA", "postalCode": "N0E1X0", "twitter": "None", "instagram": "None", "facebook": "None", "youtube": "None", "website": "None", "summary": "None", "logo": "None", "latitude": 42.65095174242606, "longitude": -80.58792943199266}, "135226876RR0001": {"name": "ERIE WILDLIFE RESCUE", "designationCode": "C", "categoryCode": "54", "address": "11168 TECUMSEH RD E", "city": "WINDSOR", "province": "ON", "country": "CA", "postalCode": "N8R1A8", "twitter": "None", "instagram": "None", "facebook": "None", "youtube": "None", "website": "None", "summary": "None", "logo": "None", "latitude": 42.31302334116182, "longitude": -82.90457712502172}, "888918034RR0001": {"name": "ERIKSDALE COMMUNITY CLUB TRUST", "designationCode": "C", "categoryCode": "56", "address": "1ST AVENUE SOUTH              P.O. BOX 320", "city": "ERIKSDALE", "province": "MB", "country": "CA", "postalCode": "R0C0W0", "twitter": "None", "instagram": "None", "facebook": "None", "youtube": "None", "website": "None", "summary": "None", "logo": "None", "latitude": 50.86230067550619, "longitude": -98.10185341790657}, "893511964RR0001": {"name": "ERIKSDALE COMMUNITY RESOURCE COUNCIL INCORPORATED", "designationCode": "B", "categoryCode": "09", "address": "BOX 382", "city": "ERIKSDALE", "province": "MB", "country": "CA", "postalCode": "R0C0W0", "twitter": "None", "instagram": "None", "facebook": "None", "youtube": "None", "website": "None", "summary": "None", "logo": "None", "latitude": 50.86375000000004, "longitude": -98.11142999999998}, "107308843RR0001": {"name": "ERIKSDALE EVANGELICAL FREE CHURCH INC.", "designationCode": "C", "categoryCode": "39", "address": "BOX 347", "city": "ERIKSDALE", "province": "MB", "country": "CA", "postalCode": "R0C0W0", "twitter": "None", "instagram": "None", "facebook": "None", "youtube": "None", "website": "None", "summary": "None", "logo": "None", "latitude": 50.86375000000004, "longitude": -98.11142999999998}, "872314174RR0001": {"name": "ERIKSDALE MUSEUM INCORPORATED", "designationCode": "C", "categoryCode": "50", "address": "BOX 71", "city": "ERIKSDALE", "province": "MB", "country": "CA", "postalCode": "R0C0W0", "twitter": "None", "instagram": "None", "facebook": "None", "youtube": "None", "website": "None", "summary": "None", "logo": "None", "latitude": 50.86375000000004, "longitude": -98.11142999999998}, "125806620RR0001": {"name": "ERIN AGRICULTURAL SOCIETY", "designationCode": "C", "categoryCode": "56", "address": "P.O. BOX 906", "city": "ERIN", "province": "ON", "country": "CA", "postalCode": "N0B1T0", "twitter": "None", "instagram": "None", "facebook": "None", "youtube": "None", "website": "None", "summary": "None", "logo": "None", "latitude": 43.758004500000006, "longitude": -80.07697350000001}, "862029154RR0001": {"name": "ERIN ARTS FOUNDATION", "designationCode": "C", "categoryCode": "22", "address": "3 HILL ST", "city": "HILLSBURGH", "province": "ON", "country": "CA", "postalCode": "N0B1Z0", "twitter": "None", "instagram": "None", "facebook": "None", "youtube": "None", "website": "None", "summary": "None", "logo": "None", "latitude": 43.79549584662144, "longitude": -80.14927474711305}, "119288918RR0775": {"name": "ERIN CONGREGATION OF JEHOVAH'S WITNESSES", "designationCode": "C", "categoryCode": "61", "address": "9430 WELLINGTON ROAD 42       PO BOX 225", "city": "BALLINAFAD", "province": "ON", "country": "CA", "postalCode": "N0B1T0", "twitter": "None", "instagram": "None", "facebook": "None", "youtube": "None", "website": "None", "summary": "None", "logo": "None", "latitude": 43.69629325663039, "longitude": -80.0113694431566}, "107309007RR0001": {"name": "ERIN HILLSBURGH PASTORAL CHARGE OF THE UNITED CHURCH OF CANADA", "designationCode": "C", "categoryCode": "44", "address": "BOX 463", "city": "ERIN", "province": "ON", "country": "CA", "postalCode": "N0B1T0", "twitter": "None", "instagram": "None", "facebook": "None", "youtube": "None", "website": "None", "summary": "None", "logo": "None", "latitude": 43.758004500000006, "longitude": -80.07697350000001}, "107309072RR0001": {"name": "ERIN MILLS BAPTIST CHURCH", "designationCode": "C", "categoryCode": "31", "address": "1991 SOUTH MILLWAY", "city": "MISSISSAUGA", "province": "ON", "country": "CA", "postalCode": "L5L1R4", "twitter": "None", "instagram": "None", "facebook": "None", "youtube": "None", "website": "None", "summary": "None", "logo": "None", "latitude": 43.539893986946815, "longitude": -79.67421242187638}, "107309080RR0001": {"name": "ERIN MILLS CHURCH CAMPUS", "designationCode": "C", "categoryCode": "49", "address": "3535 SOUTH COMMON COURT", "city": "MISSISSAUGA", "province": "ON", "country": "CA", "postalCode": "L5L2B3", "twitter": "None", "instagram": "None", "facebook": "None", "youtube": "None", "website": "None", "summary": "None", "logo": "None", "latitude": 43.54322738138359, "longitude": -79.68633599509525}, "101676864RR0001": {"name": "ERIN MILLS CO-OPERATIVE NURSERY SCHOOL INC.", "designationCode": "C", "categoryCode": "20", "address": "2264 COUNCIL RING RD", "city": "MISSISSAUGA", "province": "ON", "country": "CA", "postalCode": "L5L1B7", "twitter": "None", "instagram": "None", "facebook": "None", "youtube": "None", "website": "None", "summary": "None", "logo": "None", "latitude": 43.53674038030694, "longitude": -79.67708911569326}, "119288918RR0548": {"name": "ERIN MILLS CONGREGATION OF JEHOVAH'S WITNESSES, TORONTO ONTARIO", "designationCode": "C", "categoryCode": "61", "address": "44-3500 GLEN ERIN DR", "city": "MISSISSAUGA", "province": "ON", "country": "CA", "postalCode": "L5L1W6", "twitter": "None", "instagram": "None", "facebook": "None", "youtube": "None", "website": "None", "summary": "None", "logo": "None", "latitude": 43.53833177514598, "longitude": -79.68814803003593}, "107309148RR0001": {"name": "ERIN MILLS UNITED CHURCH", "designationCode": "C", "categoryCode": "39", "address": "3010 THE COLLEGEWAY", "city": "MISSISSAUGA", "province": "ON", "country": "CA", "postalCode": "L5L4X9", "twitter": "None", "instagram": "None", "facebook": "None", "youtube": "None", "website": "None", "summary": "None", "logo": "None", "latitude": 43.5301327535059, "longitude": -79.69358407989523}, "820967859RR0001": {"name": "ERIN MILLS YOUTH CENTRE", "designationCode": "C", "categoryCode": "09", "address": "3010 THE COLLEGEWAY", "city": "MISSISSAUGA", "province": "ON", "country": "CA", "postalCode": "L5L4X9", "twitter": "None", "instagram": "None", "facebook": "None", "youtube": "None", "website": "None", "summary": "None", "logo": "None", "latitude": 43.5301327535059, "longitude": -79.69358407989523}, "758750525RR0001": {"name": "ERIN VILLAGE ALLIANCE CHURCH OF THE CHRISTIAN AND MISSIONARY ALLIANCE IN CANADA", "designationCode": "C", "categoryCode": "39", "address": "PO BOX 431", "city": "ERIN", "province": "ON", "country": "CA", "postalCode": "N0B1T0", "twitter": "None", "instagram": "None", "facebook": "None", "youtube": "None", "website": "None", "summary": "None", "logo": "None", "latitude": 43.758004500000006, "longitude": -80.07697350000001}, "135950046RR0001": {"name": "ERINDALE ALLIANCE CHURCH INC.", "designationCode": "C", "categoryCode": "39", "address": "310 PEREHUDOFF CRES", "city": "SASKATOON", "province": "SK", "country": "CA", "postalCode": "S7N4H1", "twitter": "None", "instagram": "None", "facebook": "None", "youtube": "None", "website": "None", "summary": "None", "logo": "None", "latitude": 52.1453063916267, "longitude": -106.56738091996147}, "130721129RR0001": {"name": "ERINDALE BIBLE CHAPEL", "designationCode": "C", "categoryCode": "39", "address": "1400 DUNDAS CRES", "city": "MISSISSAUGA", "province": "ON", "country": "CA", "postalCode": "L5C1E7", "twitter": "None", "instagram": "None", "facebook": "None", "youtube": "None", "website": "None", "summary": "None", "logo": "None", "latitude": 43.55023194087946, "longitude": -79.65038682996735}, "888993573RR0001": {"name": "ERINDALE LADIES FELLOWSHIP", "designationCode": "C", "categoryCode": "47", "address": "1560 DUNDAS ST W", "city": "MISSISSAUGA", "province": "ON", "country": "CA", "postalCode": "L5C1E5", "twitter": "None", "instagram": "None", "facebook": "None", "youtube": "None", "website": "None", "summary": "None", "logo": "None", "latitude": 43.54583982679337, "longitude": -79.65308246000939}, "107308967RR0001": {"name": "ERINDALE PRESBYTERIAN CHURCH", "designationCode": "C", "categoryCode": "37", "address": "1560 DUNDAS STREET WEST", "city": "MISSISSAUGA", "province": "ON", "country": "CA", "postalCode": "L5C1E5", "twitter": "None", "instagram": "None", "facebook": "None", "youtube": "None", "website": "None", "summary": "None", "logo": "None", "latitude": 43.54583982679337, "longitude": -79.65308246000939}, "118901354RR0001": {"name": "ERINDALE UNITED CHURCH", "designationCode": "C", "categoryCode": "44", "address": "1444 DUNDAS CRESC", "city": "MISSISSAUGA", "province": "ON", "country": "CA", "postalCode": "L5C1E9", "twitter": "None", "instagram": "None", "facebook": "None", "youtube": "None", "website": "None", "summary": "None", "logo": "None", "latitude": 43.54882923343262, "longitude": -79.65011055618879}, "827113895RR0001": {"name": "ERINOAKKIDS FOUNDATION - FONDATION ERINOAKKIDS", "designationCode": "A", "categoryCode": "13", "address": "2655 NORTH SHERIDAN WAY       SUITE 110", "city": "MISSISSAUGA", "province": "ON", "country": "CA", "postalCode": "L5K2P8", "twitter": "None", "instagram": "None", "facebook": "None", "youtube": "None", "website": "None", "summary": "None", "logo": "None", "latitude": 43.511874470738704, "longitude": -79.66268218222741}, "118901479RR0001": {"name": "ERINVILLE AND DISTRICT VOLUNTER FIRE DEPARTMENT", "designationCode": "C", "categoryCode": "59", "address": "RR1", "city": "GUYSBOROUGH", "province": "NS", "country": "CA", "postalCode": "B0H1N0", "twitter": "None", "instagram": "None", "facebook": "None", "youtube": "None", "website": "None", "summary": "None", "logo": "None", "latitude": 45.37026600000006, "longitude": -61.50474349999993}, "132652173RR0001": {"name": "ERITREAN CANADIAN COMMUNITY CENTRE OF METROPOLITAN TORONTO", "designationCode": "C", "categoryCode": "56", "address": "19 - 729 ST CLAIR AVE W", "city": "TORONTO", "province": "ON", "country": "CA", "postalCode": "M6C1B2", "twitter": "None", "instagram": "None", "facebook": "None", "youtube": "None", "website": "None", "summary": "None", "logo": "None", "latitude": 43.680757912631584, "longitude": -79.4305279062632}, "890628563RR0001": {"name": "ERITREE ECOLOGICAL SUPPORT GROUP", "designationCode": "C", "categoryCode": "09", "address": "569 CHANTENAY DR", "city": "MISSISSAUGA", "province": "ON", "country": "CA", "postalCode": "L5A1G4", "twitter": "None", "instagram": "None", "facebook": "None", "youtube": "None", "website": "None", "summary": "None", "logo": "None", "latitude": 43.58240947709052, "longitude": -79.59100121622701}, "118901495RR0001": {"name": "ERLE ALLAN TRUST FUND", "designationCode": "B", "categoryCode": "65", "address": "202-20 GORE STREET", "city": "KINGSTON", "province": "ON", "country": "CA", "postalCode": "K7L2L1", "twitter": "None", "instagram": "None", "facebook": "None", "youtube": "None", "website": "None", "summary": "None", "logo": "None", "latitude": 44.22572691006414, "longitude": -76.48296215044138}, "131556060RR0001": {"name": "ERMI-SOURCE", "designationCode": "C", "categoryCode": "49", "address": "120 RUE DES CHALETS C.P. 272", "city": "SQUATEC", "province": "QC", "country": "CA", "postalCode": "G0L4H0", "twitter": "None", "instagram": "None", "facebook": "None", "youtube": "None", "website": "None", "summary": "None", "logo": "None", "latitude": 47.506350531076, "longitude": -69.80898353989382}, "899499719RR0001": {"name": "ERMITAGE SOURCE VIVE", "designationCode": "C", "categoryCode": "49", "address": "51 RTE 216", "city": "WOTTON", "province": "QC", "country": "CA", "postalCode": "J0A1N0", "twitter": "None", "instagram": "None", "facebook": "None", "youtube": "None", "website": "None", "summary": "None", "logo": "None", "latitude": 45.76896572405227, "longitude": -71.79866770007314}, "118970979RR0001": {"name": "ERNESCLIFF FOUNDATION", "designationCode": "C", "categoryCode": "21", "address": "156 ST.GEORGE ST", "city": "TORONTO", "province": "ON", "country": "CA", "postalCode": "M5S2G1", "twitter": "None", "instagram": "None", "facebook": "None", "youtube": "None", "website": "None", "summary": "None", "logo": "None", "latitude": 43.66658455952457, "longitude": -79.39948612799323}, "140931262RR0001": {"name": "ERNEST BRADSHAW ESTATE", "designationCode": "B", "categoryCode": "15", "address": "155 WELLINGTON ST W           20TH FLOOR", "city": "TORONTO", "province": "ON", "country": "CA", "postalCode": "M5V3K7", "twitter": "None", "instagram": "None", "facebook": "None", "youtube": "None", "website": "None", "summary": "None", "logo": "None", "latitude": 43.64596585316531, "longitude": -79.38574575644876}, "131895930RR0001": {"name": "ERNEST C MANNING AWARDS FOUNDATION", "designationCode": "C", "categoryCode": "59", "address": "266 - 3553 31 ST NW", "city": "CALGARY", "province": "AB", "country": "CA", "postalCode": "T2L2K7", "twitter": "None", "instagram": "None", "facebook": "None", "youtube": "None", "website": "None", "summary": "None", "logo": "None", "latitude": 51.08478232944776, "longitude": -114.12942475800662}, "131798092RR0001": {"name": "ERNEST CHAPLEAU COOPERATIVE D'HABITATION", "designationCode": "C", "categoryCode": "59", "address": "95 POINTE-AUX-LIEVRES", "city": "QUEBEC", "province": "QC", "country": "CA", "postalCode": "G1K5Y6", "twitter": "None", "instagram": "None", "facebook": "None", "youtube": "None", "website": "None", "summary": "None", "logo": "None", "latitude": 46.82006662285736, "longitude": -71.23185106102511}, "118901537RR0001": {"name": "ERNEST H. DAINTY FOUNDATION", "designationCode": "B", "categoryCode": "25", "address": "80 YORK STREET", "city": "KINGSTON", "province": "ON", "country": "CA", "postalCode": "K7K1P8", "twitter": "None", "instagram": "None", "facebook": "None", "youtube": "None", "website": "None", "summary": "None", "logo": "None", "latitude": 44.23676442991519, "longitude": -76.49184066126142}, "866659287RR0001": {"name": "ERNEST J WOLFF COUNCIL NO 798 CHARITABLE WELFARE", "designationCode": "A", "categoryCode": "65", "address": "317 HUNTER ST WEST", "city": "PETERBOROUGH", "province": "ON", "country": "CA", "postalCode": "K9H2M1", "twitter": "None", "instagram": "None", "facebook": "None", "youtube": "None", "website": "None", "summary": "None", "logo": "None", "latitude": 44.30523955395598, "longitude": -78.32731224992787}, "888687142RR0001": {"name": "ERNEST TURCOTTE EVANGELISTIC ASSOCIATION", "designationCode": "C", "categoryCode": "47", "address": "25 GOLDEN AVENUE", "city": "SOUTH PORCUPINE", "province": "ON", "country": "CA", "postalCode": "P0N1H0", "twitter": "None", "instagram": "None", "facebook": "None", "youtube": "None", "website": "None", "summary": "None", "logo": "None", "latitude": 48.477162829103754, "longitude": -81.21419331708962}, "101678969RR0001": {"name": "ERNESTINE'S WOMEN'S SHELTER", "designationCode": "C", "categoryCode": "09", "address": "PO BOX 141 STN B", "city": "ETOBICOKE", "province": "ON", "country": "CA", "postalCode": "M9W5K9", "twitter": "None", "instagram": "None", "facebook": "None", "youtube": "None", "website": "None", "summary": "None", "logo": "None", "latitude": 43.71154800000005, "longitude": -79.58452399999993}, "118901578RR0001": {"name": "ERNIE GARE ATHLETIC SCHOLARSHIP SOCIETY", "designationCode": "C", "categoryCode": "21", "address": "202 - 520 KOOTENAY ST", "city": "NELSON", "province": "BC", "country": "CA", "postalCode": "V1L5W4", "twitter": "None", "instagram": "None", "facebook": "None", "youtube": "None", "website": "None", "summary": "None", "logo": "None", "latitude": 49.490745035677904, "longitude": -117.2966090233037}, "118901586RR0001": {"name": "ERNIE HOLLANDS HEBRON MINISTRIES INC.", "designationCode": "C", "categoryCode": "01", "address": "BOX 1505", "city": "LONDON", "province": "ON", "country": "CA", "postalCode": "N6A5M2", "twitter": "None", "instagram": "None", "facebook": "None", "youtube": "None", "website": "None", "summary": "None", "logo": "None", "latitude": 42.98689500000006, "longitude": -81.24624349999993}, "806458279RR0001": {"name": "ERRANDS FOR JESUS FOUNDATION", "designationCode": "B", "categoryCode": "49", "address": "90 BRIDLE PATH", "city": "STRATHROY", "province": "ON", "country": "CA", "postalCode": "N7G4K3", "twitter": "None", "instagram": "None", "facebook": "None", "youtube": "None", "website": "None", "summary": "None", "logo": "None", "latitude": 42.94395995446948, "longitude": -81.63210118930681}, "891789240RR0001": {"name": "ERRC EDUCATIONAL SOCIETY", "designationCode": "C", "categoryCode": "21", "address": "535-555 BURRARD STREET        TWO BENTALL CENTRE", "city": "VANCOUVER", "province": "BC", "country": "CA", "postalCode": "V7X1M8", "twitter": "None", "instagram": "None", "facebook": "None", "youtube": "None", "website": "None", "summary": "None", "logo": "None", "latitude": 49.28600000000006, "longitude": -123.11872999999997}, "895064780RR0001": {"name": "ERRINGTON AND DISTRICT VOLUNTEER FIRE DEPARTMENT", "designationCode": "C", "categoryCode": "59", "address": "BOX 110", "city": "ERRINGTON", "province": "BC", "country": "CA", "postalCode": "V0R1V0", "twitter": "None", "instagram": "None", "facebook": "None", "youtube": "None", "website": "None", "summary": "None", "logo": "None", "latitude": 49.28217572514915, "longitude": -124.37907975417973}, "107310120RR0001": {"name": "ERRINGTON PRESCHOOL PARENTS SOCIETY", "designationCode": "C", "categoryCode": "20", "address": "BOX 596", "city": "ERRINGTON", "province": "BC", "country": "CA", "postalCode": "V0R1V0", "twitter": "None", "instagram": "None", "facebook": "None", "youtube": "None", "website": "None", "summary": "None", "logo": "None", "latitude": 49.28217572514915, "longitude": -124.37907975417973}, "130345093RR0001": {"name": "ERRINGTON THERAPEUTIC RIDING ASSOCIATION", "designationCode": "C", "categoryCode": "56", "address": "PO BOX 462  STN MAIN", "city": "PARKSVILLE", "province": "BC", "country": "CA", "postalCode": "V9P2G6", "twitter": "None", "instagram": "None", "facebook": "None", "youtube": "None", "website": "None", "summary": "None", "logo": "None", "latitude": 49.31968200000006, "longitude": -124.31365099999994}, "861261030RR0001": {"name": "ERRINGTON WAR MEMORIAL HALL ASSOCIATION", "designationCode": "C", "categoryCode": "56", "address": "PO BOX 15", "city": "ERRINGTON", "province": "BC", "country": "CA", "postalCode": "V0R1V0", "twitter": "None", "instagram": "None", "facebook": "None", "youtube": "None", "website": "None", "summary": "None", "logo": "None", "latitude": 49.28217572514915, "longitude": -124.37907975417973}, "889314068RR0001": {"name": "ERS ENDOCRINE RESEARCH SOCIETY", "designationCode": "C", "categoryCode": "11", "address": "410-1033 DAVIE STREET", "city": "VANCOUVER", "province": "BC", "country": "CA", "postalCode": "V6E1M7", "twitter": "None", "instagram": "None", "facebook": "None", "youtube": "None", "website": "None", "summary": "None", "logo": "None", "latitude": 49.279768270067414, "longitude": -123.13020721729487}, "889649869RR0001": {"name": "ERSKINE CEMETERY CLUB", "designationCode": "C", "categoryCode": "59", "address": "PO BOX 408", "city": "ERSKINE", "province": "AB", "country": "CA", "postalCode": "T0C1G0", "twitter": "None", "instagram": "None", "facebook": "None", "youtube": "None", "website": "None", "summary": "None", "logo": "None", "latitude": 52.32050000000004, "longitude": -112.87845999999996}, "138444344RR0001": {"name": "ERSKINE CHARITABLE TRUST", "designationCode": "B", "categoryCode": "39", "address": "3425  2ND AVENUE SOUTH", "city": "LETHBRIDGE", "province": "AB", "country": "CA", "postalCode": "T1J4V1", "twitter": "None", "instagram": "None", "facebook": "None", "youtube": "None", "website": "None", "summary": "None", "logo": "None", "latitude": 49.696839530439966, "longitude": -112.78914308381903}, "118901628RR0001": {"name": "ERSKINE PRESBYTERIAN CHURCH", "designationCode": "C", "categoryCode": "37", "address": "19 PEARL ST NORTH", "city": "HAMILTON", "province": "ON", "country": "CA", "postalCode": "L8R2Y6", "twitter": "None", "instagram": "None", "facebook": "None", "youtube": "None", "website": "None", "summary": "None", "logo": "None", "latitude": 43.260890330902164, "longitude": -79.88175106065303}, "131559981RR0001": {"name": "ERSKINE PRESBYTERIAN CHURCH,", "designationCode": "C", "categoryCode": "37", "address": "P.O. BOX 323", "city": "DUNDALK", "province": "ON", "country": "CA", "postalCode": "N0C1B0", "twitter": "None", "instagram": "None", "facebook": "None", "youtube": "None", "website": "None", "summary": "None", "logo": "None", "latitude": 44.16787539880879, "longitude": -80.39404277157527}, "118901669RR0001": {"name": "ERSKINE UNITED CHURCH", "designationCode": "C", "categoryCode": "44", "address": "BOX 433", "city": "ERSKINE", "province": "AB", "country": "CA", "postalCode": "T0C1G0", "twitter": "None", "instagram": "None", "facebook": "None", "youtube": "None", "website": "None", "summary": "None", "logo": "None", "latitude": 52.32050000000004, "longitude": -112.87845999999996}, "844380329RR0001": {"name": "ERTUGRUL EDUCATION SOCIETY", "designationCode": "C", "categoryCode": "21", "address": "312 LAWRENCE AVE", "city": "KITCHENER", "province": "ON", "country": "CA", "postalCode": "N2M1Y4", "twitter": "None", "instagram": "None", "facebook": "None", "youtube": "None", "website": "None", "summary": "None", "logo": "None", "latitude": 43.44136594866975, "longitude": -80.51370259905381}, "118901677RR0001": {"name": "ERWIN TAYLOR CHARITABLE FOUNDATION", "designationCode": "B", "categoryCode": "03", "address": "PO BOX 740", "city": "FONTHILL", "province": "ON", "country": "CA", "postalCode": "L0S1E0", "twitter": "None", "instagram": "None", "facebook": "None", "youtube": "None", "website": "None", "summary": "None", "logo": "None", "latitude": 43.04568000000006, "longitude": -79.28625999999997}, "862683737RR0001": {"name": "ESA\u00cfE 61/GOOD NEWS MINISTRIES INTERNATIONAL", "designationCode": "C", "categoryCode": "43", "address": "P.O BOX 72                    SUCC LENNOXVILLE", "city": "SHERBROOKE", "province": "QC", "country": "CA", "postalCode": "J1M1Z3", "twitter": "None", "instagram": "None", "facebook": "None", "youtube": "None", "website": "None", "summary": "None", "logo": "None", "latitude": 45.36752000000007, "longitude": -71.85659999999996}, "123613523RR0023": {"name": "ESCADRON 502 - VALLEE DU RICHELIEU", "designationCode": "C", "categoryCode": "29", "address": "600 BOUL. LAURIER             C.P. 83085", "city": "BELOEIL", "province": "QC", "country": "CA", "postalCode": "J3G6L7", "twitter": "None", "instagram": "None", "facebook": "None", "youtube": "None", "website": "None", "summary": "None", "logo": "None", "latitude": 45.564660126068986, "longitude": -73.20505054202299}, "125593657RR0181": {"name": "ESCADRON 622 FRONTENAC", "designationCode": "C", "categoryCode": "29", "address": "CP 4000 SUCCK EDI.PIERRE-LEMOYNE D'IBERVILLE QC METRO BAT.19", "city": "MTL", "province": "QC", "country": "CA", "postalCode": "H1N3R9", "twitter": "None", "instagram": "None", "facebook": "None", "youtube": "None", "website": "None", "summary": "None", "logo": "None", "latitude": 45.57543900000006, "longitude": -73.52860849999993}, "123613523RR0024": {"name": "ESCADRON 709 - VIMONT AUTEUIL", "designationCode": "C", "categoryCode": "29", "address": "ESCADRON 709 VIMONT-AUTEUIL   CASIER POSTAL 50021", "city": "LAVAL", "province": "QC", "country": "CA", "postalCode": "H7M0A1", "twitter": "None", "instagram": "None", "facebook": "None", "youtube": "None", "website": "None", "summary": "None", "logo": "None", "latitude": 45.59591400000005, "longitude": -73.71887299999993}, "123613523RR0012": {"name": "ESCADRON 729 SALABERRY, CADETS DE L'AIR", "designationCode": "C", "categoryCode": "29", "address": "161 RUE ST THOMAS", "city": "SALABERRY DE VALLEYFIELD", "province": "QC", "country": "CA", "postalCode": "J6T4K1", "twitter": "None", "instagram": "None", "facebook": "None", "youtube": "None", "website": "None", "summary": "None", "logo": "None", "latitude": 45.248987585925164, "longitude": -74.12832734396137}, "123613523RR0008": {"name": "ESCADRON 846 RICHLIEU DOLBEAU MISTASSINI", "designationCode": "C", "categoryCode": "29", "address": "113, AVENUE DE L'EGLISE       C.P.96", "city": "DOLBEAU MISTASSINI", "province": "QC", "country": "CA", "postalCode": "G8L2T9", "twitter": "None", "instagram": "None", "facebook": "None", "youtube": "None", "website": "None", "summary": "None", "logo": "None", "latitude": 48.89159410241881, "longitude": -72.20432245543107}, "136241346RR0001": {"name": "ESCALE FAMILLE LE TRIOLET", "designationCode": "C", "categoryCode": "01", "address": "6910 AV PIERRE-DE COUBERTIN", "city": "MONTREAL", "province": "QC", "country": "CA", "postalCode": "H1N1T6", "twitter": "None", "instagram": "None", "facebook": "None", "youtube": "None", "website": "None", "summary": "None", "logo": "None", "latitude": 45.58364049763408, "longitude": -73.53304192864579}, "893558510RR0001": {"name": "ESEE MONDE", "designationCode": "C", "categoryCode": "09", "address": "7417 DROLET", "city": "MONTREAL", "province": "QC", "country": "CA", "postalCode": "H2R2C3", "twitter": "None", "instagram": "None", "facebook": "None", "youtube": "None", "website": "None", "summary": "None", "logo": "None", "latitude": 45.53900094644805, "longitude": -73.61948478475395}, "846038875RR0001": {"name": "ESENEM CHARITABLE FOUNDATION", "designationCode": "B", "categoryCode": "05", "address": "264 ARNOLD AVENUE", "city": "THORNHILL", "province": "ON", "country": "CA", "postalCode": "L4J1C2", "twitter": "None", "instagram": "None", "facebook": "None", "youtube": "None", "website": "None", "summary": "None", "logo": "None", "latitude": 43.806432161838345, "longitude": -79.44766764100632}, "118901743RR0001": {"name": "ESK-OMI MISSIONS INC. MISSIONS ESQU-OMI INC.", "designationCode": "C", "categoryCode": "43", "address": "P.O.BOX 159", "city": "ST.NORBERT", "province": "MB", "country": "CA", "postalCode": "R3V1L6", "twitter": "None", "instagram": "None", "facebook": "None", "youtube": "None", "website": "None", "summary": "None", "logo": "None", "latitude": 49.765360077182656, "longitude": -97.15356999826922}, "819601873RR0001": {"name": "ESKIT CHARITABLE TRUST", "designationCode": "B", "categoryCode": "45", "address": "3336 RADCLIFFE AVENUE", "city": "WEST VANCOUVER", "province": "BC", "country": "CA", "postalCode": "V7V1G6", "twitter": "None", "instagram": "None", "facebook": "None", "youtube": "None", "website": "None", "summary": "None", "logo": "None", "latitude": 49.34078469995397, "longitude": -123.20872531002937}, "136745833RR0001": {"name": "ESMERALDA ENRIQUE SPANISH DANCE THEATRE", "designationCode": "C", "categoryCode": "22", "address": "401 RICHMOND STREET WEST      SUITE B104", "city": "TORONTO", "province": "ON", "country": "CA", "postalCode": "M5V3A8", "twitter": "None", "instagram": "None", "facebook": "None", "youtube": "None", "website": "None", "summary": "None", "logo": "None", "latitude": 43.64803297305114, "longitude": -79.39483379779568}, "814460051RR0001": {"name": "ESOCS Church", "designationCode": "C", "categoryCode": "39", "address": "1-800 ARROW ROAD", "city": "TORONTO", "province": "ON", "country": "CA", "postalCode": "M9M2Y5", "twitter": "None", "instagram": "None", "facebook": "None", "youtube": "None", "website": "None", "summary": "None", "logo": "None", "latitude": 43.7490330377116, "longitude": -79.53225026608536}, "892969874RR0001": {"name": "ESPACE Abitibi-Est Inc.", "designationCode": "C", "categoryCode": "09", "address": "68-A CURE ROY NO. 7", "city": "VAL-DOR", "province": "QC", "country": "CA", "postalCode": "J9P3B2", "twitter": "None", "instagram": "None", "facebook": "None", "youtube": "None", "website": "None", "summary": "None", "logo": "None", "latitude": 48.09768588175895, "longitude": -77.77541322924009}, "129947040RR0001": {"name": "ESPACE BOIS-FRANCS", "designationCode": "C", "categoryCode": "09", "address": "59 RUE MONFETTE               LOCAL 240", "city": "VICTORIAVILLE", "province": "QC", "country": "CA", "postalCode": "G6P1J8", "twitter": "None", "instagram": "None", "facebook": "None", "youtube": "None", "website": "None", "summary": "None", "logo": "None", "latitude": 46.06164779188039, "longitude": -71.9668892342031}, "887816940RR0001": {"name": "ESPACE BULLE", "designationCode": "C", "categoryCode": "01", "address": "330 RUE DE LA CROIX-ROUGE", "city": "QU\u00c9BEC", "province": "QC", "country": "CA", "postalCode": "G1K2L5", "twitter": "None", "instagram": "None", "facebook": "None", "youtube": "None", "website": "None", "summary": "None", "logo": "None", "latitude": 46.819859866235696, "longitude": -71.23038638138357}, "127147346RR0001": {"name": "ESPACE CHATEAUGUAY", "designationCode": "C", "categoryCode": "09", "address": "71 RUE PRINCIPALE", "city": "CHATEAUGUAY", "province": "QC", "country": "CA", "postalCode": "J6K1G1", "twitter": "None", "instagram": "None", "facebook": "None", "youtube": "None", "website": "None", "summary": "None", "logo": "None", "latitude": 45.359638973628066, "longitude": -73.75084360851754}, "125498808RR0001": {"name": "ESPACE CHAUDIERE-APPALACHES", "designationCode": "C", "categoryCode": "09", "address": "4060 BOUL GUILLAUME-COUTURE   UNITE 205", "city": "LEVIS", "province": "QC", "country": "CA", "postalCode": "G6W6N2", "twitter": "None", "instagram": "None", "facebook": "None", "youtube": "None", "website": "None", "summary": "None", "logo": "None", "latitude": 46.776422368024704, "longitude": -71.19578444947781}, "860252840RR0001": {"name": "ESPACE COTE-NORD", "designationCode": "C", "categoryCode": "59", "address": "CARREFOUR BAIE-COMEAU         202-337, BOULVARD LA SALLE", "city": "BAIE-COMEAU", "province": "QC", "country": "CA", "postalCode": "G4Z2Z1", "twitter": "None", "instagram": "None", "facebook": "None", "youtube": "None", "website": "None", "summary": "None", "logo": "None", "latitude": 49.21478700000006, "longitude": -68.19360649999993}, "843463522RR0001": {"name": "ESPACE DALLAIRE", "designationCode": "C", "categoryCode": "53", "address": "3 RUE CAMILLE-GAY", "city": "GATINEAU", "province": "QC", "country": "CA", "postalCode": "J8Y2K4", "twitter": "None", "instagram": "None", "facebook": "None", "youtube": "None", "website": "None", "summary": "None", "logo": "None", "latitude": 45.43806947013696, "longitude": -75.74511133236193}, "899141121RR0001": {"name": "ESPACE GASPESIE-LES-ILES", "designationCode": "C", "categoryCode": "09", "address": "12-1, RUE DE LA CATH\u00c9DRALE", "city": "GASP\u00c9", "province": "QC", "country": "CA", "postalCode": "G4X1L8", "twitter": "None", "instagram": "None", "facebook": "None", "youtube": "None", "website": "None", "summary": "None", "logo": "None", "latitude": 48.82839026953184, "longitude": -64.48584815857322}, "123092686RR0001": {"name": "ESPACE GO INC", "designationCode": "C", "categoryCode": "22", "address": "4890, BOUL. SAINT-LAURENT", "city": "MONTREAL", "province": "QC", "country": "CA", "postalCode": "H2T1R5", "twitter": "None", "instagram": "None", "facebook": "None", "youtube": "None", "website": "None", "summary": "None", "logo": "None", "latitude": 45.52212987731556, "longitude": -73.59087540189847}, "864093984RR0001": {"name": "ESPACE HISTORIQUE ET CULTUREL CHRIST CHURCH", "designationCode": "C", "categoryCode": "39", "address": "163 RTE DU LONG SAULT", "city": "ST. ANDR\u00c9 D'ARGENTEUIL", "province": "QC", "country": "CA", "postalCode": "J0V1X0", "twitter": "None", "instagram": "None", "facebook": "None", "youtube": "None", "website": "None", "summary": "None", "logo": "None", "latitude": 45.56132528449414, "longitude": -74.33953786109981}, "874036296RR0001": {"name": "ESPACE LAURENTIDES", "designationCode": "C", "categoryCode": "09", "address": "1400 BOUL STE-AD\u00c8LE BUREAU 101", "city": "STE-AD\u00c8LE", "province": "QC", "country": "CA", "postalCode": "J8B2N5", "twitter": "None", "instagram": "None", "facebook": "None", "youtube": "None", "website": "None", "summary": "None", "logo": "None", "latitude": 45.95559924588851, "longitude": -74.14013092065304}, "127137982RR0001": {"name": "ESPACE LIBRE INC", "designationCode": "C", "categoryCode": "22", "address": "1945 RUE FULLUM", "city": "MONTR\u00c9AL", "province": "QC", "country": "CA", "postalCode": "H2K3N3", "twitter": "None", "instagram": "None", "facebook": "None", "youtube": "None", "website": "None", "summary": "None", "logo": "None", "latitude": 45.53015310825773, "longitude": -73.5544206891339}, "126778901RR0001": {"name": "ESPACE MAURICIE", "designationCode": "C", "categoryCode": "09", "address": "1800 RUE ST PAUL, BUR.202", "city": "TROIS-RIVIERES", "province": "QC", "country": "CA", "postalCode": "G9A1J7", "twitter": "None", "instagram": "None", "facebook": "None", "youtube": "None", "website": "None", "summary": "None", "logo": "None", "latitude": 46.35766314767143, "longitude": -72.54947296860773}, "118901776RR0001": {"name": "ESPACE MUSIQUE CONCERT SOCIETY", "designationCode": "C", "categoryCode": "22", "address": "200 RIDEAU TERRACE, APT 1311", "city": "OTTAWA", "province": "ON", "country": "CA", "postalCode": "K1M0Z3", "twitter": "None", "instagram": "None", "facebook": "None", "youtube": "None", "website": "None", "summary": "None", "logo": "None", "latitude": 45.4436614989904, "longitude": -75.67471919455826}, "895997682RR0001": {"name": "ESPACE OUTAOUAIS INC.", "designationCode": "C", "categoryCode": "09", "address": "200 -194 BOUL ST.-JOSEPH", "city": "GATINEAU", "province": "QC", "country": "CA", "postalCode": "J8Y3W9", "twitter": "None", "instagram": "None", "facebook": "None", "youtube": "None", "website": "None", "summary": "None", "logo": "None", "latitude": 45.43362765889549, "longitude": -75.73313437757534}, "135834893RR0001": {"name": "ESPACE REGION DE QUEBEC", "designationCode": "C", "categoryCode": "09", "address": "157 RUE DES CHENES O SUITE 250", "city": "QUEBEC", "province": "QC", "country": "CA", "postalCode": "G1L1K6", "twitter": "None", "instagram": "None", "facebook": "None", "youtube": "None", "website": "None", "summary": "None", "logo": "None", "latitude": 46.834457680247134, "longitude": -71.25001256728618}, "893875856RR0001": {"name": "ESPACE SUROIT", "designationCode": "C", "categoryCode": "09", "address": "394 DUFFERIN #202", "city": "SALABERRY-DE-VALLEYFIELD", "province": "QC", "country": "CA", "postalCode": "J6S2A8", "twitter": "None", "instagram": "None", "facebook": "None", "youtube": "None", "website": "None", "summary": "None", "logo": "None", "latitude": 45.26219906466044, "longitude": -74.11105863864039}, "888376498RR0001": {"name": "ESPACE-FAMILLE VILLERAY", "designationCode": "C", "categoryCode": "09", "address": "7378 RUE LAJEUNESSE           LOCAL 204A-A", "city": "MONTREAL", "province": "QC", "country": "CA", "postalCode": "H2R2H8", "twitter": "None", "instagram": "None", "facebook": "None", "youtube": "None", "website": "None", "summary": "None", "logo": "None", "latitude": 45.5405610824054, "longitude": -73.61735839399262}, "118901792RR0001": {"name": "ESPANOLA BIBLE FELLOWSHIP", "designationCode": "C", "categoryCode": "39", "address": "760 RIVER RD", "city": "MASSEY", "province": "ON", "country": "CA", "postalCode": "P0P1P0", "twitter": "None", "instagram": "None", "facebook": "None", "youtube": "None", "website": "None", "summary": "None", "logo": "None", "latitude": 46.174419264808115, "longitude": -82.1464317184532}, "118901800RR0001": {"name": "ESPANOLA GENERAL HOSPITAL", "designationCode": "C", "categoryCode": "10", "address": "825 MCKINNON DR", "city": "ESPANOLA", "province": "ON", "country": "CA", "postalCode": "P5E1R4", "twitter": "None", "instagram": "None", "facebook": "None", "youtube": "None", "website": "None", "summary": "None", "logo": "None", "latitude": 46.24785217762567, "longitude": -81.78006821715525}, "118901818RR0001": {"name": "ESPANOLA GENERAL HOSPITAL FOUNDATION", "designationCode": "A", "categoryCode": "13", "address": "825 MCKINNON DRIVE", "city": "ESPANOLA", "province": "ON", "country": "CA", "postalCode": "P5E1R4", "twitter": "None", "instagram": "None", "facebook": "None", "youtube": "None", "website": "None", "summary": "None", "logo": "None", "latitude": 46.24785217762567, "longitude": -81.78006821715525}, "807659354RR0001": {"name": "ESPANOLA LITTLE THEATRE", "designationCode": "C", "categoryCode": "22", "address": "PO BOX 5082", "city": "ESPANOLA", "province": "ON", "country": "CA", "postalCode": "P5E1S1", "twitter": "None", "instagram": "None", "facebook": "None", "youtube": "None", "website": "None", "summary": "None", "logo": "None", "latitude": 46.25677500000006, "longitude": -81.76427449999993}, "119288918RR0385": {"name": "ESPANOLA ONTARIO CONGREGATION OF JEHOVAH'S WITNESSES", "designationCode": "C", "categoryCode": "61", "address": "402 CLEAR LAKE DR", "city": "ESPANOLA", "province": "ON", "country": "CA", "postalCode": "P5E1N6", "twitter": "None", "instagram": "None", "facebook": "None", "youtube": "None", "website": "None", "summary": "None", "logo": "None", "latitude": 46.24110243883065, "longitude": -81.75626230405675}, "132725359RR0001": {"name": "ESPANOLA PASTORAL CHARGE,", "designationCode": "C", "categoryCode": "44", "address": "137 SHEPPARD ST", "city": "ESPANOLA", "province": "ON", "country": "CA", "postalCode": "P5E1A1", "twitter": "None", "instagram": "None", "facebook": "None", "youtube": "None", "website": "None", "summary": "None", "logo": "None", "latitude": 46.26558799061482, "longitude": -81.77232577063093}, "119288918RR1088": {"name": "ESPERANCA CONGREGATION OF JEHOVAH'S WITNESSES", "designationCode": "C", "categoryCode": "61", "address": "7170 ST-MICHEL", "city": "MONTREAL", "province": "QC", "country": "CA", "postalCode": "H2A2Z4", "twitter": "None", "instagram": "None", "facebook": "None", "youtube": "None", "website": "None", "summary": "None", "logo": "None", "latitude": 45.558487698568975, "longitude": -73.59778338885674}, "890765613RR0001": {"name": "ESPERANCE CHARITABLE FUND", "designationCode": "C", "categoryCode": "59", "address": "20 TRENT AVENUE               8TH FLOOR OFFICE", "city": "TORONTO", "province": "ON", "country": "CA", "postalCode": "M4C5R9", "twitter": "None", "instagram": "None", "facebook": "None", "youtube": "None", "website": "None", "summary": "None", "logo": "None", "latitude": 43.68873612600269, "longitude": -79.29580629214018}, "119288918RR1216": {"name": "ESPERANZA CONGREGATION OF JEHOVAH'S WITNESSES", "designationCode": "C", "categoryCode": "61", "address": "57 DELAWARE AVE", "city": "HAMILTON", "province": "ON", "country": "CA", "postalCode": "L8M1T7", "twitter": "None", "instagram": "None", "facebook": "None", "youtube": "None", "website": "None", "summary": "None", "logo": "None", "latitude": 43.24744402694886, "longitude": -79.84758410462238}, "860847854RR0001": {"name": "ESPERANZA MULTICULTURAL CHURCH", "designationCode": "C", "categoryCode": "39", "address": "14139 SUNRIDGE PL", "city": "SURREY", "province": "BC", "country": "CA", "postalCode": "V3W6B1", "twitter": "None", "instagram": "None", "facebook": "None", "youtube": "None", "website": "None", "summary": "None", "logo": "None", "latitude": 49.14551647489747, "longitude": -122.83070403136361}, "889749057RR0001": {"name": "ESPOIR DE VIE - A.P.O.R. INC.", "designationCode": "C", "categoryCode": "09", "address": "405 BOULEVARD STE-MADELEINE", "city": "TROIS-RIVI\u00c8RES", "province": "QC", "country": "CA", "postalCode": "G8T3N1", "twitter": "None", "instagram": "None", "facebook": "None", "youtube": "None", "website": "None", "summary": "None", "logo": "None", "latitude": 46.36957683265041, "longitude": -72.50408702305371}, "894444934RR0001": {"name": "ESPOIR EN JESUS GROUPE INTERNATIONAL INC.", "designationCode": "C", "categoryCode": "49", "address": "8360, 10E AV", "city": "MONTREAL", "province": "QC", "country": "CA", "postalCode": "H1H3B5", "twitter": "None", "instagram": "None", "facebook": "None", "youtube": "None", "website": "None", "summary": "None", "logo": "None", "latitude": 45.564975724104194, "longitude": -73.61424561477861}, "138350186RR0001": {"name": "ESPOIR ROSALIE DE GATINEAU", "designationCode": "C", "categoryCode": "09", "address": "763 RUE SAINT-LOUIS", "city": "GATINEAU", "province": "QC", "country": "CA", "postalCode": "J8T2S9", "twitter": "None", "instagram": "None", "facebook": "None", "youtube": "None", "website": "None", "summary": "None", "logo": "None", "latitude": 45.47056444353387, "longitude": -75.681613083415}, "894113372RR0010": {"name": "ESQUIMALT CHURCH OF THE NAZARENE", "designationCode": "C", "categoryCode": "39", "address": "886 CRAIGFLOWER RD", "city": "VICTORIA", "province": "BC", "country": "CA", "postalCode": "V9A2X6", "twitter": "None", "instagram": "None", "facebook": "None", "youtube": "None", "website": "None", "summary": "None", "logo": "None", "latitude": 48.44079716515655, "longitude": -123.39892474242606}, "107310864RR0001": {"name": "ESQUIMALT NEIGHBOURHOOD HOUSE SOCIETY", "designationCode": "C", "categoryCode": "09", "address": "511 CONSTANCE AVE", "city": "VICTORIA", "province": "BC", "country": "CA", "postalCode": "V9A6N5", "twitter": "None", "instagram": "None", "facebook": "None", "youtube": "None", "website": "None", "summary": "None", "logo": "None", "latitude": 48.42878475437129, "longitude": -123.41817110724813}}