{"118849827RR0001": {"name": "CHAPLIN UNITED CHURCH", "designationCode": "C", "categoryCode": "44", "address": "BOX 71", "city": "CHAPLIN", "province": "SK", "country": "CA", "postalCode": "S0H0V0", "twitter": "None", "instagram": "None", "facebook": "None", "youtube": "None", "website": "None", "summary": "None", "logo": "None", "latitude": 50.45643295198069, "longitude": -105.87021267602051}, "106907561RR0001": {"name": "CHAPMAN DAY CARE INC.", "designationCode": "C", "categoryCode": "01", "address": "3707 ROBLIN BLVD", "city": "WINNIPEG", "province": "MB", "country": "CA", "postalCode": "R3R0E2", "twitter": "None", "instagram": "None", "facebook": "None", "youtube": "None", "website": "None", "summary": "None", "logo": "None", "latitude": 49.868267464942804, "longitude": -97.26172581807944}, "887221406RR0001": {"name": "CHARACTER COMMUNITY FOUNDATION OF YORK REGION", "designationCode": "C", "categoryCode": "21", "address": "17250 YONGE STREET", "city": "NEWMARKET", "province": "ON", "country": "CA", "postalCode": "L3Y6Z1", "twitter": "None", "instagram": "None", "facebook": "None", "youtube": "None", "website": "None", "summary": "None", "logo": "None", "latitude": 44.04831154480937, "longitude": -79.47883793199173}, "888365707RR0001": {"name": "CHARGE SYNDROME CANADA INC.", "designationCode": "C", "categoryCode": "11", "address": "109 COLBORNE ST. E            MR. PETER SHENNETT", "city": "ORILLA", "province": "ON", "country": "CA", "postalCode": "L3V1T9", "twitter": "None", "instagram": "None", "facebook": "None", "youtube": "None", "website": "None", "summary": "None", "logo": "None", "latitude": 44.60939589988028, "longitude": -79.41316425109582}, "832476873RR0001": {"name": "CHARGER FOUNDATION", "designationCode": "A", "categoryCode": "03", "address": "5025 ORBITOR DRIVE            BLDG 4 STE 400", "city": "MISSISSAUGA", "province": "ON", "country": "CA", "postalCode": "L4W4Y5", "twitter": "None", "instagram": "None", "facebook": "None", "youtube": "None", "website": "None", "summary": "None", "logo": "None", "latitude": 43.65635742951932, "longitude": -79.59918061647305}, "118849850RR0001": {"name": "CHARING CROSS COMMUNITY CENTRE", "designationCode": "C", "categoryCode": "56", "address": "RR#1, 21466 BLOOMFIELD RD.", "city": "CHARING CROSS", "province": "ON", "country": "CA", "postalCode": "N0P1G0", "twitter": "None", "instagram": "None", "facebook": "None", "youtube": "None", "website": "None", "summary": "None", "logo": "None", "latitude": 42.322800207859814, "longitude": -82.15070437930609}, "118849868RR0001": {"name": "CHARING CROSS PASTORAL CHARGE", "designationCode": "C", "categoryCode": "44", "address": "PO BOX 903", "city": "BLENHEIM", "province": "ON", "country": "CA", "postalCode": "N0P1A0", "twitter": "None", "instagram": "None", "facebook": "None", "youtube": "None", "website": "None", "summary": "None", "logo": "None", "latitude": 42.34040003332553, "longitude": -82.00492995224775}, "865566434RR0001": {"name": "CHARIS CAMP", "designationCode": "C", "categoryCode": "56", "address": "51935 HACK BROWN RD", "city": "CHILLIWACK", "province": "BC", "country": "CA", "postalCode": "V4Z1L1", "twitter": "None", "instagram": "None", "facebook": "None", "youtube": "None", "website": "None", "summary": "None", "logo": "None", "latitude": 49.16393326201733, "longitude": -121.78623439607009}, "830257275RR0001": {"name": "CHARIS EVANGELICAL FREE CHURCH", "designationCode": "C", "categoryCode": "39", "address": "393 MIDDLEFIELD ROAD", "city": "TORONTO", "province": "ON", "country": "CA", "postalCode": "M1S5A9", "twitter": "None", "instagram": "None", "facebook": "None", "youtube": "None", "website": "None", "summary": "None", "logo": "None", "latitude": 43.80669788871251, "longitude": -79.2551858280341}, "887339901RR0001": {"name": "CHARIS GLOBAL COMMUNITY AID", "designationCode": "C", "categoryCode": "01", "address": "36436 RANGE ROAD 15", "city": "RED DEER COUNTY", "province": "AB", "country": "CA", "postalCode": "T4G0M9", "twitter": "None", "instagram": "None", "facebook": "None", "youtube": "None", "website": "None", "summary": "None", "logo": "None", "latitude": 52.121927003283396, "longitude": -114.12082911774225}, "813690740RR0001": {"name": "CHARIS MINISTRIES", "designationCode": "C", "categoryCode": "39", "address": "205-1715 RICHMOND AVENUE", "city": "VICTORIA", "province": "BC", "country": "CA", "postalCode": "V8R4P9", "twitter": "None", "instagram": "None", "facebook": "None", "youtube": "None", "website": "None", "summary": "None", "logo": "None", "latitude": 48.42876546572219, "longitude": -123.33019013610158}, "864465323RR0001": {"name": "CHARIS MINISTRIES INT'L INC.", "designationCode": "C", "categoryCode": "49", "address": "204 - 3750 E. HAUGHTON ROAD", "city": "REGINA", "province": "SK", "country": "CA", "postalCode": "S4V1R6", "twitter": "None", "instagram": "None", "facebook": "None", "youtube": "None", "website": "None", "summary": "None", "logo": "None", "latitude": 50.44051632388724, "longitude": -104.52825878140028}, "891516940RR0001": {"name": "CHARIS TRUST / FIDUCIE CHARIS", "designationCode": "B", "categoryCode": "45", "address": "2512 DENURE DRIVE", "city": "PETERBOROUGH", "province": "ON", "country": "CA", "postalCode": "K9K2M3", "twitter": "None", "instagram": "None", "facebook": "None", "youtube": "None", "website": "None", "summary": "None", "logo": "None", "latitude": 44.292696600063415, "longitude": -78.37423935772428}, "888793346RR0001": {"name": "CHARITABLE ASSOCIATION FOR THE RESIDENTS OF ALGOMA MANOR", "designationCode": "C", "categoryCode": "09", "address": "145 DAWSON ST", "city": "THESSALON", "province": "ON", "country": "CA", "postalCode": "P0R1L0", "twitter": "None", "instagram": "None", "facebook": "None", "youtube": "None", "website": "None", "summary": "None", "logo": "None", "latitude": 46.26370919243078, "longitude": -83.56012550996697}, "827317470RR0001": {"name": "CHARITABLE FOUNDATION OF CARQUEST AND WORLDPAC (CANADA) LTD./FONDATION DE BIENFAISANCE CARQUEST ET WORLDPAC (CANADA) LTEE", "designationCode": "A", "categoryCode": "03", "address": "35 WORCESTER ROAD", "city": "TORONTO", "province": "ON", "country": "CA", "postalCode": "M9W1K9", "twitter": "None", "instagram": "None", "facebook": "None", "youtube": "None", "website": "None", "summary": "None", "logo": "None", "latitude": 43.69295882621644, "longitude": -79.60193914660356}, "887346682RR0001": {"name": "CHARITABLE FOUNDATION OF THE FAMILY (CALGARY)", "designationCode": "C", "categoryCode": "09", "address": "130 4029 8TH STREET SE", "city": "CALGARY", "province": "AB", "country": "CA", "postalCode": "T5G3A5", "twitter": "None", "instagram": "None", "facebook": "None", "youtube": "None", "website": "None", "summary": "None", "logo": "None", "latitude": 51.020485461964995, "longitude": -114.04320046909052}, "126976711RR0001": {"name": "CHARITABLE FOUNDATION OF THE ONTARIO GROCERY INDUSTRY", "designationCode": "A", "categoryCode": "03", "address": "5409 EGLINTON AVE. WEST       SUITE 207", "city": "ETOBICOKE", "province": "ON", "country": "CA", "postalCode": "M9C5K6", "twitter": "None", "instagram": "None", "facebook": "None", "youtube": "None", "website": "None", "summary": "None", "logo": "None", "latitude": 43.661756190571815, "longitude": -79.59184108202558}, "896713500RR0001": {"name": "CHARITABLE GIFT FUNDS CANADA FOUNDATION", "designationCode": "A", "categoryCode": "03", "address": "202-645 GARDINERS RD", "city": "KINGSTON", "province": "ON", "country": "CA", "postalCode": "K7M8K2", "twitter": "None", "instagram": "None", "facebook": "None", "youtube": "None", "website": "None", "summary": "None", "logo": "None", "latitude": 44.24369309908247, "longitude": -76.56791911775011}, "887886919RR0001": {"name": "CHARITABLE ORGANIZATION FOR THE DISABLED CHILDREN OF GREATER FORT ERIE", "designationCode": "C", "categoryCode": "15", "address": "2817 GARRISON RD RR2", "city": "RIDGEWAY", "province": "ON", "country": "CA", "postalCode": "L0S1N0", "twitter": "None", "instagram": "None", "facebook": "None", "youtube": "None", "website": "None", "summary": "None", "logo": "None", "latitude": 42.90396052063048, "longitude": -79.02059383236194}, "891692642RR0001": {"name": "CHARITABLE TRUST FUND OF THE CANADIAN NATIONAL COMMITTEE FOR THE INTERNATIONAL UNION OF CRYSTALLOGRAPHY", "designationCode": "C", "categoryCode": "25", "address": "UNIVERSITY OF BRITISH COLUMBIA2036 MAIN MALL", "city": "VANCOUVER", "province": "BC", "country": "CA", "postalCode": "V6T1Z1", "twitter": "None", "instagram": "None", "facebook": "None", "youtube": "None", "website": "None", "summary": "None", "logo": "None", "latitude": 49.24515000000008, "longitude": -123.23335999999995}, "118850031RR0001": {"name": "CHARITABLE TRUST FUND OF THE ROTARY CLUB OF ORILLIA", "designationCode": "C", "categoryCode": "65", "address": "PO BOX 821", "city": "ORILLIA", "province": "ON", "country": "CA", "postalCode": "L3V6K8", "twitter": "None", "instagram": "None", "facebook": "None", "youtube": "None", "website": "None", "summary": "None", "logo": "None", "latitude": 44.60657100000006, "longitude": -79.41824449999993}, "889246047RR0001": {"name": "CHARITABLE TRUST FUND OF THE ROTARY CLUB OF PORT HAWKESBURY", "designationCode": "C", "categoryCode": "65", "address": "409 GRANVILLE STREET", "city": "PORT HAWKESBURY", "province": "NS", "country": "CA", "postalCode": "B9A2M5", "twitter": "None", "instagram": "None", "facebook": "None", "youtube": "None", "website": "None", "summary": "None", "logo": "None", "latitude": 45.61339200415494, "longitude": -61.36220210035187}, "889901674RR0001": {"name": "CHARITABLE TRUST OF THE ROTARY CLUB OF ANCASTER", "designationCode": "C", "categoryCode": "63", "address": "161-35 STONE CHURCH RD", "city": "ANCASTER", "province": "ON", "country": "CA", "postalCode": "L9K1S5", "twitter": "None", "instagram": "None", "facebook": "None", "youtube": "None", "website": "None", "summary": "None", "logo": "None", "latitude": 43.22741743603204, "longitude": -79.93643820964881}, "118850072RR0001": {"name": "CHARITABLE TRUST OF THE ST. ANDREWS WEST FIREFIGHTERS CLUB", "designationCode": "C", "categoryCode": "59", "address": "BOX 60", "city": "ST ANDREWS WEST", "province": "ON", "country": "CA", "postalCode": "K0C2A0", "twitter": "None", "instagram": "None", "facebook": "None", "youtube": "None", "website": "None", "summary": "None", "logo": "None", "latitude": 45.11509014931717, "longitude": -74.81246888496928}, "118850080RR0001": {"name": "CHARITES DORAIS INC./ DORAIS CHARITIES INC.", "designationCode": "A", "categoryCode": "11", "address": "N5072-431 TACHE AVENUE", "city": "WINNIPEG", "province": "MB", "country": "CA", "postalCode": "R2H2A6", "twitter": "None", "instagram": "None", "facebook": "None", "youtube": "None", "website": "None", "summary": "None", "logo": "None", "latitude": 49.88564767415895, "longitude": -97.12384608220292}, "118850106RR0001": {"name": "CHARITES R.S.V.", "designationCode": "C", "categoryCode": "09", "address": "2555 CH SAINTE-FOY", "city": "SAINTE-FOY", "province": "QC", "country": "CA", "postalCode": "G1V1T8", "twitter": "None", "instagram": "None", "facebook": "None", "youtube": "None", "website": "None", "summary": "None", "logo": "None", "latitude": 46.7834157093317, "longitude": -71.2913076012755}, "118850114RR0001": {"name": "CHARITIES OF THE AYLMER CIVITAN", "designationCode": "A", "categoryCode": "55", "address": "P.O. BOX 246", "city": "GATINEAU", "province": "QC", "country": "CA", "postalCode": "J9H5E6", "twitter": "None", "instagram": "None", "facebook": "None", "youtube": "None", "website": "None", "summary": "None", "logo": "None", "latitude": 45.39902100000006, "longitude": -75.85311499999993}, "118850130RR0001": {"name": "CHARITY HOUSE (WINDSOR)", "designationCode": "C", "categoryCode": "09", "address": "2335 DOUGALL AVE", "city": "WINDSOR", "province": "ON", "country": "CA", "postalCode": "N8X1S9", "twitter": "None", "instagram": "None", "facebook": "None", "youtube": "None", "website": "None", "summary": "None", "logo": "None", "latitude": 42.29149182843813, "longitude": -83.02589893294403}, "803407956RR0001": {"name": "CHARITY INTELLIGENCE CANADA", "designationCode": "C", "categoryCode": "03", "address": "30 WELLINGTON W, 5TH FLOOR,   COMMERCE COURT S,PO BOX 129", "city": "TORONTO", "province": "ON", "country": "CA", "postalCode": "M5L1E2", "twitter": "None", "instagram": "None", "facebook": "None", "youtube": "None", "website": "None", "summary": "None", "logo": "None", "latitude": 43.64868300000006, "longitude": -79.38544399999994}, "887846087RR0001": {"name": "CHARITY OF HOPE", "designationCode": "A", "categoryCode": "53", "address": "11061 - 661 HIGHWAY 8", "city": "STONEY CREEK", "province": "ON", "country": "CA", "postalCode": "L8E5J7", "twitter": "None", "instagram": "None", "facebook": "None", "youtube": "None", "website": "None", "summary": "None", "logo": "None", "latitude": 43.213196445696965, "longitude": -79.70273755994556}, "803351626RR0001": {"name": "CHARLE DALDE MEMORIAL FOUNDATION", "designationCode": "B", "categoryCode": "09", "address": "1464 WOODS DR", "city": "NORTH VANCOUVER", "province": "BC", "country": "CA", "postalCode": "V7R1A7", "twitter": "None", "instagram": "None", "facebook": "None", "youtube": "None", "website": "None", "summary": "None", "logo": "None", "latitude": 49.33467747879262, "longitude": -123.11413311073923}, "118850163RR0001": {"name": "CHARLEMONT FREE METHODIST, CHURCH", "designationCode": "C", "categoryCode": "39", "address": "RR 5", "city": "WALLACEBURG", "province": "ON", "country": "CA", "postalCode": "N8A4L2", "twitter": "None", "instagram": "None", "facebook": "None", "youtube": "None", "website": "None", "summary": "None", "logo": "None", "latitude": 42.61641900000005, "longitude": -82.28344849999993}, "892452160RR0001": {"name": "CHARLES & JULIE BENTALL FAMILY FOUNDATION", "designationCode": "B", "categoryCode": "03", "address": "4932 MEADFEILD ROAD", "city": "WEST VANCOUVER", "province": "BC", "country": "CA", "postalCode": "V7W3J8", "twitter": "None", "instagram": "None", "facebook": "None", "youtube": "None", "website": "None", "summary": "None", "logo": "None", "latitude": 49.34364678923177, "longitude": -123.26123710693221}, "890860216RR0001": {"name": "CHARLES & MURIEL SUTHERLAND FOUNDATION INC.", "designationCode": "B", "categoryCode": "03", "address": "600-105 21ST STREET EAST", "city": "SASKATOON", "province": "SK", "country": "CA", "postalCode": "S7K0B3", "twitter": "None", "instagram": "None", "facebook": "None", "youtube": "None", "website": "None", "summary": "None", "logo": "None", "latitude": 52.127419499999995, "longitude": -106.665876}, "890975774RR0001": {"name": "CHARLES AND DALE YOUNG FOUNDATION", "designationCode": "B", "categoryCode": "53", "address": "PO BOX 10053", "city": "VANCOUVER", "province": "BC", "country": "CA", "postalCode": "V7Y1B6", "twitter": "None", "instagram": "None", "facebook": "None", "youtube": "None", "website": "None", "summary": "None", "logo": "None", "latitude": 49.26037200000006, "longitude": -123.11336149999994}, "118850171RR0001": {"name": "CHARLES AND MARIA MACMILLAN TRUST FUND", "designationCode": "B", "categoryCode": "21", "address": "97 QUEEN STREET, SUITE 600", "city": "CHARLOTTETOWN", "province": "PE", "country": "CA", "postalCode": "C1A4A9", "twitter": "None", "instagram": "None", "facebook": "None", "youtube": "None", "website": "None", "summary": "None", "logo": "None", "latitude": 46.23339968858566, "longitude": -63.126799097293464}, "118850189RR0001": {"name": "CHARLES AND MARY MACLENNAN FOUNDATION", "designationCode": "B", "categoryCode": "22", "address": "62 HIGHLAND DRIVE", "city": "TRURO", "province": "NS", "country": "CA", "postalCode": "B2N1B9", "twitter": "None", "instagram": "None", "facebook": "None", "youtube": "None", "website": "None", "summary": "None", "logo": "None", "latitude": 45.363130933089195, "longitude": -63.289785662906205}, "892817560RR0001": {"name": "CHARLES E FIPKE FOUNDATION", "designationCode": "B", "categoryCode": "03", "address": "301-1665 ELLIS STREET", "city": "KELOWNA", "province": "BC", "country": "CA", "postalCode": "V1Y2B3", "twitter": "None", "instagram": "None", "facebook": "None", "youtube": "None", "website": "None", "summary": "None", "logo": "None", "latitude": 49.88425407799065, "longitude": -119.49347090045616}, "890643794RR0001": {"name": "CHARLES E. RING CHARITABLE FOUNDATION", "designationCode": "C", "categoryCode": "09", "address": "254 FIRE ROUTE 33", "city": "HAVELOCK", "province": "ON", "country": "CA", "postalCode": "K0L1Z0", "twitter": "None", "instagram": "None", "facebook": "None", "youtube": "None", "website": "None", "summary": "None", "logo": "None", "latitude": 44.49446408021237, "longitude": -77.8097208906744}, "867983769RR0001": {"name": "CHARLES FREDERICK FELL CHARITABLE FUND", "designationCode": "B", "categoryCode": "53", "address": "155 WELLINGTON ST. W.         20TH FLOOR", "city": "TORONTO", "province": "ON", "country": "CA", "postalCode": "M5V3K7", "twitter": "None", "instagram": "None", "facebook": "None", "youtube": "None", "website": "None", "summary": "None", "logo": "None"}, "890587645RR0001": {"name": "CHARLES LUTHER BURTON TRUST - WOMEN'S COLLEGE HOSPITAL FOUNDATION", "designationCode": "B", "categoryCode": "15", "address": "130 KING ST. WEST  20TH FLOOR BOX 430 STN FIRST CANADIAN PL.", "city": "TORONTO", "province": "ON", "country": "CA", "postalCode": "M5X1K1", "twitter": "None", "instagram": "None", "facebook": "None", "youtube": "None", "website": "None", "summary": "None", "logo": "None", "latitude": 43.64826932503962, "longitude": -79.38190945606182}, "880862966RR0001": {"name": "CHARLES MACDONALD HOUSE OF CENTREVILLE SOCIETY", "designationCode": "C", "categoryCode": "50", "address": "P.O. BOX 129", "city": "CENTREVILLE", "province": "NS", "country": "CA", "postalCode": "B0P1J0", "twitter": "None", "instagram": "None", "facebook": "None", "youtube": "None", "website": "None", "summary": "None", "logo": "None"}, "119034585RR0001": {"name": "CHARLES MASSEY EMPLOYEES AID FUND", "designationCode": "C", "categoryCode": "09", "address": "110 YONGE STREET, 12TH FLOOR", "city": "TORONTO", "province": "ON", "country": "CA", "postalCode": "M5C1T4", "twitter": "None", "instagram": "None", "facebook": "None", "youtube": "None", "website": "None", "summary": "None", "logo": "None", "latitude": 43.650145351924564, "longitude": -79.37834446367339}, "867158594RR0001": {"name": "CHARLES S CURTIS MEMORIAL HOSPITAL AUXILIARY", "designationCode": "C", "categoryCode": "15", "address": "P.O. BOX 247", "city": "ST. ANTHONY", "province": "NL", "country": "CA", "postalCode": "A0K4S0", "twitter": "None", "instagram": "None", "facebook": "None", "youtube": "None", "website": "None", "summary": "None", "logo": "None", "latitude": 51.372690000000034, "longitude": -55.597039999999936}, "139275556RR0001": {"name": "CHARLES WILLIAM WEST MEMORIAL SCHOLARSHIP FOUNDATION", "designationCode": "B", "categoryCode": "21", "address": "130 KING STREET WEST 20TH FLOOBOX 430, STN FIRST CANADIAN PL", "city": "TORONTO", "province": "ON", "country": "CA", "postalCode": "M5X1K1", "twitter": "None", "instagram": "None", "facebook": "None", "youtube": "None", "website": "None", "summary": "None", "logo": "None", "latitude": 43.64826932503962, "longitude": -79.38190945606182}, "847531720RR0001": {"name": "CHARLES-ALEXANDRE LANERO FOUNDATION FOR RESEARCH ON NON-KETOTIC HYPERGLYCINEMIA INC", "designationCode": "A", "categoryCode": "13", "address": "17 RUE YUILE", "city": "KIRKLAND", "province": "QC", "country": "CA", "postalCode": "H9H5K6", "twitter": "None", "instagram": "None", "facebook": "None", "youtube": "None", "website": "None", "summary": "None", "logo": "None", "latitude": 45.44889018425783, "longitude": -73.85319863500506}, "118850288RR0001": {"name": "CHARLESTON BAPTIST CHURCH", "designationCode": "C", "categoryCode": "31", "address": "RR#1", "city": "MILL VILLAGE", "province": "NS", "country": "CA", "postalCode": "B0J2H0", "twitter": "None", "instagram": "None", "facebook": "None", "youtube": "None", "website": "None", "summary": "None", "logo": "None", "latitude": 45.137638049306545, "longitude": -61.983356993065435}, "888936929RR0001": {"name": "CHARLESTON LAKE ENVIRONMENTAL ASSOCIATION", "designationCode": "C", "categoryCode": "52", "address": "PO BOX 609", "city": "ATHENS", "province": "ON", "country": "CA", "postalCode": "K0E1B0", "twitter": "None", "instagram": "None", "facebook": "None", "youtube": "None", "website": "None", "summary": "None", "logo": "None", "latitude": 44.62545000000006, "longitude": -75.95340999999996}, "138367024RR0001": {"name": "CHARLESWOOD HISTORICAL SOCIETY INC.", "designationCode": "C", "categoryCode": "50", "address": "241 BLOOMER CRES", "city": "WINNIPEG", "province": "MB", "country": "CA", "postalCode": "R3R3W8", "twitter": "None", "instagram": "None", "facebook": "None", "youtube": "None", "website": "None", "summary": "None", "logo": "None", "latitude": 49.859781539529244, "longitude": -97.25808483680534}, "106909237RR0001": {"name": "CHARLESWOOD MENNONITE CHURCH", "designationCode": "C", "categoryCode": "34", "address": "699 HANEY STREET", "city": "WINNIPEG", "province": "MB", "country": "CA", "postalCode": "R3R0Y7", "twitter": "None", "instagram": "None", "facebook": "None", "youtube": "None", "website": "None", "summary": "None", "logo": "None", "latitude": 49.85220587454558, "longitude": -97.26628185172301}, "898281613RR0001": {"name": "CHARLESWOOD SENIOR CENTRE INC.", "designationCode": "C", "categoryCode": "09", "address": "5006 ROBLIN BLVD.", "city": "WINNIPEG", "province": "MB", "country": "CA", "postalCode": "R3R0G7", "twitter": "None", "instagram": "None", "facebook": "None", "youtube": "None", "website": "None", "summary": "None", "logo": "None", "latitude": 49.85792266994668, "longitude": -97.28477808078927}, "106909252RR0001": {"name": "CHARLESWOOD UNITED CHURCH", "designationCode": "C", "categoryCode": "44", "address": "4820 ROBLIN BLVD", "city": "WINNIPEG", "province": "MB", "country": "CA", "postalCode": "R3R0G6", "twitter": "None", "instagram": "None", "facebook": "None", "youtube": "None", "website": "None", "summary": "None", "logo": "None", "latitude": 49.85766162666653, "longitude": -97.28201706382373}, "887225399RR0001": {"name": "CHARLFORD HOUSE SOCIETY FOR WOMEN", "designationCode": "C", "categoryCode": "57", "address": "P. O. BOX 44077", "city": "BURNABY", "province": "BC", "country": "CA", "postalCode": "V5B4Y2", "twitter": "None", "instagram": "None", "facebook": "None", "youtube": "None", "website": "None", "summary": "None", "logo": "None", "latitude": 49.24455000000006, "longitude": -122.97299299999993}, "106909377RR0001": {"name": "CHARLIE BROWN DAY CARE CENTRE INCORPORATED", "designationCode": "C", "categoryCode": "01", "address": "BOX 515", "city": "STE ROSE DU LAC", "province": "MB", "country": "CA", "postalCode": "R0L1S0", "twitter": "None", "instagram": "None", "facebook": "None", "youtube": "None", "website": "None", "summary": "None", "logo": "None", "latitude": 51.06107000000003, "longitude": -99.52398999999997}, "130929714RR0001": {"name": "CHARLIE LAKE COMMUNITY CHURCH", "designationCode": "C", "categoryCode": "31", "address": "BOX 639", "city": "CHARLIE LAKE", "province": "BC", "country": "CA", "postalCode": "V0C1H0", "twitter": "None", "instagram": "None", "facebook": "None", "youtube": "None", "website": "None", "summary": "None", "logo": "None", "latitude": 56.27531717888656, "longitude": -120.954398172462}, "801309147RR0001": {"name": "CHARLIE'S FREEWHEELS YOUTH EDUCATION SOCIETY", "designationCode": "C", "categoryCode": "20", "address": "242.5 QUEEN STREET EAST", "city": "TORONTO", "province": "ON", "country": "CA", "postalCode": "M5A1S3", "twitter": "None", "instagram": "None", "facebook": "None", "youtube": "None", "website": "None", "summary": "None", "logo": "None", "latitude": 43.65474423454887, "longitude": -79.36844756148645}, "119252369RR0001": {"name": "CHARLOTTE BIRCHARD CENTRES OF EARLY LEARNING", "designationCode": "C", "categoryCode": "20", "address": "407 HILSON AVENUE", "city": "OTTAWA", "province": "ON", "country": "CA", "postalCode": "K1Z6B9", "twitter": "None", "instagram": "None", "facebook": "None", "youtube": "None", "website": "None", "summary": "None", "logo": "None", "latitude": 45.39499746768412, "longitude": -75.74504974681214}, "898856141RR0001": {"name": "CHARLOTTE COUNTY ACTIVITY CENTRE INC.", "designationCode": "C", "categoryCode": "56", "address": "186 MILLTOWN BLVD", "city": "ST. STEPHEN", "province": "NB", "country": "CA", "postalCode": "E3L1G8", "twitter": "None", "instagram": "None", "facebook": "None", "youtube": "None", "website": "None", "summary": "None", "logo": "None", "latitude": 45.19237188693367, "longitude": -67.28260564677099}, "863919171RR0001": {"name": "CHARLOTTE COUNTY ALTERNATIVE TRANSPORTATION ASSOCIATION INC.", "designationCode": "C", "categoryCode": "09", "address": "205 - 73 MILLTOWN BLVD", "city": "ST STEPHEN", "province": "NB", "country": "CA", "postalCode": "E3L1G5", "twitter": "None", "instagram": "None", "facebook": "None", "youtube": "None", "website": "None", "summary": "None", "logo": "None", "latitude": 45.19253945772946, "longitude": -67.27928246448145}, "804323871RR0001": {"name": "CHARLOTTE COUNTY ARCHIVES INC.", "designationCode": "C", "categoryCode": "50", "address": "123 FREDERICK ST", "city": "ST. ANDREWS", "province": "NB", "country": "CA", "postalCode": "E5B1Z1", "twitter": "None", "instagram": "None", "facebook": "None", "youtube": "None", "website": "None", "summary": "None", "logo": "None", "latitude": 45.07547844350521, "longitude": -67.04962681178971}, "106909476RR0001": {"name": "CHARLOTTE COUNTY GROUP HOMES INC.", "designationCode": "C", "categoryCode": "01", "address": "PO BOX 415", "city": "ST. STEPHEN", "province": "NB", "country": "CA", "postalCode": "E3L2X3", "twitter": "None", "instagram": "None", "facebook": "None", "youtube": "None", "website": "None", "summary": "None", "logo": "None", "latitude": 45.19456800000006, "longitude": -67.27532299999993}, "118850387RR0001": {"name": "CHARLOTTE COUNTY MUSEUM INC.", "designationCode": "C", "categoryCode": "52", "address": "443 MILLTOWN BLVD", "city": "ST STEPHEN", "province": "NB", "country": "CA", "postalCode": "E3L1J9", "twitter": "None", "instagram": "None", "facebook": "None", "youtube": "None", "website": "None", "summary": "None", "logo": "None", "latitude": 45.17446525090885, "longitude": -67.29653970295412}, "889895975RR0001": {"name": "CHARLOTTE ELEANOR ENGLEHART HOSPITAL AUXILIARY", "designationCode": "C", "categoryCode": "19", "address": "450 BLANCHE ST", "city": "PETROLIA", "province": "ON", "country": "CA", "postalCode": "N0N1R0", "twitter": "None", "instagram": "None", "facebook": "None", "youtube": "None", "website": "None", "summary": "None", "logo": "None", "latitude": 42.878313049578594, "longitude": -82.14797757541766}, "131456212RR0001": {"name": "CHARLOTTE ELEANOR ENGLEHART HOSPITAL FOUNDATION", "designationCode": "A", "categoryCode": "13", "address": "450 BLANCHE ST", "city": "PETROLIA", "province": "ON", "country": "CA", "postalCode": "N0N1R0", "twitter": "None", "instagram": "None", "facebook": "None", "youtube": "None", "website": "None", "summary": "None", "logo": "None", "latitude": 42.878313049578594, "longitude": -82.14797757541766}, "118850403RR0001": {"name": "CHARLOTTETOWN BIBLE CHAPEL", "designationCode": "C", "categoryCode": "39", "address": "35 LINCOLN WOOD DRIVE", "city": "CHARLOTTETOWN", "province": "PE", "country": "CA", "postalCode": "C1A6H5", "twitter": "None", "instagram": "None", "facebook": "None", "youtube": "None", "website": "None", "summary": "None", "logo": "None", "latitude": 46.26069483319866, "longitude": -63.12324878657161}, "106909674RR0001": {"name": "CHARLOTTETOWN BLVD. CHILDCARE CENTRE", "designationCode": "C", "categoryCode": "20", "address": "111 ISLAND RD                 UNIT 5", "city": "SCARBOROUGH", "province": "ON", "country": "CA", "postalCode": "M1C2P7", "twitter": "None", "instagram": "None", "facebook": "None", "youtube": "None", "website": "None", "summary": "None", "logo": "None", "latitude": 43.79831980483616, "longitude": -79.13762726698033}, "899544787RR0001": {"name": "CHARLOTTETOWN BOYS' AND GIRLS' CLUB INC.", "designationCode": "C", "categoryCode": "09", "address": "39 ST. PETERS RD", "city": "CHARLOTTETOWN", "province": "PE", "country": "CA", "postalCode": "C1A5N1", "twitter": "None", "instagram": "None", "facebook": "None", "youtube": "None", "website": "None", "summary": "None", "logo": "None", "latitude": 46.24828376019968, "longitude": -63.12280732015691}, "886705094RR0001": {"name": "CHARLOTTETOWN DISTRICT 4-H COUNCIL", "designationCode": "C", "categoryCode": "29", "address": "PO BOX 2000                   40 ENMAN CRES. - RM 238", "city": "CHARLOTTETOWN", "province": "PE", "country": "CA", "postalCode": "C1A7N8", "twitter": "None", "instagram": "None", "facebook": "None", "youtube": "None", "website": "None", "summary": "None", "logo": "None", "latitude": 46.23659700000006, "longitude": -63.12815449999994}, "865500144RR0001": {"name": "CHARLOTTETOWN GOSPEL HALL", "designationCode": "C", "categoryCode": "39", "address": "143 UPPER PRINCE STREET", "city": "CHARLOTTETOWN", "province": "PE", "country": "CA", "postalCode": "C1A4T1", "twitter": "None", "instagram": "None", "facebook": "None", "youtube": "None", "website": "None", "summary": "None", "logo": "None", "latitude": 46.244188037192, "longitude": -63.131920485573275}, "118850429RR0001": {"name": "CHARLOTTETOWN MEALS ON WHEELS INC.", "designationCode": "C", "categoryCode": "09", "address": "17 MARJORIE CRES", "city": "STRATFORD", "province": "PE", "country": "CA", "postalCode": "C1B1X3", "twitter": "None", "instagram": "None", "facebook": "None", "youtube": "None", "website": "None", "summary": "None", "logo": "None", "latitude": 46.21374991173756, "longitude": -63.10646369193254}, "107669848RR0009": {"name": "CHARLOTTETOWN SEVENTH-DAY ADVENTIST CHURCH", "designationCode": "C", "categoryCode": "41", "address": "121 SALISBURY RD", "city": "MONCTON", "province": "NB", "country": "CA", "postalCode": "E1E1A6", "twitter": "None", "instagram": "None", "facebook": "None", "youtube": "None", "website": "None", "summary": "None", "logo": "None", "latitude": 46.0711640413756, "longitude": -64.82144086984238}, "118850460RR0001": {"name": "CHARLOTTETOWN Y'S MEN'S MEMORIAL FUND OF PRINCE EDWARD ISLAND", "designationCode": "C", "categoryCode": "09", "address": "124 ST. PETER'S RD.", "city": "CHARLOTTETOWN", "province": "PE", "country": "CA", "postalCode": "C1A5P4", "twitter": "None", "instagram": "None", "facebook": "None", "youtube": "None", "website": "None", "summary": "None", "logo": "None", "latitude": 46.25772335636797, "longitude": -63.119624993883164}, "890293269RR0001": {"name": "CHARLTON GOSPEL HALL", "designationCode": "C", "categoryCode": "39", "address": "RR 2", "city": "ENGLEHART", "province": "ON", "country": "CA", "postalCode": "P0J1H0", "twitter": "None", "instagram": "None", "facebook": "None", "youtube": "None", "website": "None", "summary": "None", "logo": "None", "latitude": 47.82446009826061, "longitude": -79.86787902523393}, "889858940RR0001": {"name": "CHARLTON L SMITH CHARITABLE FOUNDATION", "designationCode": "B", "categoryCode": "13", "address": "200 - 3561 SHELBOURNE STREET", "city": "VICTORIA", "province": "BC", "country": "CA", "postalCode": "V8P4G8", "twitter": "None", "instagram": "None", "facebook": "None", "youtube": "None", "website": "None", "summary": "None", "logo": "None", "latitude": 48.45719700000001, "longitude": -123.33298260335299}, "859762569RR0001": {"name": "CHARMZ 4 CHARITY", "designationCode": "A", "categoryCode": "03", "address": "2450 VICTORIA PARK AVENUE     SUITE 200", "city": "TORONTO", "province": "ON", "country": "CA", "postalCode": "M2J4A2", "twitter": "None", "instagram": "None", "facebook": "None", "youtube": "None", "website": "None", "summary": "None", "logo": "None", "latitude": 43.77144514181438, "longitude": -79.3214250933114}, "843967464RR0001": {"name": "CHARTWELL BAPTIST CHURCH", "designationCode": "C", "categoryCode": "31", "address": "228 CHARTWELL ROAD", "city": "OAKVILLE", "province": "ON", "country": "CA", "postalCode": "L6J3Z8", "twitter": "None", "instagram": "None", "facebook": "None", "youtube": "None", "website": "None", "summary": "None", "logo": "None", "latitude": 43.45735375682415, "longitude": -79.66351185518451}, "885233940RR0001": {"name": "CHASE AND DISTRICT HEALTH SERVICES FOUNDATION", "designationCode": "C", "categoryCode": "13", "address": "P.O. BOX 1099", "city": "CHASE", "province": "BC", "country": "CA", "postalCode": "V0E1M0", "twitter": "None", "instagram": "None", "facebook": "None", "youtube": "None", "website": "None", "summary": "None", "logo": "None", "latitude": 50.81957044779206, "longitude": -119.68762346689822}, "873286694RR0001": {"name": "CHASE AND DISTRICT LIONS COMMUNITY CLUB", "designationCode": "A", "categoryCode": "63", "address": "#40-217 SHEPHERD ROAD", "city": "CHASE", "province": "BC", "country": "CA", "postalCode": "V0E1M1", "twitter": "None", "instagram": "None", "facebook": "None", "youtube": "None", "website": "None", "summary": "None", "logo": "None", "latitude": 50.81338247876395, "longitude": -119.69299446528952}, "118850502RR0001": {"name": "CHASE AND DISTRICT MUSEUM AND ARCHIVES SOCIETY", "designationCode": "C", "categoryCode": "50", "address": "P.O. BOX 160                  1042 SHUSWAP AVENUE", "city": "CHASE", "province": "BC", "country": "CA", "postalCode": "V0E1M0", "twitter": "None", "instagram": "None", "facebook": "None", "youtube": "None", "website": "None", "summary": "None", "logo": "None", "latitude": 50.82138621233188, "longitude": -119.68368704899298}, "891124083RR0001": {"name": "CHASE AND DISTRICT RECREATION CENTRE SOCIETY", "designationCode": "C", "categoryCode": "56", "address": "PO BOX 1239", "city": "CHASE", "province": "BC", "country": "CA", "postalCode": "V0E1M0", "twitter": "None", "instagram": "None", "facebook": "None", "youtube": "None", "website": "None", "summary": "None", "logo": "None", "latitude": 50.81957044779206, "longitude": -119.68762346689822}, "814524278RR0001": {"name": "CHASE COMMUNITY FELLOWSHIP", "designationCode": "C", "categoryCode": "39", "address": "PO BOX 333", "city": "CHASE", "province": "BC", "country": "CA", "postalCode": "V0E1M0", "twitter": "None", "instagram": "None", "facebook": "None", "youtube": "None", "website": "None", "summary": "None", "logo": "None", "latitude": 50.81957044779206, "longitude": -119.68762346689822}, "119288918RR0237": {"name": "CHASE CONGREGATION OF JEHOVAH'S WITNESSES,", "designationCode": "C", "categoryCode": "61", "address": "P.O. BOX 209", "city": "CHASE", "province": "BC", "country": "CA", "postalCode": "V0E1M0", "twitter": "None", "instagram": "None", "facebook": "None", "youtube": "None", "website": "None", "summary": "None", "logo": "None", "latitude": 50.81957044779206, "longitude": -119.68762346689822}, "106910037RR0001": {"name": "CHASE EVANGELICAL FREE CHURCH", "designationCode": "C", "categoryCode": "39", "address": "P O BOX 498", "city": "CHASE", "province": "BC", "country": "CA", "postalCode": "V0E1M0", "twitter": "None", "instagram": "None", "facebook": "None", "youtube": "None", "website": "None", "summary": "None", "logo": "None", "latitude": 50.81957044779206, "longitude": -119.68762346689822}, "859700163RR0001": {"name": "CHASE FIREFIGHTERS ASSOCIATION", "designationCode": "C", "categoryCode": "59", "address": "BOX 463 810 OKANAGAN ST", "city": "CHASE", "province": "BC", "country": "CA", "postalCode": "V0E1M0", "twitter": "None", "instagram": "None", "facebook": "None", "youtube": "None", "website": "None", "summary": "None", "logo": "None", "latitude": 50.81888343632049, "longitude": -119.68659512158794}, "889248043RR0001": {"name": "CHASIEDAI GER", "designationCode": "C", "categoryCode": "42", "address": "122 BARSE ST", "city": "NORTH YORK", "province": "ON", "country": "CA", "postalCode": "M5M4L4", "twitter": "None", "instagram": "None", "facebook": "None", "youtube": "None", "website": "None", "summary": "None", "logo": "None", "latitude": 43.729931022476805, "longitude": -79.4308555720467}, "843839903RR0001": {"name": "CHAT to the Future Inc.", "designationCode": "C", "categoryCode": "09", "address": "170 PRINCE WILLIAM ST", "city": "SAINT JOHN", "province": "NB", "country": "CA", "postalCode": "E2L2B7", "twitter": "None", "instagram": "None", "facebook": "None", "youtube": "None", "website": "None", "summary": "None", "logo": "None", "latitude": 45.26937970191585, "longitude": -66.06118813168683}, "129950135RR0001": {"name": "CHATEAU DE GRAND-MERE", "designationCode": "C", "categoryCode": "20", "address": "11850 AV DE BOIS-DE-BOULOGNE", "city": "MONTREAL", "province": "QC", "country": "CA", "postalCode": "H3M2X7", "twitter": "None", "instagram": "None", "facebook": "None", "youtube": "None", "website": "None", "summary": "None", "logo": "None", "latitude": 45.54149210462239, "longitude": -73.69027921816024}, "873447262RR0001": {"name": "CHATEAU GARDENS (ELMIRA) AUXILIARY", "designationCode": "C", "categoryCode": "19", "address": "11 HERBERT STREET", "city": "ELMIRA", "province": "ON", "country": "CA", "postalCode": "N3B2B8", "twitter": "None", "instagram": "None", "facebook": "None", "youtube": "None", "website": "None", "summary": "None", "logo": "None", "latitude": 43.60173852626213, "longitude": -80.5637991324862}, "883607897RR0001": {"name": "CHATEAU GARDENS NURSING HOME VOLUNTEERS", "designationCode": "C", "categoryCode": "19", "address": "P.O. BOX 429", "city": "LANCASTER", "province": "ON", "country": "CA", "postalCode": "K0C1N0", "twitter": "None", "instagram": "None", "facebook": "None", "youtube": "None", "website": "None", "summary": "None", "logo": "None", "latitude": 45.256231809853304, "longitude": -74.59372027289841}, "876009515RR0001": {"name": "CHATEAU PROVIDENCE AUXILIARY", "designationCode": "C", "categoryCode": "19", "address": "P.O. BOX 340                  501-1ST AVENUE", "city": "ST. BRIEUX", "province": "SK", "country": "CA", "postalCode": "S0K3V0", "twitter": "None", "instagram": "None", "facebook": "None", "youtube": "None", "website": "None", "summary": "None", "logo": "None", "latitude": 52.0036828562578, "longitude": -104.73231785455155}, "118850619RR0001": {"name": "CHATEAU VILLAGE COMMUNITY APARTMENTS INC.", "designationCode": "C", "categoryCode": "09", "address": "747 HYDE PARK ROAD            UNIT 203", "city": "LONDON", "province": "ON", "country": "CA", "postalCode": "N6H3S3", "twitter": "None", "instagram": "None", "facebook": "None", "youtube": "None", "website": "None", "summary": "None", "logo": "None", "latitude": 42.97722896032652, "longitude": -81.32103844956471}, "868051731RR0001": {"name": "CHATEAUGUAY COMMUNITY CHURCH", "designationCode": "C", "categoryCode": "36", "address": "111, RUE LAUZON", "city": "CHATEAUGUAY", "province": "QC", "country": "CA", "postalCode": "J6K1C7", "twitter": "None", "instagram": "None", "facebook": "None", "youtube": "None", "website": "None", "summary": "None", "logo": "None", "latitude": 45.35815640218695, "longitude": -73.71363030085409}, "118850601RR0001": {"name": "CHATEAUGUAY-ST ANDREW'S UNITED CHURCH", "designationCode": "C", "categoryCode": "44", "address": "46 RUE DUPONT", "city": "CHATEAUGUAY", "province": "QC", "country": "CA", "postalCode": "J6J1G3", "twitter": "None", "instagram": "None", "facebook": "None", "youtube": "None", "website": "None", "summary": "None", "logo": "None", "latitude": 45.37916156838269, "longitude": -73.74633705412887}, "118850734RR0001": {"name": "CHATHAM - KENT CRIME STOPPERS INC.", "designationCode": "C", "categoryCode": "59", "address": "P.O. BOX 366", "city": "CHATHAM", "province": "ON", "country": "CA", "postalCode": "N7M5K5", "twitter": "None", "instagram": "None", "facebook": "None", "youtube": "None", "website": "None", "summary": "None", "logo": "None", "latitude": 42.404613000000055, "longitude": -82.18960099999994}, "876908211RR0001": {"name": "CHATHAM CONCERT BAND ASSOCIATION INC.", "designationCode": "C", "categoryCode": "22", "address": "P. O. BOX 164                 STATION MAIN", "city": "CHATHAM", "province": "ON", "country": "CA", "postalCode": "N7M5K3", "twitter": "None", "instagram": "None", "facebook": "None", "youtube": "None", "website": "None", "summary": "None", "logo": "None", "latitude": 42.404613000000055, "longitude": -82.18960099999994}, "892435249RR0001": {"name": "CHATHAM DISTRICT CHRISTIAN EDUCATION FOUNDATION", "designationCode": "A", "categoryCode": "23", "address": "64 CARNEY PL", "city": "CHATHAM", "province": "ON", "country": "CA", "postalCode": "N7L5J2", "twitter": "None", "instagram": "None", "facebook": "None", "youtube": "None", "website": "None", "summary": "None", "logo": "None", "latitude": 42.425940225662075, "longitude": -82.21038260877734}, "118850650RR0001": {"name": "CHATHAM EVANGEL SENIOR CITIZENS VILLA COMMUNITY INCORPORATED", "designationCode": "C", "categoryCode": "01", "address": "50 SANDYS ST", "city": "CHATHAM", "province": "ON", "country": "CA", "postalCode": "N7L4Y5", "twitter": "None", "instagram": "None", "facebook": "None", "youtube": "None", "website": "None", "summary": "None", "logo": "None", "latitude": 42.40544582018558, "longitude": -82.19812331773366}, "106910474RR0001": {"name": "CHATHAM GOODFELLOWS", "designationCode": "C", "categoryCode": "09", "address": "P.O. BOX 114", "city": "CHATHAM", "province": "ON", "country": "CA", "postalCode": "N7M5K1", "twitter": "None", "instagram": "None", "facebook": "None", "youtube": "None", "website": "None", "summary": "None", "logo": "None", "latitude": 42.404613000000055, "longitude": -82.18960099999994}, "862013273RR0001": {"name": "CHATHAM GOSPEL HALL", "designationCode": "C", "categoryCode": "39", "address": "235 JOSEPH STREET", "city": "CHATHAM", "province": "ON", "country": "CA", "postalCode": "N7L3H2", "twitter": "None", "instagram": "None", "facebook": "None", "youtube": "None", "website": "None", "summary": "None", "logo": "None", "latitude": 42.41394949154588, "longitude": -82.19688363001339}, "106910540RR0001": {"name": "CHATHAM KENT WOMEN'S CENTRE INC.", "designationCode": "C", "categoryCode": "01", "address": "20 SANDYS ST", "city": "CHATHAM", "province": "ON", "country": "CA", "postalCode": "N7L4Y5", "twitter": "None", "instagram": "None", "facebook": "None", "youtube": "None", "website": "None", "summary": "None", "logo": "None", "latitude": 42.40493080907707, "longitude": -82.19745296373164}}