{"104790274RR0001": {"name": "SERVICE BENEVOLE D'ENTRAIDE DE VIMONT-AUTEUIL", "designationCode": "C", "categoryCode": "09", "address": "2287B RUE ALADIN", "city": "LAVAL", "province": "QC", "country": "CA", "postalCode": "H7K2T6", "twitter": "None", "instagram": "None", "facebook": "None", "youtube": "None", "website": "None", "summary": "None", "logo": "None", "latitude": 45.61946917563406, "longitude": -73.72907628394147}, "125311571RR0001": {"name": "SERVICE BENEVOLE HOSPITALIER DE L'HOTEL-DIEU D'ARTHABASKA INC", "designationCode": "C", "categoryCode": "19", "address": "5 RUE DES HOSPITALIERES", "city": "ARTHABASKA", "province": "QC", "country": "CA", "postalCode": "G6P6N2", "twitter": "None", "instagram": "None", "facebook": "None", "youtube": "None", "website": "None", "summary": "None", "logo": "None", "latitude": 46.040901004154954, "longitude": -71.91637223201005}, "119145977RR0001": {"name": "SERVICE BUDG\u00c9TAIRE ET COMMUNAUTAIRE DE JONQUI\u00c8RE", "designationCode": "C", "categoryCode": "09", "address": "CP 42 SUCC.A", "city": "JONQUIERE", "province": "QC", "country": "CA", "postalCode": "G7X7V8", "twitter": "None", "instagram": "None", "facebook": "None", "youtube": "None", "website": "None", "summary": "None", "logo": "None", "latitude": 48.39490824017585, "longitude": -71.14655325835871}, "894221092RR0001": {"name": "SERVICE BUDG\u00c9TAIRE POPULAIRE DES SOURCES", "designationCode": "C", "categoryCode": "09", "address": "599 BOUL SIMONEAU", "city": "ASBESTOS", "province": "QC", "country": "CA", "postalCode": "J1T4G7", "twitter": "None", "instagram": "None", "facebook": "None", "youtube": "None", "website": "None", "summary": "None", "logo": "None", "latitude": 45.77666148268776, "longitude": -71.92215297016561}, "129833885RR0001": {"name": "SERVICE BUDGETAIRE ET COMMUNAUTAIRE DE CHICOUTIMI", "designationCode": "C", "categoryCode": "59", "address": "2422 ROUSSEL", "city": "CHICOUTIMI", "province": "QC", "country": "CA", "postalCode": "G7G1X6", "twitter": "None", "instagram": "None", "facebook": "None", "youtube": "None", "website": "None", "summary": "None", "logo": "None", "latitude": 48.43766645325738, "longitude": -71.07436763904441}, "119145993RR0001": {"name": "SERVICE BUDGETAIRE ET COMMUNAUTAIRE DE LA MRC MARIA CHAPDELAINE", "designationCode": "C", "categoryCode": "29", "address": "1230 BOUL WALLBERG            SUITE 304", "city": "DOLBEAU-MISTASSINI", "province": "QC", "country": "CA", "postalCode": "G8L1H2", "twitter": "None", "instagram": "None", "facebook": "None", "youtube": "None", "website": "None", "summary": "None", "logo": "None", "latitude": 48.877771494864106, "longitude": -72.22686960061168}, "104790332RR0001": {"name": "SERVICE BUDGETAIRE POPULAIRE DE L'ESTRIE INC.", "designationCode": "C", "categoryCode": "09", "address": "79 RUE WELLINGTON NORD        BUREAU 202", "city": "SHERBROOKE", "province": "QC", "country": "CA", "postalCode": "J1H5A9", "twitter": "None", "instagram": "None", "facebook": "None", "youtube": "None", "website": "None", "summary": "None", "logo": "None", "latitude": 45.402714168186336, "longitude": -71.89118234404735}, "137833000RR0001": {"name": "SERVICE BUDGETAIRE POPULAIRE DE LA BAIE ET BAS SAGUENAY", "designationCode": "C", "categoryCode": "09", "address": "524, BOUL. DE LA GRANDE-BAIE S", "city": "LA BAIE", "province": "QC", "country": "CA", "postalCode": "G7B2C7", "twitter": "None", "instagram": "None", "facebook": "None", "youtube": "None", "website": "None", "summary": "None", "logo": "None", "latitude": 48.331000728287805, "longitude": -70.88011172964411}, "899772255RR0001": {"name": "SERVICE COLLECTIF AUX FAMILLES DE NOTRE-DAME-DU-LAUS", "designationCode": "C", "categoryCode": "09", "address": "170 PRINCIPALE C.P.249", "city": "NOTRE-DAME DU LAUS", "province": "QC", "country": "CA", "postalCode": "J0X2M0", "twitter": "None", "instagram": "None", "facebook": "None", "youtube": "None", "website": "None", "summary": "None", "logo": "None", "latitude": 46.09278573968476, "longitude": -75.6279198894919}, "868787565RR0001": {"name": "SERVICE COMMUNAUTAIRE DE CONSULTATION INDIVIDUALISEE DE CHICOUTIMI INC", "designationCode": "C", "categoryCode": "09", "address": "602 RACINE EST", "city": "CHICOUTIMI", "province": "QC", "country": "CA", "postalCode": "G7H1V1", "twitter": "None", "instagram": "None", "facebook": "None", "youtube": "None", "website": "None", "summary": "None", "logo": "None", "latitude": 48.42955548009162, "longitude": -71.04963086081135}, "898319686RR0001": {"name": "SERVICE D'ACCOMPAGNEMENT POUR JEUNES MERE \"LA NICHEE\"", "designationCode": "C", "categoryCode": "09", "address": "670, BOUL.DES CASCADES OUEST  C.P. 2051", "city": "ALMA", "province": "QC", "country": "CA", "postalCode": "G8B5W1", "twitter": "None", "instagram": "None", "facebook": "None", "youtube": "None", "website": "None", "summary": "None", "logo": "None", "latitude": 48.551417256448765, "longitude": -71.6509754207686}, "852179936RR0001": {"name": "SERVICE D'ACCUEIL AUX REFUGIES DE QUEBEC INC.", "designationCode": "C", "categoryCode": "59", "address": "112 RUE CREMAZIE E", "city": "QUEBEC", "province": "QC", "country": "CA", "postalCode": "G1R1Y2", "twitter": "None", "instagram": "None", "facebook": "None", "youtube": "None", "website": "None", "summary": "None", "logo": "None", "latitude": 46.806334689162576, "longitude": -71.22483686637993}, "132748856RR0001": {"name": "SERVICE D'ACCUEIL DES NOUVEAUX ARRIVANTS (SANA) DE TROIS-RIVI\u00c8RES", "designationCode": "C", "categoryCode": "09", "address": "919 BOUL. ST-MAURICE", "city": "TROIS-RIVIERES", "province": "QC", "country": "CA", "postalCode": "G9A3R1", "twitter": "None", "instagram": "None", "facebook": "None", "youtube": "None", "website": "None", "summary": "None", "logo": "None", "latitude": 46.350666650008705, "longitude": -72.54835706618965}, "119918878RR0001": {"name": "SERVICE D'ACTION BENEVOLE \"AU COEUR DU JARDIN\" INC", "designationCode": "C", "categoryCode": "09", "address": "1030 RUE NOTRE-DAME", "city": "SAINT-R\u00c9MI", "province": "QC", "country": "CA", "postalCode": "J0L2L0", "twitter": "None", "instagram": "None", "facebook": "None", "youtube": "None", "website": "None", "summary": "None", "logo": "None", "latitude": 45.25831896082171, "longitude": -73.6224972649129}, "123088767RR0001": {"name": "SERVICE D'ADAPTATION ET D'INTEGRATION DE MONTREAL", "designationCode": "C", "categoryCode": "59", "address": "2475 RUE SAINT-PATRICK", "city": "MONTREAL", "province": "QC", "country": "CA", "postalCode": "H3K1B3", "twitter": "None", "instagram": "None", "facebook": "None", "youtube": "None", "website": "None", "summary": "None", "logo": "None", "latitude": 45.48132130809612, "longitude": -73.5697103025562}, "897562864RR0001": {"name": "SERVICE D'AIDE A L'ADAPTATION DES IMMIGRANTS ET IMMIGRANTES (S.A.A.I.)", "designationCode": "C", "categoryCode": "09", "address": "HALLES FLEUR DE LYS           245, RUE SOUMANDE-LOCAL R.C.24", "city": "QU\u00c9BEC", "province": "QC", "country": "CA", "postalCode": "G1M3H6", "twitter": "None", "instagram": "None", "facebook": "None", "youtube": "None", "website": "None", "summary": "None", "logo": "None", "latitude": 46.818563848981704, "longitude": -71.25255374473375}, "104790738RR0001": {"name": "SERVICE D'AIDE A L'EMPLOI DE L'EST INC.", "designationCode": "C", "categoryCode": "09", "address": "8238 DE MARSEILLE", "city": "MONTREAL", "province": "QC", "country": "CA", "postalCode": "H1L1P4", "twitter": "None", "instagram": "None", "facebook": "None", "youtube": "None", "website": "None", "summary": "None", "logo": "None", "latitude": 45.59800310407415, "longitude": -73.52911444988185}, "107951618RR0478": {"name": "SERVICE D'AIDE A LA FAMILLE ET DES SERVICES COMMUNAUTAIRES DE L'ARMEE DU SALUT/THE SALVATION ARMY COMMUNITY AND FAMILY SERVICES -MONTREAL", "designationCode": "C", "categoryCode": "09", "address": "9351 RTE TRANSCANADIENNE", "city": "SAINT-LAURENT", "province": "QC", "country": "CA", "postalCode": "H4S1V3", "twitter": "None", "instagram": "None", "facebook": "None", "youtube": "None", "website": "None", "summary": "None", "logo": "None", "latitude": 45.491095461624596, "longitude": -73.74665717900636}, "122007008RR0001": {"name": "SERVICE D'AIDE AUX VICTIMES D'ACTES CRIMINELS MARTHE VAILLANCOURT", "designationCode": "C", "categoryCode": "09", "address": "100 RUE RACINE EST            SUITE 102", "city": "CHICOUTIMI", "province": "QC", "country": "CA", "postalCode": "G7H1R1", "twitter": "None", "instagram": "None", "facebook": "None", "youtube": "None", "website": "None", "summary": "None", "logo": "None", "latitude": 48.42784151457096, "longitude": -71.06525119900166}, "130568256RR0001": {"name": "SERVICE D'AIDE COMMUNAUTAIRE ANJOU INC.", "designationCode": "C", "categoryCode": "59", "address": "6497 RUE AZILDA", "city": "ANJOU", "province": "QC", "country": "CA", "postalCode": "H1K2Z8", "twitter": "None", "instagram": "None", "facebook": "None", "youtube": "None", "website": "None", "summary": "None", "logo": "None", "latitude": 45.60960529753588, "longitude": -73.54548114778699}, "892000233RR0001": {"name": "SERVICE D'AIDE COMMUNAUTAIRE ET DE LIAISON POUR IMMIGRANTS DE NOTRE-DAME-DE-GRACE (SACLI)", "designationCode": "C", "categoryCode": "09", "address": "201-6575 AVENUE SOMERLED", "city": "MONTREAL", "province": "QC", "country": "CA", "postalCode": "H4V1T1", "twitter": "None", "instagram": "None", "facebook": "None", "youtube": "None", "website": "None", "summary": "None", "logo": "None", "latitude": 45.467115557879794, "longitude": -73.63882001390712}, "137318739RR0001": {"name": "SERVICE D'AIDE ET DE LIAISON POUR IMMIGRANTS LA MAISONNEE", "designationCode": "C", "categoryCode": "09", "address": "6865 AV CHRISTOPHE-COLOMB", "city": "MONTREAL", "province": "QC", "country": "CA", "postalCode": "H2S2H3", "twitter": "None", "instagram": "None", "facebook": "None", "youtube": "None", "website": "None", "summary": "None", "logo": "None", "latitude": 45.540244287004306, "longitude": -73.60692887411288}, "876636622RR0001": {"name": "SERVICE D'AIDE ET DE TRAITEMENT EN APPRENTISSAGE SOCIAL (S A T A S )", "designationCode": "C", "categoryCode": "09", "address": "121 PRINCIPALE SUD            C.P. 38", "city": "AMOS", "province": "QC", "country": "CA", "postalCode": "J9T3A5", "twitter": "None", "instagram": "None", "facebook": "None", "youtube": "None", "website": "None", "summary": "None", "logo": "None", "latitude": 48.568824000000006, "longitude": -78.11608252432312}, "894258854RR0001": {"name": "SERVICE D'AIDE SEDAI T.S.S.", "designationCode": "C", "categoryCode": "09", "address": "3677 MONTEE GAGNON", "city": "TERREBONNE", "province": "QC", "country": "CA", "postalCode": "J6X1K8", "twitter": "None", "instagram": "None", "facebook": "None", "youtube": "None", "website": "None", "summary": "None", "logo": "None", "latitude": 45.6993172445322, "longitude": -73.81216429251556}, "885439935RR0001": {"name": "SERVICE D'AIDE ST-MAURICE DE B.D.F.", "designationCode": "B", "categoryCode": "09", "address": "53 - 37E AVENUE-SUD", "city": "BOIS-DES-FILION", "province": "QC", "country": "CA", "postalCode": "J6Z2H9", "twitter": "None", "instagram": "None", "facebook": "None", "youtube": "None", "website": "None", "summary": "None", "logo": "None", "latitude": 45.66619325313054, "longitude": -73.75659243545512}, "880111828RR0001": {"name": "SERVICE D'AIDES ST-VINCENT DE PAUL ST-NOEL", "designationCode": "C", "categoryCode": "09", "address": "933-15E AVENUE", "city": "THETFORDMINES", "province": "QC", "country": "CA", "postalCode": "G6G1S1", "twitter": "None", "instagram": "None", "facebook": "None", "youtube": "None", "website": "None", "summary": "None", "logo": "None", "latitude": 46.106953877892465, "longitude": -71.29179074190647}, "890551070RR0001": {"name": "SERVICE D'AMENAGEMENT POPULAIRE DE MONTREAL", "designationCode": "C", "categoryCode": "59", "address": "1945 RUE MULLINS              BUREAU 120", "city": "MONTREAL", "province": "QC", "country": "CA", "postalCode": "H3K1N9", "twitter": "None", "instagram": "None", "facebook": "None", "youtube": "None", "website": "None", "summary": "None", "logo": "None", "latitude": 45.48090306523738, "longitude": -73.56151176897089}, "119146066RR0001": {"name": "SERVICE D'ASSISTANCE (EMILIE GAMELIN) (DAMES CHARITABLES)", "designationCode": "C", "categoryCode": "09", "address": "944, RUE NOTRE-DAME SUD", "city": "LOUISEVILLE", "province": "QC", "country": "CA", "postalCode": "J5V2L4", "twitter": "None", "instagram": "None", "facebook": "None", "youtube": "None", "website": "None", "summary": "None", "logo": "None", "latitude": 46.240349385509866, "longitude": -72.9237310540133}, "887844066RR0001": {"name": "SERVICE D'EDUCATION ET D'INTEGRATION INTERCULTURELLE DE MONTREAL", "designationCode": "C", "categoryCode": "09", "address": "4824 CH DE LA COTE-DES-NEIGES BUREAU 100", "city": "MONTREAL", "province": "QC", "country": "CA", "postalCode": "H3V1G4", "twitter": "None", "instagram": "None", "facebook": "None", "youtube": "None", "website": "None", "summary": "None", "logo": "None", "latitude": 45.49532050288555, "longitude": -73.61328180391251}, "873380414RR0001": {"name": "SERVICE D'EDUCATION ET DE SECURITE ALIMENTAIRE DE MERCIER-EST (SESAME)", "designationCode": "C", "categoryCode": "09", "address": "8628 HOCHELAGA", "city": "MONTREAL", "province": "QC", "country": "CA", "postalCode": "H1L2M4", "twitter": "None", "instagram": "None", "facebook": "None", "youtube": "None", "website": "None", "summary": "None", "logo": "None", "latitude": 45.600470277540595, "longitude": -73.52040394835262}, "104792874RR0001": {"name": "SERVICE D'ENTRAIDE BASSE-VILLE INC.", "designationCode": "C", "categoryCode": "09", "address": "155 AVE SACRE-COEUR", "city": "QUEBEC", "province": "QC", "country": "CA", "postalCode": "G1N2W3", "twitter": "None", "instagram": "None", "facebook": "None", "youtube": "None", "website": "None", "summary": "None", "logo": "None", "latitude": 46.81097639468512, "longitude": -71.24411823379906}, "107969529RR0001": {"name": "SERVICE D'ENTRAIDE BERNIERES- ST-NICOLAS INC.", "designationCode": "C", "categoryCode": "09", "address": "1444, RUE DES PIONNIERS", "city": "LEVIS", "province": "QC", "country": "CA", "postalCode": "G7A4L6", "twitter": "None", "instagram": "None", "facebook": "None", "youtube": "None", "website": "None", "summary": "None", "logo": "None", "latitude": 46.70209328504239, "longitude": -71.40165566111719}, "107969537RR0001": {"name": "SERVICE D'ENTRAIDE COMMUNAUTAIRE RAYON DE SOLEIL", "designationCode": "C", "categoryCode": "09", "address": "1575 RUE TURMEL", "city": "L'ANCIENNE-LORETTE", "province": "QC", "country": "CA", "postalCode": "G2E3J5", "twitter": "None", "instagram": "None", "facebook": "None", "youtube": "None", "website": "None", "summary": "None", "logo": "None", "latitude": 46.79836486929413, "longitude": -71.3624234219807}, "120587696RR0001": {"name": "SERVICE D'ENTRAIDE DE BREAKEYVILLE", "designationCode": "C", "categoryCode": "09", "address": "2519 RUE SAINTE-HELENE", "city": "LEVIS", "province": "QC", "country": "CA", "postalCode": "G6Z7K6", "twitter": "None", "instagram": "None", "facebook": "None", "youtube": "None", "website": "None", "summary": "None", "logo": "None", "latitude": 46.675549224825346, "longitude": -71.22694195005474}, "890426992RR0001": {"name": "SERVICE D'ENTRAIDE DE CABANO", "designationCode": "C", "categoryCode": "09", "address": "1081 CHEMIN DU GOLF", "city": "TEMISCOUATA SUR LE LAC", "province": "QC", "country": "CA", "postalCode": "G0L1E0", "twitter": "None", "instagram": "None", "facebook": "None", "youtube": "None", "website": "None", "summary": "None", "logo": "None", "latitude": 47.681949594494846, "longitude": -68.91269359117662}, "894284488RR0001": {"name": "SERVICE D'ENTRAIDE DE PINTENDRE", "designationCode": "C", "categoryCode": "09", "address": "344, RUE THOMAS-WILSON", "city": "LEVIS", "province": "QC", "country": "CA", "postalCode": "G6C1G7", "twitter": "None", "instagram": "None", "facebook": "None", "youtube": "None", "website": "None", "summary": "None", "logo": "None", "latitude": 46.763785184834745, "longitude": -71.13399619683821}, "886152750RR0001": {"name": "SERVICE D'ENTRAIDE DE SAINT-LAMBERT-DE-LAUZON", "designationCode": "C", "categoryCode": "01", "address": "119 RUE DES PEUPLIERS", "city": "SAINT-LAMBERT-DE-LAUZON", "province": "QC", "country": "CA", "postalCode": "G0S2W0", "twitter": "None", "instagram": "None", "facebook": "None", "youtube": "None", "website": "None", "summary": "None", "logo": "None", "latitude": 46.59013073910784, "longitude": -71.21259389785911}, "886252006RR0001": {"name": "SERVICE D'ENTRAIDE DE SAINT-PHILIPPE", "designationCode": "C", "categoryCode": "09", "address": "15, RUE PERRON", "city": "SAINT-PHILIPPE", "province": "QC", "country": "CA", "postalCode": "J0L2K0", "twitter": "None", "instagram": "None", "facebook": "None", "youtube": "None", "website": "None", "summary": "None", "logo": "None", "latitude": 45.35824711766413, "longitude": -73.47412010669987}, "119146157RR0001": {"name": "SERVICE D'ENTRAIDE DE ST-JEAN-CHRYSOSTOME", "designationCode": "C", "categoryCode": "09", "address": "1008, RUE ALPHONSE-FERLAND", "city": "LEVIS", "province": "QC", "country": "CA", "postalCode": "G6Z3H6", "twitter": "None", "instagram": "None", "facebook": "None", "youtube": "None", "website": "None", "summary": "None", "logo": "None", "latitude": 46.719052680535576, "longitude": -71.19507785778158}, "886762350RR0001": {"name": "SERVICE D'ENTRAIDE DE ST-REDEMPTEUR INC", "designationCode": "C", "categoryCode": "09", "address": "2385, RTE DES RIVI\u00c8RES", "city": "L\u00c9VIS", "province": "QC", "country": "CA", "postalCode": "G6K1E9", "twitter": "None", "instagram": "None", "facebook": "None", "youtube": "None", "website": "None", "summary": "None", "logo": "None", "latitude": 46.69884879480631, "longitude": -71.28527964118469}, "119146165RR0001": {"name": "SERVICE D'ENTRAIDE DE ST-ROMUALD INC.", "designationCode": "C", "categoryCode": "09", "address": "285, RUE DE SAINT-ROMUALD", "city": "LEVIS", "province": "QC", "country": "CA", "postalCode": "G6W3H6", "twitter": "None", "instagram": "None", "facebook": "None", "youtube": "None", "website": "None", "summary": "None", "logo": "None", "latitude": 46.75503169386579, "longitude": -71.23514404731952}, "119146140RR0001": {"name": "SERVICE D'ENTRAIDE DE STE-MARIE INC", "designationCode": "C", "categoryCode": "09", "address": "62 RUE NOTRE-DAME SUD", "city": "SAINTE-MARIE DE BEAUCE", "province": "QC", "country": "CA", "postalCode": "G6E4A2", "twitter": "None", "instagram": "None", "facebook": "None", "youtube": "None", "website": "None", "summary": "None", "logo": "None", "latitude": 46.437414431877095, "longitude": -71.0220832668361}, "721827129RR0001": {"name": "SERVICE D'ENTRAIDE DU BON PASTEUR", "designationCode": "C", "categoryCode": "09", "address": "4205B RUE DES ROSES", "city": "QUEBEC", "province": "QC", "country": "CA", "postalCode": "G1G1N9", "twitter": "None", "instagram": "None", "facebook": "None", "youtube": "None", "website": "None", "summary": "None", "logo": "None", "latitude": 46.8811457531157, "longitude": -71.28670607098182}, "119146181RR0001": {"name": "SERVICE D'ENTRAIDE FAMILIALE DE VAL D'OR INC.", "designationCode": "C", "categoryCode": "09", "address": "460 AV. CENTRALE", "city": "VAL D'OR", "province": "QC", "country": "CA", "postalCode": "J9P1P5", "twitter": "None", "instagram": "None", "facebook": "None", "youtube": "None", "website": "None", "summary": "None", "logo": "None", "latitude": 48.10136434390313, "longitude": -77.77936849832655}, "892028085RR0001": {"name": "SERVICE D'ENTRAIDE L'ESPOIR (QUEBEC)", "designationCode": "C", "categoryCode": "09", "address": "125, RUE RACINE", "city": "QU\u00c9BEC", "province": "QC", "country": "CA", "postalCode": "G2B1E1", "twitter": "None", "instagram": "None", "facebook": "None", "youtube": "None", "website": "None", "summary": "None", "logo": "None", "latitude": 46.853882309452445, "longitude": -71.3563938718912}, "119146207RR0001": {"name": "SERVICE D'ENTRAIDE ST-ETIENNE", "designationCode": "C", "categoryCode": "09", "address": "4044 RTE DES RIVIERES", "city": "LEVIS", "province": "QC", "country": "CA", "postalCode": "G6J1H3", "twitter": "None", "instagram": "None", "facebook": "None", "youtube": "None", "website": "None", "summary": "None", "logo": "None", "latitude": 46.65271657421109, "longitude": -71.29749895695097}, "118845940RR0001": {"name": "SERVICE D'ENTRAIDE ST-LIN-LAURENTIDES INC.", "designationCode": "C", "categoryCode": "09", "address": "532 ST-ANTOINE", "city": "ST-LIN-LAURENTIDES", "province": "QC", "country": "CA", "postalCode": "J5M3A4", "twitter": "None", "instagram": "None", "facebook": "None", "youtube": "None", "website": "None", "summary": "None", "logo": "None", "latitude": 45.85424265889549, "longitude": -73.75467412222311}, "128698461RR0001": {"name": "SERVICE D'ENTRETIEN PRO-PRET INC", "designationCode": "C", "categoryCode": "09", "address": "SUITE 300                     5500 RUE FULLUM", "city": "MONTREAL", "province": "QC", "country": "CA", "postalCode": "H2G2H3", "twitter": "None", "instagram": "None", "facebook": "None", "youtube": "None", "website": "None", "summary": "None", "logo": "None", "latitude": 45.54220894223579, "longitude": -73.58032592801061}, "119146322RR0001": {"name": "SERVICE D'HEBERGEMENT ST-DENIS INC.", "designationCode": "C", "categoryCode": "01", "address": "6791 BOUL SAINT-MICHEL", "city": "MONTREAL", "province": "QC", "country": "CA", "postalCode": "H1Y2G4", "twitter": "None", "instagram": "None", "facebook": "None", "youtube": "None", "website": "None", "summary": "None", "logo": "None", "latitude": 45.55657087373752, "longitude": -73.59117540562072}, "107950792RR0001": {"name": "SERVICE D'INFORMATION ET INTERVENTION EN TOXICOMANIE, (UNITE DOMREMY D'ALMA)", "designationCode": "C", "categoryCode": "57", "address": "280 RUE SCOTT OUEST", "city": "ALMA", "province": "QC", "country": "CA", "postalCode": "G8B1P9", "twitter": "None", "instagram": "None", "facebook": "None", "youtube": "None", "website": "None", "summary": "None", "logo": "None", "latitude": 48.5460241831613, "longitude": -71.64863792855887}, "885939751RR0001": {"name": "SERVICE D'INTEGRATION A LA COLLECTIVITE", "designationCode": "C", "categoryCode": "01", "address": "5923 RUE MARQUETTE", "city": "MONTREAL", "province": "QC", "country": "CA", "postalCode": "H2G2Y1", "twitter": "None", "instagram": "None", "facebook": "None", "youtube": "None", "website": "None", "summary": "None", "logo": "None", "latitude": 45.540490232038714, "longitude": -73.59222171036997}, "131046492RR0001": {"name": "SERVICE D'INTEGRATION AU MARCHE DU TRAVAIL DE LA MONTEREGIE INC.", "designationCode": "C", "categoryCode": "59", "address": "3209 CH DE CHAMBLY", "city": "LONGUEUIL", "province": "QC", "country": "CA", "postalCode": "J4L1N3", "twitter": "None", "instagram": "None", "facebook": "None", "youtube": "None", "website": "None", "summary": "None", "logo": "None", "latitude": 45.517166589531854, "longitude": -73.45230040839068}, "890808645RR0001": {"name": "SERVICE D'INTERPRETATION POUR PERSONNES SOURDES DE L'ESTRIE", "designationCode": "C", "categoryCode": "59", "address": "437, RUE WELLINGTON S", "city": "SHERBROOKE", "province": "QC", "country": "CA", "postalCode": "J1H5E2", "twitter": "None", "instagram": "None", "facebook": "None", "youtube": "None", "website": "None", "summary": "None", "logo": "None", "latitude": 45.39563821925678, "longitude": -71.88706134015221}, "141014670RR0001": {"name": "SERVICE D'INTERPRETATION VISUELLE ET TACTILE DU MONTREAL-METROPOLITAIN", "designationCode": "C", "categoryCode": "09", "address": "B243-5000 RUE IBERVILLE", "city": "MONTREAL", "province": "QC", "country": "CA", "postalCode": "H2H2S6", "twitter": "None", "instagram": "None", "facebook": "None", "youtube": "None", "website": "None", "summary": "None", "logo": "None", "latitude": 45.54050771241878, "longitude": -73.57223232393648}, "104795018RR0001": {"name": "SERVICE D'INTERPRETE D'AIDE ET DE REFERENCE AUX IMMIGRANTS (SIARI)", "designationCode": "C", "categoryCode": "09", "address": "6767 COTE-DES-NEIGES          BUREAU 499", "city": "MONTREAL", "province": "QC", "country": "CA", "postalCode": "H3S2T6", "twitter": "None", "instagram": "None", "facebook": "None", "youtube": "None", "website": "None", "summary": "None", "logo": "None", "latitude": 45.50313226868245, "longitude": -73.63713869926147}, "889673828RR0001": {"name": "SERVICE D'INTERVENTION D'URGENCE CENTRE DU QUEBEC", "designationCode": "C", "categoryCode": "59", "address": "1425 RUE DES TROIS-MAISONS", "city": "DRUMMONDVILLE", "province": "QC", "country": "CA", "postalCode": "J2B6V7", "twitter": "None", "instagram": "None", "facebook": "None", "youtube": "None", "website": "None", "summary": "None", "logo": "None", "latitude": 45.854193551829596, "longitude": -72.47167423372801}, "104795711RR0001": {"name": "SERVICE D'INTERVENTION EN SANTE MENTALE-ESPOIR", "designationCode": "B", "categoryCode": "11", "address": "1704 RUE SAINT-GEORGES", "city": "LEMOYNE", "province": "QC", "country": "CA", "postalCode": "J4P3J2", "twitter": "None", "instagram": "None", "facebook": "None", "youtube": "None", "website": "None", "summary": "None", "logo": "None", "latitude": 45.50871898557328, "longitude": -73.4972465024815}, "119146082RR0001": {"name": "SERVICE DE BENEVOLES POUR LE 3IEME AGE DE POINTE ST-CHARLES", "designationCode": "C", "categoryCode": "01", "address": "1 - 2431 RUE SAINT-CHARLES", "city": "MONTREAL", "province": "QC", "country": "CA", "postalCode": "H3K1E6", "twitter": "None", "instagram": "None", "facebook": "None", "youtube": "None", "website": "None", "summary": "None", "logo": "None", "latitude": 45.48014121899698, "longitude": -73.56833568194921}, "889972774RR0001": {"name": "SERVICE DE BIENFAISANCE", "designationCode": "C", "categoryCode": "01", "address": "32 SR GREENE RD", "city": "CAMPBELLTON", "province": "NB", "country": "CA", "postalCode": "E3N3Y6", "twitter": "None", "instagram": "None", "facebook": "None", "youtube": "None", "website": "None", "summary": "None", "logo": "None", "latitude": 47.99661900000005, "longitude": -66.68959399999993}, "138822085RR0001": {"name": "SERVICE DE NUTRITION ET D'ACTION COMMUNAUTAIRE (SNAC)", "designationCode": "C", "categoryCode": "09", "address": "10780 RUE LAVERDURE", "city": "MONTREAL", "province": "QC", "country": "CA", "postalCode": "H3L2L9", "twitter": "None", "instagram": "None", "facebook": "None", "youtube": "None", "website": "None", "summary": "None", "logo": "None", "latitude": 45.55253309351391, "longitude": -73.67173931738695}, "107969644RR0001": {"name": "SERVICE DE PREPARATION A LA VIE (S.P.V.)", "designationCode": "C", "categoryCode": "49", "address": "10215 SACRE_COEUR", "city": "MONTREAL", "province": "QC", "country": "CA", "postalCode": "H2C2S6", "twitter": "None", "instagram": "None", "facebook": "None", "youtube": "None", "website": "None", "summary": "None", "logo": "None", "latitude": 45.56003100000005, "longitude": -73.65625999999993}, "891299398RR0001": {"name": "SERVICE DE R\u00c9PIT EMERGO - AUTISME ET AUTRES TROUBLES ENVAHISSANTS DU D\u00c9V\u00c9LOPPEMENT/EMERGO RESPITE SERVICES - AUTISM & OTHER PERVASIVE DEVELOPMENTAL DISORDERS", "designationCode": "C", "categoryCode": "01", "address": "1862 RUE JOLICOEUR", "city": "MONTREAL", "province": "QC", "country": "CA", "postalCode": "H4E1X2", "twitter": "None", "instagram": "None", "facebook": "None", "youtube": "None", "website": "None", "summary": "None", "logo": "None", "latitude": 45.45697649956732, "longitude": -73.58978205981302}, "865744775RR0001": {"name": "SERVICE DE SUPERVISION DES DROITS D'ACCES", "designationCode": "C", "categoryCode": "09", "address": "896, RUE DE PUYJALON          SUITE 201", "city": "BAIE-COMEAU", "province": "QC", "country": "CA", "postalCode": "G5C2N1", "twitter": "None", "instagram": "None", "facebook": "None", "youtube": "None", "website": "None", "summary": "None", "logo": "None", "latitude": 49.19175942772216, "longitude": -68.25874472176693}, "896280435RR0001": {"name": "SERVICE DE TRAVAIL DE RUE DE CHICOUTIMI", "designationCode": "C", "categoryCode": "09", "address": "345, RUE PETIT, C.P.8154", "city": "CHICOUTIMI", "province": "QC", "country": "CA", "postalCode": "G7H5B7", "twitter": "None", "instagram": "None", "facebook": "None", "youtube": "None", "website": "None", "summary": "None", "logo": "None", "latitude": 48.42650328059901, "longitude": -71.0696301762364}, "890567845RR0001": {"name": "SERVICE DES BENEVOLES DU CENTRE D'ACCUEIL LE MANOIR TRINITE", "designationCode": "C", "categoryCode": "09", "address": "1275 BOUL. JACQUES-CARTIER EST", "city": "LONGUEUIL", "province": "QC", "country": "CA", "postalCode": "J4M2Y8", "twitter": "None", "instagram": "None", "facebook": "None", "youtube": "None", "website": "None", "summary": "None", "logo": "None", "latitude": 45.535035989208616, "longitude": -73.45875345940289}, "129948832RR0001": {"name": "SERVICE DES LOISIRS ST-CLEMENT (MONTREAL)", "designationCode": "C", "categoryCode": "09", "address": "4711 RUE SAINTE-CATHERINE E", "city": "MONTREAL", "province": "QC", "country": "CA", "postalCode": "H1V1Z3", "twitter": "None", "instagram": "None", "facebook": "None", "youtube": "None", "website": "None", "summary": "None", "logo": "None", "latitude": 45.55467741716192, "longitude": -73.53145988346104}, "107969966RR0001": {"name": "SERVICE ESPOIR RECHERCHE (SEP) (SCLEROSE EN PLAQUES)", "designationCode": "C", "categoryCode": "11", "address": "285 MGR BRUNEAULT", "city": "NICOLET", "province": "QC", "country": "CA", "postalCode": "J3T1Y6", "twitter": "None", "instagram": "None", "facebook": "None", "youtube": "None", "website": "None", "summary": "None", "logo": "None", "latitude": 46.232284126579614, "longitude": -72.61759845210354}, "105371876RR0001": {"name": "SERVICE EXTERNE DE MAIN-D'OEUVRE DU SAGUENAY", "designationCode": "C", "categoryCode": "09", "address": "2655 BOUL. DU ROYAUME", "city": "JONQUIERE", "province": "QC", "country": "CA", "postalCode": "G7S4S9", "twitter": "None", "instagram": "None", "facebook": "None", "youtube": "None", "website": "None", "summary": "None", "logo": "None", "latitude": 48.40500723381575, "longitude": -71.16840271482484}, "869820191RR0001": {"name": "SERVICE FAMILIAL D'ACCOMPAGNEMENT SUPERVISE", "designationCode": "C", "categoryCode": "09", "address": "1239-A, 3E AVENUE", "city": "QUEBEC", "province": "QC", "country": "CA", "postalCode": "G1L2X8", "twitter": "None", "instagram": "None", "facebook": "None", "youtube": "None", "website": "None", "summary": "None", "logo": "None", "latitude": 46.82803381681003, "longitude": -71.23129773968476}, "119146389RR0001": {"name": "SERVICE LEAGUE LONDON ONTARIO", "designationCode": "C", "categoryCode": "15", "address": "325 BURLINGTON CRES", "city": "LONDON", "province": "ON", "country": "CA", "postalCode": "N5Z3G6", "twitter": "None", "instagram": "None", "facebook": "None", "youtube": "None", "website": "None", "summary": "None", "logo": "None", "latitude": 42.96276523841535, "longitude": -81.20168664943178}, "889774022RR0001": {"name": "SERVICE MISSIONAIRE DES FRERES DE SAINT GABRIEL", "designationCode": "C", "categoryCode": "47", "address": "1601 BOUL GOUIN EST", "city": "MONTREAL", "province": "QC", "country": "CA", "postalCode": "H2C1C2", "twitter": "None", "instagram": "None", "facebook": "None", "youtube": "None", "website": "None", "summary": "None", "logo": "None", "latitude": 45.56598966224239, "longitude": -73.66200531008667}, "131652703RR0001": {"name": "SERVICE MYRIAM SUR MER INC", "designationCode": "C", "categoryCode": "49", "address": "127 RUE NOTRE-DAME EST", "city": "CAP-CHAT COMTE DE MATANE", "province": "QC", "country": "CA", "postalCode": "G0J1G0", "twitter": "None", "instagram": "None", "facebook": "None", "youtube": "None", "website": "None", "summary": "None", "logo": "None", "latitude": 49.10631260144841, "longitude": -66.65755928449413}, "138974936RR0001": {"name": "SERVICE MYRIAM-DE-L'ESPERANCE INC.", "designationCode": "C", "categoryCode": "49", "address": "1426 BOUL RENAUD", "city": "CHICOUTIMI", "province": "QC", "country": "CA", "postalCode": "G7H3P1", "twitter": "None", "instagram": "None", "facebook": "None", "youtube": "None", "website": "None", "summary": "None", "logo": "None", "latitude": 48.43281238825117, "longitude": -71.02456052536233}, "134281609RR0001": {"name": "SERVICE MYRIAM-DE-LA-MISERICORDE INC", "designationCode": "C", "categoryCode": "49", "address": "215 RUE DE CASTELNAU EST", "city": "MONTREAL", "province": "QC", "country": "CA", "postalCode": "H2R1P6", "twitter": "None", "instagram": "None", "facebook": "None", "youtube": "None", "website": "None", "summary": "None", "logo": "None", "latitude": 45.537454445467105, "longitude": -73.61831233585303}, "132399403RR0001": {"name": "SERVICE MYRIAM-DE-LA-VALLEE INC", "designationCode": "C", "categoryCode": "49", "address": "405 ROUTE 132                 CP 418", "city": "LAC AU SAUMON", "province": "QC", "country": "CA", "postalCode": "G0J1M0", "twitter": "None", "instagram": "None", "facebook": "None", "youtube": "None", "website": "None", "summary": "None", "logo": "None", "latitude": 48.411706797764865, "longitude": -67.29568040068162}, "104797212RR0001": {"name": "SERVICE NATIONAL DES SAUVETEURS INC./NATIONAL LIFEGUARD SERVICE INC.", "designationCode": "C", "categoryCode": "21", "address": "4545 PIERRE DE COUBERTIN", "city": "MONTREAL", "province": "QC", "country": "CA", "postalCode": "H1V3R2", "twitter": "None", "instagram": "None", "facebook": "None", "youtube": "None", "website": "None", "summary": "None", "logo": "None", "latitude": 45.555920590080106, "longitude": -73.55036240097485}, "894575331RR0001": {"name": "SERVICE POPULAIRE DE PSYCHOTHERAPIE (S.P.P.)", "designationCode": "C", "categoryCode": "11", "address": "100, RUE TOURANGEAU EST", "city": "LAVAL", "province": "QC", "country": "CA", "postalCode": "H7G1L1", "twitter": "None", "instagram": "None", "facebook": "None", "youtube": "None", "website": "None", "summary": "None", "logo": "None", "latitude": 45.56771383847877, "longitude": -73.68208487497827}, "861494011RR0001": {"name": "SERVICE POUR HOMMES IMPULSIFS ET COLERIQUES DE CHARLEVOIX", "designationCode": "C", "categoryCode": "09", "address": "367, RUE ST-ETIENNE           BUREAU 314", "city": "LA MALBAIE", "province": "QC", "country": "CA", "postalCode": "G5A1M3", "twitter": "None", "instagram": "None", "facebook": "None", "youtube": "None", "website": "None", "summary": "None", "logo": "None", "latitude": 47.65423718847008, "longitude": -70.14977797108924}, "861754935RR0001": {"name": "SERVICE REGIONAL D'ADMISSION DU MONTREAL METROPOLITAIN S.R.A.M.", "designationCode": "C", "categoryCode": "21", "address": "5701 AV. CHRISTOPHE-COLOMB", "city": "MONTREAL", "province": "QC", "country": "CA", "postalCode": "H2S2E9", "twitter": "None", "instagram": "None", "facebook": "None", "youtube": "None", "website": "None", "summary": "None", "logo": "None", "latitude": 45.53454826146908, "longitude": -73.59413095793191}, "121386569RR0001": {"name": "SERVICE REGIONAL D'INTERPRETARIAT DE L'EST DU QUEBEC INC.", "designationCode": "C", "categoryCode": "09", "address": "9885 BOUL. DE L'ORMI\u00c8RE", "city": "QU\u00c9BEC", "province": "QC", "country": "CA", "postalCode": "G2B3K9", "twitter": "None", "instagram": "None", "facebook": "None", "youtube": "None", "website": "None", "summary": "None", "logo": "None", "latitude": 46.83950852426582, "longitude": -71.36099937916187}, "133217562RR0001": {"name": "SERVICE REGIONAL D'INTERPRETATION VISUELLE DE L'OUTAOUAIS", "designationCode": "C", "categoryCode": "09", "address": "115 BOUL SACRE-COEUR          BUREAU 212", "city": "GATINEAU", "province": "QC", "country": "CA", "postalCode": "J8X1C5", "twitter": "None", "instagram": "None", "facebook": "None", "youtube": "None", "website": "None", "summary": "None", "logo": "None", "latitude": 45.43728742829908, "longitude": -75.71438591341101}, "868388612RR0001": {"name": "SERVICE REGIONAL DE CRISE DE LAVAL", "designationCode": "C", "categoryCode": "09", "address": "635, BOUL. DES LAURENTIDES", "city": "LAVAL", "province": "QC", "country": "CA", "postalCode": "H7G2V7", "twitter": "None", "instagram": "None", "facebook": "None", "youtube": "None", "website": "None", "summary": "None", "logo": "None", "latitude": 45.57264141551714, "longitude": -73.69450183161213}, "127877983RR0001": {"name": "SERVICE VIE-AMOUR INC", "designationCode": "C", "categoryCode": "09", "address": "185, RUE L\u00c9OPOLD", "city": "LONGUEUIL", "province": "QC", "country": "CA", "postalCode": "J4H3T6", "twitter": "None", "instagram": "None", "facebook": "None", "youtube": "None", "website": "None", "summary": "None", "logo": "None", "latitude": 45.54533131002936, "longitude": -73.50183508782973}, "129672176RR0001": {"name": "SERVICES A LA FAMILLE NEPISIGUIT FAMILY SERVICES INC0", "designationCode": "C", "categoryCode": "09", "address": "4 - 219 MAIN ST", "city": "BATHURST", "province": "NB", "country": "CA", "postalCode": "E2A1A9", "twitter": "None", "instagram": "None", "facebook": "None", "youtube": "None", "website": "None", "summary": "None", "logo": "None", "latitude": 47.620810340008, "longitude": -65.65316768858565}, "129950523RR0001": {"name": "SERVICES A LA FAMILLE RESTIGOUCHE INC /RESTIGOUCHE FAMILY SERVICES INC", "designationCode": "C", "categoryCode": "59", "address": "113 RUE ROSEBERRY #302", "city": "CAMPBELLTON", "province": "NB", "country": "CA", "postalCode": "E3N2G6", "twitter": "None", "instagram": "None", "facebook": "None", "youtube": "None", "website": "None", "summary": "None", "logo": "None", "latitude": 48.003898264968576, "longitude": -66.68089446963226}, "119146447RR0001": {"name": "SERVICES A LA JEUNESSE DE HEARST (S.J.H.) INC.", "designationCode": "C", "categoryCode": "59", "address": "CP 2428", "city": "HEARST", "province": "ON", "country": "CA", "postalCode": "P0L1N0", "twitter": "None", "instagram": "None", "facebook": "None", "youtube": "None", "website": "None", "summary": "None", "logo": "None", "latitude": 49.68503700000005, "longitude": -83.65433749999994}, "132645862RR0001": {"name": "SERVICES A LA PETITE ENFANCE DE SAINT-LAZARE", "designationCode": "C", "categoryCode": "20", "address": "1450 AV BEDARD", "city": "ST-LAZARE", "province": "QC", "country": "CA", "postalCode": "J7T2W9", "twitter": "None", "instagram": "None", "facebook": "None", "youtube": "None", "website": "None", "summary": "None", "logo": "None", "latitude": 45.39887623841536, "longitude": -74.14052939927274}, "107968984RR0001": {"name": "SERVICES AMITIES L'ASSOMPTION", "designationCode": "C", "categoryCode": "09", "address": "255 RUE SAINT ETIENNE", "city": "L'ASSOMPTION", "province": "QC", "country": "CA", "postalCode": "J5W1W7", "twitter": "None", "instagram": "None", "facebook": "None", "youtube": "None", "website": "None", "summary": "None", "logo": "None", "latitude": 45.826599393848404, "longitude": -73.41988521899697}, "127891711RR0001": {"name": "SERVICES AUX JEUNES ET ADOLESCENTS DE BROME-MISSISQUOI / BROME-MISSISQUOI ADOLESCENTS AND YOUTH SERVICES", "designationCode": "C", "categoryCode": "09", "address": "443 RUE BELL", "city": "COWANSVILLE", "province": "QC", "country": "CA", "postalCode": "J2K3E3", "twitter": "None", "instagram": "None", "facebook": "None", "youtube": "None", "website": "None", "summary": "None", "logo": "None", "latitude": 45.21633015234597, "longitude": -72.76618966281929}, "878485846RR0001": {"name": "SERVICES AUX ORIGINES", "designationCode": "C", "categoryCode": "59", "address": "1455 BLVD DU CARMEL", "city": "TROIS-RIVI\u00c8RES", "province": "QC", "country": "CA", "postalCode": "G8Z3R7", "twitter": "None", "instagram": "None", "facebook": "None", "youtube": "None", "website": "None", "summary": "None", "logo": "None", "latitude": 46.349756667465186, "longitude": -72.55674927000916}, "890530579RR0001": {"name": "SERVICES B\u00c9N\u00c9VOLES DU CENTRE HOSPITALIER DE VERDUN", "designationCode": "C", "categoryCode": "19", "address": "4000 BL. LASALLE              LOCAL 5118", "city": "VERDUN", "province": "QC", "country": "CA", "postalCode": "H4G2A3", "twitter": "None", "instagram": "None", "facebook": "None", "youtube": "None", "website": "None", "summary": "None", "logo": "None", "latitude": 45.46395360312186, "longitude": -73.5644055572742}, "118900596RR0001": {"name": "SERVICES BENEVOLES AUX AINES DE VILLE-EMARD/ST-PAUL", "designationCode": "C", "categoryCode": "09", "address": "5995, RUE DRAKE", "city": "MONTREAL", "province": "QC", "country": "CA", "postalCode": "H4E4G8", "twitter": "None", "instagram": "None", "facebook": "None", "youtube": "None", "website": "None", "summary": "None", "logo": "None", "latitude": 45.457795068555576, "longitude": -73.58220245478658}, "119146454RR0001": {"name": "SERVICES CHRETIENS LA GRANDE MAISON", "designationCode": "C", "categoryCode": "47", "address": "3845 RUE CARON", "city": "LAVAL", "province": "QC", "country": "CA", "postalCode": "H7E1W3", "twitter": "None", "instagram": "None", "facebook": "None", "youtube": "None", "website": "None", "summary": "None", "logo": "None", "latitude": 45.60158067084072, "longitude": -73.66109754553052}, "868872458RR0001": {"name": "SERVICES COMMUNAUTAIRE DU SUD OUEST (WINDSOR ESSEX-KENT)", "designationCode": "C", "categoryCode": "59", "address": "7515 FOREST GLADE DR", "city": "WINDSOR", "province": "ON", "country": "CA", "postalCode": "N8T3P5", "twitter": "None", "instagram": "None", "facebook": "None", "youtube": "None", "website": "None", "summary": "None", "logo": "None", "latitude": 42.29854991175968, "longitude": -82.92518905226979}, "867405979RR0001": {"name": "SERVICES COMMUNAUTAIRES CYPRES", "designationCode": "C", "categoryCode": "11", "address": "8675 RUE TELLIER", "city": "MONTREAL", "province": "QC", "country": "CA", "postalCode": "H1L3A9", "twitter": "None", "instagram": "None", "facebook": "None", "youtube": "None", "website": "None", "summary": "None", "logo": "None", "latitude": 45.59953483181367, "longitude": -73.51513096061497}, "130166127RR0001": {"name": "SERVICES COMMUNAUTAIRES DE PRESCOTT-RUSSELL", "designationCode": "C", "categoryCode": "09", "address": "SUITE B                       295 RUE MAIN WEST", "city": "HAWKESBURY", "province": "ON", "country": "CA", "postalCode": "K6A0B3", "twitter": "None", "instagram": "None", "facebook": "None", "youtube": "None", "website": "None", "summary": "None", "logo": "None", "latitude": 45.61014727782903, "longitude": -74.60728801901436}, "107969156RR0001": {"name": "SERVICES D'AIDE EN PR\u00c9VENTION DE LA CRIMINALIT\u00c9", "designationCode": "C", "categoryCode": "09", "address": "CP 402 SUCC PL DE LA CITE     615 RUE DU CEGEP", "city": "SHERBROOKE", "province": "QC", "country": "CA", "postalCode": "J1H5J7", "twitter": "None", "instagram": "None", "facebook": "None", "youtube": "None", "website": "None", "summary": "None", "logo": "None", "latitude": 45.41324041742171, "longitude": -71.8877036826417}, "871097200RR0001": {"name": "SERVICES D'ASSISTANCE AUX IMMIGRANTS JUIFS, MONTREAL / JEWISH IMMIGRANT AID SERVICES MONTREAL", "designationCode": "C", "categoryCode": "09", "address": "5151 CHEMIN COTE ST-CATHERINE", "city": "MONTREAL", "province": "QC", "country": "CA", "postalCode": "H3W2M6", "twitter": "None", "instagram": "None", "facebook": "None", "youtube": "None", "website": "None", "summary": "None", "logo": "None", "latitude": 45.488925385538515, "longitude": -73.63610869559653}, "137699054RR0001": {"name": "SERVICES D'EDUCATION JEM/JEM EDUCATION SERVIES", "designationCode": "C", "categoryCode": "21", "address": "6155 CH DEACON", "city": "MONTREAL", "province": "QC", "country": "CA", "postalCode": "H3S2P4", "twitter": "None", "instagram": "None", "facebook": "None", "youtube": "None", "website": "None", "summary": "None", "logo": "None", "latitude": 45.51243223261563, "longitude": -73.62056003494162}, "119146470RR0001": {"name": "SERVICES D'ENTRAIDE ROBERVALOIS", "designationCode": "C", "categoryCode": "09", "address": "360 RUE BRASSARD EST          SERVICE D'ENTRAIDE ROBERVALOIS", "city": "ROBERVAL", "province": "QC", "country": "CA", "postalCode": "G8H3M2", "twitter": "None", "instagram": "None", "facebook": "None", "youtube": "None", "website": "None", "summary": "None", "logo": "None", "latitude": 48.504611252842075, "longitude": -72.22174533954663}}