{"836858241RR0001": {"name": "Lets Help Society of Alberta", "designationCode": "C", "categoryCode": "02", "address": "210 - 4918 ROPER RD NW", "city": "EDMONTON", "province": "AB", "country": "CA", "postalCode": "T6B3T7", "twitter": "None", "instagram": "None", "facebook": "None", "youtube": "None", "website": "None", "summary": "None", "logo": "None", "latitude": 53.49559953375819, "longitude": -113.416281}, "735074494RR0001": {"name": "Letter of the Law", "designationCode": "C", "categoryCode": "29", "address": "2788 BATHURST ST.             SUITE 305", "city": "TORONTO", "province": "ON", "country": "CA", "postalCode": "M6B3A3", "twitter": "None", "instagram": "None", "facebook": "None", "youtube": "None", "website": "None", "summary": "None", "logo": "None", "latitude": 43.71180723313524, "longitude": -79.42801656927674}, "818932659RR0001": {"name": "Lev Lazulat", "designationCode": "C", "categoryCode": "09", "address": "268 - 6750 AV DU PARC", "city": "MONTREAL", "province": "QC", "country": "CA", "postalCode": "H3N1W7", "twitter": "None", "instagram": "None", "facebook": "None", "youtube": "None", "website": "None", "summary": "None", "logo": "None", "latitude": 45.52869168414227, "longitude": -73.61727237053486}, "108197740RR0001": {"name": "Level Ground Mennonite Church", "designationCode": "C", "categoryCode": "34", "address": "31216 KING RD", "city": "ABBOTSFORD", "province": "BC", "country": "CA", "postalCode": "V2T6C2", "twitter": "None", "instagram": "None", "facebook": "None", "youtube": "None", "website": "None", "summary": "None", "logo": "None", "latitude": 49.031266509521984, "longitude": -122.35960188634658}, "864513783RR0001": {"name": "Level. Changing Lives Through Law / \u00c9galiser. Changeons des vies par le droit", "designationCode": "C", "categoryCode": "29", "address": "720 BATHURST ST", "city": "TORONTO", "province": "ON", "country": "CA", "postalCode": "M5S2R4", "twitter": "None", "instagram": "None", "facebook": "None", "youtube": "None", "website": "None", "summary": "None", "logo": "None", "latitude": 43.66323143574358, "longitude": -79.41047606191914}, "817080989RR0001": {"name": "Leverick Family Foundation Inc.", "designationCode": "B", "categoryCode": "03", "address": "BOX 107B                      RR 8 LCD MAIN", "city": "SASKATOON", "province": "SK", "country": "CA", "postalCode": "S7K1M2", "twitter": "None", "instagram": "None", "facebook": "None", "youtube": "None", "website": "None", "summary": "None", "logo": "None", "latitude": 52.11669599999999, "longitude": -106.65016382680628}, "825357429RR0001": {"name": "Lewis Vision Improvement Foundation La foundation Lewis pour l'am\u00e9lioration de la vision", "designationCode": "A", "categoryCode": "11", "address": "61 OWLSHEAD RD                RR 1", "city": "MUNSTER", "province": "ON", "country": "CA", "postalCode": "K0A3P0", "twitter": "None", "instagram": "None", "facebook": "None", "youtube": "None", "website": "None", "summary": "None", "logo": "None", "latitude": 45.16550413321603, "longitude": -75.9450732423105}, "119288918RR0066": {"name": "Lewisporte Congregation of Jehovah's Witnesses, Lewisporte, Newfoundland", "designationCode": "C", "categoryCode": "61", "address": "POST OFFICE BOX 1694", "city": "LEWISPORTE", "province": "NL", "country": "CA", "postalCode": "A0G3A0", "twitter": "None", "instagram": "None", "facebook": "None", "youtube": "None", "website": "None", "summary": "None", "logo": "None", "latitude": 49.24179000000004, "longitude": -55.05992999999995}, "895858645RR0001": {"name": "Liaisons Enfance", "designationCode": "C", "categoryCode": "09", "address": "CP 1115", "city": "SAINT-DONAT", "province": "QC", "country": "CA", "postalCode": "J0T2C0", "twitter": "None", "instagram": "None", "facebook": "None", "youtube": "None", "website": "None", "summary": "None", "logo": "None", "latitude": 46.318269725941605, "longitude": -74.22467950722098}, "798890299RR0001": {"name": "Liber Ero Foundation", "designationCode": "B", "categoryCode": "23", "address": "1800 - 510 GEORGIA ST W", "city": "VANCOUVER", "province": "BC", "country": "CA", "postalCode": "V6B0M3", "twitter": "None", "instagram": "None", "facebook": "None", "youtube": "None", "website": "None", "summary": "None", "logo": "None", "latitude": 49.281267759207665, "longitude": -123.11633309804196}, "805041613RR0001": {"name": "Liberated Reformed Church at Abbotsford", "designationCode": "C", "categoryCode": "39", "address": "2043 JORDAN PL", "city": "ABBOTSFORD", "province": "BC", "country": "CA", "postalCode": "V3G2C3", "twitter": "None", "instagram": "None", "facebook": "None", "youtube": "None", "website": "None", "summary": "None", "logo": "None", "latitude": 49.038942434935514, "longitude": -122.24473723437598}, "826893307RR0001": {"name": "Liberty Christian Centre Inc.", "designationCode": "C", "categoryCode": "39", "address": "4801 KEELE STREET, UNIT 41", "city": "TORONTO", "province": "ON", "country": "CA", "postalCode": "M3J3A4", "twitter": "None", "instagram": "None", "facebook": "None", "youtube": "None", "website": "None", "summary": "None", "logo": "None", "latitude": 43.77732902360199, "longitude": -79.49438407597142}, "803447226RR0001": {"name": "Liberty Church", "designationCode": "C", "categoryCode": "39", "address": "16 LONGBOAT CRT.", "city": "KANATA", "province": "ON", "country": "CA", "postalCode": "K2K2T3", "twitter": "None", "instagram": "None", "facebook": "None", "youtube": "None", "website": "None", "summary": "None", "logo": "None", "latitude": 45.318377096024065, "longitude": -75.91697951468652}, "107379885RR0001": {"name": "Liberty Corner Mission Canada", "designationCode": "C", "categoryCode": "47", "address": "315 NORTHLAKE DRIVE", "city": "WATERLOO", "province": "ON", "country": "CA", "postalCode": "N2V1W5", "twitter": "None", "instagram": "None", "facebook": "None", "youtube": "None", "website": "None", "summary": "None", "logo": "None", "latitude": 43.50008943020366, "longitude": -80.55447894416903}, "816405245RR0001": {"name": "Liberty Education", "designationCode": "C", "categoryCode": "21", "address": "5400 RUE JEANNE-MANCE", "city": "MONTREAL", "province": "QC", "country": "CA", "postalCode": "H2V4K4", "twitter": "None", "instagram": "None", "facebook": "None", "youtube": "None", "website": "None", "summary": "None", "logo": "None", "latitude": 45.52246387342039, "longitude": -73.60061507773085}, "846779411RR0001": {"name": "Liberty Foundation", "designationCode": "B", "categoryCode": "03", "address": "510 - 8500 LESLIE STREET", "city": "THORNHILL", "province": "ON", "country": "CA", "postalCode": "L3T7M8", "twitter": "None", "instagram": "None", "facebook": "None", "youtube": "None", "website": "None", "summary": "None", "logo": "None", "latitude": 43.843628389664815, "longitude": -79.38216971642855}, "804663680RR0001": {"name": "Liberty Grace Church", "designationCode": "C", "categoryCode": "39", "address": "503-59 EAST LIBERTY ST.", "city": "TORONTO", "province": "ON", "country": "CA", "postalCode": "M6K3R1", "twitter": "None", "instagram": "None", "facebook": "None", "youtube": "None", "website": "None", "summary": "None", "logo": "None", "latitude": 43.63887078377299, "longitude": -79.4128064568354}, "875824831RR0001": {"name": "Liberty Hall Deliverance Centre", "designationCode": "C", "categoryCode": "39", "address": "11 SANDY BEACH ROAD", "city": "BRAMPTON", "province": "ON", "country": "CA", "postalCode": "L7A2T1", "twitter": "None", "instagram": "None", "facebook": "None", "youtube": "None", "website": "None", "summary": "None", "logo": "None", "latitude": 43.69067196309646, "longitude": -79.82405442979963}, "815547971RR0001": {"name": "Liberty International Ministries Inc.", "designationCode": "C", "categoryCode": "39", "address": "POST OFFICE BOX 26051", "city": "SASKATOON", "province": "SK", "country": "CA", "postalCode": "S7K8C1", "twitter": "None", "instagram": "None", "facebook": "None", "youtube": "None", "website": "None", "summary": "None", "logo": "None", "latitude": 52.13049000000005, "longitude": -106.65926449999994}, "817650328RR0001": {"name": "Liberty Spoken", "designationCode": "C", "categoryCode": "21", "address": "163 HAY AVE", "city": "ETOBICOKE", "province": "ON", "country": "CA", "postalCode": "M8Z1G3", "twitter": "None", "instagram": "None", "facebook": "None", "youtube": "None", "website": "None", "summary": "None", "logo": "None", "latitude": 43.61752189312726, "longitude": -79.50723492838598}, "829765502RR0001": {"name": "Licka Kuca Relief Association", "designationCode": "C", "categoryCode": "09", "address": "815 BRIDGE ST W", "city": "WATERLOO", "province": "ON", "country": "CA", "postalCode": "N2V2M7", "twitter": "None", "instagram": "None", "facebook": "None", "youtube": "None", "website": "None", "summary": "None", "logo": "None", "latitude": 43.51455534771229, "longitude": -80.52796259668787}, "107625097RR0001": {"name": "Lieu des petits", "designationCode": "C", "categoryCode": "01", "address": "9081 BOUL. SAINT-MICHEL", "city": "MONTREAL", "province": "QC", "country": "CA", "postalCode": "H1Z3G6", "twitter": "None", "instagram": "None", "facebook": "None", "youtube": "None", "website": "None", "summary": "None", "logo": "None", "latitude": 45.572073243147216, "longitude": -73.62811089243476}, "808783088RR0001": {"name": "Lieutenant Governor's Circle on Mental Health and Addiction", "designationCode": "C", "categoryCode": "11", "address": "2800 SCOTIA PLACE             10060 JASPER AVE", "city": "EDMONTON", "province": "AB", "country": "CA", "postalCode": "T5J3V9", "twitter": "None", "instagram": "None", "facebook": "None", "youtube": "None", "website": "None", "summary": "None", "logo": "None", "latitude": 53.541084453834316, "longitude": -113.49278554108712}, "853068237RR0001": {"name": "Life and Art Centre Incorporated", "designationCode": "C", "categoryCode": "56", "address": "PO BOX 1513                   106 3RD AVE N", "city": "ROBLIN", "province": "MB", "country": "CA", "postalCode": "R0L1P0", "twitter": "None", "instagram": "None", "facebook": "None", "youtube": "None", "website": "None", "summary": "None", "logo": "None", "latitude": 52.105198287822724, "longitude": -101.27238037091726}, "808203285RR0001": {"name": "Life in Christ (LInC) Ministry", "designationCode": "C", "categoryCode": "39", "address": "211 - 1510 BIRCHMOUNT RD", "city": "SCARBOROUGH", "province": "ON", "country": "CA", "postalCode": "M1P2G6", "twitter": "None", "instagram": "None", "facebook": "None", "youtube": "None", "website": "None", "summary": "None", "logo": "None", "latitude": 43.758444365774345, "longitude": -79.28933457980739}, "813813011RR0001": {"name": "Life of Faith Gospel Ministries", "designationCode": "C", "categoryCode": "39", "address": "24 MOSSGROVE CRESCENT", "city": "BRAMPTON", "province": "ON", "country": "CA", "postalCode": "L7A3E6", "twitter": "None", "instagram": "None", "facebook": "None", "youtube": "None", "website": "None", "summary": "None", "logo": "None", "latitude": 43.71112722563342, "longitude": -79.81580695432524}, "807556659RR0001": {"name": "Life of Faith Ministries", "designationCode": "C", "categoryCode": "39", "address": "107 - 4100 ALEXIS PARK DR", "city": "VERNON", "province": "BC", "country": "CA", "postalCode": "V1T7K7", "twitter": "None", "instagram": "None", "facebook": "None", "youtube": "None", "website": "None", "summary": "None", "logo": "None", "latitude": 50.27258816100163, "longitude": -119.28322020797444}, "783046923RR0001": {"name": "Life And Restoration Anglican Missionary Church Inc.", "designationCode": "C", "categoryCode": "39", "address": "122 SCLANDENS PLACE           SASKATOON", "city": "SASKATOON", "province": "SK", "country": "CA", "postalCode": "S7M4C4", "twitter": "None", "instagram": "None", "facebook": "None", "youtube": "None", "website": "None", "summary": "None", "logo": "None", "latitude": 52.120384478792595, "longitude": -106.71639250057692}, "810608760RR0001": {"name": "Life Boat Church", "designationCode": "C", "categoryCode": "36", "address": "24 MERGANSER AVE", "city": "TIMBERLEA", "province": "NS", "country": "CA", "postalCode": "B3T1J1", "twitter": "None", "instagram": "None", "facebook": "None", "youtube": "None", "website": "None", "summary": "None", "logo": "None", "latitude": 44.67559952842076, "longitude": -63.78617295614292}, "893034629RR0001": {"name": "Life By Design Worship Centre", "designationCode": "C", "categoryCode": "39", "address": "58 HOWES STREET", "city": "AJAX", "province": "ON", "country": "CA", "postalCode": "L1T3V4", "twitter": "None", "instagram": "None", "facebook": "None", "youtube": "None", "website": "None", "summary": "None", "logo": "None", "latitude": 43.87147939661837, "longitude": -79.05543765387516}, "818529265RR0001": {"name": "Life Changers Church", "designationCode": "C", "categoryCode": "39", "address": "10 NEVADA CT", "city": "BRAMPTON", "province": "ON", "country": "CA", "postalCode": "L6S4Z4", "twitter": "None", "instagram": "None", "facebook": "None", "youtube": "None", "website": "None", "summary": "None", "logo": "None", "latitude": 43.729254942004644, "longitude": -79.75700690787109}, "844576280RR0001": {"name": "Life Changers Ministry", "designationCode": "C", "categoryCode": "39", "address": "3 RICH CRESCENT", "city": "WHITBY", "province": "ON", "country": "CA", "postalCode": "L1P1V9", "twitter": "None", "instagram": "None", "facebook": "None", "youtube": "None", "website": "None", "summary": "None", "logo": "None", "latitude": 43.90885742502021, "longitude": -78.9767807809969}, "812509818RR0001": {"name": "Life Changing Revival Church", "designationCode": "C", "categoryCode": "39", "address": "20 MID PINES RD", "city": "SCARBOROUGH", "province": "ON", "country": "CA", "postalCode": "M1G2L6", "twitter": "None", "instagram": "None", "facebook": "None", "youtube": "None", "website": "None", "summary": "None", "logo": "None", "latitude": 43.76986298528483, "longitude": -79.21168386291748}, "824781918RR0001": {"name": "Life Changing Vision Ministries", "designationCode": "C", "categoryCode": "39", "address": "136 TILLER TRAIL", "city": "BRAMPTON", "province": "ON", "country": "CA", "postalCode": "L6X4S8", "twitter": "None", "instagram": "None", "facebook": "None", "youtube": "None", "website": "None", "summary": "None", "logo": "None", "latitude": 43.68520730945244, "longitude": -79.79847779713185}, "821510724RR0001": {"name": "Life Christian Community", "designationCode": "C", "categoryCode": "39", "address": "15779 109 AVE", "city": "SURREY", "province": "BC", "country": "CA", "postalCode": "V4N5G1", "twitter": "None", "instagram": "None", "facebook": "None", "youtube": "None", "website": "None", "summary": "None", "logo": "None", "latitude": 49.20066953318129, "longitude": -122.78484056509315}, "891343147RR0001": {"name": "Life Church of Nipawin Inc.", "designationCode": "C", "categoryCode": "39", "address": "BOX 746", "city": "NIPAWIN", "province": "SK", "country": "CA", "postalCode": "S0E1E0", "twitter": "None", "instagram": "None", "facebook": "None", "youtube": "None", "website": "None", "summary": "None", "logo": "None", "latitude": 53.396118, "longitude": -104.00834700000001}, "882842776RR0001": {"name": "Life Church Drayton Valley", "designationCode": "C", "categoryCode": "39", "address": "PO BOX 5121                   5115 -50 STREET", "city": "DRAYTON VALLEY", "province": "AB", "country": "CA", "postalCode": "T7A1R3", "twitter": "None", "instagram": "None", "facebook": "None", "youtube": "None", "website": "None", "summary": "None", "logo": "None", "latitude": 53.22364200000001, "longitude": -114.97661708044349}, "840083125RR0001": {"name": "Life Church Edmonton", "designationCode": "C", "categoryCode": "39", "address": "3772 30 ST NW", "city": "EDMONTON", "province": "AB", "country": "CA", "postalCode": "T6T1H6", "twitter": "None", "instagram": "None", "facebook": "None", "youtube": "None", "website": "None", "summary": "None", "logo": "None", "latitude": 53.47291957868313, "longitude": -113.38644949088206}, "819412685RR0001": {"name": "Life Communities Niagara", "designationCode": "C", "categoryCode": "39", "address": "43 CHURCH STREET              SUITE #303", "city": "ST.CATHERINES", "province": "ON", "country": "CA", "postalCode": "L2R7E1", "twitter": "None", "instagram": "None", "facebook": "None", "youtube": "None", "website": "None", "summary": "None", "logo": "None", "latitude": 43.15925156038995, "longitude": -79.24765592330742}, "886657527RR0001": {"name": "Life Community Church", "designationCode": "C", "categoryCode": "36", "address": "165 KING STREET WEST", "city": "DUNDAS", "province": "ON", "country": "CA", "postalCode": "L9H1V3", "twitter": "None", "instagram": "None", "facebook": "None", "youtube": "None", "website": "None", "summary": "None", "logo": "None", "latitude": 43.26708901584036, "longitude": -79.96079668122806}, "858973613RR0001": {"name": "Life Connection Church", "designationCode": "C", "categoryCode": "39", "address": "246 STEWART GREEN SW          SUITE 1716", "city": "CALGARY", "province": "AB", "country": "CA", "postalCode": "T3H3C8", "twitter": "None", "instagram": "None", "facebook": "None", "youtube": "None", "website": "None", "summary": "None", "logo": "None", "latitude": 51.01506707522246, "longitude": -114.169608058454}, "107396905RR0006": {"name": "Life Design Foursquare Gospel Church", "designationCode": "C", "categoryCode": "39", "address": "326 EIGHTH ST", "city": "NEW WESTMINSTER", "province": "BC", "country": "CA", "postalCode": "V3M3R4", "twitter": "None", "instagram": "None", "facebook": "None", "youtube": "None", "website": "None", "summary": "None", "logo": "None", "latitude": 49.20747915537595, "longitude": -122.91945091562854}, "825610637RR0001": {"name": "Life Eternal Asian Fellowship of Canada", "designationCode": "C", "categoryCode": "31", "address": "171 BUICK BLVD", "city": "BRAMPTON", "province": "ON", "country": "CA", "postalCode": "L7A0Z1", "twitter": "None", "instagram": "None", "facebook": "None", "youtube": "None", "website": "None", "summary": "None", "logo": "None", "latitude": 43.68964653038267, "longitude": -79.84350483233328}, "899047906RR0001": {"name": "Life Fountain Ministries Inc.", "designationCode": "C", "categoryCode": "39", "address": "8 - 1606 SEDLESCOMB DR", "city": "MISSISSAUGA", "province": "ON", "country": "CA", "postalCode": "L4X1M6", "twitter": "None", "instagram": "None", "facebook": "None", "youtube": "None", "website": "None", "summary": "None", "logo": "None", "latitude": 43.61592969721266, "longitude": -79.58221051618708}, "827233909RR0001": {"name": "Life House Care Homes Society", "designationCode": "C", "categoryCode": "09", "address": "120 SILVERGROVE HILL NORTHWEST", "city": "CALGARY", "province": "AB", "country": "CA", "postalCode": "T3B4Z5", "twitter": "None", "instagram": "None", "facebook": "None", "youtube": "None", "website": "None", "summary": "None", "logo": "None", "latitude": 51.114400574528204, "longitude": -114.20202009671654}, "137230736RR0001": {"name": "Life International Inc.", "designationCode": "C", "categoryCode": "47", "address": "1399 BUFFALO PLACE", "city": "WINNIPEG", "province": "MB", "country": "CA", "postalCode": "R3T1L6", "twitter": "None", "instagram": "None", "facebook": "None", "youtube": "None", "website": "None", "summary": "None", "logo": "None", "latitude": 49.837352895954524, "longitude": -97.16812258967607}, "822868535RR0001": {"name": "Life Lifter Ministries", "designationCode": "C", "categoryCode": "49", "address": "118-1001 CEDARGLEN GATE", "city": "MISSISSAUGA", "province": "ON", "country": "CA", "postalCode": "L5C4R2", "twitter": "None", "instagram": "None", "facebook": "None", "youtube": "None", "website": "None", "summary": "None", "logo": "None", "latitude": 43.55958179987315, "longitude": -79.63864120255009}, "820757037RR0001": {"name": "Life Line Worship Centre Ministries", "designationCode": "C", "categoryCode": "39", "address": "40 KENILWORTH AVENUE NORTH,", "city": "HAMILTON", "province": "ON", "country": "CA", "postalCode": "L8H4R3", "twitter": "None", "instagram": "None", "facebook": "None", "youtube": "None", "website": "None", "summary": "None", "logo": "None", "latitude": 43.24147301664844, "longitude": -79.80939953592257}, "843728643RR0001": {"name": "Life One80 Church", "designationCode": "C", "categoryCode": "39", "address": "4006 COACHMAN CIR", "city": "MISSISSAUGA", "province": "ON", "country": "CA", "postalCode": "L5M6P8", "twitter": "None", "instagram": "None", "facebook": "None", "youtube": "None", "website": "None", "summary": "None", "logo": "None", "latitude": 43.55659297030983, "longitude": -79.75621437872918}, "882955545RR0001": {"name": "Life Outreach Saskatoon Inc.", "designationCode": "C", "categoryCode": "39", "address": "PO BOX 262", "city": "DALMENY", "province": "SK", "country": "CA", "postalCode": "S0K1E0", "twitter": "None", "instagram": "None", "facebook": "None", "youtube": "None", "website": "None", "summary": "None", "logo": "None", "latitude": 52.143390000000004, "longitude": -106.76546549999999}, "740181128RR0001": {"name": "Life Renewal Baptist Church of Edmonton", "designationCode": "C", "categoryCode": "31", "address": "1751 TOWNE CENTRE BLVD NW", "city": "EDMONTON", "province": "AB", "country": "CA", "postalCode": "T6R3N9", "twitter": "None", "instagram": "None", "facebook": "None", "youtube": "None", "website": "None", "summary": "None", "logo": "None", "latitude": 53.44597522200165, "longitude": -113.57769145229716}, "834901050RR0001": {"name": "Life Renewal Charismatic Church / Renouvellement de Vie \u00c9glise Charismatique", "designationCode": "C", "categoryCode": "39", "address": "10-4590 ALEXANDER", "city": "PIERREFONDS", "province": "QC", "country": "CA", "postalCode": "H8Y2A7", "twitter": "None", "instagram": "None", "facebook": "None", "youtube": "None", "website": "None", "summary": "None", "logo": "None", "latitude": 45.50237387203541, "longitude": -73.77582695172816}, "831501408RR0001": {"name": "Life Renewal Support Services", "designationCode": "C", "categoryCode": "57", "address": "9 CORAL CRT", "city": "BRANTFORD", "province": "ON", "country": "CA", "postalCode": "N3P1L6", "twitter": "None", "instagram": "None", "facebook": "None", "youtube": "None", "website": "None", "summary": "None", "logo": "None", "latitude": 43.177282513994044, "longitude": -80.2229669862371}, "835634494RR0001": {"name": "Life Spring Mission", "designationCode": "C", "categoryCode": "39", "address": "410-6268 EAGLES DRIVE", "city": "VANCOUVER", "province": "BC", "country": "CA", "postalCode": "V6T0A2", "twitter": "None", "instagram": "None", "facebook": "None", "youtube": "None", "website": "None", "summary": "None", "logo": "None", "latitude": 49.257923090268406, "longitude": -123.24606136793832}, "813496403RR0001": {"name": "Life-Touch Center, Ministries", "designationCode": "C", "categoryCode": "31", "address": "84 FONDA CLOSE SOUTHEAST", "city": "CALGARY", "province": "AB", "country": "CA", "postalCode": "T2A6G3", "twitter": "None", "instagram": "None", "facebook": "None", "youtube": "None", "website": "None", "summary": "None", "logo": "None", "latitude": 51.05048358090485, "longitude": -113.97570833360268}, "835092933RR0001": {"name": "Life's Seasons Care and Support Inc.", "designationCode": "C", "categoryCode": "57", "address": "1945 KENWICK STREET", "city": "BRIGHT'S GROVE", "province": "ON", "country": "CA", "postalCode": "N0N1C0", "twitter": "None", "instagram": "None", "facebook": "None", "youtube": "None", "website": "None", "summary": "None", "logo": "None", "latitude": 43.02947829793479, "longitude": -82.26423462061555}, "119010163RR0001": {"name": "Life's Vision Manitoba Inc.", "designationCode": "C", "categoryCode": "09", "address": "270 EDMONTON ST", "city": "WINNIPEG", "province": "MB", "country": "CA", "postalCode": "R3C1R9", "twitter": "None", "instagram": "None", "facebook": "None", "youtube": "None", "website": "None", "summary": "None", "logo": "None", "latitude": 49.8918664962491, "longitude": -97.14692395977825}, "860223981RR0001": {"name": "Lifebridge Community Church", "designationCode": "C", "categoryCode": "31", "address": "PO BOX 21013", "city": "DARTMOUTH", "province": "NS", "country": "CA", "postalCode": "B2W6B2", "twitter": "None", "instagram": "None", "facebook": "None", "youtube": "None", "website": "None", "summary": "None", "logo": "None", "latitude": 44.67403500000006, "longitude": -63.57535099999993}, "848168860RR0001": {"name": "Lifebridge Ministries", "designationCode": "C", "categoryCode": "57", "address": "32025 GEORGE FERGUSON WAY     UNIT 305", "city": "ABBOTSFORD", "province": "BC", "country": "CA", "postalCode": "V2T2K7", "twitter": "None", "instagram": "None", "facebook": "None", "youtube": "None", "website": "None", "summary": "None", "logo": "None", "latitude": 49.05489653318127, "longitude": -122.33663061226844}, "882066509RR0001": {"name": "Lifecentre Food Bank", "designationCode": "C", "categoryCode": "09", "address": "11-2336 ORIENT PARK DR", "city": "GLOUCESTER", "province": "ON", "country": "CA", "postalCode": "K1B4N5", "twitter": "None", "instagram": "None", "facebook": "None", "youtube": "None", "website": "None", "summary": "None", "logo": "None", "latitude": 45.43322033784361, "longitude": -75.55615544007141}, "830682746RR0001": {"name": "Lifegate Community Church Wetaskiwin", "designationCode": "C", "categoryCode": "39", "address": "P.O. BOX 7044", "city": "WETASKIWIN", "province": "AB", "country": "CA", "postalCode": "T9A2Y9", "twitter": "None", "instagram": "None", "facebook": "None", "youtube": "None", "website": "None", "summary": "None", "logo": "None", "latitude": 52.96987500000006, "longitude": -113.37725149999994}, "803317890RR0001": {"name": "Lifehaven Women's Support Society", "designationCode": "C", "categoryCode": "57", "address": "31129 CREEKSIDE DR", "city": "ABBOTSFORD", "province": "BC", "country": "CA", "postalCode": "V2T4P3", "twitter": "None", "instagram": "None", "facebook": "None", "youtube": "None", "website": "None", "summary": "None", "logo": "None", "latitude": 49.054894416613664, "longitude": -122.36176913183105}, "803268317RR0001": {"name": "Lifeline Christian Mission Society - Canada", "designationCode": "C", "categoryCode": "09", "address": "635 NORTHMOUNT DR. NW         SUITE 100", "city": "CALGARY", "province": "AB", "country": "CA", "postalCode": "T2K3J6", "twitter": "None", "instagram": "None", "facebook": "None", "youtube": "None", "website": "None", "summary": "None", "logo": "None", "latitude": 51.08604839523339, "longitude": -114.08894014989312}, "887978013RR0001": {"name": "Lifepaths Global Alliance", "designationCode": "C", "categoryCode": "20", "address": "1340 DUNDAS ST", "city": "LONDON", "province": "ON", "country": "CA", "postalCode": "N5W3B6", "twitter": "None", "instagram": "None", "facebook": "None", "youtube": "None", "website": "None", "summary": "None", "logo": "None", "latitude": 42.99722683377558, "longitude": -81.20263947781164}, "823570189RR0001": {"name": "Lifepoint Foundation Canada", "designationCode": "A", "categoryCode": "03", "address": "127 BANNOCKBURN AVENUE", "city": "TORONTO", "province": "ON", "country": "CA", "postalCode": "M5M2N2", "twitter": "None", "instagram": "None", "facebook": "None", "youtube": "None", "website": "None", "summary": "None", "logo": "None", "latitude": 43.73178149235395, "longitude": -79.43014257799065}, "132189028RR0001": {"name": "Lifepoint Pentecostal Church of Quesnel", "designationCode": "C", "categoryCode": "39", "address": "288 FLAMINGO STREET", "city": "QUESNEL", "province": "BC", "country": "CA", "postalCode": "V2J1M3", "twitter": "None", "instagram": "None", "facebook": "None", "youtube": "None", "website": "None", "summary": "None", "logo": "None", "latitude": 52.97687461449015, "longitude": -122.52367968021845}, "118891043RR0001": {"name": "Lifepoint United Pentecostal Church", "designationCode": "C", "categoryCode": "39", "address": "887 KING STREET EAST", "city": "HAMILTON", "province": "ON", "country": "CA", "postalCode": "L8M1B5", "twitter": "None", "instagram": "None", "facebook": "None", "youtube": "None", "website": "None", "summary": "None", "logo": "None", "latitude": 43.25140751543635, "longitude": -79.83975188773155}, "844683516RR0001": {"name": "Lifering Secular Recovery Society Canada", "designationCode": "C", "categoryCode": "11", "address": "246 HAMILTON AVE", "city": "PARKSVILLE", "province": "BC", "country": "CA", "postalCode": "V9P2V5", "twitter": "None", "instagram": "None", "facebook": "None", "youtube": "None", "website": "None", "summary": "None", "logo": "None", "latitude": 49.30795748845881, "longitude": -124.30439163918865}, "813627734RR0001": {"name": "Lifesong for Orphans (Canada)", "designationCode": "C", "categoryCode": "20", "address": "1477 BISHOP ST N", "city": "CAMBRIDGE", "province": "ON", "country": "CA", "postalCode": "N1R7J4", "twitter": "None", "instagram": "None", "facebook": "None", "youtube": "None", "website": "None", "summary": "None", "logo": "None", "latitude": 43.3963012711926, "longitude": -80.31582650028845}, "870979069RR0001": {"name": "Lifespring Church of Edmonton", "designationCode": "C", "categoryCode": "39", "address": "PO BOX 72260", "city": "SHERWOOD PARK", "province": "AB", "country": "CA", "postalCode": "T8H0M6", "twitter": "None", "instagram": "None", "facebook": "None", "youtube": "None", "website": "None", "summary": "None", "logo": "None", "latitude": 53.52731700000005, "longitude": -113.29574299999993}, "829647486RR0001": {"name": "Lifestyle Canada Education Service", "designationCode": "C", "categoryCode": "41", "address": "1 - 125 CLARENCE BIESENTHAL DR", "city": "OSHAWA", "province": "ON", "country": "CA", "postalCode": "L1K2H5", "twitter": "None", "instagram": "None", "facebook": "None", "youtube": "None", "website": "None", "summary": "None", "logo": "None", "latitude": 43.90946322038196, "longitude": -78.81916984938573}, "817505100RR0001": {"name": "Lifetime Charitable Foundation", "designationCode": "B", "categoryCode": "03", "address": "49 JACKES AVENUE, SUITE 200", "city": "TORONTO", "province": "ON", "country": "CA", "postalCode": "M4T1E2", "twitter": "None", "instagram": "None", "facebook": "None", "youtube": "None", "website": "None", "summary": "None", "logo": "None", "latitude": 43.68549482763007, "longitude": -79.39042753774024}, "887496412RR0001": {"name": "Lifetree Ministry", "designationCode": "C", "categoryCode": "39", "address": "6021 WEST SAANICH RD", "city": "VICTORIA", "province": "BC", "country": "CA", "postalCode": "V9E2G4", "twitter": "None", "instagram": "None", "facebook": "None", "youtube": "None", "website": "None", "summary": "None", "logo": "None", "latitude": 48.55199650484743, "longitude": -123.4403710033478}, "811825595RR0001": {"name": "LifeApp Inc.", "designationCode": "C", "categoryCode": "39", "address": "26769 64 AVE", "city": "ALDERGROVE", "province": "BC", "country": "CA", "postalCode": "V4W1R1", "twitter": "None", "instagram": "None", "facebook": "None", "youtube": "None", "website": "None", "summary": "None", "logo": "None", "latitude": 49.11827253000636, "longitude": -122.48293337662305}, "807949433RR0001": {"name": "LifeBridge Family Church", "designationCode": "C", "categoryCode": "36", "address": "PO BOX 178", "city": "THAMESVILLE", "province": "ON", "country": "CA", "postalCode": "N0P2K0", "twitter": "None", "instagram": "None", "facebook": "None", "youtube": "None", "website": "None", "summary": "None", "logo": "None", "latitude": 42.551870000000065, "longitude": -81.97652999999997}, "802667741RR0001": {"name": "LifeBuilders Inc.", "designationCode": "C", "categoryCode": "09", "address": "78 ROUTE#880                  P.O. BOX 245", "city": "APOHAQUI", "province": "NB", "country": "CA", "postalCode": "E5P3G2", "twitter": "None", "instagram": "None", "facebook": "None", "youtube": "None", "website": "None", "summary": "None", "logo": "None", "latitude": 45.702805758496, "longitude": -65.6021589509025}, "812346708RR0001": {"name": "LifeHouse Church", "designationCode": "C", "categoryCode": "39", "address": "126 - 6555 FALCONER DR", "city": "MISSISSAUGA", "province": "ON", "country": "CA", "postalCode": "L5N3N6", "twitter": "None", "instagram": "None", "facebook": "None", "youtube": "None", "website": "None", "summary": "None", "logo": "None", "latitude": 43.60361153733622, "longitude": -79.73080175073595}, "760158121RR0001": {"name": "LifeNet Ministries Incorporated", "designationCode": "C", "categoryCode": "09", "address": "110 EAST RIVER ROAD", "city": "PARIS", "province": "ON", "country": "CA", "postalCode": "N3L3E1", "twitter": "None", "instagram": "None", "facebook": "None", "youtube": "None", "website": "None", "summary": "None", "logo": "None", "latitude": 43.21466979835625, "longitude": -80.35470343108739}, "816478333RR0001": {"name": "LifePoint Community Church", "designationCode": "C", "categoryCode": "45", "address": "405 QUEEN STREET SOUTH        PO BOX 75074", "city": "BOLTON", "province": "ON", "country": "CA", "postalCode": "L7E2B5", "twitter": "None", "instagram": "None", "facebook": "None", "youtube": "None", "website": "None", "summary": "None", "logo": "None", "latitude": 43.871886340230766, "longitude": -79.72733954520983}, "872532676RR0001": {"name": "LifeSong Christian Church", "designationCode": "C", "categoryCode": "36", "address": "P.O. BOX 115", "city": "SACKVILLE", "province": "NS", "country": "CA", "postalCode": "B4C2S8", "twitter": "None", "instagram": "None", "facebook": "None", "youtube": "None", "website": "None", "summary": "None", "logo": "None", "latitude": 44.76240403152199, "longitude": -63.673983103155045}, "132004581RR0001": {"name": "LifeWay Church of Lethbridge", "designationCode": "C", "categoryCode": "39", "address": "RR 8-1-0", "city": "LETHBRIDGE", "province": "AB", "country": "CA", "postalCode": "T1J4P4", "twitter": "None", "instagram": "None", "facebook": "None", "youtube": "None", "website": "None", "summary": "None", "logo": "None", "latitude": 49.69264200000005, "longitude": -112.69386349999994}, "846798650RR0001": {"name": "Life4Kids Canada", "designationCode": "C", "categoryCode": "01", "address": "121 JOHN DILLINGNO ST         RR 1", "city": "VICTORIA HARBOUR", "province": "ON", "country": "CA", "postalCode": "L0K2A0", "twitter": "None", "instagram": "None", "facebook": "None", "youtube": "None", "website": "None", "summary": "None", "logo": "None", "latitude": 44.746326745744284, "longitude": -79.7672689906805}, "805690690RR0001": {"name": "Lift the Children", "designationCode": "B", "categoryCode": "09", "address": "6911C KING GEORGE HIGHWAY", "city": "SURREY", "province": "BC", "country": "CA", "postalCode": "V3W5A1", "twitter": "None", "instagram": "None", "facebook": "None", "youtube": "None", "website": "None", "summary": "None", "logo": "None", "latitude": 49.128232950947016, "longitude": -122.84563595907564}, "825315328RR0001": {"name": "Lift Church", "designationCode": "C", "categoryCode": "36", "address": "991 KING STREET WEST          P.O. BOX 89120", "city": "HAMILTON", "province": "ON", "country": "CA", "postalCode": "L8S4R5", "twitter": "None", "instagram": "None", "facebook": "None", "youtube": "None", "website": "None", "summary": "None", "logo": "None"}, "805854908RR0001": {"name": "Light for Orphans Canada", "designationCode": "C", "categoryCode": "01", "address": "61 RUE DU SYRAH", "city": "KIRKLAND", "province": "QC", "country": "CA", "postalCode": "H9H0B1", "twitter": "None", "instagram": "None", "facebook": "None", "youtube": "None", "website": "None", "summary": "None", "logo": "None", "latitude": 45.46163649818232, "longitude": -73.84702327739635}, "839854957RR0001": {"name": "Light of the Gospel Christian Church", "designationCode": "C", "categoryCode": "39", "address": "52 CUMMER AVENUE", "city": "TORONTO", "province": "ON", "country": "CA", "postalCode": "M2M2E4", "twitter": "None", "instagram": "None", "facebook": "None", "youtube": "None", "website": "None", "summary": "None", "logo": "None", "latitude": 43.7875351906918, "longitude": -79.41507892951117}, "119059061RR0001": {"name": "Light of Christ Roman Catholic Separate School Division No. 16", "designationCode": "C", "categoryCode": "20", "address": "9301 19TH AVE", "city": "NORTH BATTLEFORD", "province": "SK", "country": "CA", "postalCode": "S9A3N5", "twitter": "None", "instagram": "None", "facebook": "None", "youtube": "None", "website": "None", "summary": "None", "logo": "None", "latitude": 52.78558042784659, "longitude": -108.31119975}, "848294484RR0001": {"name": "Light of Jesus Community Association", "designationCode": "C", "categoryCode": "39", "address": "5251 JOYCE STREET", "city": "VANCOUVER", "province": "BC", "country": "CA", "postalCode": "V5R4G8", "twitter": "None", "instagram": "None", "facebook": "None", "youtube": "None", "website": "None", "summary": "None", "logo": "None", "latitude": 49.237062187003616, "longitude": -123.03313677427673}, "850913039RR0001": {"name": "Light of Jesus Family-Winnipeg, Incorporated", "designationCode": "C", "categoryCode": "39", "address": "820 BOYD AVENUE", "city": "WINNIPEG", "province": "MB", "country": "CA", "postalCode": "R2X0Z4", "twitter": "None", "instagram": "None", "facebook": "None", "youtube": "None", "website": "None", "summary": "None", "logo": "None", "latitude": 49.92519808630054, "longitude": -97.15311276493154}, "851552935RR0001": {"name": "Light of Life Christian Ministry Edmonton", "designationCode": "C", "categoryCode": "39", "address": "2101 MILBOURNE ROAD WEST NW", "city": "EDMONTON", "province": "AB", "country": "CA", "postalCode": "T6K0Y3", "twitter": "None", "instagram": "None", "facebook": "None", "youtube": "None", "website": "None", "summary": "None", "logo": "None", "latitude": 53.48107332524698, "longitude": -113.454918526671}, "850238015RR0001": {"name": "Light the Darkness Ministries", "designationCode": "C", "categoryCode": "39", "address": "398 WEST ACRES DRIVE", "city": "GUELPH", "province": "ON", "country": "CA", "postalCode": "N1H7C2", "twitter": "None", "instagram": "None", "facebook": "None", "youtube": "None", "website": "None", "summary": "None", "logo": "None", "latitude": 43.51339305710283, "longitude": -80.27845518899584}, "815922935RR0001": {"name": "Light to the World Christian Church", "designationCode": "C", "categoryCode": "39", "address": "885 WILSON AVE,", "city": "TORONTO", "province": "ON", "country": "CA", "postalCode": "M3K1E6", "twitter": "None", "instagram": "None", "facebook": "None", "youtube": "None", "website": "None", "summary": "None", "logo": "None", "latitude": 43.730625867592025, "longitude": -79.46668517692889}, "821423282RR0001": {"name": "Light Community Wesleyan Church", "designationCode": "C", "categoryCode": "39", "address": "610 - 125 NEPTUNE DR", "city": "NORTH YORK", "province": "ON", "country": "CA", "postalCode": "M6A1X3", "twitter": "None", "instagram": "None", "facebook": "None", "youtube": "None", "website": "None", "summary": "None", "logo": "None", "latitude": 43.73117127474195, "longitude": -79.44011117661178}, "830602322RR0001": {"name": "Light House Church of the Apostle Ontario Inc.", "designationCode": "C", "categoryCode": "39", "address": "42 LIMEVALE CRES", "city": "SCARBOROUGH", "province": "ON", "country": "CA", "postalCode": "M1E2K7", "twitter": "None", "instagram": "None", "facebook": "None", "youtube": "None", "website": "None", "summary": "None", "logo": "None", "latitude": 43.76386275993987, "longitude": -79.18579399428718}, "859615643RR0001": {"name": "Light World Charity", "designationCode": "C", "categoryCode": "59", "address": "249 PORT ROYAL TRAIL", "city": "SCARBOROUGH", "province": "ON", "country": "CA", "postalCode": "M1V2K2", "twitter": "None", "instagram": "None", "facebook": "None", "youtube": "None", "website": "None", "summary": "None", "logo": "None", "latitude": 43.81922832056095, "longitude": -79.29130473094219}, "811439652RR0001": {"name": "Light, Hope and Life Foundation", "designationCode": "A", "categoryCode": "03", "address": "703-238 ALVIN NAROD MEWS", "city": "VANCOUVER", "province": "BC", "country": "CA", "postalCode": "V6B5Z3", "twitter": "None", "instagram": "None", "facebook": "None", "youtube": "None", "website": "None", "summary": "None", "logo": "None", "latitude": 49.27470899550858, "longitude": -123.1202218073068}, "887672228RR0001": {"name": "Lighthouse of Faith Ministries Inc.", "designationCode": "C", "categoryCode": "39", "address": "1161/3 OLD ROTHESAY RD", "city": "SAINT JOHN", "province": "NB", "country": "CA", "postalCode": "E2H2H9", "twitter": "None", "instagram": "None", "facebook": "None", "youtube": "None", "website": "None", "summary": "None", "logo": "None", "latitude": 45.337503130386914, "longitude": -66.02742860870163}, "811573534RR0001": {"name": "Lighthouse on the River", "designationCode": "C", "categoryCode": "39", "address": "12 BAYVIEW LANE", "city": "SMITH FALLS", "province": "ON", "country": "CA", "postalCode": "K7A5B8", "twitter": "None", "instagram": "None", "facebook": "None", "youtube": "None", "website": "None", "summary": "None", "logo": "None", "latitude": 44.88542460598035, "longitude": -75.99491826407012}, "838003853RR0001": {"name": "Lighthouse Baptist Church", "designationCode": "C", "categoryCode": "31", "address": "10 DECOE CRT", "city": "COURTICE", "province": "ON", "country": "CA", "postalCode": "L1E3G8", "twitter": "None", "instagram": "None", "facebook": "None", "youtube": "None", "website": "None", "summary": "None", "logo": "None", "latitude": 43.902650022476806, "longitude": -78.79693667418759}, "851116251RR0001": {"name": "Lighthouse Baptist Church", "designationCode": "C", "categoryCode": "31", "address": "26 HELEN AVENUE               SUITE 514", "city": "BRANTFORD", "province": "ON", "country": "CA", "postalCode": "N3T5Y9", "twitter": "None", "instagram": "None", "facebook": "None", "youtube": "None", "website": "None", "summary": "None", "logo": "None", "latitude": 43.12788054291224, "longitude": -80.27313290871713}}