{"889717369RR0001": {"name": "Victoria Pregnancy Centre Society", "designationCode": "C", "categoryCode": "09", "address": "247 STORMONT RD", "city": "VICTORIA", "province": "BC", "country": "CA", "postalCode": "V9B1P7", "twitter": "None", "instagram": "None", "facebook": "None", "youtube": "None", "website": "None", "summary": "None", "logo": "None", "latitude": 48.454170810981644, "longitude": -123.43719062695496}, "814504650RR0001": {"name": "Victoria Rainbow Kitchen Society", "designationCode": "C", "categoryCode": "09", "address": "500 ADMIRALS ROAD", "city": "ESQUIMALT", "province": "BC", "country": "CA", "postalCode": "V9A2N4", "twitter": "None", "instagram": "None", "facebook": "None", "youtube": "None", "website": "None", "summary": "None", "logo": "None", "latitude": 48.42847897446478, "longitude": -123.41699337500692}, "828761940RR0001": {"name": "Victoria Restorative Justice Society", "designationCode": "C", "categoryCode": "59", "address": "1933 LEE AVENUE", "city": "VICTORIA", "province": "BC", "country": "CA", "postalCode": "V8R4W9", "twitter": "None", "instagram": "None", "facebook": "None", "youtube": "None", "website": "None", "summary": "None", "logo": "None", "latitude": 48.43089061809684, "longitude": -123.32562968991331}, "803560366RR0001": {"name": "Victoria Scottish Community Centre Society", "designationCode": "C", "categoryCode": "20", "address": "4161 GRANVILLE AVENUE", "city": "VICTORIA", "province": "BC", "country": "CA", "postalCode": "V9E2C9", "twitter": "None", "instagram": "None", "facebook": "None", "youtube": "None", "website": "None", "summary": "None", "logo": "None", "latitude": 48.48154564938699, "longitude": -123.42777040108942}, "863966917RR0001": {"name": "Victoria Secular Humanist Association", "designationCode": "C", "categoryCode": "59", "address": "301 - 3010 WASHINGTON AVE", "city": "VICTORIA", "province": "BC", "country": "CA", "postalCode": "V9A1P6", "twitter": "None", "instagram": "None", "facebook": "None", "youtube": "None", "website": "None", "summary": "None", "logo": "None", "latitude": 48.44346643548379, "longitude": -123.38185181617486}, "108220054RR0001": {"name": "Victoria Sexual Assault Centre Society", "designationCode": "C", "categoryCode": "09", "address": "201-3060 CEDAR HILL ROAD", "city": "VICTORIA", "province": "BC", "country": "CA", "postalCode": "V8T3J5", "twitter": "None", "instagram": "None", "facebook": "None", "youtube": "None", "website": "None", "summary": "None", "logo": "None", "latitude": 48.44722708465576, "longitude": -123.34463548239928}, "896220605RR0001": {"name": "Victoria Shakespeare Society", "designationCode": "C", "categoryCode": "22", "address": "POST OFFICE BOX 46018         2642 QUADRA STREET", "city": "VICTORIA", "province": "BC", "country": "CA", "postalCode": "V8T5G7", "twitter": "None", "instagram": "None", "facebook": "None", "youtube": "None", "website": "None", "summary": "None", "logo": "None", "latitude": 48.43881739826314, "longitude": -123.35902871873718}, "821983921RR0001": {"name": "Victoria Society For Blind Arts & Culture", "designationCode": "C", "categoryCode": "22", "address": "1452 EDGEWARE RD", "city": "VICTORIA", "province": "BC", "country": "CA", "postalCode": "V8T2J5", "twitter": "None", "instagram": "None", "facebook": "None", "youtube": "None", "website": "None", "summary": "None", "logo": "None", "latitude": 48.44352472052619, "longitude": -123.34440960312185}, "832459812RR0001": {"name": "Victoria Yangmoori Baptist Church", "designationCode": "C", "categoryCode": "31", "address": "4401 CHATTERTON WAY", "city": "VICTORIA", "province": "BC", "country": "CA", "postalCode": "V8X5J1", "twitter": "None", "instagram": "None", "facebook": "None", "youtube": "None", "website": "None", "summary": "None", "logo": "None", "latitude": 48.48634057256629, "longitude": -123.3818290626699}, "856966544RR0001": {"name": "Victorian Order of Nurses for Canada - Western Region / Les infirmi\u00e8res de l'ordre de Victoria du Canada - Western Region", "designationCode": "C", "categoryCode": "11", "address": "2315 ST. LAURENT BOULEVARD    SUITE 100", "city": "OTTAWA", "province": "ON", "country": "CA", "postalCode": "K1G4J8", "twitter": "None", "instagram": "None", "facebook": "None", "youtube": "None", "website": "None", "summary": "None", "logo": "None", "latitude": 45.38432212179042, "longitude": -75.61927339783045}, "866202765RR0002": {"name": "Victorian Order of Nurses for Canada Nova Scotia Branch Inc.", "designationCode": "C", "categoryCode": "11", "address": "100 - 7075 BAYERS RD", "city": "HALIFAX", "province": "NS", "country": "CA", "postalCode": "B3L2C2", "twitter": "None", "instagram": "None", "facebook": "None", "youtube": "None", "website": "None", "summary": "None", "logo": "None", "latitude": 44.65364446826102, "longitude": -63.62741516056892}, "119284487RR0001": {"name": "Victorian Order of Nurses Edmonton Foundation", "designationCode": "C", "categoryCode": "11", "address": "66 DORCHESTER DR", "city": "ST. ALBERT", "province": "AB", "country": "CA", "postalCode": "T8N5T6", "twitter": "None", "instagram": "None", "facebook": "None", "youtube": "None", "website": "None", "summary": "None", "logo": "None", "latitude": 53.65420392948251, "longitude": -113.64329584852034}, "802605881RR0001": {"name": "Victorian Order of Nurses Windsor-Essex County Community Corporation", "designationCode": "C", "categoryCode": "11", "address": "400 - 4520 RHODES DRIVE", "city": "WINDSOR", "province": "ON", "country": "CA", "postalCode": "N8W5C2", "twitter": "None", "instagram": "None", "facebook": "None", "youtube": "None", "website": "None", "summary": "None", "logo": "None", "latitude": 42.28524101116584, "longitude": -82.9574645350276}, "119284446RR0001": {"name": "Victorian Order of Nurses, Chatham-Kent Ontario Community Corporation", "designationCode": "A", "categoryCode": "11", "address": "1705 LONDON LINE", "city": "SARNIA", "province": "ON", "country": "CA", "postalCode": "N7W1B2", "twitter": "None", "instagram": "None", "facebook": "None", "youtube": "None", "website": "None", "summary": "None", "logo": "None", "latitude": 42.98380953837541, "longitude": -82.32875121440934}, "119284453RR0001": {"name": "Victorian Order of Nurses, Durham Region Community Corporation", "designationCode": "A", "categoryCode": "11", "address": "360 GEORGE ST. N.             SUITE 25", "city": "PETERBOROUGH", "province": "ON", "country": "CA", "postalCode": "K9H7E7", "twitter": "None", "instagram": "None", "facebook": "None", "youtube": "None", "website": "None", "summary": "None", "logo": "None", "latitude": 44.30418479156327, "longitude": -78.31990578126282}, "132329400RR0001": {"name": "Victorian Order of Nurses, Grey-Bruce Community Corporation", "designationCode": "C", "categoryCode": "11", "address": "1280 20TH STREET EAST         PO BOX 969", "city": "OWENSOUND", "province": "ON", "country": "CA", "postalCode": "N4K6H6", "twitter": "None", "instagram": "None", "facebook": "None", "youtube": "None", "website": "None", "summary": "None", "logo": "None", "latitude": 44.582448168363925, "longitude": -80.9127743773597}, "119284867RR0001": {"name": "Victorian Order of Nurses, Hastings, Northumberland, Prince Edward Community Corporation", "designationCode": "C", "categoryCode": "11", "address": "80 DIVISION ST", "city": "TRENTON", "province": "ON", "country": "CA", "postalCode": "K8V5S5", "twitter": "None", "instagram": "None", "facebook": "None", "youtube": "None", "website": "None", "summary": "None", "logo": "None", "latitude": 44.102537781003036, "longitude": -77.57958390013813}, "137508057RR0001": {"name": "Victorian Order of Nurses, Middlesex-Elgin Community Corporation", "designationCode": "A", "categoryCode": "11", "address": "401-1151 FLORENCE ST.", "city": "LONDON", "province": "ON", "country": "CA", "postalCode": "N5W2M7", "twitter": "None", "instagram": "None", "facebook": "None", "youtube": "None", "website": "None", "summary": "None", "logo": "None", "latitude": 42.99130506797868, "longitude": -81.21061348514058}, "119284776RR0001": {"name": "Victorian Order of Nurses, Oxford Community Corporation", "designationCode": "C", "categoryCode": "11", "address": "550 INGERSOLL AVE", "city": "WOODSTOCK", "province": "ON", "country": "CA", "postalCode": "N4S4Y3", "twitter": "None", "instagram": "None", "facebook": "None", "youtube": "None", "website": "None", "summary": "None", "logo": "None", "latitude": 43.13705168552724, "longitude": -80.7547270700848}, "136070760RR0001": {"name": "Victorian Order of Nurses, Perth-Huron Community Corporation", "designationCode": "C", "categoryCode": "11", "address": "40 LONG DRIVE                 SUITE 111", "city": "STRATFORD", "province": "ON", "country": "CA", "postalCode": "N5A8A3", "twitter": "None", "instagram": "None", "facebook": "None", "youtube": "None", "website": "None", "summary": "None", "logo": "None", "latitude": 43.38218256621832, "longitude": -80.96245035498296}, "119284800RR0001": {"name": "Victorian Order of Nurses, Peterborough, Victoria and Haliburton Community Corporation", "designationCode": "C", "categoryCode": "11", "address": "25-360 GEORGE STREET NORTH    PETERBOROUGH SQUARE", "city": "PETERBOROUGH", "province": "ON", "country": "CA", "postalCode": "K9H7E7", "twitter": "None", "instagram": "None", "facebook": "None", "youtube": "None", "website": "None", "summary": "None", "logo": "None", "latitude": 44.30419002553526, "longitude": -78.3199199699927}, "119284826RR0001": {"name": "Victorian Order of Nurses, Porcupine Community Corporation", "designationCode": "C", "categoryCode": "11", "address": "38 PINE ST N SUITE 139", "city": "TIMMINS", "province": "ON", "country": "CA", "postalCode": "P4N6K6", "twitter": "None", "instagram": "None", "facebook": "None", "youtube": "None", "website": "None", "summary": "None", "logo": "None", "latitude": 48.47718571831126, "longitude": -81.32828226335806}, "129963237RR0001": {"name": "Victorian Order of Nurses, Thunder Bay and District Community Corporation", "designationCode": "C", "categoryCode": "11", "address": "200-214 RED RIVER RD", "city": "THUNDER BAY", "province": "ON", "country": "CA", "postalCode": "P7B1A6", "twitter": "None", "instagram": "None", "facebook": "None", "youtube": "None", "website": "None", "summary": "None", "logo": "None", "latitude": 48.439195345780306, "longitude": -89.23759553590475}, "130365075RR0001": {"name": "Victorian Order of Nurses, Toronto-York Region Community Corporation", "designationCode": "C", "categoryCode": "11", "address": "2150 ISLINGTON AVE            SUITE 301", "city": "TORONTO", "province": "ON", "country": "CA", "postalCode": "M9P3V4", "twitter": "None", "instagram": "None", "facebook": "None", "youtube": "None", "website": "None", "summary": "None", "logo": "None", "latitude": 43.70479342053745, "longitude": -79.55127806792042}, "740799325RR0001": {"name": "Victorious City Church International", "designationCode": "C", "categoryCode": "36", "address": "9 - 835 WILSON AVE", "city": "NORTH YORK", "province": "ON", "country": "CA", "postalCode": "M3K1E4", "twitter": "None", "instagram": "None", "facebook": "None", "youtube": "None", "website": "None", "summary": "None", "logo": "None", "latitude": 43.73124686759202, "longitude": -79.46392781903172}, "760080325RR0001": {"name": "Victorious Works Ministries", "designationCode": "C", "categoryCode": "39", "address": "36 - 3225 CLIFF RD N", "city": "MISSISSAUGA", "province": "ON", "country": "CA", "postalCode": "L5A3G7", "twitter": "None", "instagram": "None", "facebook": "None", "youtube": "None", "website": "None", "summary": "None", "logo": "None", "latitude": 43.59135608970473, "longitude": -79.61480369467382}, "752048926RR0001": {"name": "Victors in Christ Church", "designationCode": "C", "categoryCode": "39", "address": "117 - 105 VALLEY WOODS RD", "city": "NORTH YORK", "province": "ON", "country": "CA", "postalCode": "M3A2R8", "twitter": "None", "instagram": "None", "facebook": "None", "youtube": "None", "website": "None", "summary": "None", "logo": "None", "latitude": 43.75535649046401, "longitude": -79.333926367848}, "815901962RR0001": {"name": "Victory for Animals Society", "designationCode": "B", "categoryCode": "54", "address": "10 - 8 LOYALIST DR            SS 8", "city": "BRIGHTON", "province": "ON", "country": "CA", "postalCode": "K0K1H0", "twitter": "None", "instagram": "None", "facebook": "None", "youtube": "None", "website": "None", "summary": "None", "logo": "None", "latitude": 44.03458336924795, "longitude": -77.72996561537016}, "824874226RR0001": {"name": "Victory in the Word Outreach", "designationCode": "C", "categoryCode": "39", "address": "124 STONECHURCH CRESCENT", "city": "MARKHAM", "province": "ON", "country": "CA", "postalCode": "L6B0J2", "twitter": "None", "instagram": "None", "facebook": "None", "youtube": "None", "website": "None", "summary": "None", "logo": "None", "latitude": 43.867537081337545, "longitude": -79.22674564847948}, "856391750RR0001": {"name": "Victory in Christ Covenant Ministries Inc.", "designationCode": "C", "categoryCode": "39", "address": "68-5958 GREENSBORO DRIVE", "city": "MISSISSAUGA", "province": "ON", "country": "CA", "postalCode": "L5M5Z9", "twitter": "None", "instagram": "None", "facebook": "None", "youtube": "None", "website": "None", "summary": "None", "logo": "None", "latitude": 43.56913912452381, "longitude": -79.74079251303462}, "802511337RR0001": {"name": "Victory Assembly Church of God", "designationCode": "C", "categoryCode": "39", "address": "23 MOUNT FUJI CRESCENT", "city": "BRAMPTON", "province": "ON", "country": "CA", "postalCode": "L6R2L3", "twitter": "None", "instagram": "None", "facebook": "None", "youtube": "None", "website": "None", "summary": "None", "logo": "None", "latitude": 43.763594552599656, "longitude": -79.72469898040872}, "813221819RR0001": {"name": "Victory Baptist Church of Harvey Inc.", "designationCode": "C", "categoryCode": "31", "address": "2572 ROUTE 3", "city": "HARVEY YORK COUNTY", "province": "NB", "country": "CA", "postalCode": "E6K1R8", "twitter": "None", "instagram": "None", "facebook": "None", "youtube": "None", "website": "None", "summary": "None", "logo": "None", "latitude": 45.73025115731896, "longitude": -67.00374423912147}, "747578698RR0001": {"name": "Victory Bible Church International (Canada)", "designationCode": "C", "categoryCode": "39", "address": "22 GULLIVER CRES", "city": "BRAMPTON", "province": "ON", "country": "CA", "postalCode": "L6S1S9", "twitter": "None", "instagram": "None", "facebook": "None", "youtube": "None", "website": "None", "summary": "None", "logo": "None", "latitude": 43.73499300415494, "longitude": -79.71341119398134}, "883386609RR0001": {"name": "Victory Christian Centre International of Niagara Inc.", "designationCode": "C", "categoryCode": "39", "address": "452 ALBANY ROAD", "city": "FORT ERIE", "province": "ON", "country": "CA", "postalCode": "L2A1L8", "twitter": "None", "instagram": "None", "facebook": "None", "youtube": "None", "website": "None", "summary": "None", "logo": "None", "latitude": 42.8951826264067, "longitude": -78.93021557227785}, "894738145RR0001": {"name": "Victory Church of the Peace Fellowship", "designationCode": "C", "categoryCode": "39", "address": "PO BOX 5094", "city": "PEACE RIVER", "province": "AB", "country": "CA", "postalCode": "T8S1R7", "twitter": "None", "instagram": "None", "facebook": "None", "youtube": "None", "website": "None", "summary": "None", "logo": "None", "latitude": 56.232969000000054, "longitude": -117.29043349999993}, "844540880RR0001": {"name": "Victory Church of Virden Inc.", "designationCode": "C", "categoryCode": "39", "address": "BOX 820", "city": "VIRDEN", "province": "MB", "country": "CA", "postalCode": "R0M2C0", "twitter": "None", "instagram": "None", "facebook": "None", "youtube": "None", "website": "None", "summary": "None", "logo": "None", "latitude": 49.85688000000005, "longitude": -100.92262999999997}, "806380051RR0001": {"name": "Victory Churches International Inc.", "designationCode": "C", "categoryCode": "47", "address": "BOX 65077                     NORTH HILL POST OFFICE", "city": "CALGARY", "province": "AB", "country": "CA", "postalCode": "T2N4T6", "twitter": "None", "instagram": "None", "facebook": "None", "youtube": "None", "website": "None", "summary": "None", "logo": "None", "latitude": 51.065529000000055, "longitude": -114.12679849999994}, "823047014RR0001": {"name": "Victory Community Development Society", "designationCode": "C", "categoryCode": "01", "address": "UNIT 99  16655 64 AV", "city": "SURREY", "province": "BC", "country": "CA", "postalCode": "V3S3V1", "twitter": "None", "instagram": "None", "facebook": "None", "youtube": "None", "website": "None", "summary": "None", "logo": "None", "latitude": 49.119015518754544, "longitude": -122.7612825}, "817292725RR0001": {"name": "Victory Education Fund", "designationCode": "C", "categoryCode": "21", "address": "2 HASHBURY PL", "city": "THORNHILL", "province": "ON", "country": "CA", "postalCode": "L3T7H4", "twitter": "None", "instagram": "None", "facebook": "None", "youtube": "None", "website": "None", "summary": "None", "logo": "None", "latitude": 43.82682383709379, "longitude": -79.37991093686875}, "140687666RR0001": {"name": "Victory Faith Christian Fellowship", "designationCode": "C", "categoryCode": "47", "address": "P.O. BOX 2111", "city": "ORILLIA", "province": "ON", "country": "CA", "postalCode": "L3V6R9", "twitter": "None", "instagram": "None", "facebook": "None", "youtube": "None", "website": "None", "summary": "None", "logo": "None", "latitude": 44.60657100000006, "longitude": -79.41824449999993}, "848577573RR0001": {"name": "Victory Family Church Edmonton", "designationCode": "C", "categoryCode": "39", "address": "6005 GATEWAY BLVD NW", "city": "EDMONTON", "province": "AB", "country": "CA", "postalCode": "T6H2H3", "twitter": "None", "instagram": "None", "facebook": "None", "youtube": "None", "website": "None", "summary": "None", "logo": "None", "latitude": 53.49736073910784, "longitude": -113.49195624086819}, "816858187RR0001": {"name": "Victory Family Fellowship International Ministries of Calgary", "designationCode": "C", "categoryCode": "39", "address": "6611 TEMPLE DR NE", "city": "CALGARY", "province": "AB", "country": "CA", "postalCode": "T1Y4R4", "twitter": "None", "instagram": "None", "facebook": "None", "youtube": "None", "website": "None", "summary": "None", "logo": "None", "latitude": 51.08592169441405, "longitude": -113.93957070494562}, "776909293RR0001": {"name": "Victory House Association of Dufferin Caledon", "designationCode": "C", "categoryCode": "09", "address": "POST OFFICE BOX 164", "city": "CALEDON", "province": "ON", "country": "CA", "postalCode": "L7C3L9", "twitter": "None", "instagram": "None", "facebook": "None", "youtube": "None", "website": "None", "summary": "None", "logo": "None", "latitude": 43.869777000000056, "longitude": -79.86667399999993}, "848856175RR0001": {"name": "Victory House Christian Church", "designationCode": "C", "categoryCode": "39", "address": "101 BAYCLIFFE DRIVE", "city": "WHITBY", "province": "ON", "country": "CA", "postalCode": "L1P1W4", "twitter": "None", "instagram": "None", "facebook": "None", "youtube": "None", "website": "None", "summary": "None", "logo": "None", "latitude": 43.90727254316461, "longitude": -78.97948250510723}, "850213786RR0001": {"name": "Victory House Rehabilitation", "designationCode": "C", "categoryCode": "57", "address": "802 - 320 DIXON RD", "city": "ETOBICOKE", "province": "ON", "country": "CA", "postalCode": "M9R1S8", "twitter": "None", "instagram": "None", "facebook": "None", "youtube": "None", "website": "None", "summary": "None", "logo": "None", "latitude": 43.69570258562088, "longitude": -79.5529084101713}, "858604754RR0001": {"name": "Victory Impact Christian Centre", "designationCode": "C", "categoryCode": "39", "address": "19 WESTVIEW CRESCENT", "city": "LIVELY", "province": "ON", "country": "CA", "postalCode": "P3Y1B7", "twitter": "None", "instagram": "None", "facebook": "None", "youtube": "None", "website": "None", "summary": "None", "logo": "None", "latitude": 46.42084762528153, "longitude": -81.13509253785581}, "803788462RR0001": {"name": "Victory Life Family Church", "designationCode": "C", "categoryCode": "39", "address": "751 WOODHILL DRIVE", "city": "FERGUS", "province": "ON", "country": "CA", "postalCode": "N1M3N2", "twitter": "None", "instagram": "None", "facebook": "None", "youtube": "None", "website": "None", "summary": "None", "logo": "None", "latitude": 43.711037664723875, "longitude": -80.3908294817068}, "867280349RR0001": {"name": "Victory Now Church", "designationCode": "C", "categoryCode": "39", "address": "601 REBECCA PL", "city": "CAMPBELL RIVER", "province": "BC", "country": "CA", "postalCode": "V9W8C5", "twitter": "None", "instagram": "None", "facebook": "None", "youtube": "None", "website": "None", "summary": "None", "logo": "None", "latitude": 49.968110517312255, "longitude": -125.2264122187085}, "865993745RR0001": {"name": "Victory Outreach Church", "designationCode": "C", "categoryCode": "39", "address": "PO BOX 42017                  RPO CHAMPLAIN MALL", "city": "VANCOUVER", "province": "BC", "country": "CA", "postalCode": "V5S4R5", "twitter": "None", "instagram": "None", "facebook": "None", "youtube": "None", "website": "None", "summary": "None", "logo": "None", "latitude": 49.2149931308859, "longitude": -123.03009685514765}, "872241559RR0001": {"name": "Victory Outreach Ministries Society", "designationCode": "B", "categoryCode": "49", "address": "PO BOX 65077 RPO NORTH HILL", "city": "CALGARY", "province": "AB", "country": "CA", "postalCode": "T2N4T6", "twitter": "None", "instagram": "None", "facebook": "None", "youtube": "None", "website": "None", "summary": "None", "logo": "None", "latitude": 51.065150000000074, "longitude": -114.10340999999994}, "826771693RR0001": {"name": "Victory Pentecostal Ministry Church of Toronto International", "designationCode": "C", "categoryCode": "39", "address": "6 - 75 DEERHIDE CRES", "city": "NORTH YORK", "province": "ON", "country": "CA", "postalCode": "M9M2Z2", "twitter": "None", "instagram": "None", "facebook": "None", "youtube": "None", "website": "None", "summary": "None", "logo": "None", "latitude": 43.74728685980174, "longitude": -79.53192653384511}, "820325934RR0001": {"name": "Victory Tabernacle Centre of Calgary", "designationCode": "C", "categoryCode": "39", "address": "PO BOX 53086                  RPO MARLBOROUGH CRO", "city": "CALGARY", "province": "AB", "country": "CA", "postalCode": "T2A7L9", "twitter": "None", "instagram": "None", "facebook": "None", "youtube": "None", "website": "None", "summary": "None", "logo": "None", "latitude": 51.059556000000015, "longitude": -113.96975741544264}, "737026898RR0001": {"name": "Victory Tabernacle Centre of Lethbridge", "designationCode": "C", "categoryCode": "39", "address": "PO BOX 24 STN MAIN", "city": "LETHBRIDGE", "province": "AB", "country": "CA", "postalCode": "T1J3Y3", "twitter": "None", "instagram": "None", "facebook": "None", "youtube": "None", "website": "None", "summary": "None", "logo": "None", "latitude": 49.69383000000006, "longitude": -112.83373249999994}, "872766514RR0001": {"name": "Victory World Impact Ministries", "designationCode": "C", "categoryCode": "39", "address": "3718 KINGSTON ROAD", "city": "TORONTO", "province": "ON", "country": "CA", "postalCode": "M1J3H3", "twitter": "None", "instagram": "None", "facebook": "None", "youtube": "None", "website": "None", "summary": "None", "logo": "None", "latitude": 43.74577482295554, "longitude": -79.20972618685397}, "130970288RR0001": {"name": "Vid\u00e9o La Bergerie", "designationCode": "C", "categoryCode": "47", "address": "7697, CH. CHAMBLY", "city": "SAINT-HUBERT", "province": "QC", "country": "CA", "postalCode": "J3Y5K2", "twitter": "None", "instagram": "None", "facebook": "None", "youtube": "None", "website": "None", "summary": "None", "logo": "None", "latitude": 45.48910087342041, "longitude": -73.38649535472317}, "774657928RR0001": {"name": "Vidya School Foundation", "designationCode": "C", "categoryCode": "21", "address": "314 14TH ST E", "city": "NORTH VANCOUVER", "province": "BC", "country": "CA", "postalCode": "V7L2N6", "twitter": "None", "instagram": "None", "facebook": "None", "youtube": "None", "website": "None", "summary": "None", "logo": "None", "latitude": 49.32099181082481, "longitude": -123.065444798544}, "806461497RR0001": {"name": "Vie Autonome Mont\u00e9r\u00e9gie", "designationCode": "C", "categoryCode": "09", "address": "1 - 245 6E AV", "city": "SAINT-JEAN-SUR-RICHELIEU", "province": "QC", "country": "CA", "postalCode": "J2X0C6", "twitter": "None", "instagram": "None", "facebook": "None", "youtube": "None", "website": "None", "summary": "None", "logo": "None", "latitude": 45.30900265230252, "longitude": -73.23345380683801}, "867510141RR0001": {"name": "Vie Autonome P\u00e9ninsule Acadienne Inc.", "designationCode": "C", "categoryCode": "09", "address": "200C BOUL J.D. GAUTHIER", "city": "SHIPPAGAN", "province": "NB", "country": "CA", "postalCode": "E8S1P2", "twitter": "None", "instagram": "None", "facebook": "None", "youtube": "None", "website": "None", "summary": "None", "logo": "None", "latitude": 47.74452000000005, "longitude": -64.71716299999993}, "130565963RR0022": {"name": "Vietnamese Alliance Church", "designationCode": "C", "categoryCode": "39", "address": "4722 FRASER STREET", "city": "VANCOUVER", "province": "BC", "country": "CA", "postalCode": "V5V4H3", "twitter": "None", "instagram": "None", "facebook": "None", "youtube": "None", "website": "None", "summary": "None", "logo": "None", "latitude": 49.242274575076465, "longitude": -123.09028096554931}, "802930172RR0001": {"name": "Vietnamese Baptist Church Mississauga", "designationCode": "C", "categoryCode": "31", "address": "326-1550 SOUTH GATEWAY RD", "city": "MISSISSAUGA", "province": "ON", "country": "CA", "postalCode": "L4W5G6", "twitter": "None", "instagram": "None", "facebook": "None", "youtube": "None", "website": "None", "summary": "None", "logo": "None", "latitude": 43.63284986868856, "longitude": -79.61436997371497}, "820559268RR0001": {"name": "Vietnamese Buddhist Association of Ontario", "designationCode": "C", "categoryCode": "35", "address": "616 TRETHEWEY DR", "city": "TORONTO", "province": "ON", "country": "CA", "postalCode": "M6M4C3", "twitter": "None", "instagram": "None", "facebook": "None", "youtube": "None", "website": "None", "summary": "None", "logo": "None", "latitude": 43.69698042772217, "longitude": -79.49432791173756}, "812168615RR0001": {"name": "Vietnamese Community Church (In Calgary)", "designationCode": "C", "categoryCode": "39", "address": "BOX 57069                     2525 36 ST NE", "city": "CALGARY", "province": "AB", "country": "CA", "postalCode": "T1Y6R4", "twitter": "None", "instagram": "None", "facebook": "None", "youtube": "None", "website": "None", "summary": "None", "logo": "None", "latitude": 51.073650000000015, "longitude": -113.98200718471918}, "119288918RR1365": {"name": "Vietnamese Congregation of Jehovah's Witnesses, Calgary, Alberta", "designationCode": "C", "categoryCode": "61", "address": "4904 26 AVENUE NE", "city": "CALGARY", "province": "AB", "country": "CA", "postalCode": "T2X3M6", "twitter": "None", "instagram": "None", "facebook": "None", "youtube": "None", "website": "None", "summary": "None", "logo": "None", "latitude": 51.07683416515657, "longitude": -113.96430515569284}, "819992934RR0001": {"name": "Vietnamese Crosspointe Fellowship", "designationCode": "C", "categoryCode": "39", "address": "7655 26 AVE SW", "city": "CALGARY", "province": "AB", "country": "CA", "postalCode": "T3H3X1", "twitter": "None", "instagram": "None", "facebook": "None", "youtube": "None", "website": "None", "summary": "None", "logo": "None", "latitude": 51.03050948124544, "longitude": -114.196671}, "894945633RR0037": {"name": "Vietnamese Grace Alliance Church of the C & MA in Canada", "designationCode": "C", "categoryCode": "39", "address": "73 SHENDALE DRIVE", "city": "ETOBICOKE", "province": "ON", "country": "CA", "postalCode": "M9W2B6", "twitter": "None", "instagram": "None", "facebook": "None", "youtube": "None", "website": "None", "summary": "None", "logo": "None", "latitude": 43.72050847403209, "longitude": -79.55411302553523}, "107910259RR0209": {"name": "Vietnamese Martyrs Parish", "designationCode": "C", "categoryCode": "38", "address": "161 ANNETTE ST.               ST CECILIA'S CHURCH", "city": "TORONTO", "province": "ON", "country": "CA", "postalCode": "M6P1P5", "twitter": "None", "instagram": "None", "facebook": "None", "youtube": "None", "website": "None", "summary": "None", "logo": "None", "latitude": 43.66331683816166, "longitude": -79.46708582915929}, "828781369RR0001": {"name": "Vietnamese Mennonite Church", "designationCode": "C", "categoryCode": "39", "address": "7155 SHERBROOKE ST.", "city": "VANCOUVER", "province": "BC", "country": "CA", "postalCode": "V5X4E3", "twitter": "None", "instagram": "None", "facebook": "None", "youtube": "None", "website": "None", "summary": "None", "logo": "None", "latitude": 49.219227754371275, "longitude": -123.08159405277253}, "843984642RR0001": {"name": "Vietnamese Resurrection Church", "designationCode": "C", "categoryCode": "39", "address": "1878 WILSON AVE", "city": "NORTH YORK", "province": "ON", "country": "CA", "postalCode": "M9M1A5", "twitter": "None", "instagram": "None", "facebook": "None", "youtube": "None", "website": "None", "summary": "None", "logo": "None", "latitude": 43.717273165156556, "longitude": -79.52522806440064}, "896572104RR0001": {"name": "Vietnamese Sick Children Assistance Society", "designationCode": "C", "categoryCode": "09", "address": "911 - 509 BEECROFT RD", "city": "NORTH YORK", "province": "ON", "country": "CA", "postalCode": "M2N0A3", "twitter": "None", "instagram": "None", "facebook": "None", "youtube": "None", "website": "None", "summary": "None", "logo": "None", "latitude": 43.77857056287145, "longitude": -79.4182201996655}, "140582974RR0001": {"name": "Vieux presbyt\u00e8re de Batiscan", "designationCode": "C", "categoryCode": "52", "address": "340 RUE PRINCIPALE", "city": "BATISCAN", "province": "QC", "country": "CA", "postalCode": "G0X1A0", "twitter": "None", "instagram": "None", "facebook": "None", "youtube": "None", "website": "None", "summary": "None", "logo": "None", "latitude": 46.482391529834395, "longitude": -72.26005379058232}, "760622928RR0001": {"name": "Vigil'Ange", "designationCode": "C", "categoryCode": "09", "address": "100 BOUL DES HAUTEURS", "city": "SAINT-JEROME", "province": "QC", "country": "CA", "postalCode": "J7Y1R5", "twitter": "None", "instagram": "None", "facebook": "None", "youtube": "None", "website": "None", "summary": "None", "logo": "None", "latitude": 45.81293650429917, "longitude": -74.01456699128609}, "119285922RR0001": {"name": "Viking United Church", "designationCode": "C", "categoryCode": "44", "address": "BOX 778", "city": "VIKING", "province": "AB", "country": "CA", "postalCode": "T0B4N0", "twitter": "None", "instagram": "None", "facebook": "None", "youtube": "None", "website": "None", "summary": "None", "logo": "None", "latitude": 53.10014000000007, "longitude": -111.76843999999994}, "821778362RR0001": {"name": "Vikings Playland Foundation", "designationCode": "C", "categoryCode": "21", "address": "PO BOX 314", "city": "MUSGRAVE HARBOUR", "province": "NL", "country": "CA", "postalCode": "A0G3J0", "twitter": "None", "instagram": "None", "facebook": "None", "youtube": "None", "website": "None", "summary": "None", "logo": "None", "latitude": 49.44767000000007, "longitude": -53.96426999999994}, "108174871RR0001": {"name": "Villa des-jardins Inc.", "designationCode": "C", "categoryCode": "09", "address": "50 RUE QUEEN", "city": "EDMUNDSTON", "province": "NB", "country": "CA", "postalCode": "E3V3N4", "twitter": "None", "instagram": "None", "facebook": "None", "youtube": "None", "website": "None", "summary": "None", "logo": "None", "latitude": 47.362624449155014, "longitude": -68.3203933828721}, "887589208RR0001": {"name": "Villa Acadienne Charitable Foundation", "designationCode": "C", "categoryCode": "09", "address": "P.O. BOX 248", "city": "METEGHAN", "province": "NS", "country": "CA", "postalCode": "B0W2J0", "twitter": "None", "instagram": "None", "facebook": "None", "youtube": "None", "website": "None", "summary": "None", "logo": "None", "latitude": 44.16554193781324, "longitude": -66.14924273516925}, "801732066RR0001": {"name": "Villa Carital Foundation", "designationCode": "A", "categoryCode": "03", "address": "3050 PENTICTON ST", "city": "VANCOUVER", "province": "BC", "country": "CA", "postalCode": "V5M4W2", "twitter": "None", "instagram": "None", "facebook": "None", "youtube": "None", "website": "None", "summary": "None", "logo": "None", "latitude": 49.25654941326678, "longitude": -123.05288889168494}, "818328577RR0001": {"name": "Villa Dub\u00e9 inc.", "designationCode": "C", "categoryCode": "09", "address": "20, RUE DE LA VILLA", "city": "SAINT-JEAN-DE-DIEU", "province": "QC", "country": "CA", "postalCode": "G0L3M0", "twitter": "None", "instagram": "None", "facebook": "None", "youtube": "None", "website": "None", "summary": "None", "logo": "None", "latitude": 48.00633641329544, "longitude": -69.0418784039473}, "822163366RR0001": {"name": "Villa James Shaw", "designationCode": "C", "categoryCode": "09", "address": "470C 5E CONC", "city": "SHAWVILLE", "province": "QC", "country": "CA", "postalCode": "J0X2Y0", "twitter": "None", "instagram": "None", "facebook": "None", "youtube": "None", "website": "None", "summary": "None", "logo": "None", "latitude": 45.60212400000006, "longitude": -76.48501849999994}, "108181389RR0001": {"name": "Villa Maria Inc.", "designationCode": "C", "categoryCode": "10", "address": "45 RUE VUE DE LA RIVIERE", "city": "SAINT-LOUIS-DE-KENT", "province": "NB", "country": "CA", "postalCode": "E4X0C6", "twitter": "None", "instagram": "None", "facebook": "None", "youtube": "None", "website": "None", "summary": "None", "logo": "None", "latitude": 46.74474199466728, "longitude": -64.98201710610516}, "843172396RR0001": {"name": "Villa Pierrot", "designationCode": "C", "categoryCode": "09", "address": "432 MERRY NORD", "city": "MAGOG", "province": "QC", "country": "CA", "postalCode": "J1X2G5", "twitter": "None", "instagram": "None", "facebook": "None", "youtube": "None", "website": "None", "summary": "None", "logo": "None", "latitude": 45.272200274770626, "longitude": -72.15473278905311}, "108181629RR0001": {"name": "Villa Saint-Martin", "designationCode": "C", "categoryCode": "49", "address": "9451 BOUL GOUIN O", "city": "PIERREFONDS", "province": "QC", "country": "CA", "postalCode": "H8Y1T2", "twitter": "None", "instagram": "None", "facebook": "None", "youtube": "None", "website": "None", "summary": "None", "logo": "None", "latitude": 45.507445446187326, "longitude": -73.76636126132297}, "843603101RR0001": {"name": "Villa Saint-Maurice", "designationCode": "C", "categoryCode": "09", "address": "17 RUE NOTRE-DAME O           BUREAU 100", "city": "THETFORD MINES", "province": "QC", "country": "CA", "postalCode": "G6G1J1", "twitter": "None", "instagram": "None", "facebook": "None", "youtube": "None", "website": "None", "summary": "None", "logo": "None", "latitude": 46.09118423232719, "longitude": -71.30026916908037}, "823928080RR0001": {"name": "Villa St-Louis-de-France", "designationCode": "C", "categoryCode": "09", "address": "448, CHEMIN DE VAL-DU-LAC", "city": "VAL-DES-MONTS", "province": "QC", "country": "CA", "postalCode": "J8N2N6", "twitter": "None", "instagram": "None", "facebook": "None", "youtube": "None", "website": "None", "summary": "None", "logo": "None", "latitude": 45.716382181199414, "longitude": -75.68501048035047}, "108181827RR0001": {"name": "Villa Youville Incorporated", "designationCode": "C", "categoryCode": "01", "address": "15 CHEMIN CHARRIERE", "city": "ST ANNE", "province": "MB", "country": "CA", "postalCode": "R5H1C9", "twitter": "None", "instagram": "None", "facebook": "None", "youtube": "None", "website": "None", "summary": "None", "logo": "None", "latitude": 49.664898376999744, "longitude": -96.64090910540266}, "857209159RR0001": {"name": "Village d'Antan Franco-Ontarien", "designationCode": "C", "categoryCode": "52", "address": "C.P. 166", "city": "ST-ALBERT", "province": "ON", "country": "CA", "postalCode": "K0A3C0", "twitter": "None", "instagram": "None", "facebook": "None", "youtube": "None", "website": "None", "summary": "None", "logo": "None", "latitude": 45.27287568875517, "longitude": -75.0633553344039}, "852053404RR0001": {"name": "Village des a\u00een\u00e9s de la vall\u00e9e de la Gatineau / Gatineau Valley Retirement Village", "designationCode": "C", "categoryCode": "09", "address": "PO BOX 209", "city": "KAZABAZUA", "province": "QC", "country": "CA", "postalCode": "J0X1X0", "twitter": "None", "instagram": "None", "facebook": "None", "youtube": "None", "website": "None", "summary": "None", "logo": "None", "latitude": 45.94918000000007, "longitude": -76.01676999999995}, "824461925RR0001": {"name": "Village des sources du Lac Sunday", "designationCode": "C", "categoryCode": "09", "address": "150-4050, RUE LESAGE", "city": "SHERBROOKE", "province": "QC", "country": "CA", "postalCode": "J1L0B6", "twitter": "None", "instagram": "None", "facebook": "None", "youtube": "None", "website": "None", "summary": "None", "logo": "None", "latitude": 45.39505184898169, "longitude": -71.96106688585655}, "822483210RR0001": {"name": "Village des Sources Eaux \u00celes", "designationCode": "C", "categoryCode": "09", "address": "423 CHEMIN DE LA DUNE DU SUD", "city": "HAVRE-AUX-MAISONS", "province": "QC", "country": "CA", "postalCode": "G4T5G3", "twitter": "None", "instagram": "None", "facebook": "None", "youtube": "None", "website": "None", "summary": "None", "logo": "None", "latitude": 47.42223221426511, "longitude": -61.756714018494755}, "142542877RR0001": {"name": "Village en Chanson de Petite-Vall\u00e9e", "designationCode": "C", "categoryCode": "22", "address": "41, RUE PRINCIPALE", "city": "PETITE-VALLEE", "province": "QC", "country": "CA", "postalCode": "G0E1Y0", "twitter": "None", "instagram": "None", "facebook": "None", "youtube": "None", "website": "None", "summary": "None", "logo": "None", "latitude": 49.21841296476991, "longitude": -65.03473607325878}, "832107551RR0001": {"name": "Village of Hope Inc.", "designationCode": "C", "categoryCode": "57", "address": "1100 BACK TRACY ROAD", "city": "UPPER TRACY", "province": "NB", "country": "CA", "postalCode": "E5L1H7", "twitter": "None", "instagram": "None", "facebook": "None", "youtube": "None", "website": "None", "summary": "None", "logo": "None", "latitude": 45.67272696926223, "longitude": -66.74864177754134}, "806421681RR0001": {"name": "Village Church BC Society", "designationCode": "C", "categoryCode": "39", "address": "200 - 14928 56 AVE", "city": "SURREY", "province": "BC", "country": "CA", "postalCode": "V3S2N5", "twitter": "None", "instagram": "None", "facebook": "None", "youtube": "None", "website": "None", "summary": "None", "logo": "None", "latitude": 49.10439749956733, "longitude": -122.8089636931733}, "842562704RR0001": {"name": "Village Eulogia for Families with Special Needs", "designationCode": "C", "categoryCode": "11", "address": "PO BOX 67114                  RPO YONGE EGLINTON", "city": "TORONTO", "province": "ON", "country": "CA", "postalCode": "M4P3C8", "twitter": "None", "instagram": "None", "facebook": "None", "youtube": "None", "website": "None", "summary": "None", "logo": "None", "latitude": 43.70572000000004, "longitude": -79.40321999999998}, "809981095RR0001": {"name": "Village Schools International of Canada", "designationCode": "C", "categoryCode": "21", "address": "223 HARTWOOD AVENUE", "city": "WATERLOO", "province": "ON", "country": "CA", "postalCode": "N2J1B2", "twitter": "None", "instagram": "None", "facebook": "None", "youtube": "None", "website": "None", "summary": "None", "logo": "None", "latitude": 43.46422033718071, "longitude": -80.50126131929153}, "891158685RR0001": {"name": "Village Theatre West Inc. / Theatre de Village Ouest Inc.", "designationCode": "C", "categoryCode": "22", "address": "P.O. BOX 531", "city": "HUDSON", "province": "QC", "country": "CA", "postalCode": "J0P1H0", "twitter": "None", "instagram": "None", "facebook": "None", "youtube": "None", "website": "None", "summary": "None", "logo": "None", "latitude": 45.459190000000035, "longitude": -74.14298999999994}, "849503073RR0001": {"name": "Villages of Hope: Africa Society", "designationCode": "C", "categoryCode": "09", "address": "2450 MILLTOWER COURT", "city": "MISSISSAUGA", "province": "ON", "country": "CA", "postalCode": "L5N5Z6", "twitter": "None", "instagram": "None", "facebook": "None", "youtube": "None", "website": "None", "summary": "None", "logo": "None", "latitude": 43.59753944771745, "longitude": -79.75686307989524}, "819712266RR0001": {"name": "Villages Mwana / Mwana Villages", "designationCode": "C", "categoryCode": "09", "address": "110 RUE MEANEY", "city": "KIRKLAND", "province": "QC", "country": "CA", "postalCode": "H9J3E3", "twitter": "None", "instagram": "None", "facebook": "None", "youtube": "None", "website": "None", "summary": "None", "logo": "None", "latitude": 45.44062360338164, "longitude": -73.896494702637}, "107448318RR0001": {"name": "Villages United Pastoral Charge", "designationCode": "C", "categoryCode": "44", "address": "5558 LINE 4                   RR 6", "city": "ST MARYS", "province": "ON", "country": "CA", "postalCode": "N4X1C8", "twitter": "None", "instagram": "None", "facebook": "None", "youtube": "None", "website": "None", "summary": "None", "logo": "None", "latitude": 43.257273000000055, "longitude": -81.15301249999993}, "796221299RR0001": {"name": "Villanella Chamber Ensemble", "designationCode": "C", "categoryCode": "22", "address": "22 HOLMES AVE", "city": "HAMILTON", "province": "ON", "country": "CA", "postalCode": "L8S2K6", "twitter": "None", "instagram": "None", "facebook": "None", "youtube": "None", "website": "None", "summary": "None", "logo": "None", "latitude": 43.25316715794319, "longitude": -79.92251496113458}, "836219378RR0001": {"name": "Vinegar Family Foundation", "designationCode": "B", "categoryCode": "03", "address": "320 - 5160 BOUL DECARIE", "city": "MONTREAL", "province": "QC", "country": "CA", "postalCode": "H3X2H9", "twitter": "None", "instagram": "None", "facebook": "None", "youtube": "None", "website": "None", "summary": "None", "logo": "None", "latitude": 45.484062654711884, "longitude": -73.63063284889479}, "898678479RR0001": {"name": "Vineyard Canada", "designationCode": "C", "categoryCode": "39", "address": "P.O. BOX 333", "city": "ST STEPHEN", "province": "NB", "country": "CA", "postalCode": "E3L2X2", "twitter": "None", "instagram": "None", "facebook": "None", "youtube": "None", "website": "None", "summary": "None", "logo": "None", "latitude": 45.19456800000006, "longitude": -67.27532299999993}}