{"802742270RR0001": {"name": "Th\u00e9\u00e2tre Aux \u00c9curies", "designationCode": "C", "categoryCode": "22", "address": "7285 CHABOT", "city": "MONTREAL", "province": "QC", "country": "CA", "postalCode": "H2E2K7", "twitter": "None", "instagram": "None", "facebook": "None", "youtube": "None", "website": "None", "summary": "None", "logo": "None", "latitude": 45.54995223925208, "longitude": -73.60782011933757}, "801762105RR0001": {"name": "Th\u00e9\u00e2tre Bistouri", "designationCode": "C", "categoryCode": "22", "address": "8459, RUE SAINT-HUBERT", "city": "MONTREAL", "province": "QC", "country": "CA", "postalCode": "H2P1Z6", "twitter": "None", "instagram": "None", "facebook": "None", "youtube": "None", "website": "None", "summary": "None", "logo": "None", "latitude": 45.548221902590974, "longitude": -73.63189324909116}, "822051579RR0001": {"name": "Th\u00e9\u00e2tre Connexion", "designationCode": "C", "categoryCode": "22", "address": "167 RUE SAINT-PAUL", "city": "JOLIETTE", "province": "QC", "country": "CA", "postalCode": "J6E5G2", "twitter": "None", "instagram": "None", "facebook": "None", "youtube": "None", "website": "None", "summary": "None", "logo": "None", "latitude": 46.02315787593058, "longitude": -73.43788906440064}, "119012961RR0001": {"name": "Th\u00e9\u00e2tre D\u00e9rives Urbaines", "designationCode": "C", "categoryCode": "22", "address": "432B BOUL ALEXANDRE-TACHE", "city": "GATINEAU", "province": "QC", "country": "CA", "postalCode": "J9A1M7", "twitter": "None", "instagram": "None", "facebook": "None", "youtube": "None", "website": "None", "summary": "None", "logo": "None", "latitude": 45.4212589623611, "longitude": -75.74826450510504}, "854965258RR0001": {"name": "Th\u00e9\u00e2tre Exaltemps", "designationCode": "C", "categoryCode": "22", "address": "297, RUE FRANCOIS-SEGUIN", "city": "BOUCHERVILLE", "province": "QC", "country": "CA", "postalCode": "J4B1L6", "twitter": "None", "instagram": "None", "facebook": "None", "youtube": "None", "website": "None", "summary": "None", "logo": "None", "latitude": 45.59252167415895, "longitude": -73.45013929436189}, "144833779RR0001": {"name": "Th\u00e9\u00e2tre I.N.K./ I.N.K. Theatre", "designationCode": "C", "categoryCode": "22", "address": "7285 RUE CHABOT", "city": "MONTR\u00c9AL", "province": "QC", "country": "CA", "postalCode": "H2E2K7", "twitter": "None", "instagram": "None", "facebook": "None", "youtube": "None", "website": "None", "summary": "None", "logo": "None", "latitude": 45.54995223925208, "longitude": -73.60782011933757}, "831874839RR0001": {"name": "Th\u00e9\u00e2tre Musical du Haut-Richelieu", "designationCode": "C", "categoryCode": "22", "address": "3868 RUE O'REILLY", "city": "CARIGNAN", "province": "QC", "country": "CA", "postalCode": "J3L4A7", "twitter": "None", "instagram": "None", "facebook": "None", "youtube": "None", "website": "None", "summary": "None", "logo": "None", "latitude": 45.40938875160133, "longitude": -73.25389609215758}, "853020352RR0001": {"name": "Th\u00e9\u00e2tre Parce Que", "designationCode": "C", "categoryCode": "22", "address": "1202 DU SIEUR D'ARGENTEUIL", "city": "QU\u00c9BEC", "province": "QC", "country": "CA", "postalCode": "G1W3R9", "twitter": "None", "instagram": "None", "facebook": "None", "youtube": "None", "website": "None", "summary": "None", "logo": "None", "latitude": 46.765441038288515, "longitude": -71.2884110742684}, "891603862RR0001": {"name": "Th\u00e9\u00e2tre Q Art - Q Art Theatre", "designationCode": "C", "categoryCode": "22", "address": "4 RUE PHELPS", "city": "STANSTEAD", "province": "QC", "country": "CA", "postalCode": "J0B3E2", "twitter": "None", "instagram": "None", "facebook": "None", "youtube": "None", "website": "None", "summary": "None", "logo": "None", "latitude": 45.00668643161732, "longitude": -72.09735908228981}, "801959826RR0001": {"name": "Th\u00e9\u00e2tre Talisman / Talisman Theatre", "designationCode": "C", "categoryCode": "22", "address": "8-1456 AV OVERDALE", "city": "MONTR\u00c9AL", "province": "QC", "country": "CA", "postalCode": "H3G1V3", "twitter": "None", "instagram": "None", "facebook": "None", "youtube": "None", "website": "None", "summary": "None", "logo": "None", "latitude": 45.494170146257794, "longitude": -73.57298159712057}, "128115854RR0001": {"name": "Th\u00e9atre de la Ligue Nationale d'Improvisation Inc.", "designationCode": "C", "categoryCode": "22", "address": "C.P. 1077                     SUCCURSALE C", "city": "MONTREAL", "province": "QC", "country": "CA", "postalCode": "H2L4V3", "twitter": "None", "instagram": "None", "facebook": "None", "youtube": "None", "website": "None", "summary": "None", "logo": "None", "latitude": 45.51239400000006, "longitude": -73.55469049999994}, "847849312RR0001": {"name": "Thai Christian Church of Canada", "designationCode": "C", "categoryCode": "39", "address": "650 MCNICOLL AVENUE", "city": "TORONTO", "province": "ON", "country": "CA", "postalCode": "M2H2E1", "twitter": "None", "instagram": "None", "facebook": "None", "youtube": "None", "website": "None", "summary": "None", "logo": "None", "latitude": 43.80388545383431, "longitude": -79.338231}, "888123593RR0001": {"name": "Thames Road - Elimville Pastoral Charge", "designationCode": "C", "categoryCode": "44", "address": "PO BOX 3", "city": "EXETER", "province": "ON", "country": "CA", "postalCode": "N0M1S6", "twitter": "None", "instagram": "None", "facebook": "None", "youtube": "None", "website": "None", "summary": "None", "logo": "None", "latitude": 36.29779000000008, "longitude": -119.13605999999999}, "814258653RR0001": {"name": "Thamesview Family Health Team", "designationCode": "C", "categoryCode": "11", "address": "465 GRAND AVENUE WEST", "city": "CHATHAM", "province": "ON", "country": "CA", "postalCode": "N7L1C5", "twitter": "None", "instagram": "None", "facebook": "None", "youtube": "None", "website": "None", "summary": "None", "logo": "None", "latitude": 42.40085833201522, "longitude": -82.20578284323929}, "816538581RR0001": {"name": "Thank Dog I am out Dog Rescue Society", "designationCode": "C", "categoryCode": "54", "address": "2606 POINT GREY RD", "city": "VANCOUVER", "province": "BC", "country": "CA", "postalCode": "V6K1A5", "twitter": "None", "instagram": "None", "facebook": "None", "youtube": "None", "website": "None", "summary": "None", "logo": "None", "latitude": 49.272688688845456, "longitude": -123.1647992396561}, "814386207RR0001": {"name": "Thank God It's Friday Ministry On The Go Missionary Church", "designationCode": "C", "categoryCode": "47", "address": "1204 - 30 GODSTONE ROAD", "city": "NORTH YORK", "province": "ON", "country": "CA", "postalCode": "M2J3C6", "twitter": "None", "instagram": "None", "facebook": "None", "youtube": "None", "website": "None", "summary": "None", "logo": "None", "latitude": 43.78162894113927, "longitude": -79.34672811662493}, "841616733RR0001": {"name": "The \"G\" Foundation", "designationCode": "B", "categoryCode": "03", "address": "2301, KILBRIDE STREET", "city": "BURLINGTON", "province": "ON", "country": "CA", "postalCode": "L7P0H7", "twitter": "None", "instagram": "None", "facebook": "None", "youtube": "None", "website": "None", "summary": "None", "logo": "None", "latitude": 43.42987042218223, "longitude": -79.9320037519471}, "841586589RR0001": {"name": "The auxiliary Mount Sinai Hospital-Montreal / L'auxiliaire de l'h\u00f4pital Mont-Sina\u00ef-Montr\u00e9al", "designationCode": "C", "categoryCode": "19", "address": "5690 CAVENDISH BLVD", "city": "COTE ST LUC", "province": "QC", "country": "CA", "postalCode": "H4W1S7", "twitter": "None", "instagram": "None", "facebook": "None", "youtube": "None", "website": "None", "summary": "None", "logo": "None", "latitude": 45.474192484563666, "longitude": -73.65769088926076}, "844558486RR0001": {"name": "The inSPIRE Network of Churches", "designationCode": "C", "categoryCode": "39", "address": "436 - 160 KANANASKIS WAY", "city": "CANMORE", "province": "AB", "country": "CA", "postalCode": "T1W3E2", "twitter": "None", "instagram": "None", "facebook": "None", "youtube": "None", "website": "None", "summary": "None", "logo": "None", "latitude": 51.08550055787978, "longitude": -115.34189247913932}, "132410671RR0490": {"name": "The society of Saint-Vincent de Paul - St. Timothy'S Conference in Orangeville, ON", "designationCode": "C", "categoryCode": "09", "address": "42 DAWSON DRIVE", "city": "ORANGEVILLE", "province": "ON", "country": "CA", "postalCode": "L9W2W3", "twitter": "None", "instagram": "None", "facebook": "None", "youtube": "None", "website": "None", "summary": "None", "logo": "None", "latitude": 43.913014877490205, "longitude": -80.10247764234978}, "108099474RR0001": {"name": "The stroke Recovery Association of Manitoba Inc.", "designationCode": "C", "categoryCode": "11", "address": "UNIT B 247 PROVENCHER BLVD", "city": "WINNIPEG", "province": "MB", "country": "CA", "postalCode": "R2H0G6", "twitter": "None", "instagram": "None", "facebook": "None", "youtube": "None", "website": "None", "summary": "None", "logo": "None", "latitude": 49.89307413962134, "longitude": -97.11895073495289}, "809659956RR0001": {"name": "The A&A Foundation", "designationCode": "B", "categoryCode": "03", "address": "1501 AVENUE MCGILL COLLEGE    26 FLOOR", "city": "MONTREAL", "province": "QC", "country": "CA", "postalCode": "H3A3N9", "twitter": "None", "instagram": "None", "facebook": "None", "youtube": "None", "website": "None", "summary": "None", "logo": "None", "latitude": 45.50241910883465, "longitude": -73.57189910473797}, "852609718RR0001": {"name": "The Ability Community Connection", "designationCode": "C", "categoryCode": "56", "address": "129 ALMORE AVENUE", "city": "TORONTO", "province": "ON", "country": "CA", "postalCode": "M3H2H7", "twitter": "None", "instagram": "None", "facebook": "None", "youtube": "None", "website": "None", "summary": "None", "logo": "None", "latitude": 43.74630484205681, "longitude": -79.44622417984309}, "818236150RR0001": {"name": "The Able Network Corporation", "designationCode": "C", "categoryCode": "59", "address": "44 METCALFE STREET", "city": "AURORA", "province": "ON", "country": "CA", "postalCode": "L4G1E6", "twitter": "None", "instagram": "None", "facebook": "None", "youtube": "None", "website": "None", "summary": "None", "logo": "None", "latitude": 43.99718616573349, "longitude": -79.46374729851682}, "813955499RR0001": {"name": "The Aboriginal Education Sui Generis Fund", "designationCode": "C", "categoryCode": "21", "address": "47 HIGHCASTLE CRES", "city": "WINNIPEG", "province": "MB", "country": "CA", "postalCode": "R2N3V7", "twitter": "None", "instagram": "None", "facebook": "None", "youtube": "None", "website": "None", "summary": "None", "logo": "None", "latitude": 49.807082910381254, "longitude": -97.08506981989711}, "806228425RR0001": {"name": "The Abruzzo Earthquake Relief Fund", "designationCode": "C", "categoryCode": "02", "address": "901 LAWRENCE AVENUE WEST", "city": "TORONTO", "province": "ON", "country": "CA", "postalCode": "M6A1C3", "twitter": "None", "instagram": "None", "facebook": "None", "youtube": "None", "website": "None", "summary": "None", "logo": "None", "latitude": 43.713601768192426, "longitude": -79.45694700011556}, "119211217RR0001": {"name": "The Adams Family Foundation/La Fondation de la famille Adams", "designationCode": "B", "categoryCode": "03", "address": "4141 SHERBROOKE STREET WEST   SUITE 400", "city": "WESTMOUNT", "province": "QC", "country": "CA", "postalCode": "H3Z1B8", "twitter": "None", "instagram": "None", "facebook": "None", "youtube": "None", "website": "None", "summary": "None", "logo": "None", "latitude": 45.48821831530948, "longitude": -73.59152922595052}, "841489826RR0001": {"name": "The Admiral Desmond Piers Scholarship Trust", "designationCode": "C", "categoryCode": "25", "address": "450 LAHAVE STREET UNIT 17     SUITE 121", "city": "BRIDGEWATER", "province": "NS", "country": "CA", "postalCode": "B4V4A3", "twitter": "None", "instagram": "None", "facebook": "None", "youtube": "None", "website": "None", "summary": "None", "logo": "None", "latitude": 44.37902536555668, "longitude": -64.51566585769098}, "133282780RR0001": {"name": "The Adventure Group Inc.", "designationCode": "C", "categoryCode": "09", "address": "400 ST PETERS ROAD", "city": "CHARLOTTETOWN", "province": "PE", "country": "CA", "postalCode": "C1C1L2", "twitter": "None", "instagram": "None", "facebook": "None", "youtube": "None", "website": "None", "summary": "None", "logo": "None", "latitude": 46.2765910238618, "longitude": -63.10407256451622}, "848687091RR0001": {"name": "The Advocates' Society Foundation", "designationCode": "C", "categoryCode": "21", "address": "2700 - 250 YONGE ST", "city": "TORONTO", "province": "ON", "country": "CA", "postalCode": "M5B2L7", "twitter": "None", "instagram": "None", "facebook": "None", "youtube": "None", "website": "None", "summary": "None", "logo": "None", "latitude": 43.65772586166505, "longitude": -79.38152114478326}, "130387665RR0083": {"name": "The Aeronca Aircraft Project Committee - Air Cadet League of Canada OPC", "designationCode": "C", "categoryCode": "29", "address": "147 PINE VALLEY DR", "city": "LONDON", "province": "ON", "country": "CA", "postalCode": "N6J4M2", "twitter": "None", "instagram": "None", "facebook": "None", "youtube": "None", "website": "None", "summary": "None", "logo": "None", "latitude": 42.941421482918884, "longitude": -81.27940258869512}, "827813601RR0001": {"name": "The African Institute for Mathematical Sciences - Next Einstein Initiative Foundation (Canada)", "designationCode": "C", "categoryCode": "21", "address": "10066-4711 YOUNG STREET       10TH FLOOR", "city": "NORTH YORK", "province": "ON", "country": "CA", "postalCode": "M2N5M4", "twitter": "None", "instagram": "None", "facebook": "None", "youtube": "None", "website": "None", "summary": "None", "logo": "None", "latitude": 43.759485, "longitude": -79.41042225}, "830306742RR0001": {"name": "The African Touch Education Fund Society", "designationCode": "C", "categoryCode": "20", "address": "4605 TREPANIER RD", "city": "PEACHLAND", "province": "BC", "country": "CA", "postalCode": "V0H1X3", "twitter": "None", "instagram": "None", "facebook": "None", "youtube": "None", "website": "None", "summary": "None", "logo": "None", "latitude": 49.81616066307911, "longitude": -119.7518497530732}, "821197514RR0001": {"name": "The Aga Khan Museum - Le Mus\u00e9e Aga Khan", "designationCode": "C", "categoryCode": "50", "address": "77 WYNFORD DRIVE", "city": "TORONTO", "province": "ON", "country": "CA", "postalCode": "M3C1K1", "twitter": "None", "instagram": "None", "facebook": "None", "youtube": "None", "website": "None", "summary": "None", "logo": "None", "latitude": 43.72592873988724, "longitude": -79.33292592916538}, "864366646RR0001": {"name": "The Agape Orphanage Foundation", "designationCode": "C", "categoryCode": "01", "address": "POST OFFICE BOX 5454", "city": "DEVON", "province": "AB", "country": "CA", "postalCode": "T9G1Y2", "twitter": "None", "instagram": "None", "facebook": "None", "youtube": "None", "website": "None", "summary": "None", "logo": "None", "latitude": 53.36364300000005, "longitude": -113.73021349999993}, "118951383RR0001": {"name": "The Aids Network", "designationCode": "C", "categoryCode": "29", "address": "140 KING ST E                 SUITE 101", "city": "HAMILTON", "province": "ON", "country": "CA", "postalCode": "L8N1B2", "twitter": "None", "instagram": "None", "facebook": "None", "youtube": "None", "website": "None", "summary": "None", "logo": "None", "latitude": 43.2552723122224, "longitude": -79.86489240703436}, "125593657RR0004": {"name": "The Air Cadet League of Canada - La Ligue des Cadets de l'Air du Canada", "designationCode": "C", "categoryCode": "29", "address": "201 - 1505 LAPERRIERE AVE", "city": "OTTAWA", "province": "ON", "country": "CA", "postalCode": "K1Z7T1", "twitter": "None", "instagram": "None", "facebook": "None", "youtube": "None", "website": "None", "summary": "None", "logo": "None", "latitude": 45.3779063308614, "longitude": -75.7424353600033}, "861689834RR0001": {"name": "The Air Cadet League of Canada 777 Neptune Squadron Sponsoring Committee", "designationCode": "C", "categoryCode": "29", "address": "PO BOX 41071 SHAUGHNESSY      2529 SHAUGHNESSY ST", "city": "PORT COQUITLAM", "province": "BC", "country": "CA", "postalCode": "V3C5Z9", "twitter": "None", "instagram": "None", "facebook": "None", "youtube": "None", "website": "None", "summary": "None", "logo": "None", "latitude": 49.261520021380285, "longitude": -122.78248406191913}, "125593657RR0282": {"name": "The Air Cadet League of Canada, 333 Lord Beaverbrook Squadron Parents Sponsoring Committee", "designationCode": "C", "categoryCode": "29", "address": "P.O. BOX 30008", "city": "FREDERICTON", "province": "NB", "country": "CA", "postalCode": "E3B0H8", "twitter": "None", "instagram": "None", "facebook": "None", "youtube": "None", "website": "None", "summary": "None", "logo": "None", "latitude": 45.96062100000006, "longitude": -66.63911299999994}, "119310779RR0001": {"name": "The Air Cadet League of Canada, 525 West Vancouver Squadron Sponsoring Committee", "designationCode": "C", "categoryCode": "29", "address": "PO BOX 91751                  1427 BELLEVUE AVENUE", "city": "WEST VANCOUVER", "province": "BC", "country": "CA", "postalCode": "V7V4S1", "twitter": "None", "instagram": "None", "facebook": "None", "youtube": "None", "website": "None", "summary": "None", "logo": "None", "latitude": 49.32750864297796, "longitude": -123.15682437053867}, "865862262RR0001": {"name": "The Air Cadet League of Canada, 858 SKookumchuk Squadron Sponsoring Committee", "designationCode": "C", "categoryCode": "29", "address": "P.O. BOX 858", "city": "GIBSONS", "province": "BC", "country": "CA", "postalCode": "V0N1V0", "twitter": "None", "instagram": "None", "facebook": "None", "youtube": "None", "website": "None", "summary": "None", "logo": "None", "latitude": 49.40659350000001, "longitude": -123.528087}, "849991518RR0001": {"name": "The Akiva and Bilah Medjuck Foundation", "designationCode": "B", "categoryCode": "03", "address": "300-261 DAVENPORT ROAD", "city": "TORONTO", "province": "ON", "country": "CA", "postalCode": "M5R1K3", "twitter": "None", "instagram": "None", "facebook": "None", "youtube": "None", "website": "None", "summary": "None", "logo": "None"}, "843488503RR0001": {"name": "The Alan Quesnel Family Foundation", "designationCode": "B", "categoryCode": "03", "address": "8352 HOWARD AVENUE", "city": "AMHERSTBURG", "province": "ON", "country": "CA", "postalCode": "N9V2Y8", "twitter": "None", "instagram": "None", "facebook": "None", "youtube": "None", "website": "None", "summary": "None", "logo": "None", "latitude": 42.08903228864909, "longitude": -83.00300695366141}, "814840229RR0001": {"name": "The Albert and Anne Francis Scholarship Trust Fund", "designationCode": "B", "categoryCode": "25", "address": "101 - 109 PRINCESS ST", "city": "KINGSTON", "province": "ON", "country": "CA", "postalCode": "K7L1A8", "twitter": "None", "instagram": "None", "facebook": "None", "youtube": "None", "website": "None", "summary": "None", "logo": "None", "latitude": 44.23167532168612, "longitude": -76.48285601664843}, "800770026RR0001": {"name": "The Alberta Foundation for the Recovery of Youth in Sports", "designationCode": "C", "categoryCode": "11", "address": "PO BOX 68212                  28 CROWFOOT TERRACE NW", "city": "CALGARY", "province": "AB", "country": "CA", "postalCode": "T3G3N8", "twitter": "None", "instagram": "None", "facebook": "None", "youtube": "None", "website": "None", "summary": "None", "logo": "None", "latitude": 51.126918356115524, "longitude": -114.19876515827268}, "891043895RR0001": {"name": "The Alexandra, Jonathan and Andrew Bronfman Foundation", "designationCode": "B", "categoryCode": "03", "address": "800 ISLINGTON AVE", "city": "ETOBICOKE", "province": "ON", "country": "CA", "postalCode": "M8Z6A1", "twitter": "None", "instagram": "None", "facebook": "None", "youtube": "None", "website": "None", "summary": "None", "logo": "None", "latitude": 43.6170393291593, "longitude": -79.5105712001555}, "809663669RR0001": {"name": "The Algaledael Charitable Trust", "designationCode": "B", "categoryCode": "05", "address": "60 BEVSHIRE CIRCLE", "city": "THORNHILL", "province": "ON", "country": "CA", "postalCode": "L4J5C5", "twitter": "None", "instagram": "None", "facebook": "None", "youtube": "None", "website": "None", "summary": "None", "logo": "None", "latitude": 43.80484731447277, "longitude": -79.44404395781635}, "888550845RR0001": {"name": "The Algonquin College of Applied Arts and Technology", "designationCode": "C", "categoryCode": "20", "address": "1385 WOODROFFE AVENUE", "city": "NEPEAN", "province": "ON", "country": "CA", "postalCode": "K2G1V8", "twitter": "None", "instagram": "None", "facebook": "None", "youtube": "None", "website": "None", "summary": "None", "logo": "None", "latitude": 45.34880844680964, "longitude": -75.76066580358072}, "843840950RR0001": {"name": "The Allan & Sally Sawin Foundation", "designationCode": "B", "categoryCode": "03", "address": "9111-39 AVENUE", "city": "EDMONTON", "province": "AB", "country": "CA", "postalCode": "T6E5Y2", "twitter": "None", "instagram": "None", "facebook": "None", "youtube": "None", "website": "None", "summary": "None", "logo": "None", "latitude": 53.47401452120739, "longitude": -113.468634}, "853042901RR0001": {"name": "The Allard Prize Foundation", "designationCode": "A", "categoryCode": "03", "address": "881 HELMCKEN ST", "city": "VANCOUVER", "province": "BC", "country": "CA", "postalCode": "V6Z1B1", "twitter": "None", "instagram": "None", "facebook": "None", "youtube": "None", "website": "None", "summary": "None", "logo": "None", "latitude": 49.27938038923396, "longitude": -123.1262813794341}, "892702440RR0001": {"name": "The Ally Centre of Cape Breton", "designationCode": "C", "categoryCode": "09", "address": "150 BENTINCK STREET           P.O. BOX 177", "city": "SYDNEY", "province": "NS", "country": "CA", "postalCode": "B1P6H7", "twitter": "None", "instagram": "None", "facebook": "None", "youtube": "None", "website": "None", "summary": "None", "logo": "None", "latitude": 46.136411549541236, "longitude": -60.19313654997392}, "815802921RR0001": {"name": "The Alpha Epsilon Pi Foundation of Canada", "designationCode": "C", "categoryCode": "21", "address": "300 - 23 LESMILL RD", "city": "NORTH YORK", "province": "ON", "country": "CA", "postalCode": "M3B3P6", "twitter": "None", "instagram": "None", "facebook": "None", "youtube": "None", "website": "None", "summary": "None", "logo": "None", "latitude": 43.756499388020025, "longitude": -79.35275909362946}, "755780095RR0001": {"name": "The Altruly Foundation", "designationCode": "A", "categoryCode": "59", "address": "3 DESJARDINS COURT", "city": "HAMILTON", "province": "ON", "country": "CA", "postalCode": "L8S3R7", "twitter": "None", "instagram": "None", "facebook": "None", "youtube": "None", "website": "None", "summary": "None", "logo": "None", "latitude": 43.269499918662476, "longitude": -79.89603943242537}, "830373023RR0001": {"name": "The Alyssa Trent Foundation", "designationCode": "C", "categoryCode": "11", "address": "30 FALLGATE DRIVE", "city": "BRAMPTON", "province": "ON", "country": "CA", "postalCode": "L6X0R6", "twitter": "None", "instagram": "None", "facebook": "None", "youtube": "None", "website": "None", "summary": "None", "logo": "None", "latitude": 43.67150909798596, "longitude": -79.81820162727209}, "846923407RR0001": {"name": "The Ambassadors of God International Ministries", "designationCode": "C", "categoryCode": "39", "address": "2600 JANE ST APT 1006", "city": "TORONTO", "province": "ON", "country": "CA", "postalCode": "M3L1S2", "twitter": "None", "instagram": "None", "facebook": "None", "youtube": "None", "website": "None", "summary": "None", "logo": "None", "latitude": 43.741008925298914, "longitude": -79.5145276219633}, "849198759RR0001": {"name": "The Amherstburg Family Health Team", "designationCode": "C", "categoryCode": "11", "address": "721 FRONT ROAD SOUTH          UNIT 101", "city": "AMHERSTBURG", "province": "ON", "country": "CA", "postalCode": "N9V2M4", "twitter": "None", "instagram": "None", "facebook": "None", "youtube": "None", "website": "None", "summary": "None", "logo": "None", "latitude": 42.086988765191315, "longitude": -83.11044650346244}, "824595359RR0001": {"name": "The Amir and Yasmin Virani Family Foundation", "designationCode": "B", "categoryCode": "05", "address": "2701-277 THURLOW STREET", "city": "VANCOUVER", "province": "BC", "country": "CA", "postalCode": "V6C0C1", "twitter": "None", "instagram": "None", "facebook": "None", "youtube": "None", "website": "None", "summary": "None", "logo": "None", "latitude": 49.28868228256091, "longitude": -123.11872039901294}, "783739329RR0001": {"name": "The Anderson Family Foundation", "designationCode": "B", "categoryCode": "05", "address": "108 ROXBOROUGH DR", "city": "TORONTO", "province": "ON", "country": "CA", "postalCode": "M4W1X4", "twitter": "None", "instagram": "None", "facebook": "None", "youtube": "None", "website": "None", "summary": "None", "logo": "None", "latitude": 43.68227057259496, "longitude": -79.37660797282}, "737175125RR0001": {"name": "The Anderson Langford Foundation", "designationCode": "B", "categoryCode": "25", "address": "10192 WILDFLOWER PL", "city": "SIDNEY", "province": "BC", "country": "CA", "postalCode": "V8L3R4", "twitter": "None", "instagram": "None", "facebook": "None", "youtube": "None", "website": "None", "summary": "None", "logo": "None", "latitude": 48.65851037246813, "longitude": -123.39622243329073}, "832045918RR0001": {"name": "The Andrew and Laura McCain Art Gallery Inc.", "designationCode": "C", "categoryCode": "22", "address": "8 MCCAIN ST", "city": "FLORENCEVILLE-BRISTOL", "province": "NB", "country": "CA", "postalCode": "E7L3H6", "twitter": "None", "instagram": "None", "facebook": "None", "youtube": "None", "website": "None", "summary": "None", "logo": "None", "latitude": 46.43971057617299, "longitude": -67.61943417499566}, "830733630RR0001": {"name": "The Andrew Jacob Memorial Foundation", "designationCode": "B", "categoryCode": "03", "address": "256 WEST 32ND ST", "city": "HAMILTON", "province": "ON", "country": "CA", "postalCode": "L9C5H6", "twitter": "None", "instagram": "None", "facebook": "None", "youtube": "None", "website": "None", "summary": "None", "logo": "None", "latitude": 43.23718542947836, "longitude": -79.91201185975827}, "826445538RR0001": {"name": "The Andrew Rok Foundation", "designationCode": "C", "categoryCode": "21", "address": "500 - 2 ROBERT SPECK PKY", "city": "MISSISSAUGA", "province": "ON", "country": "CA", "postalCode": "L4Z1H8", "twitter": "None", "instagram": "None", "facebook": "None", "youtube": "None", "website": "None", "summary": "None", "logo": "None", "latitude": 43.596729830111585, "longitude": -79.63771537561344}, "813285053RR0001": {"name": "The Angel Fund Corp.", "designationCode": "C", "categoryCode": "09", "address": "139 CONCEPTION BAY HWY        PO BOX 310", "city": "BAY ROBERTS", "province": "NL", "country": "CA", "postalCode": "A0A1G0", "twitter": "None", "instagram": "None", "facebook": "None", "youtube": "None", "website": "None", "summary": "None", "logo": "None"}, "829362607RR0001": {"name": "The Angela and David Feldman Family Foundation", "designationCode": "B", "categoryCode": "03", "address": "190 WARREN ROAD", "city": "TORONTO", "province": "ON", "country": "CA", "postalCode": "M4V2S5", "twitter": "None", "instagram": "None", "facebook": "None", "youtube": "None", "website": "None", "summary": "None", "logo": "None", "latitude": 43.6893500224768, "longitude": -79.40781749933618}, "133865386RR0001": {"name": "The Anglican Church of Canada Mission of St. Paul Blood Reserve - Cardston", "designationCode": "C", "categoryCode": "30", "address": "BOX 1764 90 1 AVE WEST", "city": "CARDSTON", "province": "AB", "country": "CA", "postalCode": "T0K0K0", "twitter": "None", "instagram": "None", "facebook": "None", "youtube": "None", "website": "None", "summary": "None", "logo": "None", "latitude": 49.202219576305104, "longitude": -113.3035179653031}, "106917750RR0001": {"name": "The Anglican Church of Canada Parish of Christ Church Fort Macleod", "designationCode": "C", "categoryCode": "30", "address": "BOX 1117", "city": "FORT MACLEOD", "province": "AB", "country": "CA", "postalCode": "T0L0Z0", "twitter": "None", "instagram": "None", "facebook": "None", "youtube": "None", "website": "None", "summary": "None", "logo": "None", "latitude": 49.72081000000003, "longitude": -113.42989999999998}, "893043786RR0001": {"name": "The Anglican Church of Canada Parish of St. David Elnora", "designationCode": "C", "categoryCode": "30", "address": "PO BOX 619", "city": "ELNORA", "province": "AB", "country": "CA", "postalCode": "T0M0Y0", "twitter": "None", "instagram": "None", "facebook": "None", "youtube": "None", "website": "None", "summary": "None", "logo": "None", "latitude": 51.98342000000008, "longitude": -113.20191999999997}, "129471561RR0001": {"name": "The Anglican Church of Canada Parish of St. Luke Red Deer", "designationCode": "C", "categoryCode": "30", "address": "4929-54 STREET", "city": "RED DEER", "province": "AB", "country": "CA", "postalCode": "T4N2G7", "twitter": "None", "instagram": "None", "facebook": "None", "youtube": "None", "website": "None", "summary": "None", "logo": "None", "latitude": 52.27275652510253, "longitude": -113.81343316763807}, "108028804RR0001": {"name": "The Anglican Church of Canada Parish of St. Mark and St. Philip Calgary", "designationCode": "C", "categoryCode": "30", "address": "1802-33 AVENUE S W", "city": "CALGARY", "province": "AB", "country": "CA", "postalCode": "T2T1Y9", "twitter": "None", "instagram": "None", "facebook": "None", "youtube": "None", "website": "None", "summary": "None", "logo": "None", "latitude": 51.02402646047074, "longitude": -114.1025535}, "870856838RR0001": {"name": "The Anglican Church of Canada Parish of St.Magloire Drumheller", "designationCode": "C", "categoryCode": "30", "address": "176 - 2ND STREET WEST", "city": "DRUMHELLER", "province": "AB", "country": "CA", "postalCode": "T0J0Y4", "twitter": "None", "instagram": "None", "facebook": "None", "youtube": "None", "website": "None", "summary": "None", "logo": "None", "latitude": 51.465776117233595, "longitude": -112.71064112954407}, "784489320RR0001": {"name": "The Anglican Church of Canada, Parish of St. Mary's Church, Sioux Lookout, ON, with the Diocese of Rupert's Land", "designationCode": "C", "categoryCode": "30", "address": "PO BOX 626", "city": "SIOUX LOOKOUT", "province": "ON", "country": "CA", "postalCode": "P8T1B1", "twitter": "None", "instagram": "None", "facebook": "None", "youtube": "None", "website": "None", "summary": "None", "logo": "None", "latitude": 50.09808300000006, "longitude": -91.91503249999994}, "119176758RR0002": {"name": "The Anglican Church of Canada, Parish of St.James, Beausejour within The Diocese of Rupert's Land", "designationCode": "C", "categoryCode": "30", "address": "PO BOX 1325", "city": "BEAUSEJOUR", "province": "MB", "country": "CA", "postalCode": "R0E0C0", "twitter": "None", "instagram": "None", "facebook": "None", "youtube": "None", "website": "None", "summary": "None", "logo": "None", "latitude": 50.061750000000075, "longitude": -96.50519999999995}, "853451680RR0001": {"name": "The Anglican Diocese of Ontario Foundation", "designationCode": "A", "categoryCode": "43", "address": "PO BOX 490 STN MAIN", "city": "KINGSTON", "province": "ON", "country": "CA", "postalCode": "K7L4W5", "twitter": "None", "instagram": "None", "facebook": "None", "youtube": "None", "website": "None", "summary": "None", "logo": "None", "latitude": 44.23153200000006, "longitude": -76.47933049999993}, "860815240RR0001": {"name": "The Anglican Mission in Canada", "designationCode": "C", "categoryCode": "47", "address": "PO BOX 39067 RPO HAREWOOD", "city": "NANAIMO", "province": "BC", "country": "CA", "postalCode": "V9R7B7", "twitter": "None", "instagram": "None", "facebook": "None", "youtube": "None", "website": "None", "summary": "None", "logo": "None", "latitude": 49.156268914547205, "longitude": -123.95542076697883}, "119229920RR0019": {"name": "The Anglican Parish by the Sea", "designationCode": "C", "categoryCode": "30", "address": "P.O. BOX 250", "city": "BURGEO", "province": "NL", "country": "CA", "postalCode": "A0N2H0", "twitter": "None", "instagram": "None", "facebook": "None", "youtube": "None", "website": "None", "summary": "None", "logo": "None", "latitude": 48.50829804486679, "longitude": -58.182127889354014}, "108084658RR0006": {"name": "The Anglican Parish of Maberly-Lanark", "designationCode": "C", "categoryCode": "30", "address": "291 MABERLY ELPHIN ROAD       PO BOX A4", "city": "MABERLY", "province": "ON", "country": "CA", "postalCode": "K0H2B0", "twitter": "None", "instagram": "None", "facebook": "None", "youtube": "None", "website": "None", "summary": "None", "logo": "None", "latitude": 44.83675276622999, "longitude": -76.54344093227934}, "119186286RR0002": {"name": "The Anglican Parish of Mascouche", "designationCode": "C", "categoryCode": "30", "address": "2180 CHEMIN STE-MARIE", "city": "MASCOUCHE", "province": "QC", "country": "CA", "postalCode": "J7L1A5", "twitter": "None", "instagram": "None", "facebook": "None", "youtube": "None", "website": "None", "summary": "None", "logo": "None", "latitude": 45.75632113015763, "longitude": -73.62953964876793}, "742967920RR0001": {"name": "The Anglican Parish of St. Alban's Odessa", "designationCode": "C", "categoryCode": "30", "address": "PO BOX 156", "city": "ODESSA", "province": "ON", "country": "CA", "postalCode": "K0H2H0", "twitter": "None", "instagram": "None", "facebook": "None", "youtube": "None", "website": "None", "summary": "None", "logo": "None", "latitude": 44.27698000000004, "longitude": -76.71890999999994}, "118787142RR0010": {"name": "The Anglican Parish of St. Peter, Quamichan", "designationCode": "C", "categoryCode": "30", "address": "5800 CHURCH RD", "city": "DUNCAN", "province": "BC", "country": "CA", "postalCode": "V9L5M3", "twitter": "None", "instagram": "None", "facebook": "None", "youtube": "None", "website": "None", "summary": "None", "logo": "None", "latitude": 48.78400582129545, "longitude": -123.66741115609669}, "106917966RR0001": {"name": "The Anglican Parish of: Christ Church Cataraqui", "designationCode": "C", "categoryCode": "30", "address": "990 SYDENHAM ROAD", "city": "KINGSTON", "province": "ON", "country": "CA", "postalCode": "K7M3L7", "twitter": "None", "instagram": "None", "facebook": "None", "youtube": "None", "website": "None", "summary": "None", "logo": "None", "latitude": 44.264136615586665, "longitude": -76.54407316743651}, "834360687RR0001": {"name": "The Anna & Louis Viglione Foundation / La fondation Anna & Louis Viglione", "designationCode": "B", "categoryCode": "03", "address": "5740, BOULEVARD ROBERT", "city": "SAINT-LEONARD", "province": "QC", "country": "CA", "postalCode": "H1P1M4", "twitter": "None", "instagram": "None", "facebook": "None", "youtube": "None", "website": "None", "summary": "None", "logo": "None", "latitude": 45.590200732991, "longitude": -73.59406954022174}, "823049242RR0001": {"name": "The Annapolis Foundation", "designationCode": "B", "categoryCode": "05", "address": "1100-110 9TH AVENUE SOUTHWEST", "city": "CALGARY", "province": "AB", "country": "CA", "postalCode": "T2P0T1", "twitter": "None", "instagram": "None", "facebook": "None", "youtube": "None", "website": "None", "summary": "None", "logo": "None", "latitude": 51.04495107547109, "longitude": -114.0758334905459}, "726404692RR0001": {"name": "The Anne And Cecil Vance Foundation", "designationCode": "B", "categoryCode": "05", "address": "1800 - 1801 HOLLIS ST", "city": "HALIFAX", "province": "NS", "country": "CA", "postalCode": "B3J3N4", "twitter": "None", "instagram": "None", "facebook": "None", "youtube": "None", "website": "None", "summary": "None", "logo": "None", "latitude": 44.64930780183504, "longitude": -63.5736703524728}, "853932267RR0001": {"name": "The Anne Hoehn Memorial Foundation", "designationCode": "A", "categoryCode": "15", "address": "702 - 825 CHURCH ST", "city": "TORONTO", "province": "ON", "country": "CA", "postalCode": "M4W3Z4", "twitter": "None", "instagram": "None", "facebook": "None", "youtube": "None", "website": "None", "summary": "None", "logo": "None", "latitude": 43.6727936877776, "longitude": -79.38711378322473}, "129433777RR0001": {"name": "The Anne Johnston Health Station", "designationCode": "C", "categoryCode": "11", "address": "2398 YONGE ST", "city": "TORONTO", "province": "ON", "country": "CA", "postalCode": "M4P2H4", "twitter": "None", "instagram": "None", "facebook": "None", "youtube": "None", "website": "None", "summary": "None", "logo": "None", "latitude": 43.70974908298232, "longitude": -79.39903877938691}, "810157438RR0001": {"name": "The Annual Foundation", "designationCode": "B", "categoryCode": "03", "address": "333 BLOOR ST. E               FLOOR 10", "city": "TORONTO", "province": "ON", "country": "CA", "postalCode": "M4W1G9", "twitter": "None", "instagram": "None", "facebook": "None", "youtube": "None", "website": "None", "summary": "None", "logo": "None", "latitude": 43.67167574323412, "longitude": -79.38000482096497}, "825554603RR0001": {"name": "The Anonymous Foundation", "designationCode": "B", "categoryCode": "05", "address": "155 WATERLOO DRIVE SW", "city": "CALGARY", "province": "AB", "country": "CA", "postalCode": "T3C3G4", "twitter": "None", "instagram": "None", "facebook": "None", "youtube": "None", "website": "None", "summary": "None", "logo": "None", "latitude": 51.0497222067633, "longitude": -114.14658352651617}, "881774574RR0001": {"name": "The Antarctic Institute of Canada", "designationCode": "C", "categoryCode": "21", "address": "103-11919 82 ST NW", "city": "EDMONTON", "province": "AB", "country": "CA", "postalCode": "T5B2W4", "twitter": "None", "instagram": "None", "facebook": "None", "youtube": "None", "website": "None", "summary": "None", "logo": "None"}, "831038146RR0001": {"name": "The Anthony and Gladys Tyler Charitable Foundation", "designationCode": "B", "categoryCode": "05", "address": "2100 - 350 ALBERT ST", "city": "OTTAWA", "province": "ON", "country": "CA", "postalCode": "K1R1A4", "twitter": "None", "instagram": "None", "facebook": "None", "youtube": "None", "website": "None", "summary": "None", "logo": "None", "latitude": 45.41332607969947, "longitude": -75.71158691322}, "843328337RR0001": {"name": "The Anti-NMDA Receptor Encephalitis Foundation, Inc.", "designationCode": "C", "categoryCode": "11", "address": "88 RENOVA PRIVATE", "city": "OTTAWA", "province": "ON", "country": "CA", "postalCode": "K1G4C6", "twitter": "None", "instagram": "None", "facebook": "None", "youtube": "None", "website": "None", "summary": "None", "logo": "None", "latitude": 45.40756895894155, "longitude": -75.65032962482017}, "859483349RR0001": {"name": "The Apathy Is Boring Project/Le Projet L'Indiff\u00e9rence Est Ennuyeuse", "designationCode": "C", "categoryCode": "29", "address": "CP42071 CSP ROY", "city": "MONTR\u00c9AL", "province": "QC", "country": "CA", "postalCode": "H2W2T3", "twitter": "None", "instagram": "None", "facebook": "None", "youtube": "None", "website": "None", "summary": "None", "logo": "None", "latitude": 45.51239400000006, "longitude": -73.55469049999994}, "828214650RR0001": {"name": "The Apostles' Continuation Church International of Edmonton, Alberta", "designationCode": "C", "categoryCode": "39", "address": "11610 149 ST NW", "city": "EDMONTON", "province": "AB", "country": "CA", "postalCode": "T5M3R3", "twitter": "None", "instagram": "None", "facebook": "None", "youtube": "None", "website": "None", "summary": "None", "logo": "None", "latitude": 53.568575046627046, "longitude": -113.57806713162859}, "770700920RR0001": {"name": "The Apostles' Continuation Mission Calgary, AB, Canada", "designationCode": "C", "categoryCode": "39", "address": "101 - 4656 WESTWINDS DR NE", "city": "CALGARY", "province": "AB", "country": "CA", "postalCode": "T3J3Z5", "twitter": "None", "instagram": "None", "facebook": "None", "youtube": "None", "website": "None", "summary": "None", "logo": "None", "latitude": 51.10013948211082, "longitude": -113.96804408381902}, "742113327RR0001": {"name": "The Apostolic Church - North America Ministries", "designationCode": "C", "categoryCode": "39", "address": "435 ST. LAURENT BLVD", "city": "OTTAWA", "province": "ON", "country": "CA", "postalCode": "K1K2Z8", "twitter": "None", "instagram": "None", "facebook": "None", "youtube": "None", "website": "None", "summary": "None", "logo": "None", "latitude": 45.44755740550517, "longitude": -75.65046011639473}, "860875731RR0001": {"name": "The Apostolic Church International (Brampton) Canada Inc.", "designationCode": "C", "categoryCode": "39", "address": "PO BOX 323 STN A", "city": "ETOBICOKE", "province": "ON", "country": "CA", "postalCode": "M9C4V3", "twitter": "None", "instagram": "None", "facebook": "None", "youtube": "None", "website": "None", "summary": "None", "logo": "None", "latitude": 43.64439900000005, "longitude": -79.56714049999994}, "728485095RR0001": {"name": "The Apostolic Church International (Canadian Ministry)", "designationCode": "C", "categoryCode": "39", "address": "22 WYNDHAM CIR", "city": "SUTTON WEST", "province": "ON", "country": "CA", "postalCode": "L0E1R0", "twitter": "None", "instagram": "None", "facebook": "None", "youtube": "None", "website": "None", "summary": "None", "logo": "None", "latitude": 44.30345586511053, "longitude": -79.3757472258063}, "847407137RR0001": {"name": "The Apostolic Church Lawna-Canada", "designationCode": "C", "categoryCode": "39", "address": "180 MISSISSAUGA VALLEY BLVD   SUITE 73", "city": "MISSISSAUGA", "province": "ON", "country": "CA", "postalCode": "L5A3M2", "twitter": "None", "instagram": "None", "facebook": "None", "youtube": "None", "website": "None", "summary": "None", "logo": "None", "latitude": 43.58728162551267, "longitude": -79.6225053706791}, "817103666RR0001": {"name": "The Apostolic Oasis Church of Jesus Christ", "designationCode": "C", "categoryCode": "39", "address": "52 - 14 AUTOMATIC RD", "city": "BRAMPTON", "province": "ON", "country": "CA", "postalCode": "L6S5N5", "twitter": "None", "instagram": "None", "facebook": "None", "youtube": "None", "website": "None", "summary": "None", "logo": "None", "latitude": 43.75751933360268, "longitude": -79.71114457692279}, "878530302RR0001": {"name": "The Appin Cemetery", "designationCode": "C", "categoryCode": "59", "address": "5208 GLENDON DR               RR 3", "city": "APPIN", "province": "ON", "country": "CA", "postalCode": "N0L1A0", "twitter": "None", "instagram": "None", "facebook": "None", "youtube": "None", "website": "None", "summary": "None", "logo": "None", "latitude": 42.79829066722756, "longitude": -81.64792667831685}, "881165211RR0001": {"name": "The Apple Schools Foundation", "designationCode": "B", "categoryCode": "03", "address": "401 - 322 11 AVE SW", "city": "CALGARY", "province": "AB", "country": "CA", "postalCode": "T2R0C5", "twitter": "None", "instagram": "None", "facebook": "None", "youtube": "None", "website": "None", "summary": "None", "logo": "None", "latitude": 51.042551467684106, "longitude": -114.0685795269202}}