{"107858888RR0001": {"name": "PRINCE GEORGE AND DISTRICT SENIOR CITIZENS ACTIVITY CENTER SOCIETY", "designationCode": "C", "categoryCode": "56", "address": "425 BRUNSWICK ST", "city": "PRINCE GEORGE", "province": "BC", "country": "CA", "postalCode": "V2L2B7", "twitter": "None", "instagram": "None", "facebook": "None", "youtube": "None", "website": "None", "summary": "None", "logo": "None", "latitude": 53.91664307342895, "longitude": -122.74825500911618}, "891422339RR0001": {"name": "PRINCE GEORGE ASTRONOMICAL SOCIETY", "designationCode": "C", "categoryCode": "21", "address": "7365 TEDFORD ROAD", "city": "PRINCE GEORGE", "province": "BC", "country": "CA", "postalCode": "V2N6S2", "twitter": "None", "instagram": "None", "facebook": "None", "youtube": "None", "website": "None", "summary": "None", "logo": "None", "latitude": 53.758217538952344, "longitude": -122.84923194601535}, "140213208RR0001": {"name": "PRINCE GEORGE BIBLE MISSIONARY CHURCH", "designationCode": "C", "categoryCode": "39", "address": "P.O. BOX 10066", "city": "PRINCE GEORGE", "province": "BC", "country": "CA", "postalCode": "V2K5Y1", "twitter": "None", "instagram": "None", "facebook": "None", "youtube": "None", "website": "None", "summary": "None", "logo": "None", "latitude": 54.22637400000005, "longitude": -123.11658799999994}, "134393164RR0001": {"name": "PRINCE GEORGE BRAIN INJURED GROUP SOCIETY", "designationCode": "C", "categoryCode": "11", "address": "1070 4TH AVE", "city": "PRINCE GEORGE", "province": "BC", "country": "CA", "postalCode": "V2L3J1", "twitter": "None", "instagram": "None", "facebook": "None", "youtube": "None", "website": "None", "summary": "None", "logo": "None", "latitude": 53.91524202691266, "longitude": -122.74282840203263}, "841940729RR0001": {"name": "PRINCE GEORGE CITY CHURCH", "designationCode": "C", "categoryCode": "39", "address": "439 CASSIAR ST", "city": "PRINCE GEORGE", "province": "BC", "country": "CA", "postalCode": "V2M1X7", "twitter": "None", "instagram": "None", "facebook": "None", "youtube": "None", "website": "None", "summary": "None", "logo": "None", "latitude": 53.92074469817456, "longitude": -122.75853542800708}, "890783541RR0001": {"name": "PRINCE GEORGE CONSERVATORY OF MUSIC", "designationCode": "C", "categoryCode": "22", "address": "3555-5TH AVE", "city": "PRINCE GEORGE", "province": "BC", "country": "CA", "postalCode": "V2M1K8", "twitter": "None", "instagram": "None", "facebook": "None", "youtube": "None", "website": "None", "summary": "None", "logo": "None", "latitude": 53.9204935919721, "longitude": -122.78588834265071}, "892829441RR0001": {"name": "PRINCE GEORGE COUNCIL OF SENIORS SOCIETY", "designationCode": "C", "categoryCode": "01", "address": "721 VICTORIA STREET", "city": "PRINCE GEORGE", "province": "BC", "country": "CA", "postalCode": "V2L2K5", "twitter": "None", "instagram": "None", "facebook": "None", "youtube": "None", "website": "None", "summary": "None", "logo": "None", "latitude": 53.914650877089926, "longitude": -122.75181099807904}, "119103380RR0001": {"name": "PRINCE GEORGE CRIME STOPPERS ASSOCIATION", "designationCode": "C", "categoryCode": "59", "address": "PO BOX 865 STN A", "city": "PRINCE GEORGE", "province": "BC", "country": "CA", "postalCode": "V2L4T7", "twitter": "None", "instagram": "None", "facebook": "None", "youtube": "None", "website": "None", "summary": "None", "logo": "None", "latitude": 53.91241800000006, "longitude": -122.74463149999994}, "130695489RR0001": {"name": "PRINCE GEORGE FAMILY SERVICES SOCIETY", "designationCode": "C", "categoryCode": "09", "address": "205-575 QUEBEC ST", "city": "PRINCE GEORGE", "province": "BC", "country": "CA", "postalCode": "V2L1W6", "twitter": "None", "instagram": "None", "facebook": "None", "youtube": "None", "website": "None", "summary": "None", "logo": "None", "latitude": 53.91490690619765, "longitude": -122.74764974037726}, "131648586RR0001": {"name": "PRINCE GEORGE FIRST BAPTIST CHURCH,", "designationCode": "C", "categoryCode": "31", "address": "483 GILLETT STREET", "city": "PRINCE GEORGE", "province": "BC", "country": "CA", "postalCode": "V2M2T6", "twitter": "None", "instagram": "None", "facebook": "None", "youtube": "None", "website": "None", "summary": "None", "logo": "None", "latitude": 53.92097842817517, "longitude": -122.77531817834983}, "874913403RR0001": {"name": "PRINCE GEORGE FOLKFEST SOCIETY", "designationCode": "C", "categoryCode": "22", "address": "PO BOX 2185", "city": "PRINCE GEORGE", "province": "BC", "country": "CA", "postalCode": "V2N2J6", "twitter": "None", "instagram": "None", "facebook": "None", "youtube": "None", "website": "None", "summary": "None", "logo": "None", "latitude": 53.91241800000006, "longitude": -122.74463149999994}, "119103414RR0001": {"name": "PRINCE GEORGE GOSPEL CHAPEL", "designationCode": "C", "categoryCode": "39", "address": "P.O. BOX 403", "city": "PRINCE GEORGE", "province": "BC", "country": "CA", "postalCode": "V2L4S2", "twitter": "None", "instagram": "None", "facebook": "None", "youtube": "None", "website": "None", "summary": "None", "logo": "None", "latitude": 53.91241800000006, "longitude": -122.74463149999994}, "119103430RR0001": {"name": "PRINCE GEORGE HOSPICE SOCIETY", "designationCode": "C", "categoryCode": "11", "address": "3089 CLAPPERTON ST", "city": "PRINCE GEORGE", "province": "BC", "country": "CA", "postalCode": "V2L5N4", "twitter": "None", "instagram": "None", "facebook": "None", "youtube": "None", "website": "None", "summary": "None", "logo": "None", "latitude": 53.889806474580354, "longitude": -122.755210721276}, "119117554RR0001": {"name": "PRINCE GEORGE HOUSE OF PRAYER (PGHOP)", "designationCode": "C", "categoryCode": "49", "address": "1552 BIRCH STREET", "city": "PRINCE GEORGE", "province": "BC", "country": "CA", "postalCode": "V2L1B2", "twitter": "None", "instagram": "None", "facebook": "None", "youtube": "None", "website": "None", "summary": "None", "logo": "None", "latitude": 53.90992707799066, "longitude": -122.73087591378638}, "889595773RR0001": {"name": "PRINCE GEORGE KOREAN CHURCH ASSOCIATION", "designationCode": "C", "categoryCode": "39", "address": "117 - 3112 ST ANNE CRES", "city": "PRINCE GEORGE", "province": "BC", "country": "CA", "postalCode": "V2N6X8", "twitter": "None", "instagram": "None", "facebook": "None", "youtube": "None", "website": "None", "summary": "None", "logo": "None", "latitude": 53.85700269043336, "longitude": -122.78190536233431}, "139742431RR0002": {"name": "PRINCE GEORGE METIS ELDERS SOCIETY", "designationCode": "C", "categoryCode": "09", "address": "117 - 1600 THIRD AVE", "city": "PRINCE GEORGE", "province": "BC", "country": "CA", "postalCode": "V2L3G6", "twitter": "None", "instagram": "None", "facebook": "None", "youtube": "None", "website": "None", "summary": "None", "logo": "None", "latitude": 53.91866787050817, "longitude": -122.75158176464869}, "130380637RR0001": {"name": "PRINCE GEORGE MONTESSORI EDUCATION SOCIETY", "designationCode": "C", "categoryCode": "20", "address": "17355 THOMPSON RD W", "city": "PRINCE GEORGE", "province": "BC", "country": "CA", "postalCode": "V2K5L2", "twitter": "None", "instagram": "None", "facebook": "None", "youtube": "None", "website": "None", "summary": "None", "logo": "None", "latitude": 54.08545563604426, "longitude": -123.00568430145967}, "126180777RR0001": {"name": "PRINCE GEORGE NATIVE FRIENDSHIP CENTRE SOCIETY", "designationCode": "C", "categoryCode": "59", "address": "1600 3RD AVE", "city": "PRINCE GEORGE", "province": "BC", "country": "CA", "postalCode": "V2L3G6", "twitter": "None", "instagram": "None", "facebook": "None", "youtube": "None", "website": "None", "summary": "None", "logo": "None", "latitude": 53.91866787050817, "longitude": -122.75158176464869}, "888069267RR0001": {"name": "PRINCE GEORGE NEW LIFE CENTRE SOCIETY", "designationCode": "C", "categoryCode": "47", "address": "1164 3RD AVE", "city": "PRINCE GEORGE", "province": "BC", "country": "CA", "postalCode": "V2L3E5", "twitter": "None", "instagram": "None", "facebook": "None", "youtube": "None", "website": "None", "summary": "None", "logo": "None", "latitude": 53.916465814879686, "longitude": -122.74385954860969}, "895416832RR0001": {"name": "PRINCE GEORGE PREGNANCY CARE CENTRE SOCIETY", "designationCode": "C", "categoryCode": "09", "address": "210 - 575 QUEBEC ST", "city": "PRINCE GEORGE", "province": "BC", "country": "CA", "postalCode": "V2L1W6", "twitter": "None", "instagram": "None", "facebook": "None", "youtube": "None", "website": "None", "summary": "None", "logo": "None", "latitude": 53.91490690619765, "longitude": -122.74764974037726}, "119103471RR0001": {"name": "PRINCE GEORGE PUBLIC LIBRARY BOARD", "designationCode": "C", "categoryCode": "50", "address": "888 CANADA GAMES WAY", "city": "PRINCE GEORGE", "province": "BC", "country": "CA", "postalCode": "V2L5T6", "twitter": "None", "instagram": "None", "facebook": "None", "youtube": "None", "website": "None", "summary": "None", "logo": "None", "latitude": 53.912391000000056, "longitude": -122.74965349999994}, "889901195RR0001": {"name": "PRINCE GEORGE RECYCLING & ENVIRONMENTAL ACTION & PLANNING SOCIETY", "designationCode": "C", "categoryCode": "59", "address": "PO BOX 444", "city": "PRINCE GEORGE", "province": "BC", "country": "CA", "postalCode": "V2L4S6", "twitter": "None", "instagram": "None", "facebook": "None", "youtube": "None", "website": "None", "summary": "None", "logo": "None", "latitude": 53.91241800000006, "longitude": -122.74463149999994}, "107858763RR0001": {"name": "PRINCE GEORGE REGIONAL ART GALLERY ASSOCIATION", "designationCode": "C", "categoryCode": "50", "address": "725 CIVIC PLAZA", "city": "PRINCE GEORGE", "province": "BC", "country": "CA", "postalCode": "V2L5T1", "twitter": "None", "instagram": "None", "facebook": "None", "youtube": "None", "website": "None", "summary": "None", "logo": "None", "latitude": 53.91328935804138, "longitude": -122.74900976729747}, "119233435RR0001": {"name": "PRINCE GEORGE REGIONAL HIGHWAY RESCUE SOCIETY", "designationCode": "C", "categoryCode": "59", "address": "3685 MASSEY DR", "city": "PRINCE GEORGE", "province": "BC", "country": "CA", "postalCode": "V2N4E6", "twitter": "None", "instagram": "None", "facebook": "None", "youtube": "None", "website": "None", "summary": "None", "logo": "None", "latitude": 53.89918314319937, "longitude": -122.79037616483944}, "860515113RR0001": {"name": "PRINCE GEORGE SAFE ATTITUDES AND ACTIONS SOCIETY", "designationCode": "C", "categoryCode": "59", "address": "1475 EDMONTON ST", "city": "PRINCE GEORGE", "province": "BC", "country": "CA", "postalCode": "V2M1S2", "twitter": "None", "instagram": "None", "facebook": "None", "youtube": "None", "website": "None", "summary": "None", "logo": "None", "latitude": 53.91126728143572, "longitude": -122.76318132558127}, "885304204RR0001": {"name": "PRINCE GEORGE SEARCH AND RESCUE SOCIETY", "designationCode": "C", "categoryCode": "59", "address": "P.O. BOX 2682                 STATION B", "city": "PRINCE GEORGE", "province": "BC", "country": "CA", "postalCode": "V2N4T5", "twitter": "None", "instagram": "None", "facebook": "None", "youtube": "None", "website": "None", "summary": "None", "logo": "None", "latitude": 53.91241800000006, "longitude": -122.74463149999994}, "118818491RR0087": {"name": "PRINCE GEORGE SEVENTH-DAY ADVENTIST CHURCH", "designationCode": "C", "categoryCode": "41", "address": "PO 1000", "city": "ABBOTSFORD", "province": "BC", "country": "CA", "postalCode": "V2S4P5", "twitter": "None", "instagram": "None", "facebook": "None", "youtube": "None", "website": "None", "summary": "None", "logo": "None", "latitude": 49.03851300000005, "longitude": -122.29441549999993}, "892725771RR0001": {"name": "PRINCE GEORGE SPEECH ARTS AND DRAMA FESTIVAL SOCIETY", "designationCode": "C", "categoryCode": "22", "address": "2818 LONSDALE ST", "city": "PRINCE GEORGE", "province": "BC", "country": "CA", "postalCode": "V2L4X9", "twitter": "None", "instagram": "None", "facebook": "None", "youtube": "None", "website": "None", "summary": "None", "logo": "None", "latitude": 53.89259329808414, "longitude": -122.7592474393216}, "119103521RR0001": {"name": "PRINCE GEORGE SYMPHONY ORCHESTRA SOCIETY", "designationCode": "C", "categoryCode": "22", "address": "2880 15TH AVENUE", "city": "PRINCE GEORGE", "province": "BC", "country": "CA", "postalCode": "V2M1T1", "twitter": "None", "instagram": "None", "facebook": "None", "youtube": "None", "website": "None", "summary": "None", "logo": "None", "latitude": 53.9104569466252, "longitude": -122.77596847129894}, "886773837RR0001": {"name": "PRINCE GEORGE THERAPEUTIC RIDING ASSOCIATION", "designationCode": "C", "categoryCode": "56", "address": "1133 GOOSE COUNTRY ROAD       RR2 S23 C43", "city": "PRINCE GEORGE", "province": "BC", "country": "CA", "postalCode": "V2K5S6", "twitter": "None", "instagram": "None", "facebook": "None", "youtube": "None", "website": "None", "summary": "None", "logo": "None", "latitude": 54.01049283846754, "longitude": -122.73574384125745}, "890845944RR0001": {"name": "PRINCE GEORGE 4-H DISTRICT COUNCIL", "designationCode": "C", "categoryCode": "29", "address": "9293 OLD SUMMIT LAKE RD", "city": "PRINCE GEORGE", "province": "BC", "country": "CA", "postalCode": "V2K5S8", "twitter": "None", "instagram": "None", "facebook": "None", "youtube": "None", "website": "None", "summary": "None", "logo": "None", "latitude": 54.01733433642084, "longitude": -122.73980721749983}, "107859159RR0001": {"name": "PRINCE OF FAITH LUTHERAN CHURCH", "designationCode": "C", "categoryCode": "32", "address": "2523 - 56 ST N.E.", "city": "CALGARY", "province": "AB", "country": "CA", "postalCode": "T1Y6E7", "twitter": "None", "instagram": "None", "facebook": "None", "youtube": "None", "website": "None", "summary": "None", "logo": "None", "latitude": 51.07466059838998, "longitude": -113.95265704261634}, "107859175RR0001": {"name": "PRINCE OF PEACE EVANGELICAL LUTHERAN CHURCH", "designationCode": "C", "categoryCode": "32", "address": "930 WINAKWA RD", "city": "WINNIPEG", "province": "MB", "country": "CA", "postalCode": "R2J1E7", "twitter": "None", "instagram": "None", "facebook": "None", "youtube": "None", "website": "None", "summary": "None", "logo": "None", "latitude": 49.86368851399405, "longitude": -97.07740272300768}, "119103570RR0001": {"name": "PRINCE OF PEACE EVANGELICAL LUTHERAN CHURCH OF GOVAN", "designationCode": "C", "categoryCode": "32", "address": "BOX 58", "city": "GOVAN", "province": "SK", "country": "CA", "postalCode": "S0G1Z0", "twitter": "None", "instagram": "None", "facebook": "None", "youtube": "None", "website": "None", "summary": "None", "logo": "None", "latitude": 51.30007000000006, "longitude": -105.00114999999994}, "107859167RR0001": {"name": "PRINCE OF PEACE LUTHERAN CHURCH", "designationCode": "C", "categoryCode": "32", "address": "1299 BRANT ST", "city": "BURLINGTON", "province": "ON", "country": "CA", "postalCode": "L7P1X7", "twitter": "None", "instagram": "None", "facebook": "None", "youtube": "None", "website": "None", "summary": "None", "logo": "None", "latitude": 43.345299570661716, "longitude": -79.82712585980174}, "131809329RR0001": {"name": "PRINCE OF PEACE LUTHERAN CHURCH", "designationCode": "C", "categoryCode": "32", "address": "9722 - 84 AVE", "city": "PEACE RIVER", "province": "AB", "country": "CA", "postalCode": "T8S1A4", "twitter": "None", "instagram": "None", "facebook": "None", "youtube": "None", "website": "None", "summary": "None", "logo": "None", "latitude": 56.24970952596793, "longitude": -117.2945205}, "107859217RR0001": {"name": "PRINCE OF PEACE LUTHERAN CHURCH OF CALGARY", "designationCode": "C", "categoryCode": "32", "address": "243209 GARDEN RD NE", "city": "CALGARY", "province": "AB", "country": "CA", "postalCode": "T1X1E1", "twitter": "None", "instagram": "None", "facebook": "None", "youtube": "None", "website": "None", "summary": "None", "logo": "None", "latitude": 51.03785712971458, "longitude": -113.88868147702746}, "802604942RR0001": {"name": "PRINCE OF PEACE LUTHERAN CHURCH, REGINA INC.", "designationCode": "C", "categoryCode": "32", "address": "935 MCCARTHY BLVD NORTH", "city": "REGINA", "province": "SK", "country": "CA", "postalCode": "S4X3L2", "twitter": "None", "instagram": "None", "facebook": "None", "youtube": "None", "website": "None", "summary": "None", "logo": "None", "latitude": 50.49204235535396, "longitude": -104.66379572668075}, "890368459RR0001": {"name": "PRINCE OF PEACE SENIOR SOCIAL CENTRE VOLUNTEERS", "designationCode": "C", "categoryCode": "09", "address": "930 WINAKWA RD", "city": "WINNIPEG", "province": "MB", "country": "CA", "postalCode": "R2J1E7", "twitter": "None", "instagram": "None", "facebook": "None", "youtube": "None", "website": "None", "summary": "None", "logo": "None", "latitude": 49.86368851399405, "longitude": -97.07740272300768}, "890956469RR0001": {"name": "PRINCE RUPERT CITY & REGIONAL ARCHIVES SOCIETY", "designationCode": "C", "categoryCode": "50", "address": "PO BOX 1093 STN MAIN", "city": "PRINCE RUPERT", "province": "BC", "country": "CA", "postalCode": "V8J4H6", "twitter": "None", "instagram": "None", "facebook": "None", "youtube": "None", "website": "None", "summary": "None", "logo": "None", "latitude": 54.313233000000054, "longitude": -130.32604249999994}, "104304464RR0001": {"name": "PRINCE RUPERT COMMUNITY ENRICHMENT SOCIETY", "designationCode": "C", "categoryCode": "09", "address": "710 FRASER STREET", "city": "PRINCE RUPERT", "province": "BC", "country": "CA", "postalCode": "V8J1P9", "twitter": "None", "instagram": "None", "facebook": "None", "youtube": "None", "website": "None", "summary": "None", "logo": "None", "latitude": 54.31032690976124, "longitude": -130.32703171067172}, "899400618RR0001": {"name": "PRINCE RUPERT CRIME STOPPERS", "designationCode": "C", "categoryCode": "59", "address": "100-6TH AVE WEST", "city": "PRINCE RUPERT", "province": "BC", "country": "CA", "postalCode": "V8J3Z3", "twitter": "None", "instagram": "None", "facebook": "None", "youtube": "None", "website": "None", "summary": "None", "logo": "None", "latitude": 54.31308291508446, "longitude": -130.31807874412817}, "129971990RR0001": {"name": "PRINCE RUPERT FELLOWSHIP BAPTIST CHURCH", "designationCode": "C", "categoryCode": "31", "address": "651-7TH AVE EAST", "city": "PRINCE RUPERT", "province": "BC", "country": "CA", "postalCode": "V8J2J5", "twitter": "None", "instagram": "None", "facebook": "None", "youtube": "None", "website": "None", "summary": "None", "logo": "None", "latitude": 54.31695088233587, "longitude": -130.30970659051277}, "892816562RR0001": {"name": "PRINCE RUPERT LIBRARY", "designationCode": "C", "categoryCode": "50", "address": "101 6TH AVENUE W", "city": "PRINCE RUPERT", "province": "BC", "country": "CA", "postalCode": "V8J1Y9", "twitter": "None", "instagram": "None", "facebook": "None", "youtube": "None", "website": "None", "summary": "None", "logo": "None", "latitude": 54.313034103237406, "longitude": -130.31804629972893}, "119103745RR0001": {"name": "PRINCE RUPERT MARINE RESCUE SOCIETY", "designationCode": "C", "categoryCode": "59", "address": "P.O. BOX 814 STN MAIN", "city": "PRINCE RUPERT", "province": "BC", "country": "CA", "postalCode": "V8J3Y1", "twitter": "None", "instagram": "None", "facebook": "None", "youtube": "None", "website": "None", "summary": "None", "logo": "None", "latitude": 54.313233000000054, "longitude": -130.32604249999994}, "119103760RR0001": {"name": "PRINCE RUPERT NATIVE PENTECOSTAL REVIVAL CHURCH", "designationCode": "C", "categoryCode": "36", "address": "721 FRASER ST", "city": "PRINCE RUPERT", "province": "BC", "country": "CA", "postalCode": "V8J1R1", "twitter": "None", "instagram": "None", "facebook": "None", "youtube": "None", "website": "None", "summary": "None", "logo": "None", "latitude": 54.31013407048882, "longitude": -130.32715834358598}, "107834848RR0001": {"name": "PRINCE RUPERT PENTECOSTAL TABERNACLE", "designationCode": "C", "categoryCode": "36", "address": "1220 PORTAGE ROAD", "city": "PRINCE RUPERT", "province": "BC", "country": "CA", "postalCode": "V8J4H9", "twitter": "None", "instagram": "None", "facebook": "None", "youtube": "None", "website": "None", "summary": "None", "logo": "None", "latitude": 54.31361751983289, "longitude": -130.2985876619301}, "104304589RR0001": {"name": "PRINCE RUPERT PERFORMING ARTS CENTRE SOCIETY", "designationCode": "C", "categoryCode": "22", "address": "1100 MCBRIDE STREET", "city": "PRINCE RUPERT", "province": "BC", "country": "CA", "postalCode": "V8J3H2", "twitter": "None", "instagram": "None", "facebook": "None", "youtube": "None", "website": "None", "summary": "None", "logo": "None", "latitude": 54.30977240638673, "longitude": -130.30999472144384}, "876149618RR0001": {"name": "PRINCE RUPERT REGIONAL COMMUNITY FOUNDATION", "designationCode": "A", "categoryCode": "03", "address": "P.O. BOX 66", "city": "PRINCE RUPERT", "province": "BC", "country": "CA", "postalCode": "V8J3P4", "twitter": "None", "instagram": "None", "facebook": "None", "youtube": "None", "website": "None", "summary": "None", "logo": "None", "latitude": 54.313233000000054, "longitude": -130.32604249999994}, "119103802RR0001": {"name": "PRINCE RUPERT SENIORS CENTRE ASSOCIATION", "designationCode": "C", "categoryCode": "56", "address": "21 GRENVILLE CRT", "city": "PRINCE RUPERT", "province": "BC", "country": "CA", "postalCode": "V8J1R3", "twitter": "None", "instagram": "None", "facebook": "None", "youtube": "None", "website": "None", "summary": "None", "logo": "None", "latitude": 54.31031858589649, "longitude": -130.32627974880273}, "129874533RR0001": {"name": "PRINCE RUPERT SIKH MISSIONARY SOCIETY", "designationCode": "C", "categoryCode": "62", "address": "PO BOX 503", "city": "PRINCE RUPERT", "province": "BC", "country": "CA", "postalCode": "V8J3P3", "twitter": "None", "instagram": "None", "facebook": "None", "youtube": "None", "website": "None", "summary": "None", "logo": "None", "latitude": 54.313233000000054, "longitude": -130.32604249999994}, "132952318RR0001": {"name": "PRINCE RUPERT UNEMPLOYED CENTRE SOCIETY", "designationCode": "C", "categoryCode": "09", "address": "869 FRASER STREET", "city": "PRINCE RUPERT", "province": "BC", "country": "CA", "postalCode": "V8J1R1", "twitter": "None", "instagram": "None", "facebook": "None", "youtube": "None", "website": "None", "summary": "None", "logo": "None", "latitude": 54.30913933922936, "longitude": -130.32867044440474}, "119288918RR0021": {"name": "PRINCE RUPERT, BRITISH COLUMBIA, CONGREGATION OF JEHOVAH'S WITNESSES,", "designationCode": "C", "categoryCode": "61", "address": "1403 7TH AVE E", "city": "PRINCE RUPERT", "province": "BC", "country": "CA", "postalCode": "V8J4N1", "twitter": "None", "instagram": "None", "facebook": "None", "youtube": "None", "website": "None", "summary": "None", "logo": "None", "latitude": 54.32424372191116, "longitude": -130.297709947429}, "119103968RR0001": {"name": "PRINCE WILLIAM CEMETERY INC.", "designationCode": "A", "categoryCode": "59", "address": "144 PIKE HILL ROAD", "city": "TEMPERANCE VALE", "province": "NB", "country": "CA", "postalCode": "E6G2E7", "twitter": "None", "instagram": "None", "facebook": "None", "youtube": "None", "website": "None", "summary": "None", "logo": "None", "latitude": 46.062065459598145, "longitude": -67.25764667036044}, "119103976RR0001": {"name": "PRINCE WILLIAM PASTORAL CHARGE", "designationCode": "C", "categoryCode": "44", "address": "198 ROUTE 105", "city": "SOUTHAMPTON", "province": "NB", "country": "CA", "postalCode": "E6G1J6", "twitter": "None", "instagram": "None", "facebook": "None", "youtube": "None", "website": "None", "summary": "None", "logo": "None", "latitude": 45.96167402962508, "longitude": -67.27146676894309}, "892546367RR0001": {"name": "PRINCESS LOUISA INTERNATIONAL SOCIETY", "designationCode": "C", "categoryCode": "52", "address": "10-5053 47TH AVENUE", "city": "DELTA", "province": "BC", "country": "CA", "postalCode": "V4K1R2", "twitter": "None", "instagram": "None", "facebook": "None", "youtube": "None", "website": "None", "summary": "None", "logo": "None", "latitude": 49.08835146047074, "longitude": -123.08325283236194}, "124040668RR0001": {"name": "PRINCESS STREET UNITED CHURCH", "designationCode": "C", "categoryCode": "44", "address": "484 ALBERT ST", "city": "KINGSTON", "province": "ON", "country": "CA", "postalCode": "K7L3W3", "twitter": "None", "instagram": "None", "facebook": "None", "youtube": "None", "website": "None", "summary": "None", "logo": "None", "latitude": 44.23632903497028, "longitude": -76.50072949613352}, "107859563RR0001": {"name": "PRINCETON & DISTRICT COMMUNITY SERVICES SOCIETY", "designationCode": "C", "categoryCode": "09", "address": "47 HAROLD AVE                 BOX 1960", "city": "PRINCETON", "province": "BC", "country": "CA", "postalCode": "V0X1W0", "twitter": "None", "instagram": "None", "facebook": "None", "youtube": "None", "website": "None", "summary": "None", "logo": "None", "latitude": 49.46234482737028, "longitude": -120.50806508840667}, "119103877RR0001": {"name": "PRINCETON AND DISTRICT HOUSING ASSOCIATION", "designationCode": "C", "categoryCode": "01", "address": "BOX 473", "city": "PRINCETON", "province": "ON", "country": "CA", "postalCode": "N0J1V0", "twitter": "None", "instagram": "None", "facebook": "None", "youtube": "None", "website": "None", "summary": "None", "logo": "None", "latitude": 43.16977000000003, "longitude": -80.52778999999998}, "119103885RR0001": {"name": "PRINCETON AND DISTRICT MUSEUM AND ARCHIVES", "designationCode": "C", "categoryCode": "50", "address": "BOX 281", "city": "PRINCETON", "province": "BC", "country": "CA", "postalCode": "V0X1W0", "twitter": "None", "instagram": "None", "facebook": "None", "youtube": "None", "website": "None", "summary": "None", "logo": "None"}, "141096388RR0001": {"name": "PRINCETON AND DISTRICT MUSEUM LIBRARY ASSOCIATION", "designationCode": "C", "categoryCode": "50", "address": "P.O. BOX 460", "city": "PRINCETON", "province": "ON", "country": "CA", "postalCode": "N0J1V0", "twitter": "None", "instagram": "None", "facebook": "None", "youtube": "None", "website": "None", "summary": "None", "logo": "None", "latitude": 43.16977000000003, "longitude": -80.52778999999998}, "119288918RR0301": {"name": "PRINCETON B C CONGREGATION OF JEHOVAH'S WITNESSES,", "designationCode": "C", "categoryCode": "61", "address": "PO BOX 1335", "city": "PRINCETON", "province": "BC", "country": "CA", "postalCode": "V0X1W0", "twitter": "None", "instagram": "None", "facebook": "None", "youtube": "None", "website": "None", "summary": "None", "logo": "None", "latitude": 49.458687000000054, "longitude": -120.50591299999994}, "107859548RR0001": {"name": "PRINCETON CHILD-CARE SERVICES SOCIETY", "designationCode": "C", "categoryCode": "09", "address": "P.O.BOX 1331                  56 KENLEY AVENUE", "city": "PRINCETON", "province": "BC", "country": "CA", "postalCode": "V0X1W0", "twitter": "None", "instagram": "None", "facebook": "None", "youtube": "None", "website": "None", "summary": "None", "logo": "None", "latitude": 49.460859083470865, "longitude": -120.50565819850901}, "890821945RR0001": {"name": "PRINCETON CRISIS ASSISTANCE", "designationCode": "C", "categoryCode": "09", "address": "BOX 1229", "city": "PRINCETON", "province": "BC", "country": "CA", "postalCode": "V0X1W0", "twitter": "None", "instagram": "None", "facebook": "None", "youtube": "None", "website": "None", "summary": "None", "logo": "None", "latitude": 49.458687000000054, "longitude": -120.50591299999994}, "119103927RR0001": {"name": "PRINCETON ETONIA PASTORAL CHARGE", "designationCode": "C", "categoryCode": "44", "address": "459 KING EDWARD ST", "city": "PARIS", "province": "ON", "country": "CA", "postalCode": "N3L3E3", "twitter": "None", "instagram": "None", "facebook": "None", "youtube": "None", "website": "None", "summary": "None", "logo": "None", "latitude": 43.17043558909923, "longitude": -80.42861711357702}, "107859589RR0001": {"name": "PRINCETON EXHIBITION ASSOCIATION", "designationCode": "C", "categoryCode": "56", "address": "315 LAURIE CURRIE WAY         PO BOX 1293", "city": "PRINCETON", "province": "BC", "country": "CA", "postalCode": "V0X1W0", "twitter": "None", "instagram": "None", "facebook": "None", "youtube": "None", "website": "None", "summary": "None", "logo": "None", "latitude": 49.476511598466274, "longitude": -120.49446373029843}, "875458812RR0001": {"name": "PRINCETON GROUND SEARCH AND RESCUE SOCIETY", "designationCode": "C", "categoryCode": "59", "address": "PO BOX 1288", "city": "PRINCETON", "province": "BC", "country": "CA", "postalCode": "V0X1W0", "twitter": "None", "instagram": "None", "facebook": "None", "youtube": "None", "website": "None", "summary": "None", "logo": "None", "latitude": 49.458687000000054, "longitude": -120.50591299999994}, "119103935RR0001": {"name": "PRINCETON PASTORAL CHARGE", "designationCode": "C", "categoryCode": "44", "address": "PO BOX 284", "city": "PRINCETON", "province": "BC", "country": "CA", "postalCode": "V0X1W0", "twitter": "None", "instagram": "None", "facebook": "None", "youtube": "None", "website": "None", "summary": "None", "logo": "None", "latitude": 49.458687000000054, "longitude": -120.50591299999994}, "119103950RR0001": {"name": "PRINCETON SENIOR CITIZENS DROP-IN CENTRE SOCIETY", "designationCode": "C", "categoryCode": "56", "address": "PO BOX 1776", "city": "PRINCETON", "province": "BC", "country": "CA", "postalCode": "V0X1W0", "twitter": "None", "instagram": "None", "facebook": "None", "youtube": "None", "website": "None", "summary": "None", "logo": "None", "latitude": 49.458687000000054, "longitude": -120.50591299999994}, "891221343RR0001": {"name": "PRIOR PLAYERS", "designationCode": "C", "categoryCode": "22", "address": "20 SMOLKIN STREET", "city": "ARNPRIOR", "province": "ON", "country": "CA", "postalCode": "K7S3R7", "twitter": "None", "instagram": "None", "facebook": "None", "youtube": "None", "website": "None", "summary": "None", "logo": "None", "latitude": 45.42744666082873, "longitude": -76.37016711806817}, "891234940RR0001": {"name": "PRIORITY-1 OUTREACH PROGRAM FOUNDATION FOR JUDAISM", "designationCode": "C", "categoryCode": "47", "address": "342 BROOKE AVE", "city": "TORONTO", "province": "ON", "country": "CA", "postalCode": "M5M2L3", "twitter": "None", "instagram": "None", "facebook": "None", "youtube": "None", "website": "None", "summary": "None", "logo": "None", "latitude": 43.73158615072984, "longitude": -79.42696950611683}, "129977047RR0001": {"name": "PRIORY PARK BAPTIST CHURCH", "designationCode": "C", "categoryCode": "31", "address": "8 TORCH LANE", "city": "GUELPH", "province": "ON", "country": "CA", "postalCode": "N1G1V6", "twitter": "None", "instagram": "None", "facebook": "None", "youtube": "None", "website": "None", "summary": "None", "logo": "None", "latitude": 43.515801767932636, "longitude": -80.24400595553735}, "119104750RR0001": {"name": "PRISE DE PAROLE INC.", "designationCode": "C", "categoryCode": "22", "address": "CP 550 SUCCURSALE B", "city": "SUDBURY", "province": "ON", "country": "CA", "postalCode": "P3E4R2", "twitter": "None", "instagram": "None", "facebook": "None", "youtube": "None", "website": "None", "summary": "None", "logo": "None", "latitude": 46.48958700000006, "longitude": -80.99011249999994}, "131056848RR0001": {"name": "PRISON FELLOWSHIP OF CANADA / FRATERNITE DES PRISONS DU CANADA", "designationCode": "C", "categoryCode": "59", "address": "144 - 5945 AIRPORT RD", "city": "MISSISSAUGA", "province": "ON", "country": "CA", "postalCode": "L4V1R9", "twitter": "None", "instagram": "None", "facebook": "None", "youtube": "None", "website": "None", "summary": "None", "logo": "None", "latitude": 43.68598824626535, "longitude": -79.60894075403448}, "890269459RR0001": {"name": "PRISONERS WITH HIV/AIDS SUPPORT ACTION NETWORK", "designationCode": "C", "categoryCode": "09", "address": "526 RICHMOND STREET EAST      1ST FLOOR", "city": "TORONTO", "province": "ON", "country": "CA", "postalCode": "M5A1R3", "twitter": "None", "instagram": "None", "facebook": "None", "youtube": "None", "website": "None", "summary": "None", "logo": "None", "latitude": 43.65444308523268, "longitude": -79.36443844353386}, "898077540RR0001": {"name": "PRITCHARD EVANGELICAL FREE CHURCH", "designationCode": "C", "categoryCode": "39", "address": "BOX 198", "city": "PRITCHARD", "province": "BC", "country": "CA", "postalCode": "V0E2P0", "twitter": "None", "instagram": "None", "facebook": "None", "youtube": "None", "website": "None", "summary": "None", "logo": "None", "latitude": 50.68511445000857, "longitude": -119.80941479210031}, "119104792RR0001": {"name": "PRITCHARD PLACE DROP-IN CENTRE INC.", "designationCode": "C", "categoryCode": "59", "address": "220 ANDREWS ST", "city": "WINNIPEG", "province": "MB", "country": "CA", "postalCode": "R2W4T1", "twitter": "None", "instagram": "None", "facebook": "None", "youtube": "None", "website": "None", "summary": "None", "logo": "None", "latitude": 49.91810587483403, "longitude": -97.1449598323906}, "857210744RR0001": {"name": "PRIVATE GIVING FOUNDATION", "designationCode": "A", "categoryCode": "03", "address": "PACIFIC CENTRE PO BOX 10085", "city": "VANCOUVER", "province": "BC", "country": "CA", "postalCode": "V7Y1B6", "twitter": "None", "instagram": "None", "facebook": "None", "youtube": "None", "website": "None", "summary": "None", "logo": "None", "latitude": 49.28299000000004, "longitude": -123.11890999999997}, "862879483RR0001": {"name": "PRIX LITTERAIRE DES COLLEGIENS", "designationCode": "C", "categoryCode": "21", "address": "CP 306 SUCC WESTMOUNT", "city": "MONTREAL", "province": "QC", "country": "CA", "postalCode": "H3Z2T5", "twitter": "None", "instagram": "None", "facebook": "None", "youtube": "None", "website": "None", "summary": "None", "logo": "None", "latitude": 45.48496200000005, "longitude": -73.59658099999993}, "131934978RR0001": {"name": "PRIX LIZETTE GERVAIS INC", "designationCode": "C", "categoryCode": "21", "address": "1012 MONT-ROYAL EST           BUREAU 105", "city": "MONTREAL", "province": "QC", "country": "CA", "postalCode": "H2J1X6", "twitter": "None", "instagram": "None", "facebook": "None", "youtube": "None", "website": "None", "summary": "None", "logo": "None", "latitude": 45.52751606826714, "longitude": -73.57961028585046}, "877524512RR0001": {"name": "PRO BONO ONTARIO", "designationCode": "C", "categoryCode": "59", "address": "900-90 EGLINGTON AVE E", "city": "TORONTO", "province": "ON", "country": "CA", "postalCode": "M4P1A6", "twitter": "None", "instagram": "None", "facebook": "None", "youtube": "None", "website": "None", "summary": "None", "logo": "None", "latitude": 43.70683500000001, "longitude": -79.39789199999998}, "119104867RR0001": {"name": "PRO CORO SOCIETY - EDMONTON", "designationCode": "C", "categoryCode": "22", "address": "309 10113 104 ST NW", "city": "EDMONTON", "province": "AB", "country": "CA", "postalCode": "T5J1A1", "twitter": "None", "instagram": "None", "facebook": "None", "youtube": "None", "website": "None", "summary": "None", "logo": "None", "latitude": 53.54250201813131, "longitude": -113.49925783778008}, "892391848RR0001": {"name": "PRO MUSICA CHOIR", "designationCode": "C", "categoryCode": "22", "address": "2436 NEWPORT ST", "city": "BURLINGTON", "province": "ON", "country": "CA", "postalCode": "L7M3Y1", "twitter": "None", "instagram": "None", "facebook": "None", "youtube": "None", "website": "None", "summary": "None", "logo": "None", "latitude": 43.38624557227786, "longitude": -79.8220552260661}, "888936572RR0001": {"name": "PRO MUSICA SOCIETY OF VANCOUVER", "designationCode": "C", "categoryCode": "22", "address": "PO BOX 78077 RPO GRANDVIEW", "city": "VANCOUVER", "province": "BC", "country": "CA", "postalCode": "V5N5W1", "twitter": "None", "instagram": "None", "facebook": "None", "youtube": "None", "website": "None", "summary": "None", "logo": "None", "latitude": 49.2644175824867, "longitude": -123.07184667006705}, "107876476RR0026": {"name": "PRO-CATHEDRAL OF THE ASSUMPTION", "designationCode": "C", "categoryCode": "38", "address": "480 MCINTYRE STREET WEST", "city": "NORTH BAY", "province": "ON", "country": "CA", "postalCode": "P1B2Z4", "twitter": "None", "instagram": "None", "facebook": "None", "youtube": "None", "website": "None", "summary": "None", "logo": "None", "latitude": 46.31541387872919, "longitude": -79.46680560597872}, "872422555RR0001": {"name": "PRO-COEUR MEMPHREMAGOG INC.", "designationCode": "C", "categoryCode": "11", "address": "200 - 2377 RUE PRINCIPALE O", "city": "MAGOG", "province": "QC", "country": "CA", "postalCode": "J1X0J4", "twitter": "None", "instagram": "None", "facebook": "None", "youtube": "None", "website": "None", "summary": "None", "logo": "None", "latitude": 45.278122450263645, "longitude": -72.17753232524251}, "131268187RR0001": {"name": "PRO-GAM INC", "designationCode": "C", "categoryCode": "09", "address": "1453 RUE BEAUBIEN E           PORTE 205", "city": "MONTREAL", "province": "QC", "country": "CA", "postalCode": "H2G3C6", "twitter": "None", "instagram": "None", "facebook": "None", "youtube": "None", "website": "None", "summary": "None", "logo": "None", "latitude": 45.54155824536893, "longitude": -73.59817305860092}, "886301357RR0001": {"name": "PRO-JEUNE-EST RIMOUSKI-NEIGETTE", "designationCode": "C", "categoryCode": "09", "address": "414 RUE SIROIS", "city": "RIMOUSKI", "province": "QC", "country": "CA", "postalCode": "G5L6E2", "twitter": "None", "instagram": "None", "facebook": "None", "youtube": "None", "website": "None", "summary": "None", "logo": "None", "latitude": 48.43335922621035, "longitude": -68.5196035053957}, "119105435RR0001": {"name": "PRO-LIFE CORNWALL PRO-VIE", "designationCode": "C", "categoryCode": "09", "address": "812 PITT STREET, UNIT 27", "city": "CORNWALL", "province": "ON", "country": "CA", "postalCode": "K6J5R1", "twitter": "None", "instagram": "None", "facebook": "None", "youtube": "None", "website": "None", "summary": "None", "logo": "None", "latitude": 45.027672580068135, "longitude": -74.73409361714454}, "119105443RR0001": {"name": "PRO-LIFE SOCIETY OF COMOX VALLEY", "designationCode": "C", "categoryCode": "09", "address": "2018 DZINI ROAD", "city": "BLACK CREEK", "province": "BC", "country": "CA", "postalCode": "V9J1H1", "twitter": "None", "instagram": "None", "facebook": "None", "youtube": "None", "website": "None", "summary": "None", "logo": "None", "latitude": 49.82637879257477, "longitude": -125.12020676035937}, "889895462RR0001": {"name": "PRO-VIE MONTREAL / MONTREAL PRO-LIFE", "designationCode": "C", "categoryCode": "09", "address": "351 WILLIBRORD AVE", "city": "VERDUN", "province": "QC", "country": "CA", "postalCode": "H4G2T7", "twitter": "None", "instagram": "None", "facebook": "None", "youtube": "None", "website": "None", "summary": "None", "logo": "None", "latitude": 45.45933649711448, "longitude": -73.56907066610884}, "890441009RR0001": {"name": "PRO-VISION INTERNATIONAL (CANADA) INC.", "designationCode": "C", "categoryCode": "09", "address": "422 BAYFIELD CRESCENT", "city": "SASKATOON", "province": "SK", "country": "CA", "postalCode": "S7V1E6", "twitter": "None", "instagram": "None", "facebook": "None", "youtube": "None", "website": "None", "summary": "None", "logo": "None", "latitude": 52.11286617205281, "longitude": -106.56053897492612}, "887700862RR0001": {"name": "PROACTION, COPS & KIDS", "designationCode": "C", "categoryCode": "53", "address": "40 COLLEGE STREET             SUITE 623", "city": "TORONTO", "province": "ON", "country": "CA", "postalCode": "M5G2J3", "twitter": "None", "instagram": "None", "facebook": "None", "youtube": "None", "website": "None", "summary": "None", "logo": "None", "latitude": 43.66100618016021, "longitude": -79.38495874744639}, "851597377RR0001": {"name": "PROARTEDANZA PERFORMANCE INC.", "designationCode": "C", "categoryCode": "22", "address": "476 PARLIAMENT STREET         SECOND FLOOR", "city": "TORONTO", "province": "ON", "country": "CA", "postalCode": "M4X1P2", "twitter": "None", "instagram": "None", "facebook": "None", "youtube": "None", "website": "None", "summary": "None", "logo": "None", "latitude": 43.66447262891686, "longitude": -79.3680932184487}, "892340373RR0001": {"name": "PROBLEM GAMBLING RESOURCES NETWORK (ALBERTA)", "designationCode": "C", "categoryCode": "57", "address": "3312 PARSONS RD", "city": "EDMONTON", "province": "AB", "country": "CA", "postalCode": "T6N1B5", "twitter": "None", "instagram": "None", "facebook": "None", "youtube": "None", "website": "None", "summary": "None", "logo": "None", "latitude": 53.466127575076456, "longitude": -113.4862000688727}, "138197033RR0001": {"name": "PROCTER COMMUNITY SOCIETY", "designationCode": "C", "categoryCode": "56", "address": "BOX 108", "city": "PROCTER", "province": "BC", "country": "CA", "postalCode": "V0G1V0", "twitter": "None", "instagram": "None", "facebook": "None", "youtube": "None", "website": "None", "summary": "None", "logo": "None", "latitude": 49.617334143720534, "longitude": -116.9607654190741}, "863944955RR0001": {"name": "PROCURE ALLIANCE / ALLIANCE PROCURE", "designationCode": "C", "categoryCode": "13", "address": "110-1320 BOUL GRAHAM", "city": "MONT-ROYAL", "province": "QC", "country": "CA", "postalCode": "H3P3C8", "twitter": "None", "instagram": "None", "facebook": "None", "youtube": "None", "website": "None", "summary": "None", "logo": "None", "latitude": 45.516959038548315, "longitude": -73.64043417150454}, "888362449RR0001": {"name": "PROCURE DES MISSIONS ELISABETH-BRUYERE", "designationCode": "C", "categoryCode": "01", "address": "27, RUE BRUY\u00c8RE", "city": "OTTAWA", "province": "ON", "country": "CA", "postalCode": "K1N5C9", "twitter": "None", "instagram": "None", "facebook": "None", "youtube": "None", "website": "None", "summary": "None", "logo": "None", "latitude": 45.431560924964096, "longitude": -75.69739439912266}, "119104925RR0001": {"name": "PROCURE DES MISSIONS M.I.C.", "designationCode": "C", "categoryCode": "46", "address": "121 AVE MAPLEWOOD", "city": "OUTREMONT", "province": "QC", "country": "CA", "postalCode": "H2V2M2", "twitter": "None", "instagram": "None", "facebook": "None", "youtube": "None", "website": "None", "summary": "None", "logo": "None", "latitude": 45.51406449128608, "longitude": -73.60149308009679}, "119104933RR0001": {"name": "PROCURE DES MISSIONS MSC", "designationCode": "C", "categoryCode": "46", "address": "513 - 1330 CH SAINTE-FOY", "city": "QUEBEC", "province": "QC", "country": "CA", "postalCode": "G1S2N5", "twitter": "None", "instagram": "None", "facebook": "None", "youtube": "None", "website": "None", "summary": "None", "logo": "None", "latitude": 46.79499805329214, "longitude": -71.25376280988513}}