{"119113629RR0001": {"name": "REGENERATION HOUSE INC.", "designationCode": "C", "categoryCode": "01", "address": "2238 DUNDAS STREET WEST       SUITE 307", "city": "TORONTO", "province": "ON", "country": "CA", "postalCode": "M6R3A9", "twitter": "None", "instagram": "None", "facebook": "None", "youtube": "None", "website": "None", "summary": "None", "logo": "None", "latitude": 43.65432080627845, "longitude": -79.45189411417302}, "105250955RR0001": {"name": "REGENERATION NETWORK OF ONTARIO", "designationCode": "C", "categoryCode": "39", "address": "27 DAWSON CRES", "city": "AURORA", "province": "ON", "country": "CA", "postalCode": "L4G4T7", "twitter": "None", "instagram": "None", "facebook": "None", "youtube": "None", "website": "None", "summary": "None", "logo": "None", "latitude": 44.00735467585102, "longitude": -79.48649628454469}, "889663324RR0001": {"name": "REGENERATION OUTREACH COMMUNITY", "designationCode": "C", "categoryCode": "09", "address": "156 MAIN ST NORTH", "city": "BRAMPTON", "province": "ON", "country": "CA", "postalCode": "L6V1N9", "twitter": "None", "instagram": "None", "facebook": "None", "youtube": "None", "website": "None", "summary": "None", "logo": "None", "latitude": 43.688606162675065, "longitude": -79.76355285729159}, "863719936RR0001": {"name": "REGENT CHRISTIAN ACADEMY SOCIETY", "designationCode": "C", "categoryCode": "20", "address": "15100-66A AVENUE", "city": "SURREY", "province": "BC", "country": "CA", "postalCode": "V3S2A6", "twitter": "None", "instagram": "None", "facebook": "None", "youtube": "None", "website": "None", "summary": "None", "logo": "None", "latitude": 49.123491517889164, "longitude": -122.80362194171619}, "107881039RR0001": {"name": "REGENT COLLEGE", "designationCode": "C", "categoryCode": "20", "address": "5800 UNIVERSITY BOULEVARD", "city": "VANCOUVER", "province": "BC", "country": "CA", "postalCode": "V6T2E4", "twitter": "None", "instagram": "None", "facebook": "None", "youtube": "None", "website": "None", "summary": "None", "logo": "None", "latitude": 49.2664520346817, "longitude": -123.24414880181698}, "136861820RR0001": {"name": "REGENT COLLEGE FOUNDATION OF CANADA", "designationCode": "A", "categoryCode": "23", "address": "5800 UNIVERSITY BOULEVARD", "city": "VANCOUVER", "province": "BC", "country": "CA", "postalCode": "V6T2E4", "twitter": "None", "instagram": "None", "facebook": "None", "youtube": "None", "website": "None", "summary": "None", "logo": "None", "latitude": 49.2664520346817, "longitude": -123.24414880181698}, "862502994RR0001": {"name": "REGENT COLLEGE 2000 FOUNDATION", "designationCode": "A", "categoryCode": "43", "address": "5800 UNIVERSITY BOULEVARD", "city": "VANCOUVER", "province": "BC", "country": "CA", "postalCode": "V6T2E4", "twitter": "None", "instagram": "None", "facebook": "None", "youtube": "None", "website": "None", "summary": "None", "logo": "None", "latitude": 49.2664520346817, "longitude": -123.24414880181698}, "125272211RR0001": {"name": "REGENT PARK COMMUNITY HEALTH CENTRE", "designationCode": "C", "categoryCode": "11", "address": "465 DUNDAS ST E", "city": "TORONTO", "province": "ON", "country": "CA", "postalCode": "M5A2B2", "twitter": "None", "instagram": "None", "facebook": "None", "youtube": "None", "website": "None", "summary": "None", "logo": "None", "latitude": 43.659482878700516, "longitude": -79.36566722799934}, "872116025RR0001": {"name": "REGENT PARK SCHOOL OF MUSIC", "designationCode": "C", "categoryCode": "22", "address": "585 DUNDAS ST E               STE 220", "city": "TORONTO", "province": "ON", "country": "CA", "postalCode": "M5A2B7", "twitter": "None", "instagram": "None", "facebook": "None", "youtube": "None", "website": "None", "summary": "None", "logo": "None", "latitude": 43.66027180930821, "longitude": -79.36201567984308}, "107881195RR0001": {"name": "REGESH FAMILY & CHILD SERVICES", "designationCode": "C", "categoryCode": "09", "address": "149 WILLOWDALE AVE", "city": "NORTH YORK", "province": "ON", "country": "CA", "postalCode": "M2N4Y5", "twitter": "None", "instagram": "None", "facebook": "None", "youtube": "None", "website": "None", "summary": "None", "logo": "None", "latitude": 43.76623161532687, "longitude": -79.40056841254562}, "888199247RR0001": {"name": "REGIMENTAL SENATE TRUST FUND", "designationCode": "C", "categoryCode": "51", "address": "1 - 43 SINCLAIR DR", "city": "SAULT STE. MARIE", "province": "ON", "country": "CA", "postalCode": "P6A0E9", "twitter": "None", "instagram": "None", "facebook": "None", "youtube": "None", "website": "None", "summary": "None", "logo": "None", "latitude": 46.5200681722349, "longitude": -84.35177921625855}, "119113728RR0001": {"name": "REGIMENTAL TRUST FUND OF THE HIGHLAND FUSILIERS OF CANADA", "designationCode": "C", "categoryCode": "51", "address": "379 WESTRIDGE DR", "city": "WATERLOO", "province": "ON", "country": "CA", "postalCode": "N2L5Y1", "twitter": "None", "instagram": "None", "facebook": "None", "youtube": "None", "website": "None", "summary": "None", "logo": "None", "latitude": 43.45262401584038, "longitude": -80.54947773827111}, "119113967RR0001": {"name": "REGINA & DISTRICT CHAPTER OF THE AMERICAN HISTORICAL SOCIETY OF GERMANS FROM RUSSIA INC.", "designationCode": "C", "categoryCode": "50", "address": "101 MARTIN ST", "city": "REGINA", "province": "SK", "country": "CA", "postalCode": "S4S3W4", "twitter": "None", "instagram": "None", "facebook": "None", "youtube": "None", "website": "None", "summary": "None", "logo": "None", "latitude": 50.418396, "longitude": -104.59822691975899}, "119113975RR0001": {"name": "REGINA & DISTRICT FOOD BANK INC.", "designationCode": "C", "categoryCode": "01", "address": "445 WINNIPEG ST", "city": "REGINA", "province": "SK", "country": "CA", "postalCode": "S4R8P2", "twitter": "None", "instagram": "None", "facebook": "None", "youtube": "None", "website": "None", "summary": "None", "logo": "None", "latitude": 50.47172355103489, "longitude": -104.59515272648136}, "890711674RR0001": {"name": "REGINA ANTI-POVERTY MINISTRY", "designationCode": "C", "categoryCode": "09", "address": "2330 VICTORIA AVE", "city": "REGINA", "province": "SK", "country": "CA", "postalCode": "S4P0S6", "twitter": "None", "instagram": "None", "facebook": "None", "youtube": "None", "website": "None", "summary": "None", "logo": "None", "latitude": 50.44731565950496, "longitude": -104.61415956849183}, "119113751RR0001": {"name": "REGINA APOSTOLIC CHURCH INC.", "designationCode": "C", "categoryCode": "39", "address": "808 ASSINIBOINE AVE", "city": "REGINA", "province": "SK", "country": "CA", "postalCode": "S4V0K6", "twitter": "None", "instagram": "None", "facebook": "None", "youtube": "None", "website": "None", "summary": "None", "logo": "None", "latitude": 50.42606050548167, "longitude": -104.57097380682671}, "892573965RR0001": {"name": "REGINA CATHOLIC SCHOOL BANDS PARENT ASSOCIATION", "designationCode": "C", "categoryCode": "22", "address": "1027 COLLEGE AVE", "city": "REGINA", "province": "SK", "country": "CA", "postalCode": "S4P1A7", "twitter": "None", "instagram": "None", "facebook": "None", "youtube": "None", "website": "None", "summary": "None", "logo": "None", "latitude": 50.44063222950934, "longitude": -104.59590081780316}, "130932130RR0001": {"name": "REGINA CENTRAL OFFICE OF ALCOHOLICS ANNONYMOUS", "designationCode": "C", "categoryCode": "57", "address": "#107-845 BROAD STREET", "city": "REGINA", "province": "SK", "country": "CA", "postalCode": "S4R8G9", "twitter": "None", "instagram": "None", "facebook": "None", "youtube": "None", "website": "None", "summary": "None", "logo": "None", "latitude": 50.46508800000001, "longitude": -104.6062778786432}, "107881856RR0001": {"name": "REGINA CHINESE ALLIANCE CHURCH", "designationCode": "C", "categoryCode": "39", "address": "3010 ARENS RD. EAST", "city": "REGINA", "province": "SK", "country": "CA", "postalCode": "S4V2P7", "twitter": "None", "instagram": "None", "facebook": "None", "youtube": "None", "website": "None", "summary": "None", "logo": "None", "latitude": 50.438971579000274, "longitude": -104.54075151133964}, "119113884RR0001": {"name": "REGINA CHINESE BENEVOLENT ASSOCIATION", "designationCode": "C", "categoryCode": "09", "address": "BOX 425 STATION MAIN", "city": "REGINA", "province": "SK", "country": "CA", "postalCode": "S4P3A2", "twitter": "None", "instagram": "None", "facebook": "None", "youtube": "None", "website": "None", "summary": "None", "logo": "None", "latitude": 50.448246000000054, "longitude": -104.59517299999993}, "107881872RR0001": {"name": "REGINA CHRISTIAN SCHOOL ASSOCIATION", "designationCode": "C", "categoryCode": "20", "address": "2505 23RD AVE", "city": "REGINA", "province": "SK", "country": "CA", "postalCode": "S4S7K7", "twitter": "None", "instagram": "None", "facebook": "None", "youtube": "None", "website": "None", "summary": "None", "logo": "None", "latitude": 50.42338549725963, "longitude": -104.61657052553522}, "119146769RR0001": {"name": "REGINA CHURCH OF CHRIST", "designationCode": "C", "categoryCode": "39", "address": "1825 ROTHWELL STREET", "city": "REGINA", "province": "SK", "country": "CA", "postalCode": "S4N2C3", "twitter": "None", "instagram": "None", "facebook": "None", "youtube": "None", "website": "None", "summary": "None", "logo": "None", "latitude": 50.44996741326679, "longitude": -104.57071833868126}, "119113959RR0001": {"name": "REGINA CRIME STOPPERS INC.", "designationCode": "C", "categoryCode": "59", "address": "2145 ALBERT STREET", "city": "REGINA", "province": "SK", "country": "CA", "postalCode": "S4P2V1", "twitter": "None", "instagram": "None", "facebook": "None", "youtube": "None", "website": "None", "summary": "None", "logo": "None", "latitude": 50.44463999999999, "longitude": -104.61806683925818}, "106887771RR0001": {"name": "REGINA EARLY LEARNING CENTRE INC.", "designationCode": "C", "categoryCode": "01", "address": "2115 ATHOL STREET", "city": "REGINA", "province": "SK", "country": "CA", "postalCode": "S4T3E8", "twitter": "None", "instagram": "None", "facebook": "None", "youtube": "None", "website": "None", "summary": "None", "logo": "None", "latitude": 50.44500572621388, "longitude": -104.62817372621387}, "866237027RR0001": {"name": "REGINA EASTVIEW DAY CARE INC", "designationCode": "C", "categoryCode": "01", "address": "128 6TH AVE EAST", "city": "REGINA", "province": "SK", "country": "CA", "postalCode": "S4N5A5", "twitter": "None", "instagram": "None", "facebook": "None", "youtube": "None", "website": "None", "summary": "None", "logo": "None", "latitude": 50.45985947100233, "longitude": -104.58201365087406}, "131314650RR0001": {"name": "REGINA EDUCATION AND ACTION ON CHILD HUNGER INC.", "designationCode": "C", "categoryCode": "03", "address": "P.O. BOX 4482 STN MAIN        REACH", "city": "REGINA", "province": "SK", "country": "CA", "postalCode": "S4P3W7", "twitter": "None", "instagram": "None", "facebook": "None", "youtube": "None", "website": "None", "summary": "None", "logo": "None", "latitude": 50.448246000000054, "longitude": -104.59517299999993}, "119113983RR0001": {"name": "REGINA FELLOWSHIP ASSEMBLY", "designationCode": "C", "categoryCode": "39", "address": "1 LANGLEY ST", "city": "REGINA", "province": "SK", "country": "CA", "postalCode": "S4S3V5", "twitter": "None", "instagram": "None", "facebook": "None", "youtube": "None", "website": "None", "summary": "None", "logo": "None", "latitude": 50.42176194864109, "longitude": -104.59589183960396}, "119114031RR0001": {"name": "REGINA FOLK FESTIVAL INC.", "designationCode": "C", "categoryCode": "22", "address": "101-1855 SCARTH ST", "city": "REGINA", "province": "SK", "country": "CA", "postalCode": "S4P2G9", "twitter": "None", "instagram": "None", "facebook": "None", "youtube": "None", "website": "None", "summary": "None", "logo": "None", "latitude": 50.44934700000002, "longitude": -104.6107678176181}, "140746728RR0001": {"name": "REGINA FOOD FOR LEARNING ASSOC INC", "designationCode": "C", "categoryCode": "01", "address": "P.O. BOX 3524", "city": "REGINA", "province": "SK", "country": "CA", "postalCode": "S4P3J8", "twitter": "None", "instagram": "None", "facebook": "None", "youtube": "None", "website": "None", "summary": "None", "logo": "None", "latitude": 50.448246000000054, "longitude": -104.59517299999993}, "899050694RR0001": {"name": "REGINA GARDEN ASSOCIATES INC", "designationCode": "C", "categoryCode": "56", "address": "BOX 1790", "city": "REGINA", "province": "SK", "country": "CA", "postalCode": "S4P3C8", "twitter": "None", "instagram": "None", "facebook": "None", "youtube": "None", "website": "None", "summary": "None", "logo": "None", "latitude": 50.448246000000054, "longitude": -104.59517299999993}, "119113991RR0001": {"name": "REGINA GENERAL HOSPITAL AUXILIARY INC.", "designationCode": "C", "categoryCode": "13", "address": "1440-14TH AVENUE", "city": "REGINA", "province": "SK", "country": "CA", "postalCode": "S4P0W5", "twitter": "None", "instagram": "None", "facebook": "None", "youtube": "None", "website": "None", "summary": "None", "logo": "None", "latitude": 50.4440212112067, "longitude": -104.60192441540251}, "119114049RR0001": {"name": "REGINA HIGHLAND FESTIVAL ASSOCIATION INC.", "designationCode": "C", "categoryCode": "22", "address": "4782 MARIGOLD DR", "city": "REGINA", "province": "SK", "country": "CA", "postalCode": "S4X4S2", "twitter": "None", "instagram": "None", "facebook": "None", "youtube": "None", "website": "None", "summary": "None", "logo": "None", "latitude": 50.4956673062934, "longitude": -104.64947567345}, "878511369RR0001": {"name": "REGINA HORTICULTURAL SOCIETY INC.", "designationCode": "C", "categoryCode": "59", "address": "2806 ABBOTT RD", "city": "REGINA", "province": "SK", "country": "CA", "postalCode": "S4N2J8", "twitter": "None", "instagram": "None", "facebook": "None", "youtube": "None", "website": "None", "summary": "None", "logo": "None", "latitude": 50.43489453515614, "longitude": -104.57388777389185}, "898236922RR0001": {"name": "REGINA HUDA SCHOOL INC.", "designationCode": "C", "categoryCode": "20", "address": "REGINA HUDA SCHOOL            40 SHEPPARD STREET", "city": "REGINA", "province": "SK", "country": "CA", "postalCode": "S4R3M6", "twitter": "None", "instagram": "None", "facebook": "None", "youtube": "None", "website": "None", "summary": "None", "logo": "None", "latitude": 50.481010000000026, "longitude": -104.62359004226957}, "119114064RR0001": {"name": "REGINA HUMANE SOCIETY INC.", "designationCode": "C", "categoryCode": "54", "address": "PO BOX 3143 STN MAIN", "city": "REGINA", "province": "SK", "country": "CA", "postalCode": "S4P3G7", "twitter": "None", "instagram": "None", "facebook": "None", "youtube": "None", "website": "None", "summary": "None", "logo": "None", "latitude": 50.448246000000054, "longitude": -104.59517299999993}, "890456841RR0001": {"name": "REGINA KIWANIS CLUB FOUNDATION", "designationCode": "A", "categoryCode": "63", "address": "PO BOX 346 STN MAIN", "city": "REGINA", "province": "SK", "country": "CA", "postalCode": "S4P3A1", "twitter": "None", "instagram": "None", "facebook": "None", "youtube": "None", "website": "None", "summary": "None", "logo": "None", "latitude": 50.448246000000054, "longitude": -104.59517299999993}, "118834456RR0009": {"name": "REGINA KOREAN ALLIANCE CHURCH", "designationCode": "C", "categoryCode": "39", "address": "2110 KINGSTEET", "city": "REGINA", "province": "SK", "country": "CA", "postalCode": "S4T4G8", "twitter": "None", "instagram": "None", "facebook": "None", "youtube": "None", "website": "None", "summary": "None", "logo": "None", "latitude": 50.44487100000005, "longitude": -104.63839999999993}, "119114114RR0001": {"name": "REGINA LITTLE THEATRE SOCIETY INC.", "designationCode": "C", "categoryCode": "22", "address": "1077 ANGUS ST", "city": "REGINA", "province": "SK", "country": "CA", "postalCode": "S4T1Y4", "twitter": "None", "instagram": "None", "facebook": "None", "youtube": "None", "website": "None", "summary": "None", "logo": "None", "latitude": 50.46215349708581, "longitude": -104.6195798759019}, "119114148RR0001": {"name": "REGINA MALE VOICE CHOIR", "designationCode": "C", "categoryCode": "22", "address": "BOX 3872", "city": "REGINA", "province": "SK", "country": "CA", "postalCode": "S4P3R8", "twitter": "None", "instagram": "None", "facebook": "None", "youtube": "None", "website": "None", "summary": "None", "logo": "None", "latitude": 50.448246000000054, "longitude": -104.59517299999993}, "119110450RR0015": {"name": "REGINA MUNDI PARISH", "designationCode": "C", "categoryCode": "38", "address": "631 MOHAWK ROAD WEST", "city": "HAMILTON", "province": "ON", "country": "CA", "postalCode": "L9C1X7", "twitter": "None", "instagram": "None", "facebook": "None", "youtube": "None", "website": "None", "summary": "None", "logo": "None", "latitude": 43.23317662277136, "longitude": -79.9123467983726}, "821871845RR0001": {"name": "REGINA MUSIC FESTIVAL ASSOCIATION INC.", "designationCode": "C", "categoryCode": "22", "address": "1204 - 1830 COLLEGE AVE", "city": "REGINA", "province": "SK", "country": "CA", "postalCode": "S4P1C2", "twitter": "None", "instagram": "None", "facebook": "None", "youtube": "None", "website": "None", "summary": "None", "logo": "None", "latitude": 50.44089748600598, "longitude": -104.60745922009349}, "129504668RR0001": {"name": "REGINA MUSICAL CLUB", "designationCode": "C", "categoryCode": "22", "address": "8018 STRUTHERS CRES", "city": "REGINA", "province": "SK", "country": "CA", "postalCode": "S4Y1J3", "twitter": "None", "instagram": "None", "facebook": "None", "youtube": "None", "website": "None", "summary": "None", "logo": "None", "latitude": 50.48271653952926, "longitude": -104.69677402553522}, "890002264RR0001": {"name": "REGINA NATURAL HISTORY SOCIETY", "designationCode": "C", "categoryCode": "50", "address": "PO BOX 291 STN MAIN", "city": "REGINA", "province": "SK", "country": "CA", "postalCode": "S4P3A1", "twitter": "None", "instagram": "None", "facebook": "None", "youtube": "None", "website": "None", "summary": "None", "logo": "None", "latitude": 50.448246000000054, "longitude": -104.59517299999993}, "890492945RR0001": {"name": "REGINA NEW LIFE TABERNACLE, U P C INC", "designationCode": "C", "categoryCode": "36", "address": "171 HAMMOND RD", "city": "REGINA", "province": "SK", "country": "CA", "postalCode": "S4N0A7", "twitter": "None", "instagram": "None", "facebook": "None", "youtube": "None", "website": "None", "summary": "None", "logo": "None", "latitude": 50.484285, "longitude": -104.62771834315332}, "119114205RR0001": {"name": "REGINA OPEN DOOR SOCIETY INC.", "designationCode": "C", "categoryCode": "09", "address": "1855 SMITH ST", "city": "REGINA", "province": "SK", "country": "CA", "postalCode": "S4P2N5", "twitter": "None", "instagram": "None", "facebook": "None", "youtube": "None", "website": "None", "summary": "None", "logo": "None", "latitude": 50.449538905483564, "longitude": -104.61508322626112}, "119114213RR0001": {"name": "REGINA OSTOMY CHAPTER", "designationCode": "C", "categoryCode": "09", "address": "4623 JUNIPER DR", "city": "REGINA", "province": "SK", "country": "CA", "postalCode": "S4X4R6", "twitter": "None", "instagram": "None", "facebook": "None", "youtube": "None", "website": "None", "summary": "None", "logo": "None", "latitude": 50.49502349847081, "longitude": -104.6472437793296}, "119114221RR0001": {"name": "REGINA PALLIATIVE CARE INC.", "designationCode": "C", "categoryCode": "21", "address": "200 - 2150 SCARTH ST", "city": "REGINA", "province": "SK", "country": "CA", "postalCode": "S4P2H7", "twitter": "None", "instagram": "None", "facebook": "None", "youtube": "None", "website": "None", "summary": "None", "logo": "None", "latitude": 50.44463999999999, "longitude": -104.61089313131144}, "131294159RR0001": {"name": "REGINA PHILHARMONIC CHORUS INC", "designationCode": "C", "categoryCode": "22", "address": "PO BOX 14", "city": "REGINA", "province": "SK", "country": "CA", "postalCode": "S4P2Z5", "twitter": "None", "instagram": "None", "facebook": "None", "youtube": "None", "website": "None", "summary": "None", "logo": "None", "latitude": 50.448246000000054, "longitude": -104.59517299999993}, "119252609RR0001": {"name": "REGINA PRO-LIFE ASSOCIATION CORPORATION", "designationCode": "C", "categoryCode": "09", "address": "2029 MONTAGUE ST", "city": "REGINA", "province": "SK", "country": "CA", "postalCode": "S4T3J8", "twitter": "None", "instagram": "None", "facebook": "None", "youtube": "None", "website": "None", "summary": "None", "logo": "None", "latitude": 50.44647599999999, "longitude": -104.6296688759019}, "119114262RR0001": {"name": "REGINA PUBLIC LIBRARY BOARD", "designationCode": "C", "categoryCode": "50", "address": "PO BOX 2311 STN MAIN", "city": "REGINA", "province": "SK", "country": "CA", "postalCode": "S4P3E1", "twitter": "None", "instagram": "None", "facebook": "None", "youtube": "None", "website": "None", "summary": "None", "logo": "None", "latitude": 50.448246000000054, "longitude": -104.59517299999993}, "125974493RR0001": {"name": "REGINA RECOVERY HOMES, INC.", "designationCode": "C", "categoryCode": "57", "address": "BOX 457", "city": "INDIAN HEAD", "province": "SK", "country": "CA", "postalCode": "S0G2K0", "twitter": "None", "instagram": "None", "facebook": "None", "youtube": "None", "website": "None", "summary": "None", "logo": "None", "latitude": 50.52675000000005, "longitude": -103.66901999999999}, "107882516RR0001": {"name": "REGINA RESIDENTIAL RESOURCE CENTRE", "designationCode": "C", "categoryCode": "01", "address": "1047 WADEY DRIVE", "city": "REGINA", "province": "SK", "country": "CA", "postalCode": "S4N7J6", "twitter": "None", "instagram": "None", "facebook": "None", "youtube": "None", "website": "None", "summary": "None", "logo": "None", "latitude": 50.46147975437128, "longitude": -104.53053889422375}, "119114320RR0001": {"name": "REGINA SCIENCE FAIR COUNCIL", "designationCode": "C", "categoryCode": "21", "address": "3035 DONISON DR", "city": "REGINA", "province": "SK", "country": "CA", "postalCode": "S4V1X9", "twitter": "None", "instagram": "None", "facebook": "None", "youtube": "None", "website": "None", "summary": "None", "logo": "None", "latitude": 50.43037356535293, "longitude": -104.54421756852693}, "107882573RR0001": {"name": "REGINA SENIOR CITIZENS CENTRE", "designationCode": "C", "categoryCode": "01", "address": "2134 WINNIPEG STREET", "city": "REGINA", "province": "SK", "country": "CA", "postalCode": "S4P3X6", "twitter": "None", "instagram": "None", "facebook": "None", "youtube": "None", "website": "None", "summary": "None", "logo": "None", "latitude": 50.44448700000001, "longitude": -104.5952066685321}, "107882623RR0001": {"name": "REGINA SUMMER STAGE INC.", "designationCode": "C", "categoryCode": "22", "address": "1077 ANGUS STREET", "city": "REGINA", "province": "SK", "country": "CA", "postalCode": "S4T1Y4", "twitter": "None", "instagram": "None", "facebook": "None", "youtube": "None", "website": "None", "summary": "None", "logo": "None", "latitude": 50.46215349708581, "longitude": -104.6195798759019}, "119114353RR0001": {"name": "REGINA SYMPHONY ORCHESTRA INC.", "designationCode": "C", "categoryCode": "22", "address": "2424 COLLEGE AVE", "city": "REGINA", "province": "SK", "country": "CA", "postalCode": "S4P1C8", "twitter": "None", "instagram": "None", "facebook": "None", "youtube": "None", "website": "None", "summary": "None", "logo": "None", "latitude": 50.44092749321934, "longitude": -104.61609352553522}, "135138964RR0001": {"name": "REGINA THERAPEUTIC RIDING ASSOCIATION INC", "designationCode": "C", "categoryCode": "11", "address": "PO BOX 474", "city": "REGINA", "province": "SK", "country": "CA", "postalCode": "S4P3A2", "twitter": "None", "instagram": "None", "facebook": "None", "youtube": "None", "website": "None", "summary": "None", "logo": "None", "latitude": 50.448246000000054, "longitude": -104.59517299999993}, "899461594RR0001": {"name": "REGINA UKRAINIAN DANCE ENSEMBLE INC", "designationCode": "C", "categoryCode": "22", "address": "BOX 621", "city": "REGINA", "province": "SK", "country": "CA", "postalCode": "S4N2Y4", "twitter": "None", "instagram": "None", "facebook": "None", "youtube": "None", "website": "None", "summary": "None", "logo": "None", "latitude": 50.44617600000005, "longitude": -104.58358549999993}, "131357964RR0001": {"name": "REGINA UKRAINIAN ORTHODOX HOUSING CORP", "designationCode": "C", "categoryCode": "01", "address": "307-1110 MCNIVEN AVENUE", "city": "REGINA", "province": "SK", "country": "CA", "postalCode": "S4S7H2", "twitter": "None", "instagram": "None", "facebook": "None", "youtube": "None", "website": "None", "summary": "None", "logo": "None", "latitude": 50.41765764040695, "longitude": -104.59653767297694}, "866365562RR0001": {"name": "REGINA VICTORY CHURCH INC.", "designationCode": "C", "categoryCode": "47", "address": "1815 RUPERT STREET", "city": "REGINA", "province": "SK", "country": "CA", "postalCode": "S4N1W6", "twitter": "None", "instagram": "None", "facebook": "None", "youtube": "None", "website": "None", "summary": "None", "logo": "None", "latitude": 50.45013866472388, "longitude": -104.5663898759019}, "131221483RR0001": {"name": "REGINA WORK PREPARATION CENTRE INC", "designationCode": "C", "categoryCode": "59", "address": "2020 HALIFAX ST", "city": "REGINA", "province": "SK", "country": "CA", "postalCode": "S4P1T7", "twitter": "None", "instagram": "None", "facebook": "None", "youtube": "None", "website": "None", "summary": "None", "logo": "None", "latitude": 50.446358664723874, "longitude": -104.60352565684667}, "839558764RR0001": {"name": "REGINA YOUTH FOR CHRIST INC.", "designationCode": "C", "categoryCode": "49", "address": "2025 LORNE ST", "city": "REGINA", "province": "SK", "country": "CA", "postalCode": "S4P2M4", "twitter": "None", "instagram": "None", "facebook": "None", "youtube": "None", "website": "None", "summary": "None", "logo": "None", "latitude": 50.44655700000001, "longitude": -104.61362786868855}, "851641969RR0001": {"name": "REGINALD T. PENDERGAST CHARITY SCHOLARSHIP FUND", "designationCode": "B", "categoryCode": "25", "address": "198 DEBLOIS ROAD", "city": "TIGNISH", "province": "PE", "country": "CA", "postalCode": "C0B2B0", "twitter": "None", "instagram": "None", "facebook": "None", "youtube": "None", "website": "None", "summary": "None", "logo": "None", "latitude": 46.918587288937545, "longitude": -64.0806190402504}, "119114510RR0001": {"name": "REGION OF PEEL AGRICULTURAL SOCIETY", "designationCode": "C", "categoryCode": "56", "address": "12942 HEART LAKE RD", "city": "CALEDON", "province": "ON", "country": "CA", "postalCode": "L7C2J3", "twitter": "None", "instagram": "None", "facebook": "None", "youtube": "None", "website": "None", "summary": "None", "logo": "None", "latitude": 43.771147732442735, "longitude": -79.82822789009748}, "887829463RR0001": {"name": "REGIONAL CULTURAL/EVENT CENTRE INC.", "designationCode": "C", "categoryCode": "56", "address": "124 HARBOUR DRIVE", "city": "SUMMERSIDE", "province": "PE", "country": "CA", "postalCode": "C1N5Y8", "twitter": "None", "instagram": "None", "facebook": "None", "youtube": "None", "website": "None", "summary": "None", "logo": "None", "latitude": 46.38999775102441, "longitude": -63.785564843181966}, "864700356RR0001": {"name": "REGIONAL EMERGENCY MEDICAL SERVICES (EMS) FOUNDATION", "designationCode": "A", "categoryCode": "03", "address": "10710 97 ST", "city": "GRANDE PRAIRIE", "province": "AB", "country": "CA", "postalCode": "T8V7G6", "twitter": "None", "instagram": "None", "facebook": "None", "youtube": "None", "website": "None", "summary": "None", "logo": "None", "latitude": 55.16836705481795, "longitude": -118.82259693006023}, "864588926RR0001": {"name": "REGIONAL FIREFIGHTERS INTERPRETATION CENTER", "designationCode": "C", "categoryCode": "50", "address": "3214 HIGHWAY 2                BOX 5, COMP 4", "city": "FALL RIVER", "province": "NS", "country": "CA", "postalCode": "B2T1J5", "twitter": "None", "instagram": "None", "facebook": "None", "youtube": "None", "website": "None", "summary": "None", "logo": "None", "latitude": 44.814856807951905, "longitude": -63.6106874168448}, "118779008RR0001": {"name": "REGIONAL HIV/AIDS CONNECTION", "designationCode": "C", "categoryCode": "11", "address": "30 - 186 KING ST", "city": "LONDON", "province": "ON", "country": "CA", "postalCode": "N6A1C7", "twitter": "None", "instagram": "None", "facebook": "None", "youtube": "None", "website": "None", "summary": "None", "logo": "None", "latitude": 42.98278990259096, "longitude": -81.24823855482136}, "119114452RR0001": {"name": "REGIONAL HOSPICE OF QUINTE INC.", "designationCode": "C", "categoryCode": "10", "address": "225 DUNDAS STREET EAST", "city": "BELLEVILLE", "province": "ON", "country": "CA", "postalCode": "K8N1E2", "twitter": "None", "instagram": "None", "facebook": "None", "youtube": "None", "website": "None", "summary": "None", "logo": "None", "latitude": 44.162936202617146, "longitude": -77.36820864127047}, "139024624RR0001": {"name": "REGIONAL INDEPENDENT STUDENTS ASSOCIATION", "designationCode": "C", "categoryCode": "01", "address": "POST OFFICE BOX 1175", "city": "DARTMOUTH", "province": "NS", "country": "CA", "postalCode": "B2Y4B8", "twitter": "None", "instagram": "None", "facebook": "None", "youtube": "None", "website": "None", "summary": "None", "logo": "None", "latitude": 44.67403500000006, "longitude": -63.57535099999993}, "118928399RR0001": {"name": "REGIONAL MUNICIPALITY OF WOOD BUFFALO LIBRARY BOARD", "designationCode": "C", "categoryCode": "50", "address": "151 MACDONALD DR", "city": "FORT MCMURRAY", "province": "AB", "country": "CA", "postalCode": "T9H5C5", "twitter": "None", "instagram": "None", "facebook": "None", "youtube": "None", "website": "None", "summary": "None", "logo": "None", "latitude": 56.73090424034861, "longitude": -111.3896456108548}, "140454141RR0001": {"name": "REGIONAL NIAGARA FIREFIGHTERS VOLUNTEER BUFFS ASSOCIATION", "designationCode": "C", "categoryCode": "59", "address": "110 GLENAYR PLACE", "city": "WELLAND", "province": "ON", "country": "CA", "postalCode": "L3C3M7", "twitter": "None", "instagram": "None", "facebook": "None", "youtube": "None", "website": "None", "summary": "None", "logo": "None", "latitude": 43.01004552844941, "longitude": -79.26934494460173}, "134000884RR0001": {"name": "REGIONAL OCCUPATIONAL SERVICE ENTERPRISES INC", "designationCode": "C", "categoryCode": "59", "address": "633 CENTRAL AVE.", "city": "STE. ROSE DU LAC", "province": "MB", "country": "CA", "postalCode": "R0L1S0", "twitter": "None", "instagram": "None", "facebook": "None", "youtube": "None", "website": "None", "summary": "None", "logo": "None", "latitude": 51.06064391076383, "longitude": -99.52401926770847}, "130362361RR0001": {"name": "REGIONAL RESIDENTIAL SERVICES SOCIETY", "designationCode": "C", "categoryCode": "11", "address": "575 - 202 BROWNLOW AVE", "city": "DARTMOUTH", "province": "NS", "country": "CA", "postalCode": "B3B1T5", "twitter": "None", "instagram": "None", "facebook": "None", "youtube": "None", "website": "None", "summary": "None", "logo": "None", "latitude": 44.69841303912522, "longitude": -63.58055344188908}, "857005805RR0001": {"name": "REGIOPOLIS NOTRE DAME EDUCATION FOUNDATION", "designationCode": "C", "categoryCode": "21", "address": "390 PALACE RD", "city": "KINGSTON", "province": "ON", "country": "CA", "postalCode": "K7L4T3", "twitter": "None", "instagram": "None", "facebook": "None", "youtube": "None", "website": "None", "summary": "None", "logo": "None", "latitude": 44.235708841797, "longitude": -76.51408037235254}, "131690125RR0001": {"name": "REGIS COLLEGE", "designationCode": "C", "categoryCode": "20", "address": "100 WELLESLEY ST WEST", "city": "TORONTO", "province": "ON", "country": "CA", "postalCode": "M5S2Z5", "twitter": "None", "instagram": "None", "facebook": "None", "youtube": "None", "website": "None", "summary": "None", "logo": "None", "latitude": 43.66379514351649, "longitude": -79.38977972482535}, "119114544RR0001": {"name": "REGISTERED NURSES FOUNDATION OF B.C.", "designationCode": "C", "categoryCode": "11", "address": "100 - 1450 CREEKSIDE DR", "city": "VANCOUVER", "province": "BC", "country": "CA", "postalCode": "V6J5B3", "twitter": "None", "instagram": "None", "facebook": "None", "youtube": "None", "website": "None", "summary": "None", "logo": "None", "latitude": 49.2730658598304, "longitude": -123.14067372574898}, "889113445RR0001": {"name": "REGISTERED NURSES' FOUNDATION OF ONTARIO - STRIVING FOR HEALTHY COMMUNITIES", "designationCode": "C", "categoryCode": "11", "address": "305 - 7270 WOODBINE AVE", "city": "MARKHAM", "province": "ON", "country": "CA", "postalCode": "L3R4B9", "twitter": "None", "instagram": "None", "facebook": "None", "youtube": "None", "website": "None", "summary": "None", "logo": "None", "latitude": 43.82067741520003, "longitude": -79.35047976360386}, "890441140RR0001": {"name": "REGISTERED PRACTICAL NURSES ASSOCIATION OF ONTARIO EDUCATION FUND", "designationCode": "C", "categoryCode": "21", "address": "5025 ORBITOR DRIVE BLDG 4 200", "city": "MISSISSAUGA", "province": "ON", "country": "CA", "postalCode": "L4W4Y5", "twitter": "None", "instagram": "None", "facebook": "None", "youtube": "None", "website": "None", "summary": "None", "logo": "None", "latitude": 43.65635742951932, "longitude": -79.59918061647305}, "130435175RR0001": {"name": "REGROUP'ELLES INC", "designationCode": "C", "categoryCode": "09", "address": "C.P. 82020", "city": "TERREBONNE", "province": "QC", "country": "CA", "postalCode": "J6X4B2", "twitter": "None", "instagram": "None", "facebook": "None", "youtube": "None", "website": "None", "summary": "None", "logo": "None", "latitude": 45.69158400000006, "longitude": -73.63320199999993}, "895058600RR0001": {"name": "REGROUPEMENT A.D.S.", "designationCode": "C", "categoryCode": "09", "address": "5112 RUE DE BELLECHASSE", "city": "MONTREAL", "province": "QC", "country": "CA", "postalCode": "H1T2A4", "twitter": "None", "instagram": "None", "facebook": "None", "youtube": "None", "website": "None", "summary": "None", "logo": "None", "latitude": 45.57138104134693, "longitude": -73.56717749290222}, "897039277RR0001": {"name": "REGROUPEMENT ACTI-FAMILLES", "designationCode": "C", "categoryCode": "09", "address": "474, DES ETUDIANTS", "city": "POHENEGAMOOK", "province": "QC", "country": "CA", "postalCode": "G0L1J0", "twitter": "None", "instagram": "None", "facebook": "None", "youtube": "None", "website": "None", "summary": "None", "logo": "None", "latitude": 47.45627948516925, "longitude": -69.15215638574098}, "892900366RR0001": {"name": "REGROUPEMENT ACTION PREVENTION JEUNESSE DES LAURENTIDES", "designationCode": "C", "categoryCode": "09", "address": "7260 BOUL CLOUTIER", "city": "CHARLESBOURG", "province": "QC", "country": "CA", "postalCode": "G1H3E8", "twitter": "None", "instagram": "None", "facebook": "None", "youtube": "None", "website": "None", "summary": "None", "logo": "None", "latitude": 46.85359350207748, "longitude": -71.27384134566348}, "887307395RR0001": {"name": "REGROUPEMENT ACTION-MILIEU INC", "designationCode": "C", "categoryCode": "49", "address": "602, RUE RACINE EST", "city": "CHICOUTIMI", "province": "QC", "country": "CA", "postalCode": "G7H1V1", "twitter": "None", "instagram": "None", "facebook": "None", "youtube": "None", "website": "None", "summary": "None", "logo": "None", "latitude": 48.42955548009162, "longitude": -71.04963086081135}, "135776813RR0001": {"name": "REGROUPEMENT CULTUREL DES VIEILLES ARDOISES", "designationCode": "C", "categoryCode": "29", "address": "5 RUE BELMONT", "city": "RICHMOND", "province": "QC", "country": "CA", "postalCode": "J0B2H0", "twitter": "None", "instagram": "None", "facebook": "None", "youtube": "None", "website": "None", "summary": "None", "logo": "None", "latitude": 45.656792560361296, "longitude": -72.14905311795259}, "107880924RR0001": {"name": "REGROUPEMENT D'EDUCATION POPULAIRE EN ACTION COMMUNAUTAIRE DES REGIONS DE QUEBEC ET CHAUDIERE-APPALACHES (REPAC-03-12)", "designationCode": "C", "categoryCode": "59", "address": "301 RUE DE CARILLON", "city": "QUEBEC", "province": "QC", "country": "CA", "postalCode": "G1K5B3", "twitter": "None", "instagram": "None", "facebook": "None", "youtube": "None", "website": "None", "summary": "None", "logo": "None", "latitude": 46.81151905689884, "longitude": -71.23715662155928}, "895628873RR0001": {"name": "REGROUPEMENT D'ENTRAIDE SOCIALE DU TEMISCAMINGUE", "designationCode": "C", "categoryCode": "09", "address": "721 RTE 101 NORD", "city": "DUHAMEL-OUEST", "province": "QC", "country": "CA", "postalCode": "J9V2E2", "twitter": "None", "instagram": "None", "facebook": "None", "youtube": "None", "website": "None", "summary": "None", "logo": "None", "latitude": 47.34088603258141, "longitude": -79.43704007264223}, "107913444RR0001": {"name": "REGROUPEMENT D'ORGANISMES DE PROMOTION POUR PERSONNES HANDICAP\u00c9ES - R\u00c9GION MAURICIE", "designationCode": "C", "categoryCode": "09", "address": "1322 STE JULIE                BUREAU 37", "city": "TROIS-RIVIERES", "province": "QC", "country": "CA", "postalCode": "G9A1Y6", "twitter": "None", "instagram": "None", "facebook": "None", "youtube": "None", "website": "None", "summary": "None", "logo": "None", "latitude": 46.35120077130817, "longitude": -72.54992913362007}, "119114577RR0001": {"name": "REGROUPEMENT DE PARENTS DE PERSONNE AYANT UNE DEFICIENCE INTELLECTUELLE DE MONTREAL", "designationCode": "C", "categoryCode": "09", "address": "911 JEAN TALENT EST           LOCAL: 227A", "city": "MONTREAL", "province": "QC", "country": "CA", "postalCode": "H2R1V5", "twitter": "None", "instagram": "None", "facebook": "None", "youtube": "None", "website": "None", "summary": "None", "logo": "None", "latitude": 45.541230000000056, "longitude": -73.61296549999993}, "138775119RR0001": {"name": "REGROUPEMENT DE SERVICES INTEGRES PROPULSION INC", "designationCode": "C", "categoryCode": "09", "address": "ANNE BOULANGER                2075 RUE THEODORE", "city": "MONTREAL", "province": "QC", "country": "CA", "postalCode": "H1V3C1", "twitter": "None", "instagram": "None", "facebook": "None", "youtube": "None", "website": "None", "summary": "None", "logo": "None", "latitude": 45.558268804345225, "longitude": -73.53776236995795}, "897919171RR0001": {"name": "REGROUPEMENT DES AGORAPHOBES DE BAIE-COMEAU", "designationCode": "C", "categoryCode": "09", "address": "858 RUE PUYJALON              LOCAL 304", "city": "BAIE-COMEAU", "province": "QC", "country": "CA", "postalCode": "G5C1N1", "twitter": "None", "instagram": "None", "facebook": "None", "youtube": "None", "website": "None", "summary": "None", "logo": "None", "latitude": 49.1918574532574, "longitude": -68.25789422176693}, "138385042RR0001": {"name": "REGROUPEMENT DES AIDANTS NATURELS DE LA MAURICIE INC.", "designationCode": "C", "categoryCode": "09", "address": "79, ROCHELEAU", "city": "TROIS-RIVI\u00c8RES", "province": "QC", "country": "CA", "postalCode": "G8T5A4", "twitter": "None", "instagram": "None", "facebook": "None", "youtube": "None", "website": "None", "summary": "None", "logo": "None", "latitude": 46.36785556090953, "longitude": -72.50458935694488}, "859919680RR0001": {"name": "REGROUPEMENT DES AIDANTS NATURELS DU COMT\u00c9 DE L'ASSOMPTION", "designationCode": "C", "categoryCode": "09", "address": "50 RUE THOUIN PAV RICHELIEU   BUREAU 101", "city": "REPENTIGNY", "province": "QC", "country": "CA", "postalCode": "J6A4J4", "twitter": "None", "instagram": "None", "facebook": "None", "youtube": "None", "website": "None", "summary": "None", "logo": "None", "latitude": 45.73416390891028, "longitude": -73.45014598687135}, "892128455RR0001": {"name": "REGROUPEMENT DES AIDANTS-NATURELS DE MONTREAL", "designationCode": "C", "categoryCode": "09", "address": "1030 RUE BEAUBIEN E. #204", "city": "MONTR\u00c9AL", "province": "QC", "country": "CA", "postalCode": "H2S1T4", "twitter": "None", "instagram": "None", "facebook": "None", "youtube": "None", "website": "None", "summary": "None", "logo": "None", "latitude": 45.53727586066712, "longitude": -73.60196015055695}, "891109944RR0001": {"name": "REGROUPEMENT DES AMIS DE L'ECOLE ALFRED-DESROCHERS", "designationCode": "C", "categoryCode": "21", "address": "7282 CHEMIN DE SAINT-ELIE", "city": "SHERBROOKE", "province": "QC", "country": "CA", "postalCode": "J1R0K5", "twitter": "None", "instagram": "None", "facebook": "None", "youtube": "None", "website": "None", "summary": "None", "logo": "None", "latitude": 45.39472207025769, "longitude": -72.04215748894882}, "888062445RR0001": {"name": "REGROUPEMENT DES ASSISTEES SOCIALES ET ASSISTES SOCIAUX DU TEMISCOUATA", "designationCode": "C", "categoryCode": "09", "address": "465B AV. PRINCIPALE", "city": "DEGELIS", "province": "QC", "country": "CA", "postalCode": "G5T1L6", "twitter": "None", "instagram": "None", "facebook": "None", "youtube": "None", "website": "None", "summary": "None", "logo": "None", "latitude": 47.546803372409755, "longitude": -68.64102447278705}, "888348893RR0001": {"name": "REGROUPEMENT DES ASSISTES SOCIAUX DES ILES INC", "designationCode": "C", "categoryCode": "09", "address": "330, CH. PRINCIPALE #107", "city": "CAP-AUX-MEULES", "province": "QC", "country": "CA", "postalCode": "G4T1C9", "twitter": "None", "instagram": "None", "facebook": "None", "youtube": "None", "website": "None", "summary": "None", "logo": "None", "latitude": 47.37806428195531, "longitude": -61.865380513676904}, "104455027RR0001": {"name": "REGROUPEMENT DES ASSISTES SOCIAUX DU BAS-RICHELIEU", "designationCode": "C", "categoryCode": "09", "address": "309 - 71 RUE DE RAMEZAY", "city": "SOREL-TRACY", "province": "QC", "country": "CA", "postalCode": "J3P3Z1", "twitter": "None", "instagram": "None", "facebook": "None", "youtube": "None", "website": "None", "summary": "None", "logo": "None", "latitude": 46.044942202060085, "longitude": -73.10901753771158}, "133166835RR0001": {"name": "REGROUPEMENT DES ASSOCIATIONS DES PERSONNES HANDICAPEES DE LA GASPESIE (ILES-DE-LA-MADELEINE)", "designationCode": "C", "categoryCode": "09", "address": "CP 3083", "city": "CHANDLER", "province": "QC", "country": "CA", "postalCode": "G0C1K0", "twitter": "None", "instagram": "None", "facebook": "None", "youtube": "None", "website": "None", "summary": "None", "logo": "None", "latitude": 39.96231112344039, "longitude": -120.90286486086158}, "104454897RR0001": {"name": "REGROUPEMENT DES AVEUGLES ET AMBLYOPES DU MONTREAL METROPOLITAIN RAAMM", "designationCode": "C", "categoryCode": "59", "address": "5225, RUE BERRI, PORTE 101", "city": "MONTREAL", "province": "QC", "country": "CA", "postalCode": "H2J2S4", "twitter": "None", "instagram": "None", "facebook": "None", "youtube": "None", "website": "None", "summary": "None", "logo": "None", "latitude": 45.52897533417961, "longitude": -73.59013157839468}}