{"824000400RR0001": {"name": "Healing Heaven Ministries Church", "designationCode": "C", "categoryCode": "39", "address": "60 ROCKY MOUNTAIN CRESCENT,", "city": "BRAMPTON", "province": "ON", "country": "CA", "postalCode": "L6R1E7", "twitter": "None", "instagram": "None", "facebook": "None", "youtube": "None", "website": "None", "summary": "None", "logo": "None", "latitude": 43.76049439191517, "longitude": -79.74033861368208}, "731161691RR0001": {"name": "Healing Rooms of Stratford", "designationCode": "C", "categoryCode": "49", "address": "170 WILLOW ST", "city": "STRATFORD", "province": "ON", "country": "CA", "postalCode": "N5A7A4", "twitter": "None", "instagram": "None", "facebook": "None", "youtube": "None", "website": "None", "summary": "None", "logo": "None", "latitude": 43.372765234548865, "longitude": -80.9545864236828}, "801374885RR0001": {"name": "Healing Rooms Kenora", "designationCode": "C", "categoryCode": "49", "address": "132 RABBIT LAKE RD", "city": "KENORA", "province": "ON", "country": "CA", "postalCode": "P9N4L1", "twitter": "None", "instagram": "None", "facebook": "None", "youtube": "None", "website": "None", "summary": "None", "logo": "None", "latitude": 49.78870740550517, "longitude": -94.4784037872641}, "119271781RR0001": {"name": "Healing Streams International - A Church with a Global Vision", "designationCode": "C", "categoryCode": "39", "address": "291 PICTOU RD", "city": "TRURO", "province": "NS", "country": "CA", "postalCode": "B2N2S7", "twitter": "None", "instagram": "None", "facebook": "None", "youtube": "None", "website": "None", "summary": "None", "logo": "None"}, "874946908RR0001": {"name": "Healing Waters Flow Ministries Pentecostal Church of God", "designationCode": "B", "categoryCode": "39", "address": "80 COLVILLE ROAD", "city": "NORTH YORK", "province": "ON", "country": "CA", "postalCode": "M2M2Y4", "twitter": "None", "instagram": "None", "facebook": "None", "youtube": "None", "website": "None", "summary": "None", "logo": "None", "latitude": 43.70753397977356, "longitude": -79.4713274094003}, "826621161RR0001": {"name": "Healing Winds Ministries", "designationCode": "C", "categoryCode": "39", "address": "609 CHARLOTTEVILLE ROAD 11", "city": "SIMCOE", "province": "ON", "country": "CA", "postalCode": "N3Y4J9", "twitter": "None", "instagram": "None", "facebook": "None", "youtube": "None", "website": "None", "summary": "None", "logo": "None", "latitude": 42.817231330284464, "longitude": -80.43386340758262}, "801028002RR0001": {"name": "Health and Education Now! / Sant\u00e9 et \u00e9ducation maintenant!", "designationCode": "C", "categoryCode": "09", "address": "4724 RUE SAINT-ANDRE", "city": "MONTREAL", "province": "QC", "country": "CA", "postalCode": "H2J3A1", "twitter": "None", "instagram": "None", "facebook": "None", "youtube": "None", "website": "None", "summary": "None", "logo": "None", "latitude": 45.52794080792322, "longitude": -73.5839553079519}, "712768696RR0002": {"name": "Health and Home Care Foundation of BC", "designationCode": "A", "categoryCode": "03", "address": "204 - 3077 GRANVILLE ST", "city": "VANCOUVER", "province": "BC", "country": "CA", "postalCode": "V6H3J9", "twitter": "None", "instagram": "None", "facebook": "None", "youtube": "None", "website": "None", "summary": "None", "logo": "None", "latitude": 49.25825119900168, "longitude": -123.13881455998592}, "848974085RR0001": {"name": "Health to You Ministry", "designationCode": "C", "categoryCode": "47", "address": "118 WENDOVER DRIVE", "city": "HAMILTON", "province": "ON", "country": "CA", "postalCode": "L9C5X5", "twitter": "None", "instagram": "None", "facebook": "None", "youtube": "None", "website": "None", "summary": "None", "logo": "None", "latitude": 43.232375557851114, "longitude": -79.917024535807}, "851736488RR0001": {"name": "Health Arts Society of Alberta", "designationCode": "C", "categoryCode": "22", "address": "1254 7TH AVE W", "city": "VANCOUVER", "province": "BC", "country": "CA", "postalCode": "V6H1B6", "twitter": "None", "instagram": "None", "facebook": "None", "youtube": "None", "website": "None", "summary": "None", "logo": "None", "latitude": 49.26522451399404, "longitude": -123.13264444463039}, "827051319RR0001": {"name": "Health Arts Society of Atlantic Canada", "designationCode": "C", "categoryCode": "22", "address": "1254 7TH AVE W", "city": "VANCOUVER", "province": "BC", "country": "CA", "postalCode": "V6H1B6", "twitter": "None", "instagram": "None", "facebook": "None", "youtube": "None", "website": "None", "summary": "None", "logo": "None", "latitude": 49.26522451399404, "longitude": -123.13264444463039}, "830798807RR0001": {"name": "Health Arts Society of Manitoba Corp", "designationCode": "C", "categoryCode": "22", "address": "1254 7TH AVE W", "city": "VANCOUVER", "province": "BC", "country": "CA", "postalCode": "V6H1B6", "twitter": "None", "instagram": "None", "facebook": "None", "youtube": "None", "website": "None", "summary": "None", "logo": "None", "latitude": 49.26522451399404, "longitude": -123.13264444463039}, "852953462RR0001": {"name": "Health Arts Society of Ontario", "designationCode": "C", "categoryCode": "22", "address": "500 - 59 ADELAIDE ST E", "city": "TORONTO", "province": "ON", "country": "CA", "postalCode": "M5C1K6", "twitter": "None", "instagram": "None", "facebook": "None", "youtube": "None", "website": "None", "summary": "None", "logo": "None", "latitude": 43.65106129336214, "longitude": -79.3754558860496}, "808139208RR0001": {"name": "Health Arts Society of Regina Corp.", "designationCode": "C", "categoryCode": "22", "address": "1254 7TH AVE W", "city": "VANCOUVER", "province": "BC", "country": "CA", "postalCode": "V6H1B6", "twitter": "None", "instagram": "None", "facebook": "None", "youtube": "None", "website": "None", "summary": "None", "logo": "None", "latitude": 49.26522451399404, "longitude": -123.13264444463039}, "839049897RR0001": {"name": "Health Mission Outreach", "designationCode": "C", "categoryCode": "09", "address": "100-1655 DUFFERIN ST", "city": "TORONTO", "province": "ON", "country": "CA", "postalCode": "M6H3L9", "twitter": "None", "instagram": "None", "facebook": "None", "youtube": "None", "website": "None", "summary": "None", "logo": "None", "latitude": 43.6774826991459, "longitude": -79.44284705464847}, "825151186RR0001": {"name": "Health Out Loud", "designationCode": "C", "categoryCode": "11", "address": "PO BOX 19003 RPO WALMER", "city": "TORONTO", "province": "ON", "country": "CA", "postalCode": "M5S3C9", "twitter": "None", "instagram": "None", "facebook": "None", "youtube": "None", "website": "None", "summary": "None", "logo": "None", "latitude": 43.685658000000004, "longitude": -79.41281625}, "834467987RR0001": {"name": "Health Outreach to the Middle East-Canada / Mission M\u00e9dicale pour le Moyen-Orient-Canada", "designationCode": "C", "categoryCode": "11", "address": "2720 RUE FREGAULT", "city": "LAVAL", "province": "QC", "country": "CA", "postalCode": "H7T0A8", "twitter": "None", "instagram": "None", "facebook": "None", "youtube": "None", "website": "None", "summary": "None", "logo": "None", "latitude": 45.56284693559936, "longitude": -73.76926895599868}, "119031524RR0001": {"name": "Health Partners International of Canada/Partenaires canadiens pour la sant\u00e9 internationale", "designationCode": "C", "categoryCode": "13", "address": "212 - 3633 BOUL DES SOURCES", "city": "DOLLARD-DES-ORMEAUX", "province": "QC", "country": "CA", "postalCode": "H9B2K4", "twitter": "None", "instagram": "None", "facebook": "None", "youtube": "None", "website": "None", "summary": "None", "logo": "None", "latitude": 45.48781420540698, "longitude": -73.80035032814966}, "885027243RR0001": {"name": "Health Sciences North / Horizon Sant\u00e9 Nord", "designationCode": "C", "categoryCode": "10", "address": "41 RAMSEY LAKE ROAD", "city": "SUDBURY", "province": "ON", "country": "CA", "postalCode": "P3E5J1", "twitter": "None", "instagram": "None", "facebook": "None", "youtube": "None", "website": "None", "summary": "None", "logo": "None", "latitude": 46.469380295947126, "longitude": -80.99612071267406}, "892868480RR0001": {"name": "Health Sciences North Foundation", "designationCode": "A", "categoryCode": "13", "address": "ACTING EXECUTIVE DIRECTOR     41 RAMSEY LAKE RD", "city": "SUDBURY", "province": "ON", "country": "CA", "postalCode": "P3E5J1", "twitter": "None", "instagram": "None", "facebook": "None", "youtube": "None", "website": "None", "summary": "None", "logo": "None", "latitude": 46.469380295947126, "longitude": -80.99612071267406}, "852490200RR0001": {"name": "Health Standards Organization", "designationCode": "C", "categoryCode": "19", "address": "1150 CYRVILLE ROAD", "city": "OTTAWA", "province": "ON", "country": "CA", "postalCode": "K1J7S9", "twitter": "None", "instagram": "None", "facebook": "None", "youtube": "None", "website": "None", "summary": "None", "logo": "None", "latitude": 45.423724779877844, "longitude": -75.63164561255691}, "118954981RR0001": {"name": "Healthpartners Canada / Partenairesant\u00e9 Canada", "designationCode": "C", "categoryCode": "13", "address": "17 YORK STREET, SUITE 409", "city": "OTTAWA", "province": "ON", "country": "CA", "postalCode": "K1N5S7", "twitter": "None", "instagram": "None", "facebook": "None", "youtube": "None", "website": "None", "summary": "None", "logo": "None", "latitude": 45.427604666137505, "longitude": -75.69459119804938}, "857482426RR0001": {"name": "Healthy Encounters and Lifestyle Priorities for British Columbia (HELP4BC)", "designationCode": "C", "categoryCode": "11", "address": "PO BOX 20013", "city": "PENTICTON", "province": "BC", "country": "CA", "postalCode": "V2A8K3", "twitter": "None", "instagram": "None", "facebook": "None", "youtube": "None", "website": "None", "summary": "None", "logo": "None", "latitude": 49.52150990428083, "longitude": -119.52047216218398}, "809674096RR0001": {"name": "Healthy Horizons for Children and Families Inc.", "designationCode": "C", "categoryCode": "01", "address": "12 LINDEN AVENUE", "city": "FONTHILL", "province": "ON", "country": "CA", "postalCode": "L0S1E3", "twitter": "None", "instagram": "None", "facebook": "None", "youtube": "None", "website": "None", "summary": "None", "logo": "None", "latitude": 43.04912680507065, "longitude": -79.28575436941392}, "823005368RR0001": {"name": "Healthy Horizons Foundation Inc.", "designationCode": "B", "categoryCode": "03", "address": "77 MAIN ST", "city": "WINNIPEG", "province": "MB", "country": "CA", "postalCode": "R3C1A3", "twitter": "None", "instagram": "None", "facebook": "None", "youtube": "None", "website": "None", "summary": "None", "logo": "None", "latitude": 49.887295060793974, "longitude": -97.13387547345516}, "784173890RR0001": {"name": "Healthy Lives International Society", "designationCode": "C", "categoryCode": "11", "address": "2239 DEER SIDE DR SE", "city": "CALGARY", "province": "AB", "country": "CA", "postalCode": "T2J5L7", "twitter": "None", "instagram": "None", "facebook": "None", "youtube": "None", "website": "None", "summary": "None", "logo": "None", "latitude": 50.916346638351925, "longitude": -114.0061058798257}, "118835420RR0001": {"name": "Healthy Minds Canada Bonne sant\u00e9 mentale au Canada", "designationCode": "A", "categoryCode": "23", "address": "1920 YONGE STREET,3RD FLOOR", "city": "TORONTO", "province": "ON", "country": "CA", "postalCode": "M4S3E2", "twitter": "None", "instagram": "None", "facebook": "None", "youtube": "None", "website": "None", "summary": "None", "logo": "None", "latitude": 43.698824843181974, "longitude": -79.39675730451809}, "861072635RR0001": {"name": "Healthy Start for Mom & Me Inc.", "designationCode": "C", "categoryCode": "19", "address": "310-421 MULVEY AVE. EAST", "city": "WINNIPEG", "province": "MB", "country": "CA", "postalCode": "R3L0R6", "twitter": "None", "instagram": "None", "facebook": "None", "youtube": "None", "website": "None", "summary": "None", "logo": "None", "latitude": 49.87196599834564, "longitude": -97.1390598020958}, "816534291RR0001": {"name": "Healthy Start, Healthy Future Inc.", "designationCode": "C", "categoryCode": "09", "address": "409 - 1136 CENTRE ST", "city": "THORNHILL", "province": "ON", "country": "CA", "postalCode": "L4J3M8", "twitter": "None", "instagram": "None", "facebook": "None", "youtube": "None", "website": "None", "summary": "None", "logo": "None", "latitude": 43.80825217020555, "longitude": -79.46253695992247}, "118833177RR0001": {"name": "HealthCareCAN/SoinsSant\u00e9CAN", "designationCode": "C", "categoryCode": "19", "address": "100 - 17 YORK ST", "city": "OTTAWA", "province": "ON", "country": "CA", "postalCode": "K1N5S7", "twitter": "None", "instagram": "None", "facebook": "None", "youtube": "None", "website": "None", "summary": "None", "logo": "None", "latitude": 45.427604666137505, "longitude": -75.69459119804938}, "820670354RR0001": {"name": "Hear Africa Foundation", "designationCode": "C", "categoryCode": "09", "address": "100-5550 152ND ST", "city": "SURREY", "province": "BC", "country": "CA", "postalCode": "V3S5J9", "twitter": "None", "instagram": "None", "facebook": "None", "youtube": "None", "website": "None", "summary": "None", "logo": "None", "latitude": 49.10348657857544, "longitude": -122.80094294000929}, "785428699RR0001": {"name": "Hearst High School Scholarship Fund", "designationCode": "C", "categoryCode": "21", "address": "27 10TH STREET                PO BAG 7000", "city": "HEARST", "province": "ON", "country": "CA", "postalCode": "P0L1N0", "twitter": "None", "instagram": "None", "facebook": "None", "youtube": "None", "website": "None", "summary": "None", "logo": "None", "latitude": 49.687667885365634, "longitude": -83.66777193940851}, "873976567RR0001": {"name": "Hearst, Kap., S-R-F Counselling Service/Services de Counselling De Hearst, Kap, S-R-F", "designationCode": "C", "categoryCode": "09", "address": "1-29 BYNG AVE", "city": "KAPUSKASING", "province": "ON", "country": "CA", "postalCode": "P5N1W6", "twitter": "None", "instagram": "None", "facebook": "None", "youtube": "None", "website": "None", "summary": "None", "logo": "None", "latitude": 49.41802084670698, "longitude": -82.42278981845278}, "801468539RR0001": {"name": "Heart and Solar", "designationCode": "C", "categoryCode": "59", "address": "42 ARMAGH WAY", "city": "OTTAWA", "province": "ON", "country": "CA", "postalCode": "K2J4C1", "twitter": "None", "instagram": "None", "facebook": "None", "youtube": "None", "website": "None", "summary": "None", "logo": "None", "latitude": 45.29245547100233, "longitude": -75.73339030624979}, "735269292RR0001": {"name": "Heart and Soul Foundation for Community and International Development", "designationCode": "C", "categoryCode": "11", "address": "769 GRAND BLVD", "city": "NORTH VANCOUVER", "province": "BC", "country": "CA", "postalCode": "V7L3W3", "twitter": "None", "instagram": "None", "facebook": "None", "youtube": "None", "website": "None", "summary": "None", "logo": "None", "latitude": 49.31444686372555, "longitude": -123.05776516544502}, "811036425RR0001": {"name": "Heart and Stroke Foundation Canadian Partnership For Stroke Recovery", "designationCode": "A", "categoryCode": "13", "address": "206 - 600 PETER MORAND CRES", "city": "OTTAWA", "province": "ON", "country": "CA", "postalCode": "K1G5Z3", "twitter": "None", "instagram": "None", "facebook": "None", "youtube": "None", "website": "None", "summary": "None", "logo": "None", "latitude": 45.403655524525625, "longitude": -75.64213847723474}, "812536191RR0001": {"name": "Heart for Home Haiti Ministries Society (Calgary)", "designationCode": "C", "categoryCode": "09", "address": "11263 OAKFIELD DR SW", "city": "CALGARY", "province": "AB", "country": "CA", "postalCode": "T2W4M2", "twitter": "None", "instagram": "None", "facebook": "None", "youtube": "None", "website": "None", "summary": "None", "logo": "None", "latitude": 50.95399753621103, "longitude": -114.12830241618097}, "119005460RR0001": {"name": "Heart of the Nations Ministries", "designationCode": "C", "categoryCode": "36", "address": "15397-80 AVE", "city": "SURREY", "province": "BC", "country": "CA", "postalCode": "V3S2J2", "twitter": "None", "instagram": "None", "facebook": "None", "youtube": "None", "website": "None", "summary": "None", "logo": "None", "latitude": 49.148292456575604, "longitude": -122.7955815}, "818372880RR0001": {"name": "Heart of Jesus Fellowship", "designationCode": "C", "categoryCode": "39", "address": "1213 YORK MILLS ROAD #3", "city": "NORTH YORK", "province": "ON", "country": "CA", "postalCode": "M3A1Y4", "twitter": "None", "instagram": "None", "facebook": "None", "youtube": "None", "website": "None", "summary": "None", "logo": "None", "latitude": 43.759562859801754, "longitude": -79.33240723131756}, "107640021RR0001": {"name": "Heart of Muskoka Pastoral Charge", "designationCode": "C", "categoryCode": "44", "address": "PO BOX 35", "city": "UTTERSON", "province": "ON", "country": "CA", "postalCode": "P0B1M0", "twitter": "None", "instagram": "None", "facebook": "None", "youtube": "None", "website": "None", "summary": "None", "logo": "None", "latitude": 45.16353600000005, "longitude": -79.44010549999993}, "823482120RR0001": {"name": "Heart to Heart Africa", "designationCode": "C", "categoryCode": "20", "address": "14 RAVINE RD.", "city": "ST. CATHARINES", "province": "ON", "country": "CA", "postalCode": "L2P3A7", "twitter": "None", "instagram": "None", "facebook": "None", "youtube": "None", "website": "None", "summary": "None", "logo": "None", "latitude": 43.159552575076475, "longitude": -79.22030061368207}, "818086829RR0001": {"name": "Heart to Heart Family Ministries", "designationCode": "C", "categoryCode": "49", "address": "PO BOX 5100 STN LCD 1", "city": "BURLINGTON", "province": "ON", "country": "CA", "postalCode": "L7R4M2", "twitter": "None", "instagram": "None", "facebook": "None", "youtube": "None", "website": "None", "summary": "None", "logo": "None", "latitude": 43.326195000000055, "longitude": -79.79863399999994}, "838731032RR0001": {"name": "Heart to Heart Healing Centre", "designationCode": "C", "categoryCode": "49", "address": "26 BROCK ST W,", "city": "UXBRIDGE", "province": "ON", "country": "CA", "postalCode": "L9P1P3", "twitter": "None", "instagram": "None", "facebook": "None", "youtube": "None", "website": "None", "summary": "None", "logo": "None", "latitude": 44.10901800945289, "longitude": -79.12163189929093}, "842921587RR0001": {"name": "Heart to Heart Ministry Centre la Crete", "designationCode": "C", "categoryCode": "49", "address": "PO BOX 1092", "city": "LA CRETE", "province": "AB", "country": "CA", "postalCode": "T0H2H0", "twitter": "None", "instagram": "None", "facebook": "None", "youtube": "None", "website": "None", "summary": "None", "logo": "None", "latitude": 58.18348000000003, "longitude": -116.40267999999998}, "809145246RR0001": {"name": "Heart to Heart Quilts Lanark County", "designationCode": "C", "categoryCode": "09", "address": "12 GLENVIEW CRESCENT", "city": "PERTH", "province": "ON", "country": "CA", "postalCode": "K7H2L2", "twitter": "None", "instagram": "None", "facebook": "None", "youtube": "None", "website": "None", "summary": "None", "logo": "None", "latitude": 44.90579451788918, "longitude": -76.25585052943036}, "891198343RR0001": {"name": "Heart Lake Council No. 9108 Charitable Trust", "designationCode": "A", "categoryCode": "05", "address": "187 CONESTOGA DRIVE", "city": "BRAMPTON", "province": "ON", "country": "CA", "postalCode": "L6Z3X8", "twitter": "None", "instagram": "None", "facebook": "None", "youtube": "None", "website": "None", "summary": "None", "logo": "None", "latitude": 43.72235400556859, "longitude": -79.79071155534095}, "107797383RR0062": {"name": "Heart Lake Seventh-day Adventist Church", "designationCode": "C", "categoryCode": "41", "address": "10747 HEART LAKE ROAD", "city": "BRAMPTON", "province": "ON", "country": "CA", "postalCode": "L6Z0B7", "twitter": "None", "instagram": "None", "facebook": "None", "youtube": "None", "website": "None", "summary": "None", "logo": "None", "latitude": 43.73713136637993, "longitude": -79.78180477696365}, "119288918RR1713": {"name": "Heart Lake Tagalog Congregation of Jehovah's Witnesses, Brampton, Ontario", "designationCode": "C", "categoryCode": "61", "address": "90 MCLAUGHLIN ROAD SOUTH", "city": "BRAMPTON", "province": "ON", "country": "CA", "postalCode": "L6V4T1", "twitter": "None", "instagram": "None", "facebook": "None", "youtube": "None", "website": "None", "summary": "None", "logo": "None", "latitude": 43.672004591007315, "longitude": -79.76500779657255}, "827782244RR0001": {"name": "Heart Two Heart Ministries Inc.", "designationCode": "C", "categoryCode": "49", "address": "12 VALLEY RIDGE LANE          RURAL ROUTE 2", "city": "HAMILTON", "province": "ON", "country": "CA", "postalCode": "L8N2Z7", "twitter": "None", "instagram": "None", "facebook": "None", "youtube": "None", "website": "None", "summary": "None", "logo": "None", "latitude": 43.40951700000005, "longitude": -80.01571399999993}, "750195323RR0001": {"name": "Heartache2Hope", "designationCode": "C", "categoryCode": "11", "address": "1155 NORTH SERVICE ROAD WEST  UNIT 11", "city": "OAKVILLE", "province": "ON", "country": "CA", "postalCode": "L6M3E3", "twitter": "None", "instagram": "None", "facebook": "None", "youtube": "None", "website": "None", "summary": "None", "logo": "None", "latitude": 43.43530938721196, "longitude": -79.71403809287871}, "831727060RR0001": {"name": "Heartfit Respite Inc.", "designationCode": "C", "categoryCode": "09", "address": "1398 FRANKFORD RD,            RURAL ROUTE 2", "city": "FRANKFORD", "province": "ON", "country": "CA", "postalCode": "K0K2C0", "twitter": "None", "instagram": "None", "facebook": "None", "youtube": "None", "website": "None", "summary": "None", "logo": "None", "latitude": 44.21329708638652, "longitude": -77.50595797685936}, "866742315RR0001": {"name": "Heartland Baptist Church Inc.", "designationCode": "C", "categoryCode": "31", "address": "BOX 1490", "city": "YORKTON", "province": "SK", "country": "CA", "postalCode": "S3N3K3", "twitter": "None", "instagram": "None", "facebook": "None", "youtube": "None", "website": "None", "summary": "None", "logo": "None", "latitude": 51.20403900000005, "longitude": -102.44985199999994}, "831163258RR0001": {"name": "Heartland Charitable Trust", "designationCode": "B", "categoryCode": "45", "address": "2500 - 201 PORTAGE AVENUE", "city": "WINNIPEG", "province": "MB", "country": "CA", "postalCode": "R3B3K6", "twitter": "None", "instagram": "None", "facebook": "None", "youtube": "None", "website": "None", "summary": "None", "logo": "None", "latitude": 49.895359615067065, "longitude": -97.13919299627776}, "853130607RR0001": {"name": "Heartland Community Church, Inc.", "designationCode": "A", "categoryCode": "34", "address": "BOX 119                       333 MAIN STREET", "city": "LANDMARK", "province": "MB", "country": "CA", "postalCode": "R0A0X0", "twitter": "None", "instagram": "None", "facebook": "None", "youtube": "None", "website": "None", "summary": "None", "logo": "None", "latitude": 49.67705569051467, "longitude": -96.82134421860201}, "840519490RR0001": {"name": "Heartland Cowboy Church", "designationCode": "C", "categoryCode": "39", "address": "P.O. BOX 1815", "city": "STETTER", "province": "AB", "country": "CA", "postalCode": "T0C2L0", "twitter": "None", "instagram": "None", "facebook": "None", "youtube": "None", "website": "None", "summary": "None", "logo": "None", "latitude": 52.32597900000006, "longitude": -112.70698099999993}, "871867974RR0001": {"name": "Heartland Housing Foundation", "designationCode": "A", "categoryCode": "59", "address": "914 BISON WAY", "city": "SHERWOOD PARK", "province": "AB", "country": "CA", "postalCode": "T8H2C4", "twitter": "None", "instagram": "None", "facebook": "None", "youtube": "None", "website": "None", "summary": "None", "logo": "None", "latitude": 53.55028452726692, "longitude": -113.2983}, "839593647RR0001": {"name": "Heartland Mennonite Brotherhood", "designationCode": "C", "categoryCode": "39", "address": "3357 20TH AVE", "city": "CRESTON", "province": "BC", "country": "CA", "postalCode": "V0B1G2", "twitter": "None", "instagram": "None", "facebook": "None", "youtube": "None", "website": "None", "summary": "None", "logo": "None", "latitude": 49.03589729114658, "longitude": -116.45902455136198}, "840849830RR0001": {"name": "Heartland Quilters (MB) Inc.", "designationCode": "C", "categoryCode": "09", "address": "PO BOX 3433                   36062 RD 38E", "city": "STEINBACH", "province": "MB", "country": "CA", "postalCode": "R5G1P6", "twitter": "None", "instagram": "None", "facebook": "None", "youtube": "None", "website": "None", "summary": "None", "logo": "None", "latitude": 49.52572800000006, "longitude": -96.68393449999994}, "884572512RR0001": {"name": "Hearts and Hands for Homes Society", "designationCode": "C", "categoryCode": "09", "address": "220 QUEENSWAY STREET", "city": "PRINCE GEORGE", "province": "BC", "country": "CA", "postalCode": "V2L1L2", "twitter": "None", "instagram": "None", "facebook": "None", "youtube": "None", "website": "None", "summary": "None", "logo": "None", "latitude": 53.91628962753188, "longitude": -122.7403933642738}, "854934056RR0001": {"name": "Hearts for Change", "designationCode": "C", "categoryCode": "09", "address": "P.O. BOX 173", "city": "YARKER", "province": "ON", "country": "CA", "postalCode": "K0K3N0", "twitter": "None", "instagram": "None", "facebook": "None", "youtube": "None", "website": "None", "summary": "None", "logo": "None", "latitude": 44.37166000000008, "longitude": -76.77047999999996}, "848947503RR0001": {"name": "Hearts for Healthcare Ltd.", "designationCode": "A", "categoryCode": "13", "address": "4009-50TH STREET              POST OFFICE BOX 454", "city": "COLD LAKE", "province": "AB", "country": "CA", "postalCode": "T9M1P1", "twitter": "None", "instagram": "None", "facebook": "None", "youtube": "None", "website": "None", "summary": "None", "logo": "None", "latitude": 54.40545060782504, "longitude": -110.20475588461674}, "860444801RR0001": {"name": "Hearts on Fire Ministries Calgary", "designationCode": "C", "categoryCode": "46", "address": "35 - 2016 SHERWOOD DR", "city": "SHERWOOD PARK", "province": "AB", "country": "CA", "postalCode": "T8A3X3", "twitter": "None", "instagram": "None", "facebook": "None", "youtube": "None", "website": "None", "summary": "None", "logo": "None", "latitude": 53.52731157700969, "longitude": -113.29550432667872}, "744283128RR0001": {"name": "Hearts to Homes Feline Rescue & Sanctuary", "designationCode": "C", "categoryCode": "54", "address": "30 HEATH ST", "city": "BRANTFORD", "province": "ON", "country": "CA", "postalCode": "N3T0G4", "twitter": "None", "instagram": "None", "facebook": "None", "youtube": "None", "website": "None", "summary": "None", "logo": "None", "latitude": 43.1234379077495, "longitude": -80.30491001234299}, "800495434RR0001": {"name": "Hearts Foundation", "designationCode": "B", "categoryCode": "09", "address": "577 SOMERSET STREET WEST", "city": "OTTAWA", "province": "ON", "country": "CA", "postalCode": "K1R5K1", "twitter": "None", "instagram": "None", "facebook": "None", "youtube": "None", "website": "None", "summary": "None", "logo": "None", "latitude": 45.41268341078528, "longitude": -75.70294499529679}, "856270210RR0001": {"name": "Heartspeak", "designationCode": "C", "categoryCode": "09", "address": "3044 BLOOR STREET WEST        SUITE 187", "city": "TORONTO", "province": "ON", "country": "CA", "postalCode": "M8X2Y8", "twitter": "None", "instagram": "None", "facebook": "None", "youtube": "None", "website": "None", "summary": "None", "logo": "None", "latitude": 43.64719192499933, "longitude": -79.51272316718315}, "777405895RR0001": {"name": "Heartwood Equine Connections", "designationCode": "C", "categoryCode": "56", "address": "10 PARK CRESCENT RR 2", "city": "ILDERTON", "province": "ON", "country": "CA", "postalCode": "N0M2A0", "twitter": "None", "instagram": "None", "facebook": "None", "youtube": "None", "website": "None", "summary": "None", "logo": "None", "latitude": 43.00607087423581, "longitude": -81.51190996337016}, "761997493RR0001": {"name": "HeartLife Foundation", "designationCode": "C", "categoryCode": "11", "address": "1018 51ST AVE E", "city": "VANCOUVER", "province": "BC", "country": "CA", "postalCode": "V5X1E7", "twitter": "None", "instagram": "None", "facebook": "None", "youtube": "None", "website": "None", "summary": "None", "logo": "None", "latitude": 49.22351447013694, "longitude": -123.08490207951986}, "826875627RR0001": {"name": "Heat Worship House", "designationCode": "C", "categoryCode": "39", "address": "685 MORIN STREET", "city": "OTTAWA", "province": "ON", "country": "CA", "postalCode": "K1K3G8", "twitter": "None", "instagram": "None", "facebook": "None", "youtube": "None", "website": "None", "summary": "None", "logo": "None", "latitude": 45.437874578971595, "longitude": -75.64624361071057}, "727775322RR0001": {"name": "Heaven Living Ministries Inc.", "designationCode": "C", "categoryCode": "39", "address": "1402 - 330 DIXON RD", "city": "ETOBICOKE", "province": "ON", "country": "CA", "postalCode": "M9R1S9", "twitter": "None", "instagram": "None", "facebook": "None", "youtube": "None", "website": "None", "summary": "None", "logo": "None", "latitude": 43.69557107412417, "longitude": -79.55323681528083}, "805062585RR0001": {"name": "Heaven's Gates Ministries", "designationCode": "C", "categoryCode": "39", "address": "568 CASTLEFORD RD             RR 5", "city": "RENFREW", "province": "ON", "country": "CA", "postalCode": "K7V3Z8", "twitter": "None", "instagram": "None", "facebook": "None", "youtube": "None", "website": "None", "summary": "None", "logo": "None", "latitude": 45.51008863866906, "longitude": -76.61454469931878}, "821453107RR0001": {"name": "Heavenly Home & Green Retreat Corp.", "designationCode": "C", "categoryCode": "49", "address": "79 LANGLAW DR,", "city": "CAMBRIDGE", "province": "ON", "country": "CA", "postalCode": "N1P1J1", "twitter": "None", "instagram": "None", "facebook": "None", "youtube": "None", "website": "None", "summary": "None", "logo": "None", "latitude": 43.336490071325564, "longitude": -80.30874570416621}, "809508351RR0001": {"name": "Heavens Gate Global Ministries", "designationCode": "C", "categoryCode": "39", "address": "PH302 - 18 LEE CENTRE DR", "city": "SCARBOROUGH", "province": "ON", "country": "CA", "postalCode": "M1H3H5", "twitter": "None", "instagram": "None", "facebook": "None", "youtube": "None", "website": "None", "summary": "None", "logo": "None", "latitude": 43.78109680821169, "longitude": -79.24724827725117}, "825554280RR0001": {"name": "Heavens Special Forces", "designationCode": "C", "categoryCode": "39", "address": "3507 20 ST NW", "city": "EDMONTON", "province": "AB", "country": "CA", "postalCode": "T6T1Y2", "twitter": "None", "instagram": "None", "facebook": "None", "youtube": "None", "website": "None", "summary": "None", "logo": "None", "latitude": 53.46884960921004, "longitude": -113.37327651494633}, "845879568RR0001": {"name": "Heavy Construction Heritage Society", "designationCode": "C", "categoryCode": "50", "address": "BOX 5014", "city": "DEVON", "province": "AB", "country": "CA", "postalCode": "T9G1X8", "twitter": "None", "instagram": "None", "facebook": "None", "youtube": "None", "website": "None", "summary": "None", "logo": "None", "latitude": 53.36364300000005, "longitude": -113.73021349999993}, "836125864RR0001": {"name": "Hebrew Academy for Special Children (Canada) Inc.", "designationCode": "C", "categoryCode": "09", "address": "300 SHEPPARD AVE W", "city": "NORTH YORK", "province": "ON", "country": "CA", "postalCode": "M2N1N5", "twitter": "None", "instagram": "None", "facebook": "None", "youtube": "None", "website": "None", "summary": "None", "logo": "None", "latitude": 43.758320132407974, "longitude": -79.42540898058161}, "890158140RR0001": {"name": "Hebrew Congregation of Winnipeg Beach Inc.", "designationCode": "C", "categoryCode": "42", "address": "550 DOVERCOURT DRIVE          UNIT 3", "city": "WINNIPEG", "province": "MB", "country": "CA", "postalCode": "R3Y1W8", "twitter": "None", "instagram": "None", "facebook": "None", "youtube": "None", "website": "None", "summary": "None", "logo": "None", "latitude": 49.819552460442104, "longitude": -97.19149228423433}, "866068794RR0001": {"name": "Hebron Pentecostal Church", "designationCode": "C", "categoryCode": "39", "address": "20 BURTONWOOD CRES.", "city": "ETOBICOKE", "province": "ON", "country": "CA", "postalCode": "M9V3L8", "twitter": "None", "instagram": "None", "facebook": "None", "youtube": "None", "website": "None", "summary": "None", "logo": "None", "latitude": 43.75070071827583, "longitude": -79.59125679072656}, "739411890RR0001": {"name": "Hector's Hedgehog Rescue", "designationCode": "B", "categoryCode": "54", "address": "209 SHEPPARD CIR", "city": "LEDUC", "province": "AB", "country": "CA", "postalCode": "T9E0T6", "twitter": "None", "instagram": "None", "facebook": "None", "youtube": "None", "website": "None", "summary": "None", "logo": "None", "latitude": 53.23989190335611, "longitude": -113.54410551948645}, "803848357RR0001": {"name": "Hedley Grace Church", "designationCode": "C", "categoryCode": "39", "address": "P.O. BOX 285", "city": "HEDLEY", "province": "BC", "country": "CA", "postalCode": "V0X1K0", "twitter": "None", "instagram": "None", "facebook": "None", "youtube": "None", "website": "None", "summary": "None", "logo": "None", "latitude": 49.356010000000026, "longitude": -120.07779999999997}, "840267405RR0001": {"name": "Heifer International Canada", "designationCode": "C", "categoryCode": "09", "address": "372 ERB ST W", "city": "WATERLOO", "province": "ON", "country": "CA", "postalCode": "N2L1W6", "twitter": "None", "instagram": "None", "facebook": "None", "youtube": "None", "website": "None", "summary": "None", "logo": "None", "latitude": 43.45425664060229, "longitude": -80.54849195380564}, "800292351RR0001": {"name": "Helen Mary Atkins Estate - Dalhousie University Trust", "designationCode": "B", "categoryCode": "25", "address": "1709 HOLLIS STREET, 5TH FLOOR P.O. BOX 457, HALIFAX CENTRAL", "city": "HALIFAX", "province": "NS", "country": "CA", "postalCode": "B3J2P8", "twitter": "None", "instagram": "None", "facebook": "None", "youtube": "None", "website": "None", "summary": "None", "logo": "None", "latitude": 44.647722827370295, "longitude": -63.57286089243476}, "815581517RR0001": {"name": "Help for Haiti Society", "designationCode": "C", "categoryCode": "09", "address": "9531 217B ST", "city": "LANGLEY", "province": "BC", "country": "CA", "postalCode": "V1M4E9", "twitter": "None", "instagram": "None", "facebook": "None", "youtube": "None", "website": "None", "summary": "None", "logo": "None", "latitude": 49.17614893072811, "longitude": -122.61882462695793}, "817706112RR0001": {"name": "Help on Wheels Incorporated", "designationCode": "C", "categoryCode": "09", "address": "3603 - 1288 GEORGIA ST W", "city": "VANCOUVER", "province": "BC", "country": "CA", "postalCode": "V6E4R3", "twitter": "None", "instagram": "None", "facebook": "None", "youtube": "None", "website": "None", "summary": "None", "logo": "None", "latitude": 49.28791669814704, "longitude": -123.12671315406824}, "844628586RR0001": {"name": "Help Canada Association", "designationCode": "C", "categoryCode": "09", "address": "PO BOX 3534 STN MAIN", "city": "MISSION", "province": "BC", "country": "CA", "postalCode": "V2V4L1", "twitter": "None", "instagram": "None", "facebook": "None", "youtube": "None", "website": "None", "summary": "None", "logo": "None", "latitude": 49.13294100000006, "longitude": -122.32108249999993}, "812406304RR0001": {"name": "Help Change My City Foundation", "designationCode": "A", "categoryCode": "03", "address": "1250-1500 GEORGIA W ST        PO BOX 62", "city": "VANCOUVER", "province": "BC", "country": "CA", "postalCode": "V6G2Z6", "twitter": "None", "instagram": "None", "facebook": "None", "youtube": "None", "website": "None", "summary": "None", "logo": "None", "latitude": 49.29013479542975, "longitude": -123.1300069287031}, "751310491RR0001": {"name": "Help Me! Projects", "designationCode": "C", "categoryCode": "09", "address": "31-7385 MAGISTRATE TERRACE", "city": "MISSISSAUGA", "province": "ON", "country": "CA", "postalCode": "L5W1W8", "twitter": "None", "instagram": "None", "facebook": "None", "youtube": "None", "website": "None", "summary": "None", "logo": "None", "latitude": 43.640846714533936, "longitude": -79.72929086781322}, "814474730RR0001": {"name": "Help Our Students Program", "designationCode": "C", "categoryCode": "21", "address": "59 CALLAWAY COURT", "city": "ORLEANS", "province": "ON", "country": "CA", "postalCode": "K1C7S4", "twitter": "None", "instagram": "None", "facebook": "None", "youtube": "None", "website": "None", "summary": "None", "logo": "None", "latitude": 45.45832996476993, "longitude": -75.51359798211082}, "800723371RR0001": {"name": "Help Project Society", "designationCode": "C", "categoryCode": "09", "address": "PO BOX 644", "city": "AGASSIZ", "province": "BC", "country": "CA", "postalCode": "V0M1A0", "twitter": "None", "instagram": "None", "facebook": "None", "youtube": "None", "website": "None", "summary": "None", "logo": "None", "latitude": 49.23862800000006, "longitude": -121.76060749999994}, "809335060RR0001": {"name": "Help Stop Blindness & Hunger in Africa and Asia (H.S.B.H.A.A)", "designationCode": "C", "categoryCode": "03", "address": "7107-150 MILLRISE BLVD SW", "city": "CALGARY", "province": "AB", "country": "CA", "postalCode": "T2Y5G7", "twitter": "None", "instagram": "None", "facebook": "None", "youtube": "None", "website": "None", "summary": "None", "logo": "None", "latitude": 50.91451558312656, "longitude": -114.07365733553593}, "806264735RR0001": {"name": "Help Them Help Themselves Foundation", "designationCode": "C", "categoryCode": "09", "address": "1460 CYPRESS RD", "city": "NORTH SAANICH", "province": "BC", "country": "CA", "postalCode": "V8L5R3", "twitter": "None", "instagram": "None", "facebook": "None", "youtube": "None", "website": "None", "summary": "None", "logo": "None", "latitude": 48.684225494373166, "longitude": -123.43826250000001}, "837620996RR0001": {"name": "Help 2 Overcome Society", "designationCode": "C", "categoryCode": "01", "address": "8323 HIGHWAY 3", "city": "BLACK POINT", "province": "NS", "country": "CA", "postalCode": "B0J1B0", "twitter": "None", "instagram": "None", "facebook": "None", "youtube": "None", "website": "None", "summary": "None", "logo": "None", "latitude": 44.65122687755163, "longitude": -63.97687145383188}, "802402859RR0001": {"name": "Help-Them-Grow Foundation", "designationCode": "C", "categoryCode": "09", "address": "38 EDGECROFT TRAIL", "city": "THORNHILL", "province": "ON", "country": "CA", "postalCode": "L4J6N6", "twitter": "None", "instagram": "None", "facebook": "None", "youtube": "None", "website": "None", "summary": "None", "logo": "None", "latitude": 43.79862488816425, "longitude": -79.45771421536162}, "824500615RR0001": {"name": "Helping with Furniture", "designationCode": "C", "categoryCode": "09", "address": "9-5350 CANOTEK RD.", "city": "OTTAWA", "province": "ON", "country": "CA", "postalCode": "K1J9E1", "twitter": "None", "instagram": "None", "facebook": "None", "youtube": "None", "website": "None", "summary": "None", "logo": "None", "latitude": 45.45465347374362, "longitude": -75.58417007862582}, "806342499RR0001": {"name": "Helping Families Handle Cancer Foundation", "designationCode": "C", "categoryCode": "09", "address": "61 WEST MACKAY CR", "city": "COCHRANE", "province": "AB", "country": "CA", "postalCode": "T4C1J7", "twitter": "None", "instagram": "None", "facebook": "None", "youtube": "None", "website": "None", "summary": "None", "logo": "None", "latitude": 51.191001692740606, "longitude": -114.49313609132085}, "812665628RR0001": {"name": "Helping Haiti", "designationCode": "C", "categoryCode": "09", "address": "696 JOHNSON ST", "city": "KINGSTON", "province": "ON", "country": "CA", "postalCode": "K7L2A8", "twitter": "None", "instagram": "None", "facebook": "None", "youtube": "None", "website": "None", "summary": "None", "logo": "None", "latitude": 44.23130654342441, "longitude": -76.50610188481735}, "798039327RR0001": {"name": "Helping Hands for Humanity", "designationCode": "C", "categoryCode": "09", "address": "6 PARMA CRT", "city": "NORTH YORK", "province": "ON", "country": "CA", "postalCode": "M4A1A5", "twitter": "None", "instagram": "None", "facebook": "None", "youtube": "None", "website": "None", "summary": "None", "logo": "None", "latitude": 43.71662408523269, "longitude": -79.29957739246342}, "835556911RR0001": {"name": "Helping Hands for India", "designationCode": "C", "categoryCode": "09", "address": "28 PRESCOTT ST.               PO BOX 309", "city": "KEMPTVILLE", "province": "ON", "country": "CA", "postalCode": "K0G1J0", "twitter": "None", "instagram": "None", "facebook": "None", "youtube": "None", "website": "None", "summary": "None", "logo": "None", "latitude": 45.01600930362406, "longitude": -75.6457954617115}, "809620263RR0001": {"name": "Helping Hands to Enrich Learning and Lifestyles Programming Society", "designationCode": "C", "categoryCode": "56", "address": "BOX 481                       430 MILL LAKE ROAD NO 1", "city": "HUBBARDS", "province": "NS", "country": "CA", "postalCode": "B0J1T0", "twitter": "None", "instagram": "None", "facebook": "None", "youtube": "None", "website": "None", "summary": "None", "logo": "None", "latitude": 44.64853423225366, "longitude": -64.09841820403341}, "805187788RR0001": {"name": "Helping Hands Chilliwack", "designationCode": "C", "categoryCode": "09", "address": "8568 GRAND VIEW DR", "city": "CHILLIWACK", "province": "BC", "country": "CA", "postalCode": "V2R4A2", "twitter": "None", "instagram": "None", "facebook": "None", "youtube": "None", "website": "None", "summary": "None", "logo": "None", "latitude": 49.156468663281565, "longitude": -122.00925762023255}, "835255423RR0001": {"name": "Helping Hands International", "designationCode": "C", "categoryCode": "47", "address": "685 MCCOWAN ROAD              POST OFFICE BOX 66516", "city": "SCARBOROUGH", "province": "ON", "country": "CA", "postalCode": "M1J3N8", "twitter": "None", "instagram": "None", "facebook": "None", "youtube": "None", "website": "None", "summary": "None", "logo": "None", "latitude": 43.7546229985766, "longitude": -79.24508901819252}}