{"840964498RR0001": {"name": "The Foundation of Light", "designationCode": "B", "categoryCode": "23", "address": "8 KEVI CRESCENT", "city": "RICHMOND HILL", "province": "ON", "country": "CA", "postalCode": "L4B3C8", "twitter": "None", "instagram": "None", "facebook": "None", "youtube": "None", "website": "None", "summary": "None", "logo": "None", "latitude": 43.85766644073524, "longitude": -79.4035997369148}, "835065038RR0001": {"name": "The Foundation Office.ca", "designationCode": "A", "categoryCode": "23", "address": "PO BOX 33031 RPO FRANKLIN", "city": "CAMBRIDGE", "province": "ON", "country": "CA", "postalCode": "N1R8R8", "twitter": "None", "instagram": "None", "facebook": "None", "youtube": "None", "website": "None", "summary": "None", "logo": "None", "latitude": 43.41504936488578, "longitude": -80.30961108863951}, "820926020RR0001": {"name": "The Foundations of Torah Charitable Organization", "designationCode": "C", "categoryCode": "42", "address": "1 FIRST CANADIAN PLACE        44TH FLOOR", "city": "TORONTO", "province": "ON", "country": "CA", "postalCode": "M5X1B1", "twitter": "None", "instagram": "None", "facebook": "None", "youtube": "None", "website": "None", "summary": "None", "logo": "None", "latitude": 43.648682740967025, "longitude": -79.38032587056271}, "844316109RR0001": {"name": "The Fourth Box Charitable Foundation", "designationCode": "A", "categoryCode": "03", "address": "57 LAKESHORE ROAD E SUITE 4", "city": "MISSISSAUGA", "province": "ON", "country": "CA", "postalCode": "L5G1C9", "twitter": "None", "instagram": "None", "facebook": "None", "youtube": "None", "website": "None", "summary": "None", "logo": "None", "latitude": 43.552400051330245, "longitude": -79.58474254798337}, "854594785RR0001": {"name": "The Frances Rose Foundation", "designationCode": "B", "categoryCode": "05", "address": "30 TAYLORWOOD AVENUE", "city": "BOLTON", "province": "ON", "country": "CA", "postalCode": "L7E1J2", "twitter": "None", "instagram": "None", "facebook": "None", "youtube": "None", "website": "None", "summary": "None", "logo": "None", "latitude": 43.89324651875456, "longitude": -79.7473215}, "835677022RR0001": {"name": "The Frank Milne Foundation", "designationCode": "B", "categoryCode": "05", "address": "2900-550 BURRARD STREET", "city": "VANCOUVER", "province": "BC", "country": "CA", "postalCode": "V6C0A3", "twitter": "None", "instagram": "None", "facebook": "None", "youtube": "None", "website": "None", "summary": "None", "logo": "None", "latitude": 49.28596391921073, "longitude": -123.11870289255033}, "829652262RR0001": {"name": "The Fred George Foundation", "designationCode": "B", "categoryCode": "05", "address": "1427 SHORE DR", "city": "BEDFORD", "province": "NS", "country": "CA", "postalCode": "B4A2E7", "twitter": "None", "instagram": "None", "facebook": "None", "youtube": "None", "website": "None", "summary": "None", "logo": "None", "latitude": 44.71728747157924, "longitude": -63.659753528449414}, "804560050RR0001": {"name": "The Fregin Family Foundation", "designationCode": "B", "categoryCode": "03", "address": "560 WESTMOUNT RD N", "city": "WATERLOO", "province": "ON", "country": "CA", "postalCode": "N2L0A9", "twitter": "None", "instagram": "None", "facebook": "None", "youtube": "None", "website": "None", "summary": "None", "logo": "None", "latitude": 43.485506013618654, "longitude": -80.56692555643747}, "836901181RR0001": {"name": "The Friday Foundation", "designationCode": "B", "categoryCode": "03", "address": "3305 - 246 STEWART GREEN SW", "city": "CALGARY", "province": "AB", "country": "CA", "postalCode": "T3H3C8", "twitter": "None", "instagram": "None", "facebook": "None", "youtube": "None", "website": "None", "summary": "None", "logo": "None", "latitude": 51.01512416856595, "longitude": -114.1699139965962}, "827460924RR0001": {"name": "The Friedberg Jewish Manuscript Society", "designationCode": "C", "categoryCode": "29", "address": "250 - 181 BAY ST", "city": "TORONTO", "province": "ON", "country": "CA", "postalCode": "M5J2T3", "twitter": "None", "instagram": "None", "facebook": "None", "youtube": "None", "website": "None", "summary": "None", "logo": "None", "latitude": 43.64715434416293, "longitude": -79.37959157588452}, "831570031RR0001": {"name": "The Friends of the Beaverdams Church", "designationCode": "C", "categoryCode": "50", "address": "POST OFFICE BOX 70            0 MARLATT'S ROAD", "city": "THOROLD", "province": "ON", "country": "CA", "postalCode": "L2V3Y7", "twitter": "None", "instagram": "None", "facebook": "None", "youtube": "None", "website": "None", "summary": "None", "logo": "None", "latitude": 43.1052764686142, "longitude": -79.21664456014881}, "806746897RR0001": {"name": "The Friends of the Bracebridge Public Library", "designationCode": "C", "categoryCode": "55", "address": "94 MANITOBA STREET", "city": "BRACEBRIDGE", "province": "ON", "country": "CA", "postalCode": "P1L2B5", "twitter": "None", "instagram": "None", "facebook": "None", "youtube": "None", "website": "None", "summary": "None", "logo": "None", "latitude": 45.04200698277465, "longitude": -79.31210647129078}, "836424226RR0001": {"name": "The Friends of the Markham Museum", "designationCode": "A", "categoryCode": "53", "address": "101 TOWN CENTRE BOULEVARD", "city": "MARKHAM", "province": "ON", "country": "CA", "postalCode": "L3R9W3", "twitter": "None", "instagram": "None", "facebook": "None", "youtube": "None", "website": "None", "summary": "None", "logo": "None", "latitude": 43.855543588936285, "longitude": -79.33993143675521}, "807111281RR0001": {"name": "The Friends of the Millet Library Society", "designationCode": "A", "categoryCode": "53", "address": "POST OFFICE BOX 30", "city": "MILLET", "province": "AB", "country": "CA", "postalCode": "T0C1Z0", "twitter": "None", "instagram": "None", "facebook": "None", "youtube": "None", "website": "None", "summary": "None", "logo": "None", "latitude": 53.09068000000008, "longitude": -113.46958999999998}, "810067173RR0001": {"name": "The Friends of the MUHC Les Amis du CUSM", "designationCode": "A", "categoryCode": "13", "address": "CP 23008 CSP VENDOME", "city": "MONTREAL", "province": "QC", "country": "CA", "postalCode": "H4A3V4", "twitter": "None", "instagram": "None", "facebook": "None", "youtube": "None", "website": "None", "summary": "None", "logo": "None", "latitude": 45.47721914779303, "longitude": -73.61011508123565}, "827628884RR0001": {"name": "The Friends of the New Brunswick Military History Museum Inc.", "designationCode": "C", "categoryCode": "50", "address": "BLDG A5, PO BOX 17000         STN FORCES, CFB GAGETOWN", "city": "OROMOCTO", "province": "NB", "country": "CA", "postalCode": "E2V4J5", "twitter": "None", "instagram": "None", "facebook": "None", "youtube": "None", "website": "None", "summary": "None", "logo": "None", "latitude": 45.83982000000003, "longitude": -66.46903999999995}, "890189137RR0001": {"name": "The Friends of the Stony Plain Public Library Society", "designationCode": "C", "categoryCode": "50", "address": "112 - 4613 52 AVE", "city": "STONY PLAIN", "province": "AB", "country": "CA", "postalCode": "T7Z1E7", "twitter": "None", "instagram": "None", "facebook": "None", "youtube": "None", "website": "None", "summary": "None", "logo": "None", "latitude": 53.528343009323606, "longitude": -113.99721281469981}, "897893699RR0001": {"name": "The Friends of Awenda Park / Les Amis du Parc Awenda", "designationCode": "C", "categoryCode": "52", "address": "AWENDA PARK ROAD              POST OFFICE BOX 5004", "city": "PENETANGUISHENE", "province": "ON", "country": "CA", "postalCode": "L9M2G2", "twitter": "None", "instagram": "None", "facebook": "None", "youtube": "None", "website": "None", "summary": "None", "logo": "None", "latitude": 44.82719968855706, "longitude": -79.98945908198993}, "835441197RR0001": {"name": "The Friends of Battle Island Lighthouse", "designationCode": "C", "categoryCode": "52", "address": "309A ST. VINCENT STREET,", "city": "THUNDER BAY", "province": "ON", "country": "CA", "postalCode": "P7A3X8", "twitter": "None", "instagram": "None", "facebook": "None", "youtube": "None", "website": "None", "summary": "None", "logo": "None", "latitude": 48.44002891398114, "longitude": -89.22108862825633}, "826953291RR0001": {"name": "The Friends of Canadian Simmental Foundation", "designationCode": "C", "categoryCode": "21", "address": "13 - 4101 19 ST NE", "city": "CALGARY", "province": "AB", "country": "CA", "postalCode": "T2E6X8", "twitter": "None", "instagram": "None", "facebook": "None", "youtube": "None", "website": "None", "summary": "None", "logo": "None", "latitude": 51.089822999999996, "longitude": -114.01163425079326}, "831764089RR0001": {"name": "The Friends of Gilda's Society Nova Scotia", "designationCode": "C", "categoryCode": "19", "address": "102-1200 TOWER RD", "city": "HALIFAX", "province": "NS", "country": "CA", "postalCode": "B3H4K6", "twitter": "None", "instagram": "None", "facebook": "None", "youtube": "None", "website": "None", "summary": "None", "logo": "None", "latitude": 44.63754756841136, "longitude": -63.57889978368607}, "118932565RR0001": {"name": "The Friends of Glendon College", "designationCode": "C", "categoryCode": "21", "address": "2275 BAYVIEW AVE", "city": "TORONTO", "province": "ON", "country": "CA", "postalCode": "M4N3M6", "twitter": "None", "instagram": "None", "facebook": "None", "youtube": "None", "website": "None", "summary": "None", "logo": "None", "latitude": 43.72583551442779, "longitude": -79.3803526421187}, "834146789RR0001": {"name": "The Friends of Maltby Lake Watershed Society", "designationCode": "C", "categoryCode": "52", "address": "4328 PROSPECT LAKE RD", "city": "VICTORIA", "province": "BC", "country": "CA", "postalCode": "V9E1J2", "twitter": "None", "instagram": "None", "facebook": "None", "youtube": "None", "website": "None", "summary": "None", "logo": "None", "latitude": 48.49388350484744, "longitude": -123.44387141557446}, "826080293RR0001": {"name": "The Friends of Natives in Canada Society", "designationCode": "C", "categoryCode": "39", "address": "2307 CHILCO ROAD", "city": "VICTORIA", "province": "BC", "country": "CA", "postalCode": "V9B0H3", "twitter": "None", "instagram": "None", "facebook": "None", "youtube": "None", "website": "None", "summary": "None", "logo": "None", "latitude": 48.45654546834481, "longitude": -123.4686491228599}, "119234086RR0001": {"name": "The Friends of Niagara National Historic Sites", "designationCode": "C", "categoryCode": "52", "address": "P O BOX 1283", "city": "NIAGARA - ON - THE - LAKE", "province": "ON", "country": "CA", "postalCode": "L0S1J0", "twitter": "None", "instagram": "None", "facebook": "None", "youtube": "None", "website": "None", "summary": "None", "logo": "None", "latitude": 43.23448500000005, "longitude": -79.16177149999993}, "891500605RR0001": {"name": "The Friends of No. 36 Service Battalion Volunteer Pipes & Drums Society", "designationCode": "C", "categoryCode": "22", "address": "1016 TOWER ROAD, # 5", "city": "HALIFAX", "province": "NS", "country": "CA", "postalCode": "B3H2Y5", "twitter": "None", "instagram": "None", "facebook": "None", "youtube": "None", "website": "None", "summary": "None", "logo": "None", "latitude": 44.63410323980034, "longitude": -63.57802900626106}, "864091491RR0001": {"name": "The Friends of Ouimet Canyon Provincial Park", "designationCode": "C", "categoryCode": "52", "address": "#550, HWY 11/17 R.R. #1", "city": "DORION", "province": "ON", "country": "CA", "postalCode": "P0T1K0", "twitter": "None", "instagram": "None", "facebook": "None", "youtube": "None", "website": "None", "summary": "None", "logo": "None"}, "835221805RR0001": {"name": "The Friends of Sagewood Resident Society", "designationCode": "C", "categoryCode": "09", "address": "345 COBEQUID RD", "city": "LOWER SACKVILLE", "province": "NS", "country": "CA", "postalCode": "B4C4E6", "twitter": "None", "instagram": "None", "facebook": "None", "youtube": "None", "website": "None", "summary": "None", "logo": "None", "latitude": 44.76178569799206, "longitude": -63.65236285481007}, "830374237RR0001": {"name": "The Friends of Seacow Head Lighthouse Inc.", "designationCode": "C", "categoryCode": "52", "address": "1378 FERNWOOD ROAD", "city": "FERNWOOD", "province": "PE", "country": "CA", "postalCode": "C0B1C0", "twitter": "None", "instagram": "None", "facebook": "None", "youtube": "None", "website": "None", "summary": "None", "logo": "None", "latitude": 46.32149527061569, "longitude": -63.80630893089615}, "833503790RR0001": {"name": "The Friends of Tom Baines School Society", "designationCode": "C", "categoryCode": "21", "address": "250 EDGEPARK BLVD NW", "city": "CALGARY", "province": "AB", "country": "CA", "postalCode": "T3A3S2", "twitter": "None", "instagram": "None", "facebook": "None", "youtube": "None", "website": "None", "summary": "None", "logo": "None", "latitude": 51.133607800998334, "longitude": -114.1579140360668}, "810984229RR0001": {"name": "The Friends of Wesleyville Village, Ontario", "designationCode": "C", "categoryCode": "52", "address": "PO BOX 215", "city": "PORT HOPE", "province": "ON", "country": "CA", "postalCode": "L1A3W3", "twitter": "None", "instagram": "None", "facebook": "None", "youtube": "None", "website": "None", "summary": "None", "logo": "None", "latitude": 43.95010200000006, "longitude": -78.29160199999993}, "765833298RR0001": {"name": "The Frosting Foundation", "designationCode": "C", "categoryCode": "09", "address": "99 MONTVALE CRES", "city": "WINNIPEG", "province": "MB", "country": "CA", "postalCode": "R3X2H5", "twitter": "None", "instagram": "None", "facebook": "None", "youtube": "None", "website": "None", "summary": "None", "logo": "None", "latitude": 49.82166755508115, "longitude": -97.0678948073463}, "824809412RR0001": {"name": "The Fuhrer Family Foundation", "designationCode": "B", "categoryCode": "05", "address": "304-1210 SHEPPARD AVE E", "city": "TORONTO", "province": "ON", "country": "CA", "postalCode": "M2K1E3", "twitter": "None", "instagram": "None", "facebook": "None", "youtube": "None", "website": "None", "summary": "None", "logo": "None", "latitude": 43.771516917225334, "longitude": -79.36759564765778}, "119234326RR0001": {"name": "The Full Gospel Country Church", "designationCode": "C", "categoryCode": "36", "address": "BOX 220 MAPLE LEAF RD", "city": "ECHO BAY", "province": "ON", "country": "CA", "postalCode": "P0S1C0", "twitter": "None", "instagram": "None", "facebook": "None", "youtube": "None", "website": "None", "summary": "None", "logo": "None", "latitude": 46.45606235007921, "longitude": -84.0831425850011}, "843018789RR0001": {"name": "The Full Gospel Tabernacle of Cochrane", "designationCode": "C", "categoryCode": "39", "address": "PO BOX 1736", "city": "COCHRANE", "province": "ON", "country": "CA", "postalCode": "P0L1C0", "twitter": "None", "instagram": "None", "facebook": "None", "youtube": "None", "website": "None", "summary": "None", "logo": "None", "latitude": 49.07076000000005, "longitude": -81.00274849999994}, "807414651RR0001": {"name": "The Fundy Foundation", "designationCode": "B", "categoryCode": "03", "address": "52 NORTH RIVER LANE", "city": "LOWER FIVE ISLANDS", "province": "NS", "country": "CA", "postalCode": "B0M1N0", "twitter": "None", "instagram": "None", "facebook": "None", "youtube": "None", "website": "None", "summary": "None", "logo": "None", "latitude": 45.4058003413643, "longitude": -64.08502878235936}, "803180918RR0001": {"name": "The Fyfe Foundation", "designationCode": "B", "categoryCode": "03", "address": "216 BROADWAY AVE P.O.BOX 127", "city": "ORANGEVILLE", "province": "ON", "country": "CA", "postalCode": "L9W1K3", "twitter": "None", "instagram": "None", "facebook": "None", "youtube": "None", "website": "None", "summary": "None", "logo": "None", "latitude": 43.919029856483526, "longitude": -80.09824730070987}, "840982110RR0001": {"name": "The FF Charitable Trust", "designationCode": "B", "categoryCode": "05", "address": "50 FAYE COURT", "city": "THORNHILL", "province": "ON", "country": "CA", "postalCode": "L4J5B5", "twitter": "None", "instagram": "None", "facebook": "None", "youtube": "None", "website": "None", "summary": "None", "logo": "None", "latitude": 43.80455789283879, "longitude": -79.4457465777022}, "833214687RR0001": {"name": "The FSHD Canada Foundation", "designationCode": "C", "categoryCode": "13", "address": "SUITE 3500-855-2ND STREET SW  BANKERS HALL EAST TOWER", "city": "CALGARY", "province": "AB", "country": "CA", "postalCode": "T2P4J8", "twitter": "None", "instagram": "None", "facebook": "None", "youtube": "None", "website": "None", "summary": "None", "logo": "None", "latitude": 51.04477500000006, "longitude": -114.06806899999994}, "814883708RR0001": {"name": "The G & G Foundation for Charitable Giving", "designationCode": "B", "categoryCode": "03", "address": "45 HAZELTON AVE", "city": "TORONTO", "province": "ON", "country": "CA", "postalCode": "M5R2E3", "twitter": "None", "instagram": "None", "facebook": "None", "youtube": "None", "website": "None", "summary": "None", "logo": "None", "latitude": 43.67218233833454, "longitude": -79.3936203287266}, "804157618RR0001": {"name": "The Gaia Project", "designationCode": "C", "categoryCode": "52", "address": "241 CANADA ST", "city": "FREDERICTON", "province": "NB", "country": "CA", "postalCode": "E3A4A1", "twitter": "None", "instagram": "None", "facebook": "None", "youtube": "None", "website": "None", "summary": "None", "logo": "None", "latitude": 45.977394646402026, "longitude": -66.5924081517108}, "854568797RR0001": {"name": "The Gainey Foundation", "designationCode": "B", "categoryCode": "03", "address": "420 GUY ST", "city": "MONTREAL", "province": "QC", "country": "CA", "postalCode": "H3J1S6", "twitter": "None", "instagram": "None", "facebook": "None", "youtube": "None", "website": "None", "summary": "None", "logo": "None"}, "804693752RR0001": {"name": "The Gale & Rick Stone Foundation", "designationCode": "B", "categoryCode": "03", "address": "36 TORONTO STREET             SUITE 710", "city": "TORONTO", "province": "ON", "country": "CA", "postalCode": "M5C2C5", "twitter": "None", "instagram": "None", "facebook": "None", "youtube": "None", "website": "None", "summary": "None", "logo": "None", "latitude": 43.650531712735905, "longitude": -79.37637427673252}, "855879094RR0001": {"name": "The Gannett Leadership Center", "designationCode": "C", "categoryCode": "47", "address": "944 NORTH SHORE BLVD. WEST", "city": "BURLINGTON", "province": "ON", "country": "CA", "postalCode": "L7T1B1", "twitter": "None", "instagram": "None", "facebook": "None", "youtube": "None", "website": "None", "summary": "None", "logo": "None", "latitude": 43.29491267026381, "longitude": -79.86389169360598}, "118891928RR0001": {"name": "The Gardens on Tenth Inc.", "designationCode": "C", "categoryCode": "01", "address": "BOX 900", "city": "ALTONA", "province": "MB", "country": "CA", "postalCode": "R0G0B0", "twitter": "None", "instagram": "None", "facebook": "None", "youtube": "None", "website": "None", "summary": "None", "logo": "None", "latitude": 49.10353800000006, "longitude": -97.55120149999993}, "845073857RR0001": {"name": "The Garrett Family Foundation", "designationCode": "B", "categoryCode": "03", "address": "1800 - 150 ELGIN ST", "city": "OTTAWA", "province": "ON", "country": "CA", "postalCode": "K2P2P8", "twitter": "None", "instagram": "None", "facebook": "None", "youtube": "None", "website": "None", "summary": "None", "logo": "None", "latitude": 45.41721007516714, "longitude": -75.68981744564597}, "787099894RR0001": {"name": "The Garrett McRae Foundation", "designationCode": "A", "categoryCode": "13", "address": "240 WOODSPRING AVENUE", "city": "NEWMARKET", "province": "ON", "country": "CA", "postalCode": "L3X3G1", "twitter": "None", "instagram": "None", "facebook": "None", "youtube": "None", "website": "None", "summary": "None", "logo": "None", "latitude": 44.05603496973291, "longitude": -79.50032625491954}, "847568318RR0001": {"name": "The Gate Church Community Inc.", "designationCode": "C", "categoryCode": "39", "address": "4-1228 ROSSER AVENUE", "city": "BRANDON", "province": "MB", "country": "CA", "postalCode": "R7A0L9", "twitter": "None", "instagram": "None", "facebook": "None", "youtube": "None", "website": "None", "summary": "None", "logo": "None", "latitude": 49.84843448845882, "longitude": -99.95495047446477}, "839008737RR0001": {"name": "The Gatfield Family Foundation", "designationCode": "B", "categoryCode": "05", "address": "2560-255 QUEENS AVENUE", "city": "LONDON", "province": "ON", "country": "CA", "postalCode": "N6A5R8", "twitter": "None", "instagram": "None", "facebook": "None", "youtube": "None", "website": "None", "summary": "None", "logo": "None", "latitude": 42.98595510794062, "longitude": -81.24674240853491}, "847025665RR0001": {"name": "The Gathering (Mississauga)", "designationCode": "C", "categoryCode": "39", "address": "171-5530 GLEN ERIN DRIVE", "city": "MISSISSAUGA", "province": "ON", "country": "CA", "postalCode": "L5M6E8", "twitter": "None", "instagram": "None", "facebook": "None", "youtube": "None", "website": "None", "summary": "None", "logo": "None", "latitude": 43.564547874776714, "longitude": -79.72648692443259}, "816660732RR0001": {"name": "The Gathering in Peterborough", "designationCode": "C", "categoryCode": "39", "address": "175 MURRAY ST", "city": "PETERBOROUGH", "province": "ON", "country": "CA", "postalCode": "K9H2S7", "twitter": "None", "instagram": "None", "facebook": "None", "youtube": "None", "website": "None", "summary": "None", "logo": "None", "latitude": 44.308294535634126, "longitude": -78.32141211073923}, "825366230RR0001": {"name": "The Gathering Food Centre", "designationCode": "C", "categoryCode": "09", "address": "83 SYDENHAM ST", "city": "SIMCOE", "province": "ON", "country": "CA", "postalCode": "N3Y1R8", "twitter": "None", "instagram": "None", "facebook": "None", "youtube": "None", "website": "None", "summary": "None", "logo": "None", "latitude": 42.83695911019099, "longitude": -80.30157938565408}, "139906242RR0001": {"name": "The Gathering House", "designationCode": "C", "categoryCode": "39", "address": "BOX 631, 2 WATER ST.", "city": "CHESTERVILLE", "province": "ON", "country": "CA", "postalCode": "K0C1H0", "twitter": "None", "instagram": "None", "facebook": "None", "youtube": "None", "website": "None", "summary": "None", "logo": "None", "latitude": 45.102235547319545, "longitude": -75.22817503719199}, "850889387RR0001": {"name": "The Gathering Place", "designationCode": "C", "categoryCode": "39", "address": "164 EIGHTH AVENUE", "city": "KITCHENER", "province": "ON", "country": "CA", "postalCode": "N2C1S4", "twitter": "None", "instagram": "None", "facebook": "None", "youtube": "None", "website": "None", "summary": "None", "logo": "None", "latitude": 43.42903643081665, "longitude": -80.45031537681353}, "861091171RR0001": {"name": "The Gathering Place and Revival Centre", "designationCode": "C", "categoryCode": "39", "address": "858 DUNDAS ST", "city": "LONDON", "province": "ON", "country": "CA", "postalCode": "N5W2Z7", "twitter": "None", "instagram": "None", "facebook": "None", "youtube": "None", "website": "None", "summary": "None", "logo": "None", "latitude": 42.99148085209744, "longitude": -81.22271130587443}, "108108309RR0001": {"name": "The Gathering Place Thunder Bay", "designationCode": "C", "categoryCode": "49", "address": "239 AMELIA ST W", "city": "THUNDER BAY", "province": "ON", "country": "CA", "postalCode": "P7E4A3", "twitter": "None", "instagram": "None", "facebook": "None", "youtube": "None", "website": "None", "summary": "None", "logo": "None", "latitude": 48.36619048600596, "longitude": -89.283843}, "821293388RR0002": {"name": "The Gathering Windsor Incorporated", "designationCode": "C", "categoryCode": "39", "address": "2401 COLUMBUS AVE", "city": "WINDSOR", "province": "ON", "country": "CA", "postalCode": "N9E1R8", "twitter": "None", "instagram": "None", "facebook": "None", "youtube": "None", "website": "None", "summary": "None", "logo": "None", "latitude": 42.278932074441286, "longitude": -83.02175808153908}, "842507931RR0001": {"name": "The Gaulin Foundation/ La Fondation Gaulin", "designationCode": "B", "categoryCode": "21", "address": "2334 DE MEXICO", "city": "LAVAL", "province": "QC", "country": "CA", "postalCode": "H7M3C9", "twitter": "None", "instagram": "None", "facebook": "None", "youtube": "None", "website": "None", "summary": "None", "logo": "None", "latitude": 45.58678864334359, "longitude": -73.72164132044537}, "861056760RR0001": {"name": "The Gear Foundation", "designationCode": "B", "categoryCode": "03", "address": "1402 - 1 KING ST W", "city": "HAMILTON", "province": "ON", "country": "CA", "postalCode": "L8P1A4", "twitter": "None", "instagram": "None", "facebook": "None", "youtube": "None", "website": "None", "summary": "None", "logo": "None", "latitude": 43.26019321073324, "longitude": -79.88135629363086}, "811462167RR0001": {"name": "The Gems of Mazatlan", "designationCode": "C", "categoryCode": "01", "address": "15420 DEER SIDE RD SE", "city": "CALGARY", "province": "AB", "country": "CA", "postalCode": "T2J5N2", "twitter": "None", "instagram": "None", "facebook": "None", "youtube": "None", "website": "None", "summary": "None", "logo": "None", "latitude": 50.91673449708583, "longitude": -114.00560689520472}, "801199506RR0001": {"name": "The General Assembly of Presbyterian Church in Canada (GAPCC) (Daehan Yesukyo Jangrohwye Canada Hapdong Chonghwye)", "designationCode": "C", "categoryCode": "39", "address": "203 - 1001 AUSTIN AVE", "city": "COQUITLAM", "province": "BC", "country": "CA", "postalCode": "V3K3N9", "twitter": "None", "instagram": "None", "facebook": "None", "youtube": "None", "website": "None", "summary": "None", "logo": "None", "latitude": 49.249019460470755, "longitude": -122.86722166763806}, "846195717RR0001": {"name": "The Generation Fund", "designationCode": "C", "categoryCode": "21", "address": "46 FORT YORK BOULEVARD", "city": "TORONTO", "province": "ON", "country": "CA", "postalCode": "M5V3Z3", "twitter": "None", "instagram": "None", "facebook": "None", "youtube": "None", "website": "None", "summary": "None", "logo": "None", "latitude": 43.63998236943834, "longitude": -79.3954856991459}, "848102802RR0001": {"name": "The George and Elizabeth Morgan Foundation", "designationCode": "B", "categoryCode": "03", "address": "38 - 22430 TOWNSHIP ROAD 520", "city": "SHERWOOD PARK", "province": "AB", "country": "CA", "postalCode": "T8C1E6", "twitter": "None", "instagram": "None", "facebook": "None", "youtube": "None", "website": "None", "summary": "None", "logo": "None", "latitude": 53.455977251457085, "longitude": -113.20634967159052}, "857289334RR0001": {"name": "The George and Kay Goldlist Family Foundation", "designationCode": "B", "categoryCode": "03", "address": "1670 BAYVIEW AVE.             SUITE 307", "city": "TORONTO", "province": "ON", "country": "CA", "postalCode": "M4G3C2", "twitter": "None", "instagram": "None", "facebook": "None", "youtube": "None", "website": "None", "summary": "None", "logo": "None", "latitude": 43.70752993865777, "longitude": -79.3758939810143}, "717860290RR0001": {"name": "The George and Sylvia Aikins Foundation / La Fondation George et Sylvia Aikins", "designationCode": "B", "categoryCode": "03", "address": "3555 CH DE LA COTE-DES-NEIGES BUREAU 2309", "city": "MONTREAL", "province": "QC", "country": "CA", "postalCode": "H3H1V2", "twitter": "None", "instagram": "None", "facebook": "None", "youtube": "None", "website": "None", "summary": "None", "logo": "None", "latitude": 45.4963594899011, "longitude": -73.58495144324539}, "847371937RR0001": {"name": "The George and Sylvia Frankel Charitable Foundation / La fondation de bienfaisance George et Sylvia Frankel", "designationCode": "B", "categoryCode": "03", "address": "410 - 333 RUE CHABANEL O", "city": "MONTREAL", "province": "QC", "country": "CA", "postalCode": "H2N2E7", "twitter": "None", "instagram": "None", "facebook": "None", "youtube": "None", "website": "None", "summary": "None", "logo": "None", "latitude": 45.54041906166311, "longitude": -73.65343028173487}, "835968009RR0001": {"name": "The George Koutroubis Charitable Foundation", "designationCode": "A", "categoryCode": "03", "address": "1945 LESLIE STREET", "city": "TORONTO", "province": "ON", "country": "CA", "postalCode": "M3B2M3", "twitter": "None", "instagram": "None", "facebook": "None", "youtube": "None", "website": "None", "summary": "None", "logo": "None", "latitude": 43.75804698155649, "longitude": -79.36106387837759}, "837879402RR0001": {"name": "The George Reed Foundation Inc.", "designationCode": "A", "categoryCode": "03", "address": "340 MCCARTHY BOUL             POST OFFICE BOX 31080", "city": "REGINA", "province": "SK", "country": "CA", "postalCode": "S4P0B2", "twitter": "None", "instagram": "None", "facebook": "None", "youtube": "None", "website": "None", "summary": "None", "logo": "None"}, "853127611RR0001": {"name": "The George Small Project Foundation Inc.", "designationCode": "C", "categoryCode": "29", "address": "200 LORNE AVENUE", "city": "NEWMARKET", "province": "ON", "country": "CA", "postalCode": "L3Y4K2", "twitter": "None", "instagram": "None", "facebook": "None", "youtube": "None", "website": "None", "summary": "None", "logo": "None", "latitude": 44.05133868720067, "longitude": -79.46385444437058}, "805752359RR0001": {"name": "The Georges St-Pierre Foundation / La Fondation Georges St-Pierre", "designationCode": "A", "categoryCode": "03", "address": "102-450 DE CHERBOURG", "city": "LONGUEUIL", "province": "QC", "country": "CA", "postalCode": "J4J5C3", "twitter": "None", "instagram": "None", "facebook": "None", "youtube": "None", "website": "None", "summary": "None", "logo": "None", "latitude": 45.522179466270465, "longitude": -73.47914243738836}, "822295226RR0001": {"name": "The Gideons International in Canada Charitable Fund", "designationCode": "A", "categoryCode": "03", "address": "501 IMPERIAL ROAD NORTH", "city": "GUELPH", "province": "ON", "country": "CA", "postalCode": "N1H7A2", "twitter": "None", "instagram": "None", "facebook": "None", "youtube": "None", "website": "None", "summary": "None", "logo": "None", "latitude": 43.53772651627306, "longitude": -80.29772292140377}, "892626342RR0001": {"name": "The Gilbert Centre for Social and Support Services", "designationCode": "C", "categoryCode": "11", "address": "555-80 BRADFORD ST", "city": "BARRIE", "province": "ON", "country": "CA", "postalCode": "L4N6S7", "twitter": "None", "instagram": "None", "facebook": "None", "youtube": "None", "website": "None", "summary": "None", "logo": "None", "latitude": 44.38314673688615, "longitude": -79.69383931308778}, "819213414RR0001": {"name": "The Gimli Humane Society Inc.", "designationCode": "C", "categoryCode": "54", "address": "P.O BOX 1999", "city": "GIMLI", "province": "MB", "country": "CA", "postalCode": "R0C1B0", "twitter": "None", "instagram": "None", "facebook": "None", "youtube": "None", "website": "None", "summary": "None", "logo": "None", "latitude": 50.30677349294383, "longitude": -96.92898988377391}, "854265717RR0001": {"name": "The Giving Dreams Foundation", "designationCode": "C", "categoryCode": "59", "address": "3879 THE GRANGE SIDEROAD", "city": "CALEDON", "province": "ON", "country": "CA", "postalCode": "L7C0G1", "twitter": "None", "instagram": "None", "facebook": "None", "youtube": "None", "website": "None", "summary": "None", "logo": "None", "latitude": 43.83776424600983, "longitude": -79.9236863459182}, "817499320RR0001": {"name": "The Glasgow Academy Foundation Canada Inc.", "designationCode": "C", "categoryCode": "21", "address": "PO BOX 1901 STN MAIN", "city": "SASKATOON", "province": "SK", "country": "CA", "postalCode": "S7K3S5", "twitter": "None", "instagram": "None", "facebook": "None", "youtube": "None", "website": "None", "summary": "None", "logo": "None", "latitude": 52.13049000000005, "longitude": -106.65926449999994}, "841564842RR0001": {"name": "The Glen Nevis Foundation", "designationCode": "B", "categoryCode": "03", "address": "110 GLEN ROAD", "city": "TORONTO", "province": "ON", "country": "CA", "postalCode": "M4W2V9", "twitter": "None", "instagram": "None", "facebook": "None", "youtube": "None", "website": "None", "summary": "None", "logo": "None", "latitude": 43.68059819761668, "longitude": -79.37400404942566}, "855626206RR0001": {"name": "The Glengarry Celtic Music Hall of Fame", "designationCode": "C", "categoryCode": "50", "address": "19523 COUNTY ROAD 24", "city": "DUNVEGAN", "province": "ON", "country": "CA", "postalCode": "K0C1J0", "twitter": "None", "instagram": "None", "facebook": "None", "youtube": "None", "website": "None", "summary": "None", "logo": "None", "latitude": 45.37853635782819, "longitude": -74.78270452207886}, "807654249RR0001": {"name": "The Glengarry Pioneer Museum (2013)", "designationCode": "C", "categoryCode": "50", "address": "1645 COUNTY ROAD #30", "city": "DUNVEGAN", "province": "ON", "country": "CA", "postalCode": "K0C1J0", "twitter": "None", "instagram": "None", "facebook": "None", "youtube": "None", "website": "None", "summary": "None", "logo": "None", "latitude": 45.36132896291537, "longitude": -74.81802006327003}, "795757525RR0001": {"name": "The Global Alliance for Brain and Heart Health", "designationCode": "C", "categoryCode": "21", "address": "18 CRESCENT AVE", "city": "HALIFAX", "province": "NS", "country": "CA", "postalCode": "B3N1T3", "twitter": "None", "instagram": "None", "facebook": "None", "youtube": "None", "website": "None", "summary": "None", "logo": "None", "latitude": 44.63723137275659, "longitude": -63.627888599082475}, "798215497RR0001": {"name": "The Global Research Epicenter Against Human Trafficking", "designationCode": "C", "categoryCode": "11", "address": "301 SAINT JOHN ST W", "city": "WHITBY", "province": "ON", "country": "CA", "postalCode": "L1N1N6", "twitter": "None", "instagram": "None", "facebook": "None", "youtube": "None", "website": "None", "summary": "None", "logo": "None", "latitude": 43.87402788591388, "longitude": -78.94275484456695}, "761596097RR0001": {"name": "The Glorious Church of Jesus Christ", "designationCode": "C", "categoryCode": "36", "address": "26 MOCHA CRESCENT,", "city": "RICHMOND HILL", "province": "ON", "country": "CA", "postalCode": "L4S2R1", "twitter": "None", "instagram": "None", "facebook": "None", "youtube": "None", "website": "None", "summary": "None", "logo": "None", "latitude": 43.90889222898029, "longitude": -79.4375684862371}, "814385407RR0001": {"name": "The Glorious Church Faith Temple", "designationCode": "C", "categoryCode": "47", "address": "4 MAROTTA AVE", "city": "BRAMPTON", "province": "ON", "country": "CA", "postalCode": "L6X4W8", "twitter": "None", "instagram": "None", "facebook": "None", "youtube": "None", "website": "None", "summary": "None", "logo": "None", "latitude": 43.68185701387847, "longitude": -79.80745682696624}, "824383905RR0001": {"name": "The Glorious Pentecostal Church", "designationCode": "C", "categoryCode": "39", "address": "305-5 AGATE ROAD", "city": "NORTH YORK", "province": "ON", "country": "CA", "postalCode": "M3M2B2", "twitter": "None", "instagram": "None", "facebook": "None", "youtube": "None", "website": "None", "summary": "None", "logo": "None", "latitude": 43.72706189621432, "longitude": -79.48596765563552}, "815156781RR0001": {"name": "The Gohary Private Foundation", "designationCode": "B", "categoryCode": "03", "address": "70 TODD ROAD", "city": "GEORGETOWN", "province": "ON", "country": "CA", "postalCode": "L7G4R7", "twitter": "None", "instagram": "None", "facebook": "None", "youtube": "None", "website": "None", "summary": "None", "logo": "None", "latitude": 43.653651501586516, "longitude": -79.89970139632989}, "849385513RR0001": {"name": "The Golden Apple Theatre Inc.", "designationCode": "C", "categoryCode": "22", "address": "PO BOX 37247 RPO LAND MARK    4130 ALBERT ST", "city": "REGINA", "province": "SK", "country": "CA", "postalCode": "S4S7K4", "twitter": "None", "instagram": "None", "facebook": "None", "youtube": "None", "website": "None", "summary": "None", "logo": "None", "latitude": 50.41332161698971, "longitude": -104.61824554702491}, "833587371RR0001": {"name": "The Golden Rule Charitable Foundation", "designationCode": "B", "categoryCode": "03", "address": "2192 OAKMEAD BOULEVARD", "city": "OAKVILLE", "province": "ON", "country": "CA", "postalCode": "L6H6B4", "twitter": "None", "instagram": "None", "facebook": "None", "youtube": "None", "website": "None", "summary": "None", "logo": "None", "latitude": 43.474120837901864, "longitude": -79.71449122205539}, "843970732RR0001": {"name": "The Good Mind Charitable Fund / Le Bon Esprit Fonds de Charit\u00e9", "designationCode": "B", "categoryCode": "03", "address": "1000 RUE DE LA GAUCHETIERE O  BUREAU 2900", "city": "MONTREAL", "province": "QC", "country": "CA", "postalCode": "H3B4W5", "twitter": "None", "instagram": "None", "facebook": "None", "youtube": "None", "website": "None", "summary": "None", "logo": "None", "latitude": 45.49846698248619, "longitude": -73.56698518102652}, "817814163RR0001": {"name": "The Good News Ministries (Mississauga)", "designationCode": "C", "categoryCode": "39", "address": "M3 - 3400 WESTON RD", "city": "NORTH YORK", "province": "ON", "country": "CA", "postalCode": "M9M2W2", "twitter": "None", "instagram": "None", "facebook": "None", "youtube": "None", "website": "None", "summary": "None", "logo": "None", "latitude": 43.7499426017082, "longitude": -79.54195719455734}, "854197464RR0001": {"name": "The Good Shepherd Christian Reformed Church Society", "designationCode": "C", "categoryCode": "39", "address": "188-10077 156 ST", "city": "SURREY", "province": "BC", "country": "CA", "postalCode": "V3R4L6", "twitter": "None", "instagram": "None", "facebook": "None", "youtube": "None", "website": "None", "summary": "None", "logo": "None", "latitude": 49.18553986372555, "longitude": -122.78983250891545}, "899205330RR0001": {"name": "The Good Shepherd Church in Englehart", "designationCode": "C", "categoryCode": "39", "address": "PO BOX 262", "city": "ENGLEHART", "province": "ON", "country": "CA", "postalCode": "P0J1H0", "twitter": "None", "instagram": "None", "facebook": "None", "youtube": "None", "website": "None", "summary": "None", "logo": "None", "latitude": 47.81686000000008, "longitude": -79.86639999999994}, "816099725RR0001": {"name": "The Good Shepherd Korean Presbyterian Church", "designationCode": "C", "categoryCode": "39", "address": "9 EBONY GATE", "city": "RICHMOND HILL", "province": "ON", "country": "CA", "postalCode": "L4S2B9", "twitter": "None", "instagram": "None", "facebook": "None", "youtube": "None", "website": "None", "summary": "None", "logo": "None", "latitude": 43.88831499140166, "longitude": -79.4167988166658}, "821322989RR0001": {"name": "The Good Soup Truck Society", "designationCode": "C", "categoryCode": "09", "address": "837 BURDETT AVE", "city": "VICTORIA", "province": "BC", "country": "CA", "postalCode": "V8W1B3", "twitter": "None", "instagram": "None", "facebook": "None", "youtube": "None", "website": "None", "summary": "None", "logo": "None", "latitude": 48.42189859391794, "longitude": -123.36172555121469}, "119239432RR0001": {"name": "The Goodman Family Foundation", "designationCode": "B", "categoryCode": "03", "address": "2 ST CLAIR AVE EAST           SUITE 1204", "city": "TORONTO", "province": "ON", "country": "CA", "postalCode": "M4T2T5", "twitter": "None", "instagram": "None", "facebook": "None", "youtube": "None", "website": "None", "summary": "None", "logo": "None", "latitude": 43.688418118241074, "longitude": -79.39419137881609}, "827651100RR0001": {"name": "The Gordon and Jean Steele Family Foundation", "designationCode": "B", "categoryCode": "03", "address": "8400 KALVIEW DR", "city": "COLDSTREAM", "province": "BC", "country": "CA", "postalCode": "V1B1W7", "twitter": "None", "instagram": "None", "facebook": "None", "youtube": "None", "website": "None", "summary": "None", "logo": "None", "latitude": 50.22729794116794, "longitude": -119.28605410675719}, "816549570RR0001": {"name": "The Gordon and Marylyn Stovel Family Foundation", "designationCode": "B", "categoryCode": "03", "address": "4290 CLUBVIEW DRIVE", "city": "BURLINGTON", "province": "ON", "country": "CA", "postalCode": "L7M4X1", "twitter": "None", "instagram": "None", "facebook": "None", "youtube": "None", "website": "None", "summary": "None", "logo": "None", "latitude": 43.394556720497526, "longitude": -79.80840655603345}, "118796036RR0001": {"name": "The Gordon Foundation for Children and Youth", "designationCode": "A", "categoryCode": "13", "address": "177 - 1096 QUEEN ST", "city": "HALIFAX", "province": "NS", "country": "CA", "postalCode": "B3H2R9", "twitter": "None", "instagram": "None", "facebook": "None", "youtube": "None", "website": "None", "summary": "None", "logo": "None", "latitude": 44.63711504440534, "longitude": -63.57293700141364}, "753329929RR0001": {"name": "The Gospel of Christ Christian Ministry", "designationCode": "C", "categoryCode": "39", "address": "1380 SHERWOOD DRIVE", "city": "SHERWOOD PARK", "province": "AB", "country": "CA", "postalCode": "T8A4W3", "twitter": "None", "instagram": "None", "facebook": "None", "youtube": "None", "website": "None", "summary": "None", "logo": "None", "latitude": 53.52273954674263, "longitude": -113.3117318351319}, "808206916RR0001": {"name": "The Gospel of Christ Philippines-Canada Apostolic Doctrine Pentecostal Oneness", "designationCode": "C", "categoryCode": "39", "address": "516-1154 WILSON AVENUE", "city": "TORONTO", "province": "ON", "country": "CA", "postalCode": "M3M1J6", "twitter": "None", "instagram": "None", "facebook": "None", "youtube": "None", "website": "None", "summary": "None", "logo": "None", "latitude": 43.725792159097054, "longitude": -79.48608596283667}, "735765927RR0001": {"name": "The Gospel Coalition Canada", "designationCode": "C", "categoryCode": "39", "address": "1605 GARTH ST", "city": "HAMILTON", "province": "ON", "country": "CA", "postalCode": "L9B1X8", "twitter": "None", "instagram": "None", "facebook": "None", "youtube": "None", "website": "None", "summary": "None", "logo": "None", "latitude": 43.210741296958965, "longitude": -79.91060831216508}, "811093483RR0001": {"name": "The Gospel Faith Mission International (TGFMI)", "designationCode": "C", "categoryCode": "39", "address": "208 - 2745 ISLINGTON AVE", "city": "ETOBICOKE", "province": "ON", "country": "CA", "postalCode": "M9V5C1", "twitter": "None", "instagram": "None", "facebook": "None", "youtube": "None", "website": "None", "summary": "None", "logo": "None", "latitude": 43.74237343187709, "longitude": -79.56762806030396}}