{"107306219RR0001": {"name": "ENTRE PARENTS DE MONTREAL-NORD INC.", "designationCode": "C", "categoryCode": "01", "address": "4828 BOUL. GOUIN EST", "city": "MONTREAL-NORD", "province": "QC", "country": "CA", "postalCode": "H1H1G4", "twitter": "None", "instagram": "None", "facebook": "None", "youtube": "None", "website": "None", "summary": "None", "logo": "None", "latitude": 45.604763004991675, "longitude": -73.63894850608818}, "863206488RR0001": {"name": "ENTRE-ETRES", "designationCode": "C", "categoryCode": "09", "address": "2327 RUE L\u00c9VESQUE CP 31056", "city": "SAGUENAY JONQUI\u00c8RE", "province": "QC", "country": "CA", "postalCode": "G7S6C2", "twitter": "None", "instagram": "None", "facebook": "None", "youtube": "None", "website": "None", "summary": "None", "logo": "None", "latitude": 48.408417136274466, "longitude": -71.17353110998943}, "896907110RR0001": {"name": "ENTREAIDE GLOBALE - DEVED/GLOBAL INTERAID - DEVED", "designationCode": "C", "categoryCode": "09", "address": "22 EAST 12TH ST", "city": "HAMILTON", "province": "ON", "country": "CA", "postalCode": "L9A3X1", "twitter": "None", "instagram": "None", "facebook": "None", "youtube": "None", "website": "None", "summary": "None", "logo": "None", "latitude": 43.24284954150945, "longitude": -79.86249423183136}, "888834413RR0001": {"name": "ENTREE CHEZ-SOI BROME-MISSISQUOI", "designationCode": "C", "categoryCode": "09", "address": "525 SAINT-EDOUARD #101", "city": "FARNHAM", "province": "QC", "country": "CA", "postalCode": "J2N1G6", "twitter": "None", "instagram": "None", "facebook": "None", "youtube": "None", "website": "None", "summary": "None", "logo": "None", "latitude": 45.28669669582767, "longitude": -72.97262011209556}, "107306185RR0001": {"name": "ENTREE LIBRE MAISON DE RESSOURCEMENT POUR EX-DETENUS", "designationCode": "C", "categoryCode": "59", "address": "205 - 80 AVENUE LORNE", "city": "SAINT-LAMBERT", "province": "QC", "country": "CA", "postalCode": "J4P3R6", "twitter": "None", "instagram": "None", "facebook": "None", "youtube": "None", "website": "None", "summary": "None", "logo": "None", "latitude": 45.50045351543634, "longitude": -73.51223399999999}, "867391732RR0001": {"name": "ENTREPRISE DE FORMATION DIMENSIONS", "designationCode": "C", "categoryCode": "20", "address": "3025, AVENUE TASSE", "city": "QUEBEC", "province": "QC", "country": "CA", "postalCode": "G1P1T1", "twitter": "None", "instagram": "None", "facebook": "None", "youtube": "None", "website": "None", "summary": "None", "logo": "None", "latitude": 46.81143918119941, "longitude": -71.32268989223228}, "107306516RR0001": {"name": "ENTWISTLE COMMUNITY CHURCH", "designationCode": "C", "categoryCode": "39", "address": "BOX 87", "city": "ENTWISTLE", "province": "AB", "country": "CA", "postalCode": "T0E0S0", "twitter": "None", "instagram": "None", "facebook": "None", "youtube": "None", "website": "None", "summary": "None", "logo": "None", "latitude": 53.59885000000003, "longitude": -114.99261999999999}, "118900653RR0001": {"name": "ENTWISTLE JUBILEE SENIOR CITIZENS SOCIETY", "designationCode": "C", "categoryCode": "56", "address": "BOX 471", "city": "ENTWISTLE", "province": "AB", "country": "CA", "postalCode": "T0E0S0", "twitter": "None", "instagram": "None", "facebook": "None", "youtube": "None", "website": "None", "summary": "None", "logo": "None", "latitude": 53.59885000000003, "longitude": -114.99261999999999}, "130616717RR0001": {"name": "ENVIRONMENT NORTH", "designationCode": "C", "categoryCode": "59", "address": "8 COTTAGE DR. E.", "city": "NEEBING", "province": "ON", "country": "CA", "postalCode": "P7L0A9", "twitter": "None", "instagram": "None", "facebook": "None", "youtube": "None", "website": "None", "summary": "None", "logo": "None", "latitude": 48.08641352311265, "longitude": -89.44000870545814}, "135243988RR0001": {"name": "ENVIRONMENTAL ACTION BARRIE", "designationCode": "C", "categoryCode": "59", "address": "173 - 65 CEDAR POINTE DR", "city": "BARRIE", "province": "ON", "country": "CA", "postalCode": "L4N9R3", "twitter": "None", "instagram": "None", "facebook": "None", "youtube": "None", "website": "None", "summary": "None", "logo": "None", "latitude": 44.38389599999999, "longitude": -79.71144208477132}, "129722062RR0001": {"name": "ENVIRONMENTAL COALITION OF PRINCE EDWARD ISLAND LTD", "designationCode": "C", "categoryCode": "59", "address": "81 PRINCE ST", "city": "CHARLOTTETOWN", "province": "PE", "country": "CA", "postalCode": "C1A4R3", "twitter": "None", "instagram": "None", "facebook": "None", "youtube": "None", "website": "None", "summary": "None", "logo": "None", "latitude": 46.23527784901036, "longitude": -63.123739081885795}, "118830835RR0001": {"name": "ENVIRONMENTAL DEFENCE CANADA INC.", "designationCode": "C", "categoryCode": "59", "address": "300-116 SPADINA AVE", "city": "TORONTO", "province": "ON", "country": "CA", "postalCode": "M5V2K6", "twitter": "None", "instagram": "None", "facebook": "None", "youtube": "None", "website": "None", "summary": "None", "logo": "None", "latitude": 43.64714885483873, "longitude": -79.39586535333818}, "138984281RR0001": {"name": "ENVIRONMENTAL EARTH ANGELS", "designationCode": "C", "categoryCode": "59", "address": "2803-85 THORNCLIFFE PK DR", "city": "TORONTO", "province": "ON", "country": "CA", "postalCode": "M4H1L6", "twitter": "None", "instagram": "None", "facebook": "None", "youtube": "None", "website": "None", "summary": "None", "logo": "None", "latitude": 43.7063898669393, "longitude": -79.34308577850356}, "118900661RR0001": {"name": "ENVIRONMENTAL EDUCATION COMMISSION", "designationCode": "C", "categoryCode": "21", "address": "P.O. BOX 2265", "city": "ST JOHN'S", "province": "NL", "country": "CA", "postalCode": "A1C6E6", "twitter": "None", "instagram": "None", "facebook": "None", "youtube": "None", "website": "None", "summary": "None", "logo": "None", "latitude": 47.56082100000006, "longitude": -52.71219349999993}, "864934617RR0001": {"name": "ENVIRONMENTAL EDUCATION ONTARIO INC.", "designationCode": "C", "categoryCode": "59", "address": "26 SOMERSET AVE", "city": "TORONTO", "province": "ON", "country": "CA", "postalCode": "M6H2R4", "twitter": "None", "instagram": "None", "facebook": "None", "youtube": "None", "website": "None", "summary": "None", "logo": "None", "latitude": 43.672319486814025, "longitude": -79.43127359077258}, "880647623RR0001": {"name": "ENVIRONMENTAL HEALTH ASSOCIATION OF NOVA SCOTIA", "designationCode": "C", "categoryCode": "11", "address": "P.O. BOX 31323", "city": "HALIFAX", "province": "NS", "country": "CA", "postalCode": "B3K5Y5", "twitter": "None", "instagram": "None", "facebook": "None", "youtube": "None", "website": "None", "summary": "None", "logo": "None", "latitude": 44.645478000000054, "longitude": -63.576552499999934}, "870968377RR0001": {"name": "ENVIRONMENTAL HEALTH FOUNDATION OF CANADA", "designationCode": "C", "categoryCode": "19", "address": "3301 164A ST", "city": "SURREY", "province": "BC", "country": "CA", "postalCode": "V3Z0G5", "twitter": "None", "instagram": "None", "facebook": "None", "youtube": "None", "website": "None", "summary": "None", "logo": "None", "latitude": 49.06197992200936, "longitude": -122.76620439898429}, "858865926RR0001": {"name": "ENVIRONMENTAL HEALTH INSTITUTE OF CANADA", "designationCode": "C", "categoryCode": "11", "address": "22 DANVILLE DR", "city": "TORONTO", "province": "ON", "country": "CA", "postalCode": "M2P1J1", "twitter": "None", "instagram": "None", "facebook": "None", "youtube": "None", "website": "None", "summary": "None", "logo": "None", "latitude": 43.75005222344037, "longitude": -79.39567556869982}, "118900679RR0001": {"name": "ENVIRONMENTAL LAW CENTRE (ALBERTA) SOCIETY", "designationCode": "C", "categoryCode": "21", "address": "SUITE 410                     10115 - 100A STREET", "city": "EDMONTON", "province": "AB", "country": "CA", "postalCode": "T5J2W2", "twitter": "None", "instagram": "None", "facebook": "None", "youtube": "None", "website": "None", "summary": "None", "logo": "None", "latitude": 53.54137442714526, "longitude": -113.49199747709051}, "140092578RR0001": {"name": "ENVIRONMENTAL VISION EXCHANGE (EVE)", "designationCode": "C", "categoryCode": "22", "address": "1901-130 ADELAIDE ST. WEST", "city": "TORONTO", "province": "ON", "country": "CA", "postalCode": "M5H3P5", "twitter": "None", "instagram": "None", "facebook": "None", "youtube": "None", "website": "None", "summary": "None", "logo": "None", "latitude": 43.64911539870523, "longitude": -79.38439020582648}, "885949933RR0001": {"name": "ENVIRONNEMENT NATURE BOUCHERVILLE", "designationCode": "C", "categoryCode": "52", "address": "490, CHEMIN DU LAC", "city": "BOUCHERVILLE", "province": "QC", "country": "CA", "postalCode": "J4B6X3", "twitter": "None", "instagram": "None", "facebook": "None", "youtube": "None", "website": "None", "summary": "None", "logo": "None", "latitude": 45.60410761919334, "longitude": -73.45092815655822}, "129214409RR0001": {"name": "ENVIROS WILDERNESS SCHOOL ASSOCIATION", "designationCode": "C", "categoryCode": "59", "address": "220 - 3115 12 ST NE", "city": "CALGARY", "province": "AB", "country": "CA", "postalCode": "T2E7J2", "twitter": "None", "instagram": "None", "facebook": "None", "youtube": "None", "website": "None", "summary": "None", "logo": "None", "latitude": 51.079721271423736, "longitude": -114.02681518044865}, "899877393RR0001": {"name": "ENVISION COUNSELLING AND SUPPORT CENTRE INC.", "designationCode": "C", "categoryCode": "59", "address": "PO BOX 511", "city": "ESTEVAN", "province": "SK", "country": "CA", "postalCode": "S4A2A5", "twitter": "None", "instagram": "None", "facebook": "None", "youtube": "None", "website": "None", "summary": "None", "logo": "None", "latitude": 49.140249000000054, "longitude": -102.99454999999993}, "871990016RR0001": {"name": "ENVISION FOUNDATION (2012) INC.", "designationCode": "A", "categoryCode": "03", "address": "84 BRANDT ST.", "city": "STEINBACH", "province": "MB", "country": "CA", "postalCode": "R5G0E1", "twitter": "None", "instagram": "None", "facebook": "None", "youtube": "None", "website": "None", "summary": "None", "logo": "None", "latitude": 49.5247827170808, "longitude": -96.6915302829192}, "808902084RR0001": {"name": "EON Foundation", "designationCode": "B", "categoryCode": "03", "address": "1420 - 736 6 AVE SW", "city": "CALGARY", "province": "AB", "country": "CA", "postalCode": "T2P3T7", "twitter": "None", "instagram": "None", "facebook": "None", "youtube": "None", "website": "None", "summary": "None", "logo": "None", "latitude": 51.0478195947294, "longitude": -114.07564953611224}, "891303943RR0001": {"name": "EPARCHY OF SASKATOON, UKRAINIAN CATHOLIC WOMEN'S LEAGUE OF CANADA", "designationCode": "C", "categoryCode": "43", "address": "51 PROCTER DR", "city": "SHIELDS", "province": "SK", "country": "CA", "postalCode": "S7C0A1", "twitter": "None", "instagram": "None", "facebook": "None", "youtube": "None", "website": "None", "summary": "None", "logo": "None", "latitude": 51.82324426665713, "longitude": -106.40142108292733}, "118900695RR0001": {"name": "EPARCHY OF SS. CYRIL AND METHODIUS OF SLOVAKS OF THE BYZANTINE RITE IN CANADA", "designationCode": "C", "categoryCode": "38", "address": "223 CARLTON ROAD", "city": "UNIONVILLE", "province": "ON", "country": "CA", "postalCode": "L3R3M2", "twitter": "None", "instagram": "None", "facebook": "None", "youtube": "None", "website": "None", "summary": "None", "logo": "None", "latitude": 43.871601511224085, "longitude": -79.3164684429856}, "118900703RR0001": {"name": "EPARCHY OF TORONTO THE UKRAINIAN CATHOLIC EPISCOPAL CORPORATION OF EASTERN CANADA", "designationCode": "C", "categoryCode": "38", "address": "940 THE EAST MALL             SUITE 201", "city": "TORONTO", "province": "ON", "country": "CA", "postalCode": "M9B6J7", "twitter": "None", "instagram": "None", "facebook": "None", "youtube": "None", "website": "None", "summary": "None", "logo": "None", "latitude": 43.67137088314393, "longitude": -79.57105180852881}, "888472990RR0001": {"name": "EPHRIAM SCOTT PRESBYTERIAN CHURCH", "designationCode": "C", "categoryCode": "37", "address": "PO BOX 574", "city": "BADECK", "province": "NS", "country": "CA", "postalCode": "B0E1B0", "twitter": "None", "instagram": "None", "facebook": "None", "youtube": "None", "website": "None", "summary": "None", "logo": "None", "latitude": 46.087500000000034, "longitude": -60.780119999999954}, "107598039RR0001": {"name": "EPIC DE ST. MALO INC./SMILE OF ST. MALO INC.", "designationCode": "C", "categoryCode": "01", "address": "BOX 337", "city": "ST MALO", "province": "MB", "country": "CA", "postalCode": "R0A1T0", "twitter": "None", "instagram": "None", "facebook": "None", "youtube": "None", "website": "None", "summary": "None", "logo": "None", "latitude": 49.31380157685065, "longitude": -96.95277278028621}, "107489965RR0001": {"name": "EPIC Opportunities Inc.", "designationCode": "C", "categoryCode": "39", "address": "1644 DUBLIN AVE", "city": "WINNIPEG", "province": "MB", "country": "CA", "postalCode": "R3H0X5", "twitter": "None", "instagram": "None", "facebook": "None", "youtube": "None", "website": "None", "summary": "None", "logo": "None", "latitude": 49.91151155006086, "longitude": -97.20089196878062}, "870714748RR0001": {"name": "EPIC SCHOOL", "designationCode": "C", "categoryCode": "20", "address": "111 MANOR RD E", "city": "TORONTO", "province": "ON", "country": "CA", "postalCode": "M4S1R4", "twitter": "None", "instagram": "None", "facebook": "None", "youtube": "None", "website": "None", "summary": "None", "logo": "None", "latitude": 43.70370286701511, "longitude": -79.39137811766413}, "881543870RR0001": {"name": "EPIC VINEYARD CHRISTIAN FELLOWSHIP OF CALGARY", "designationCode": "C", "categoryCode": "59", "address": "#117, 5723 10TH STREET N.E.", "city": "CALGARY", "province": "AB", "country": "CA", "postalCode": "T2E8W7", "twitter": "None", "instagram": "None", "facebook": "None", "youtube": "None", "website": "None", "summary": "None", "logo": "None", "latitude": 51.10510894526677, "longitude": -114.03829052368481}, "135679819RR0001": {"name": "EPILEPSIE GRANBY ET REGION INC", "designationCode": "C", "categoryCode": "09", "address": "17 BOUL. MOUNTAIN", "city": "GRANBY", "province": "QC", "country": "CA", "postalCode": "J2G9M5", "twitter": "None", "instagram": "None", "facebook": "None", "youtube": "None", "website": "None", "summary": "None", "logo": "None", "latitude": 45.39792628282069, "longitude": -72.71987490585187}, "140747726RR0001": {"name": "EPILEPSIE MAURICIE CENTRE DU QUEBEC", "designationCode": "C", "categoryCode": "11", "address": "800 PLACE BOLAND", "city": "TROIS-RIVIERES", "province": "QC", "country": "CA", "postalCode": "G8Z4H2", "twitter": "None", "instagram": "None", "facebook": "None", "youtube": "None", "website": "None", "summary": "None", "logo": "None"}, "132582263RR0001": {"name": "EPILEPSIE OUTAOUAIS INC", "designationCode": "C", "categoryCode": "09", "address": "111 - 115 BOUL SACRE-COEUR", "city": "GATINEAU", "province": "QC", "country": "CA", "postalCode": "J8X1C5", "twitter": "None", "instagram": "None", "facebook": "None", "youtube": "None", "website": "None", "summary": "None", "logo": "None", "latitude": 45.43728742829908, "longitude": -75.71438591341101}, "107306888RR0001": {"name": "EPILEPSIE SECTION DE QU\u00c9BEC", "designationCode": "C", "categoryCode": "11", "address": "1411 BOUL. P\u00c8RE-LELI\u00c8VRE", "city": "QU\u00c9BEC", "province": "QC", "country": "CA", "postalCode": "G1M1N7", "twitter": "None", "instagram": "None", "facebook": "None", "youtube": "None", "website": "None", "summary": "None", "logo": "None", "latitude": 46.811550583674816, "longitude": -71.27760965777031}, "130141781RR0001": {"name": "EPILEPSIE-GASPESIE SUD", "designationCode": "C", "categoryCode": "11", "address": "176, BOUL. GERARD-D-LEVESQUE  CP 337", "city": "PASPEBIAC", "province": "QC", "country": "CA", "postalCode": "G0C2K0", "twitter": "None", "instagram": "None", "facebook": "None", "youtube": "None", "website": "None", "summary": "None", "logo": "None", "latitude": 48.02483866720537, "longitude": -65.27038707493223}, "140755869RR0001": {"name": "EPILEPSY (ONTARIO) OTTAWA-CARLETON", "designationCode": "C", "categoryCode": "11", "address": "207-211 BRONSON AVE", "city": "OTTAWA", "province": "ON", "country": "CA", "postalCode": "K1R6H5", "twitter": "None", "instagram": "None", "facebook": "None", "youtube": "None", "website": "None", "summary": "None", "logo": "None", "latitude": 45.41349725618897, "longitude": -75.7068905103587}, "107307001RR0001": {"name": "EPILEPSY (ONTARIO) SIMCOE COUNTY INC.", "designationCode": "C", "categoryCode": "11", "address": "7 - 72 ROSS ST", "city": "BARRIE", "province": "ON", "country": "CA", "postalCode": "L4N1G3", "twitter": "None", "instagram": "None", "facebook": "None", "youtube": "None", "website": "None", "summary": "None", "logo": "None", "latitude": 44.3908224893242, "longitude": -79.69724924562871}, "118900778RR0001": {"name": "EPILEPSY ASSOCIATION OF CALGARY", "designationCode": "C", "categoryCode": "11", "address": "316-4014 MACLEOD TRAIL SE", "city": "CALGARY", "province": "AB", "country": "CA", "postalCode": "T2G2R7", "twitter": "None", "instagram": "None", "facebook": "None", "youtube": "None", "website": "None", "summary": "None", "logo": "None", "latitude": 51.017816336661106, "longitude": -114.06315217678466}, "131176042RR0001": {"name": "EPILEPSY CANADA", "designationCode": "C", "categoryCode": "11", "address": "21 - 25 VALLEYWOOD DR", "city": "MARKHAM", "province": "ON", "country": "CA", "postalCode": "L3R5L9", "twitter": "None", "instagram": "None", "facebook": "None", "youtube": "None", "website": "None", "summary": "None", "logo": "None", "latitude": 43.85568024141646, "longitude": -79.36236069767493}, "896705399RR0001": {"name": "EPILEPSY DURHAM REGION", "designationCode": "C", "categoryCode": "11", "address": "310 BYRON STREET SOUTH        UNIT 3", "city": "WHITBY", "province": "ON", "country": "CA", "postalCode": "L1N4P8", "twitter": "None", "instagram": "None", "facebook": "None", "youtube": "None", "website": "None", "summary": "None", "logo": "None", "latitude": 43.87704515875127, "longitude": -78.94243547810011}, "802886218RR0001": {"name": "EPILEPSY HALTON PEEL HAMILTON", "designationCode": "C", "categoryCode": "11", "address": "5 - 2155 DUNWIN DR", "city": "MISSISSAUGA", "province": "ON", "country": "CA", "postalCode": "L5L4M1", "twitter": "None", "instagram": "None", "facebook": "None", "youtube": "None", "website": "None", "summary": "None", "logo": "None", "latitude": 43.53420126285407, "longitude": -79.67191752135162}, "118900802RR0001": {"name": "EPILEPSY LONDON & AREA", "designationCode": "C", "categoryCode": "11", "address": "690 HALE ST", "city": "LONDON", "province": "ON", "country": "CA", "postalCode": "N5W1H4", "twitter": "None", "instagram": "None", "facebook": "None", "youtube": "None", "website": "None", "summary": "None", "logo": "None", "latitude": 42.997850737722864, "longitude": -81.19852982304245}, "118900836RR0001": {"name": "EPILEPSY NEWFOUNDLAND AND LABRADOR", "designationCode": "C", "categoryCode": "11", "address": "351 KENMOUNT ROAD", "city": "ST.JOHN'S", "province": "NL", "country": "CA", "postalCode": "A1B3P9", "twitter": "None", "instagram": "None", "facebook": "None", "youtube": "None", "website": "None", "summary": "None", "logo": "None", "latitude": 47.5491205991694, "longitude": -52.78144001174367}, "824392120RR0001": {"name": "EPILEPSY NIAGARA", "designationCode": "C", "categoryCode": "11", "address": "7555 MONTROSE RD              SUITE B11", "city": "NIAGARA FALLS", "province": "ON", "country": "CA", "postalCode": "L2H2E9", "twitter": "None", "instagram": "None", "facebook": "None", "youtube": "None", "website": "None", "summary": "None", "logo": "None", "latitude": 43.066970672012474, "longitude": -79.1227590155549}, "118900844RR0001": {"name": "EPILEPSY ONTARIO", "designationCode": "C", "categoryCode": "11", "address": "3100 STEELES AVENUE EAST      SUITE 803", "city": "MARKHAM", "province": "ON", "country": "CA", "postalCode": "L3R8T3", "twitter": "None", "instagram": "None", "facebook": "None", "youtube": "None", "website": "None", "summary": "None", "logo": "None", "latitude": 43.814403195163855, "longitude": -79.34666936790913}, "877932780RR0001": {"name": "EPILEPSY PETERBOROUGH AND AREA", "designationCode": "C", "categoryCode": "11", "address": "PO BOX 2453", "city": "PETERBOROUGH", "province": "ON", "country": "CA", "postalCode": "K9J7Y8", "twitter": "None", "instagram": "None", "facebook": "None", "youtube": "None", "website": "None", "summary": "None", "logo": "None", "latitude": 44.30591700000005, "longitude": -78.31950199999993}, "892356163RR0001": {"name": "EPILEPSY RESEARCH FUND OF CANADA", "designationCode": "C", "categoryCode": "11", "address": "3 MILL STREET", "city": "MILTON", "province": "ON", "country": "CA", "postalCode": "L9T1R7", "twitter": "None", "instagram": "None", "facebook": "None", "youtube": "None", "website": "None", "summary": "None", "logo": "None", "latitude": 43.50944876992319, "longitude": -79.88880173954053}, "107306995RR0001": {"name": "EPILEPSY SASKATOON INC.", "designationCode": "B", "categoryCode": "11", "address": "PO BOX 7092 STN MAIN", "city": "SASKATOON", "province": "SK", "country": "CA", "postalCode": "S7K4J1", "twitter": "None", "instagram": "None", "facebook": "None", "youtube": "None", "website": "None", "summary": "None", "logo": "None", "latitude": 52.13049000000005, "longitude": -106.65926449999994}, "107306912RR0001": {"name": "EPILEPSY TORONTO", "designationCode": "C", "categoryCode": "11", "address": "468 QUEEN ST EAST             SUITE 210", "city": "TORONTO", "province": "ON", "country": "CA", "postalCode": "M5A1T7", "twitter": "None", "instagram": "None", "facebook": "None", "youtube": "None", "website": "None", "summary": "None", "logo": "None", "latitude": 43.656584132407986, "longitude": -79.36011864821967}, "889926820RR0001": {"name": "EPILEPSY WATERLOO-WELLINGTON", "designationCode": "C", "categoryCode": "11", "address": "351-B LOUISA STREET", "city": "KITCHENER", "province": "ON", "country": "CA", "postalCode": "N2H5N1", "twitter": "None", "instagram": "None", "facebook": "None", "youtube": "None", "website": "None", "summary": "None", "logo": "None", "latitude": 43.46061622840337, "longitude": -80.48790322785511}, "866737208RR0001": {"name": "EPILEPSY YORK REGION", "designationCode": "C", "categoryCode": "11", "address": "11181 YONGE STREET", "city": "RICHMOND HILL", "province": "ON", "country": "CA", "postalCode": "L4S1L2", "twitter": "None", "instagram": "None", "facebook": "None", "youtube": "None", "website": "None", "summary": "None", "logo": "None", "latitude": 43.90013167721735, "longitude": -79.44391532566819}, "101663995RR0001": {"name": "EPIPHANY CHILDREN'S CENTRE INC.", "designationCode": "C", "categoryCode": "20", "address": "196 DALHOUSIE DR", "city": "WINNIPEG", "province": "MB", "country": "CA", "postalCode": "R3T2Z1", "twitter": "None", "instagram": "None", "facebook": "None", "youtube": "None", "website": "None", "summary": "None", "logo": "None", "latitude": 49.7974980460773, "longitude": -97.1484005281652}, "108084658RR0095": {"name": "EPIPHANY CHURCH", "designationCode": "C", "categoryCode": "30", "address": "1414 RIVER ROAD               R.R. 1", "city": "BARRY'S BAY", "province": "ON", "country": "CA", "postalCode": "K0J1B0", "twitter": "None", "instagram": "None", "facebook": "None", "youtube": "None", "website": "None", "summary": "None", "logo": "None", "latitude": 45.47700600000006, "longitude": -77.68470049999993}, "107307043RR0001": {"name": "EPIPHANY LUTHERAN CHURCH", "designationCode": "C", "categoryCode": "32", "address": "499 DEWE AVE.", "city": "THUNDER BAY", "province": "ON", "country": "CA", "postalCode": "P7A2H1", "twitter": "None", "instagram": "None", "facebook": "None", "youtube": "None", "website": "None", "summary": "None", "logo": "None", "latitude": 48.469239419095175, "longitude": -89.19075389664701}, "107307068RR0001": {"name": "EPIPHANY LUTHERAN CHURCH", "designationCode": "C", "categoryCode": "32", "address": "20 OLD KINGSTON RD", "city": "SCARBOROUGH", "province": "ON", "country": "CA", "postalCode": "M1E3J5", "twitter": "None", "instagram": "None", "facebook": "None", "youtube": "None", "website": "None", "summary": "None", "logo": "None", "latitude": 43.774890859599275, "longitude": -79.1828560414329}, "137703682RR0001": {"name": "EPIPHANY LUTHERAN CHURCH, INC.", "designationCode": "C", "categoryCode": "32", "address": "200 DALHOUSIE DRIVE", "city": "WINNIPEG", "province": "MB", "country": "CA", "postalCode": "R3T2Z1", "twitter": "None", "instagram": "None", "facebook": "None", "youtube": "None", "website": "None", "summary": "None", "logo": "None", "latitude": 49.7975551734378, "longitude": -97.14838171345704}, "107910259RR0005": {"name": "EPIPHANY OF OUR LORD PARISH", "designationCode": "C", "categoryCode": "38", "address": "3200 PHARMACY AVE", "city": "SCARBOROUGH", "province": "ON", "country": "CA", "postalCode": "M1W3J5", "twitter": "None", "instagram": "None", "facebook": "None", "youtube": "None", "website": "None", "summary": "None", "logo": "None", "latitude": 43.80034520009818, "longitude": -79.32903608609804}, "107307191RR0001": {"name": "EPISCOPAL CORPORATION OF SASKATOON", "designationCode": "C", "categoryCode": "38", "address": "123 NELSON ROAD", "city": "SASKATOON", "province": "SK", "country": "CA", "postalCode": "S7S1H1", "twitter": "None", "instagram": "None", "facebook": "None", "youtube": "None", "website": "None", "summary": "None", "logo": "None", "latitude": 52.14830526371943, "longitude": -106.58267235821334}, "871581211RR0001": {"name": "EPPLEWORTH ADULT CENTRE", "designationCode": "C", "categoryCode": "09", "address": "10 EPPLEWORTH ROAD", "city": "SCARBOROUGH", "province": "ON", "country": "CA", "postalCode": "M1K3G9", "twitter": "None", "instagram": "None", "facebook": "None", "youtube": "None", "website": "None", "summary": "None", "logo": "None", "latitude": 43.726262115061346, "longitude": -79.26279216860671}, "107305146RR0001": {"name": "EPRF ENERGY PROBE RESEARCH FOUNDATION", "designationCode": "C", "categoryCode": "59", "address": "225 BRUNSWICK AVE", "city": "TORONTO", "province": "ON", "country": "CA", "postalCode": "M5S2M6", "twitter": "None", "instagram": "None", "facebook": "None", "youtube": "None", "website": "None", "summary": "None", "logo": "None", "latitude": 43.66397497752321, "longitude": -79.40665798623711}, "118901081RR0001": {"name": "EPSOM UTICA UNITED CHURCHES", "designationCode": "C", "categoryCode": "44", "address": "445 WEBB RD", "city": "UXBRIDGE", "province": "ON", "country": "CA", "postalCode": "L9P1R4", "twitter": "None", "instagram": "None", "facebook": "None", "youtube": "None", "website": "None", "summary": "None", "logo": "None", "latitude": 44.007172518907495, "longitude": -79.14554723730419}, "868342668RR0001": {"name": "EPWORTH PASTORAL CHARGE, UNITED CHURCH OF CANADA", "designationCode": "C", "categoryCode": "44", "address": "SITE 19, BOX 140", "city": "BURIN", "province": "NL", "country": "CA", "postalCode": "A0E1E0", "twitter": "None", "instagram": "None", "facebook": "None", "youtube": "None", "website": "None", "summary": "None", "logo": "None", "latitude": 47.05043100000006, "longitude": -55.16310049999993}, "118901115RR0001": {"name": "EPWORTH UNITED CHURCH", "designationCode": "C", "categoryCode": "44", "address": "56 DIVISION ST S", "city": "KINGSVILLE", "province": "ON", "country": "CA", "postalCode": "N9Y1P6", "twitter": "None", "instagram": "None", "facebook": "None", "youtube": "None", "website": "None", "summary": "None", "logo": "None", "latitude": 42.03583167499567, "longitude": -82.73978929828569}, "842198889RR0001": {"name": "EQ Foundation", "designationCode": "C", "categoryCode": "21", "address": "2 BLOOR STREET EAST           SUITE 3500", "city": "TORONTO", "province": "ON", "country": "CA", "postalCode": "M4W1A8", "twitter": "None", "instagram": "None", "facebook": "None", "youtube": "None", "website": "None", "summary": "None", "logo": "None", "latitude": 43.67053413240798, "longitude": -79.38545912268445}, "891889032RR0001": {"name": "EQUAY-WUK (WOMEN'S GROUP)", "designationCode": "C", "categoryCode": "59", "address": "16 FOURTH AVENUE NORTH", "city": "SIOUX LOOKOUT", "province": "ON", "country": "CA", "postalCode": "P8T1C4", "twitter": "None", "instagram": "None", "facebook": "None", "youtube": "None", "website": "None", "summary": "None", "logo": "None", "latitude": 50.09883546211552, "longitude": -91.9162890176007}, "141084830RR0001": {"name": "EQUESTRIAN ORDER OF HOLY SEPULCHRE OF JERUSALEM LIEUTENANCY OF EASTERN CANADA", "designationCode": "C", "categoryCode": "43", "address": "23 LONGFIELD ROAD", "city": "TORONTO", "province": "ON", "country": "CA", "postalCode": "M9B3G1", "twitter": "None", "instagram": "None", "facebook": "None", "youtube": "None", "website": "None", "summary": "None", "logo": "None", "latitude": 43.673294641670154, "longitude": -79.55190625451552}, "879044766RR0001": {"name": "EQUESTRIAN ORDER OF THE HOLY SEPULCHRE OF JERUSALEM FOUNDATION (LIEUTENANCY OF CANADA VANCOUVER)", "designationCode": "A", "categoryCode": "43", "address": "1250-1500 WEST GEORGIA ST     BOX 62", "city": "VANCOUVER", "province": "BC", "country": "CA", "postalCode": "V6G2Z6", "twitter": "None", "instagram": "None", "facebook": "None", "youtube": "None", "website": "None", "summary": "None", "logo": "None", "latitude": 49.290187500000016, "longitude": -123.130035}, "873818215RR0001": {"name": "EQUIP KIDS IN DEVELOPING SOCIETIES INTERNATIONAL", "designationCode": "C", "categoryCode": "09", "address": "63 BURRARD RD.", "city": "TORONTO", "province": "ON", "country": "CA", "postalCode": "M9W3T4", "twitter": "None", "instagram": "None", "facebook": "None", "youtube": "None", "website": "None", "summary": "None", "logo": "None", "latitude": 43.71712690259097, "longitude": -79.55379149552793}, "873185706RR0001": {"name": "EQUIPE DE RECHERCHE ET SAUVETAGE LA GRANDE-OURSE", "designationCode": "C", "categoryCode": "59", "address": "C.P. 451 SUCC. A", "city": "RIMOUSKI", "province": "QC", "country": "CA", "postalCode": "G5L7C5", "twitter": "None", "instagram": "None", "facebook": "None", "youtube": "None", "website": "None", "summary": "None", "logo": "None", "latitude": 48.44933700000006, "longitude": -68.52474349999993}, "867296881RR0001": {"name": "EQUIPE R.D.P.", "designationCode": "C", "categoryCode": "09", "address": "10950 BLVD PERRAS", "city": "MONTREAL", "province": "QC", "country": "CA", "postalCode": "H1C1B3", "twitter": "None", "instagram": "None", "facebook": "None", "youtube": "None", "website": "None", "summary": "None", "logo": "None", "latitude": 45.669151917621605, "longitude": -73.54679558895856}, "141683441RR0001": {"name": "EQUIPE SERVICE QUARTIER ST-VINCENT-DE-PAUL", "designationCode": "C", "categoryCode": "09", "address": "2027 RUE DANIEL", "city": "LONGUEUIL", "province": "QC", "country": "CA", "postalCode": "J4J5M1", "twitter": "None", "instagram": "None", "facebook": "None", "youtube": "None", "website": "None", "summary": "None", "logo": "None", "latitude": 45.52547321560752, "longitude": -73.48163822043337}, "107307704RR0001": {"name": "EQUIPE SOUTIEN FAMILLE", "designationCode": "C", "categoryCode": "09", "address": "51 A RUE PRINCIPALE", "city": "GATINEAU", "province": "QC", "country": "CA", "postalCode": "J9A3L2", "twitter": "None", "instagram": "None", "facebook": "None", "youtube": "None", "website": "None", "summary": "None", "logo": "None", "latitude": 45.39462643493551, "longitude": -75.84968583680534}, "889540738RR0001": {"name": "EQUIPPING CHRISTIAN WORKERS SOCIETY", "designationCode": "C", "categoryCode": "47", "address": "P.O. BOX 683", "city": "DUNCAN", "province": "BC", "country": "CA", "postalCode": "V9L3Y1", "twitter": "None", "instagram": "None", "facebook": "None", "youtube": "None", "website": "None", "summary": "None", "logo": "None", "latitude": 48.77908800000006, "longitude": -123.70739299999994}, "894462571RR0001": {"name": "EQUIPPING THE SAINTS INC.", "designationCode": "C", "categoryCode": "47", "address": "485 HENDERSON HWY", "city": "WINNIPEG", "province": "MB", "country": "CA", "postalCode": "R2K2H9", "twitter": "None", "instagram": "None", "facebook": "None", "youtube": "None", "website": "None", "summary": "None", "logo": "None", "latitude": 49.920631313895846, "longitude": -97.11039929736299}, "863312088RR0001": {"name": "EQUIPTOSERVE CHRISTIAN NETWORKS", "designationCode": "C", "categoryCode": "47", "address": "323-13988 CAMBIE RD", "city": "RICHMOND", "province": "BC", "country": "CA", "postalCode": "V6V2K4", "twitter": "None", "instagram": "None", "facebook": "None", "youtube": "None", "website": "None", "summary": "None", "logo": "None", "latitude": 49.18472150894506, "longitude": -123.06981120177163}, "118833292RR0001": {"name": "EQUITAS - INTERNATIONAL CENTRE FOR HUMAN RIGHTS EDUCATION / EQUITAS - CENTRE INTERNATIONAL D'EDUCATION AUX DROITS HUMAINS", "designationCode": "C", "categoryCode": "59", "address": "1100-666 SHERBROOKE OUEST", "city": "MONTREAL", "province": "QC", "country": "CA", "postalCode": "H3A1E7", "twitter": "None", "instagram": "None", "facebook": "None", "youtube": "None", "website": "None", "summary": "None", "logo": "None", "latitude": 45.50511043767683, "longitude": -73.5733004482084}, "118901164RR0001": {"name": "EQUITY SHOWCASE THEATRE", "designationCode": "C", "categoryCode": "22", "address": "9 DACOTAH AVE", "city": "TORONTO", "province": "ON", "country": "CA", "postalCode": "M5J2E4", "twitter": "None", "instagram": "None", "facebook": "None", "youtube": "None", "website": "None", "summary": "None", "logo": "None", "latitude": 43.627225346673086, "longitude": -79.36016588216297}, "865245856RR0001": {"name": "ERA FOUNDATION", "designationCode": "B", "categoryCode": "03", "address": "1500 WEST GEORGIA ST.         SUITE 1250, BOX 62", "city": "VANCOUVER", "province": "BC", "country": "CA", "postalCode": "V6G2Z6", "twitter": "None", "instagram": "None", "facebook": "None", "youtube": "None", "website": "None", "summary": "None", "logo": "None", "latitude": 49.2900638104334, "longitude": -123.12989899362336}, "118901180RR0001": {"name": "ERAMOSA PASTORAL CHARGE", "designationCode": "C", "categoryCode": "44", "address": "8022 SIDEROAD 20              RR 5", "city": "ROCKWOOD", "province": "ON", "country": "CA", "postalCode": "N0B2K0", "twitter": "None", "instagram": "None", "facebook": "None", "youtube": "None", "website": "None", "summary": "None", "logo": "None", "latitude": 43.76622819900862, "longitude": -80.44105646530838}, "889327573RR0001": {"name": "ERAMOSA UNION CEMETERY", "designationCode": "C", "categoryCode": "59", "address": "19 WOODLAWN ROAD EAST         UNIT 913", "city": "GUELPH", "province": "ON", "country": "CA", "postalCode": "N1H7B1", "twitter": "None", "instagram": "None", "facebook": "None", "youtube": "None", "website": "None", "summary": "None", "logo": "None", "latitude": 43.56583678937716, "longitude": -80.27624822939252}, "107307845RR0001": {"name": "ERB STREET MENNONITE CHURCH", "designationCode": "C", "categoryCode": "34", "address": "131 ERB ST WEST", "city": "WATERLOO", "province": "ON", "country": "CA", "postalCode": "N2L1T7", "twitter": "None", "instagram": "None", "facebook": "None", "youtube": "None", "website": "None", "summary": "None", "logo": "None", "latitude": 43.462082716313915, "longitude": -80.5304402310291}, "118901198RR0001": {"name": "ERBAPTIST SR RESIDENCE OF WATERLOO INC.", "designationCode": "C", "categoryCode": "09", "address": "302 ERB STREET WEST", "city": "WATERLOO", "province": "ON", "country": "CA", "postalCode": "N2L1W3", "twitter": "None", "instagram": "None", "facebook": "None", "youtube": "None", "website": "None", "summary": "None", "logo": "None", "latitude": 43.456644821887686, "longitude": -80.54192347925395}, "893825372RR0001": {"name": "ERC CONCEPTS LTD.", "designationCode": "C", "categoryCode": "01", "address": "P.O. BOX 279", "city": "ALBERTON", "province": "PE", "country": "CA", "postalCode": "C0B1B0", "twitter": "None", "instagram": "None", "facebook": "None", "youtube": "None", "website": "None", "summary": "None", "logo": "None", "latitude": 46.813510000000065, "longitude": -64.06533999999994}, "875912701RR0001": {"name": "ERDO", "designationCode": "C", "categoryCode": "09", "address": "2450 MILLTOWER COURT", "city": "MISSISSAUGA", "province": "ON", "country": "CA", "postalCode": "L5N5Z6", "twitter": "None", "instagram": "None", "facebook": "None", "youtube": "None", "website": "None", "summary": "None", "logo": "None", "latitude": 43.59753944771745, "longitude": -79.75686307989524}, "875910705RR0001": {"name": "ERDO FOUNDATION", "designationCode": "A", "categoryCode": "03", "address": "2450 MILLTOWER COURT", "city": "MISSISSAUGA", "province": "ON", "country": "CA", "postalCode": "L5N5Z6", "twitter": "None", "instagram": "None", "facebook": "None", "youtube": "None", "website": "None", "summary": "None", "logo": "None", "latitude": 43.59753944771745, "longitude": -79.75686307989524}, "866551716RR0001": {"name": "ERGO ARTS THEATRE", "designationCode": "C", "categoryCode": "22", "address": "513 ROXTON ROAD", "city": "TORONTO", "province": "ON", "country": "CA", "postalCode": "M6G3R5", "twitter": "None", "instagram": "None", "facebook": "None", "youtube": "None", "website": "None", "summary": "None", "logo": "None", "latitude": 43.6611402289803, "longitude": -79.42394812833994}, "118901230RR0001": {"name": "ERIC AND HILDA HJARTARSON SCHOLARSHIP FOUNDATION", "designationCode": "B", "categoryCode": "25", "address": "LAKESHORE SCHOOL DIVISION(C/O)P.O. BOX 100", "city": "ERIKSDALE", "province": "MB", "country": "CA", "postalCode": "R0C0W0", "twitter": "None", "instagram": "None", "facebook": "None", "youtube": "None", "website": "None", "summary": "None", "logo": "None", "latitude": 50.859537092420666, "longitude": -98.09961570407019}, "870619830RR0001": {"name": "ERIC BRUHN PRIZE TRUST", "designationCode": "B", "categoryCode": "22", "address": "470 QUEENS QUAY WEST", "city": "TORONTO", "province": "ON", "country": "CA", "postalCode": "M5V3K4", "twitter": "None", "instagram": "None", "facebook": "None", "youtube": "None", "website": "None", "summary": "None", "logo": "None", "latitude": 43.637474438830665, "longitude": -79.3935549163252}, "774627699RR0001": {"name": "ERIC PALMER MEMORIAL FOUNDATION", "designationCode": "C", "categoryCode": "21", "address": "4817 AMBLEWOOD DR", "city": "VICTORIA", "province": "BC", "country": "CA", "postalCode": "V8Y2S5", "twitter": "None", "instagram": "None", "facebook": "None", "youtube": "None", "website": "None", "summary": "None", "logo": "None", "latitude": 48.5091857279707, "longitude": -123.37222436629395}, "118901271RR0001": {"name": "ERIC T. WEBSTER FOUNDATION", "designationCode": "B", "categoryCode": "03", "address": "6500 TRANSCANADA              SUITE 330", "city": "POINTE-CLAIRE", "province": "QC", "country": "CA", "postalCode": "H9R0A5", "twitter": "None", "instagram": "None", "facebook": "None", "youtube": "None", "website": "None", "summary": "None", "logo": "None", "latitude": 45.465261000000055, "longitude": -73.82234149999994}, "896284031RR0001": {"name": "ERICKSON AND DISTRICT HEALTH FOUNDATION INC.", "designationCode": "A", "categoryCode": "13", "address": "PO BOX 103", "city": "ERICKSON", "province": "MB", "country": "CA", "postalCode": "R0J0P0", "twitter": "None", "instagram": "None", "facebook": "None", "youtube": "None", "website": "None", "summary": "None", "logo": "None", "latitude": 50.49852000000004, "longitude": -99.90785999999997}, "139211825RR0001": {"name": "ERICKSON CROSSROADS COMMUNITY CENTRE INC", "designationCode": "C", "categoryCode": "56", "address": "BOX 472", "city": "ERICKSON", "province": "MB", "country": "CA", "postalCode": "R0J0P0", "twitter": "None", "instagram": "None", "facebook": "None", "youtube": "None", "website": "None", "summary": "None", "logo": "None", "latitude": 50.49852000000004, "longitude": -99.90785999999997}, "118901248RR0001": {"name": "ERICKSON GOLDEN AGERS ASSOCIATION", "designationCode": "C", "categoryCode": "56", "address": "915 VANCOUVER STREET", "city": "CRESTON", "province": "BC", "country": "CA", "postalCode": "V0B1G4", "twitter": "None", "instagram": "None", "facebook": "None", "youtube": "None", "website": "None", "summary": "None", "logo": "None", "latitude": 49.09775811918302, "longitude": -116.51328224579152}, "107308330RR0001": {"name": "ERICKSON KIDDIE KOLLEGE INC.", "designationCode": "C", "categoryCode": "01", "address": "PO BOX 516", "city": "ERICKSON", "province": "MB", "country": "CA", "postalCode": "R0J0P0", "twitter": "None", "instagram": "None", "facebook": "None", "youtube": "None", "website": "None", "summary": "None", "logo": "None", "latitude": 50.49852000000004, "longitude": -99.90785999999997}, "118901263RR0001": {"name": "ERICKSON LUTHERAN CHURCH", "designationCode": "C", "categoryCode": "32", "address": "BOX 414", "city": "ERICKSON", "province": "MB", "country": "CA", "postalCode": "R0J0P0", "twitter": "None", "instagram": "None", "facebook": "None", "youtube": "None", "website": "None", "summary": "None", "logo": "None", "latitude": 50.49852000000004, "longitude": -99.90785999999997}, "119030666RR0012": {"name": "ERICKSON SEVENTH-DAY ADVENTIST CHURCH", "designationCode": "C", "categoryCode": "41", "address": "1004 VICTORIA AVE", "city": "SASKATOON", "province": "SK", "country": "CA", "postalCode": "S7N0Z8", "twitter": "None", "instagram": "None", "facebook": "None", "youtube": "None", "website": "None", "summary": "None", "logo": "None", "latitude": 52.115409, "longitude": -106.66240826773014}, "819902008RR0001": {"name": "ERIE STREET COMMUNITY CHURCH OF THE NAZARENE", "designationCode": "C", "categoryCode": "39", "address": "200 ERIE STREET", "city": "COLLINGWOOD", "province": "ON", "country": "CA", "postalCode": "L9Y1P7", "twitter": "None", "instagram": "None", "facebook": "None", "youtube": "None", "website": "None", "summary": "None", "logo": "None", "latitude": 44.50212111435556, "longitude": -80.20307408842206}}