{"107867566RR0001": {"name": "QU'APPELLE VALLEY FRIENDSHIP CENTRE INC.", "designationCode": "C", "categoryCode": "56", "address": "BOX 240", "city": "FORT QU'APPELLE", "province": "SK", "country": "CA", "postalCode": "S0G1S0", "twitter": "None", "instagram": "None", "facebook": "None", "youtube": "None", "website": "None", "summary": "None", "logo": "None", "latitude": 50.76964000000004, "longitude": -103.79339999999996}, "889233649RR0001": {"name": "QU'APPELLE VALLEY MUSIC FESTIVAL ASSOCIATION", "designationCode": "C", "categoryCode": "22", "address": "PO BOX 2544", "city": "FORT QU'APPELLE", "province": "SK", "country": "CA", "postalCode": "S0G1S0", "twitter": "None", "instagram": "None", "facebook": "None", "youtube": "None", "website": "None", "summary": "None", "logo": "None", "latitude": 50.76964000000004, "longitude": -103.79339999999996}, "119106656RR0001": {"name": "QUACO HISTORICAL AND LIBRARY SOCIETY INC.", "designationCode": "C", "categoryCode": "50", "address": "236 MAIN STREET", "city": "ST MARTINS", "province": "NB", "country": "CA", "postalCode": "E5R1B8", "twitter": "None", "instagram": "None", "facebook": "None", "youtube": "None", "website": "None", "summary": "None", "logo": "None", "latitude": 45.35308615386542, "longitude": -65.54079638881397}, "119106664RR0001": {"name": "QUAD COUNTY SUPPORT SERVICES", "designationCode": "C", "categoryCode": "11", "address": "BOX 65", "city": "WARDSVILLE", "province": "ON", "country": "CA", "postalCode": "N0L2N0", "twitter": "None", "instagram": "None", "facebook": "None", "youtube": "None", "website": "None", "summary": "None", "logo": "None", "latitude": 42.655970000000025, "longitude": -81.75643999999994}, "107867095RR0001": {"name": "QUADEVILLE PENTECOSTAL CHURCH", "designationCode": "C", "categoryCode": "36", "address": "P.O. BOX 70", "city": "QUADEVILLE", "province": "ON", "country": "CA", "postalCode": "K0J2G0", "twitter": "None", "instagram": "None", "facebook": "None", "youtube": "None", "website": "None", "summary": "None", "logo": "None", "latitude": 45.317325064292355, "longitude": -77.35358964445783}, "133132985RR0001": {"name": "QUADRA DAYCARE SOCIETY", "designationCode": "C", "categoryCode": "20", "address": "4315 WEST 6TH AVE", "city": "VANCOUVER", "province": "BC", "country": "CA", "postalCode": "V6R3Z4", "twitter": "None", "instagram": "None", "facebook": "None", "youtube": "None", "website": "None", "summary": "None", "logo": "None", "latitude": 49.26729239028385, "longitude": -123.20435569912752}, "119106698RR0001": {"name": "QUADRA ISLAND BIBLE CHURCH", "designationCode": "C", "categoryCode": "39", "address": "BOX 161", "city": "QUATHIASKI COVE", "province": "BC", "country": "CA", "postalCode": "V0P1N0", "twitter": "None", "instagram": "None", "facebook": "None", "youtube": "None", "website": "None", "summary": "None", "logo": "None", "latitude": 50.042146929765416, "longitude": -125.2168640925508}, "887717262RR0001": {"name": "QUADRA ISLAND CONSERVANCY AND STEWARDSHIP SOCIETY", "designationCode": "C", "categoryCode": "52", "address": "BOX 202", "city": "HERIOT BAY", "province": "BC", "country": "CA", "postalCode": "V0P1H0", "twitter": "None", "instagram": "None", "facebook": "None", "youtube": "None", "website": "None", "summary": "None", "logo": "None", "latitude": 50.100100277953125, "longitude": -125.20502305421007}, "119106722RR0001": {"name": "QUADRA ISLAND RECREATION SOCIETY", "designationCode": "C", "categoryCode": "56", "address": "P O BOX 10", "city": "QUATHIASKI COVE-QUADRA I.", "province": "BC", "country": "CA", "postalCode": "V0P1N0", "twitter": "None", "instagram": "None", "facebook": "None", "youtube": "None", "website": "None", "summary": "None", "logo": "None", "latitude": 50.042146929765416, "longitude": -125.2168640925508}, "119106730RR0001": {"name": "QUADRA ISLAND SALMON ENHANCEMENT SOCIETY", "designationCode": "C", "categoryCode": "54", "address": "BOX 413", "city": "QUATHIASKI COVE", "province": "BC", "country": "CA", "postalCode": "V0P1N0", "twitter": "None", "instagram": "None", "facebook": "None", "youtube": "None", "website": "None", "summary": "None", "logo": "None", "latitude": 50.042146929765416, "longitude": -125.2168640925508}, "886608470RR0001": {"name": "QUADRA ISLAND SENIORS HOUSING SOCIETY", "designationCode": "C", "categoryCode": "09", "address": "BOX 535", "city": "QUATHIASKI COVE", "province": "BC", "country": "CA", "postalCode": "V0P1N0", "twitter": "None", "instagram": "None", "facebook": "None", "youtube": "None", "website": "None", "summary": "None", "logo": "None", "latitude": 50.042146929765416, "longitude": -125.2168640925508}, "119288918RR1094": {"name": "QUADRA ISLAND,BRITISH COLUMBIA,CONGREGATION OF JEHOVAH'S WITNESSES", "designationCode": "C", "categoryCode": "61", "address": "BOX 211", "city": "QUATHIASKI COVE", "province": "BC", "country": "CA", "postalCode": "V0P1N0", "twitter": "None", "instagram": "None", "facebook": "None", "youtube": "None", "website": "None", "summary": "None", "logo": "None", "latitude": 50.042146929765416, "longitude": -125.2168640925508}, "835601626RR0001": {"name": "QUADRUM FOUNDATION", "designationCode": "B", "categoryCode": "05", "address": "SUITE 403, 322-11 AVE SW", "city": "CALGARY", "province": "AB", "country": "CA", "postalCode": "T2R0C5", "twitter": "None", "instagram": "None", "facebook": "None", "youtube": "None", "website": "None", "summary": "None", "logo": "None", "latitude": 51.042551467684106, "longitude": -114.0685795269202}, "897507265RR0001": {"name": "QUAIL ASSOCIATION QUEBECOISE DE LOGEMENT INTEGRE (QUAIL QUEBEC ASSOCIATION FOR INDEPENDENT LIVING)", "designationCode": "C", "categoryCode": "01", "address": "9, CH. BOIS-JOLI", "city": "CHELSEA", "province": "QC", "country": "CA", "postalCode": "J9B1J9", "twitter": "None", "instagram": "None", "facebook": "None", "youtube": "None", "website": "None", "summary": "None", "logo": "None", "latitude": 45.501335972474216, "longitude": -75.78743313777501}, "119106805RR0001": {"name": "QUALICUM - PARKSVILLE KIWANIS HOUSING SOCIETY", "designationCode": "C", "categoryCode": "01", "address": "PO BOX 138", "city": "QUALICUM BEACH", "province": "BC", "country": "CA", "postalCode": "V9K1S7", "twitter": "None", "instagram": "None", "facebook": "None", "youtube": "None", "website": "None", "summary": "None", "logo": "None", "latitude": 49.34772600000005, "longitude": -124.44434449999994}, "132184649RR0001": {"name": "QUALICUM BAY LOW RENTAL HOUSING SOCIETY", "designationCode": "C", "categoryCode": "01", "address": "280 LIONS WAY", "city": "QUALICUM BEACH", "province": "BC", "country": "CA", "postalCode": "V9K2C3", "twitter": "None", "instagram": "None", "facebook": "None", "youtube": "None", "website": "None", "summary": "None", "logo": "None", "latitude": 49.404021789953816, "longitude": -124.63128706924628}, "119106789RR0001": {"name": "QUALICUM BEACH HISTORICAL AND MUSEUM SOCIETY", "designationCode": "C", "categoryCode": "50", "address": "587 BEACH RD", "city": "QUALICUM BEACH", "province": "BC", "country": "CA", "postalCode": "V9K1K7", "twitter": "None", "instagram": "None", "facebook": "None", "youtube": "None", "website": "None", "summary": "None", "logo": "None", "latitude": 49.35040300582838, "longitude": -124.44754362937822}, "889393633RR0001": {"name": "QUALICUM BEACH HONOURS SOCIETY", "designationCode": "C", "categoryCode": "21", "address": "PO BOX 1000", "city": "QUALICUM BEACH", "province": "BC", "country": "CA", "postalCode": "V9K1T3", "twitter": "None", "instagram": "None", "facebook": "None", "youtube": "None", "website": "None", "summary": "None", "logo": "None", "latitude": 49.34772600000005, "longitude": -124.44434449999994}, "865947287RR0001": {"name": "QUALICUM BEACH STREAMKEEPERS SOCIETY", "designationCode": "C", "categoryCode": "53", "address": "216 SATURNA DR", "city": "QUALICUM BEACH", "province": "BC", "country": "CA", "postalCode": "V9K2P5", "twitter": "None", "instagram": "None", "facebook": "None", "youtube": "None", "website": "None", "summary": "None", "logo": "None"}, "861758787RR0001": {"name": "QUALICUM CAT RESCUE SOCIETY", "designationCode": "C", "categoryCode": "54", "address": "104-166 1ST AVE W", "city": "QUALICUM BEACH", "province": "BC", "country": "CA", "postalCode": "V9K2M4", "twitter": "None", "instagram": "None", "facebook": "None", "youtube": "None", "website": "None", "summary": "None", "logo": "None", "latitude": 49.348234521207395, "longitude": -124.4452725}, "898592142RR0001": {"name": "QUALICUM COMMUNITY BAPTIST CHURCH", "designationCode": "C", "categoryCode": "31", "address": "600 BEACH RD", "city": "QUALICUM BEACH", "province": "BC", "country": "CA", "postalCode": "V9K1K7", "twitter": "None", "instagram": "None", "facebook": "None", "youtube": "None", "website": "None", "summary": "None", "logo": "None", "latitude": 49.349817, "longitude": -124.44746829675742}, "849806922RR0001": {"name": "QUALITY CHINUCH/EDUCATION DE QUALITE", "designationCode": "C", "categoryCode": "21", "address": "4851 CARLTON", "city": "MONTR\u00c9AL", "province": "QC", "country": "CA", "postalCode": "H3W1G7", "twitter": "None", "instagram": "None", "facebook": "None", "youtube": "None", "website": "None", "summary": "None", "logo": "None", "latitude": 45.494316428818685, "longitude": -73.64044812894554}, "891183055RR0001": {"name": "QUALITY IN LIFELONG LEARNING NETWORK INC.", "designationCode": "C", "categoryCode": "21", "address": "PO BOX 1148                   202-200 MCNAB ST", "city": "WALKERTON", "province": "ON", "country": "CA", "postalCode": "N0G2V0", "twitter": "None", "instagram": "None", "facebook": "None", "youtube": "None", "website": "None", "summary": "None", "logo": "None", "latitude": 44.13038844055308, "longitude": -81.14473252912026}, "141092981RR0001": {"name": "QUARTIER EPHEMERE, CENTRE D'ARTS VISUELS", "designationCode": "C", "categoryCode": "23", "address": "735, RUE OTTAWA", "city": "MONTREAL", "province": "QC", "country": "CA", "postalCode": "H3C1R8", "twitter": "None", "instagram": "None", "facebook": "None", "youtube": "None", "website": "None", "summary": "None", "logo": "None", "latitude": 45.49785696003805, "longitude": -73.5565175558023}, "103060711RR0001": {"name": "QUARTIER-JEUNESSE 1995", "designationCode": "C", "categoryCode": "09", "address": "580B RUE COTE", "city": "SAINT-PASCAL", "province": "QC", "country": "CA", "postalCode": "G0L3Y0", "twitter": "None", "instagram": "None", "facebook": "None", "youtube": "None", "website": "None", "summary": "None", "logo": "None", "latitude": 47.52951378219042, "longitude": -69.80189531621554}, "144035680RR0001": {"name": "QUASAR QUATUOR DE SAXOPHONES", "designationCode": "C", "categoryCode": "22", "address": "8160, RUE BOYER", "city": "MONTREAL", "province": "QC", "country": "CA", "postalCode": "H2P1X5", "twitter": "None", "instagram": "None", "facebook": "None", "youtube": "None", "website": "None", "summary": "None", "logo": "None", "latitude": 45.547657188441434, "longitude": -73.62640230489347}, "891729642RR0001": {"name": "QUATSINO ARCHIVES ASSOCIATION", "designationCode": "C", "categoryCode": "50", "address": "BOX 100", "city": "QUATSINO", "province": "BC", "country": "CA", "postalCode": "V0N2V0", "twitter": "None", "instagram": "None", "facebook": "None", "youtube": "None", "website": "None", "summary": "None", "logo": "None", "latitude": 50.53634748751023, "longitude": -127.6113761983839}, "863706297RR0001": {"name": "QUATUOR BOZZINI", "designationCode": "C", "categoryCode": "22", "address": "4816 RUE CLARK", "city": "MONTREAL", "province": "QC", "country": "CA", "postalCode": "H2T2T5", "twitter": "None", "instagram": "None", "facebook": "None", "youtube": "None", "website": "None", "summary": "None", "logo": "None", "latitude": 45.52104981513661, "longitude": -73.59007591009278}, "885615161RR0001": {"name": "QUATUOR MOLINARI", "designationCode": "C", "categoryCode": "22", "address": "C P 56536", "city": "MONTREAL", "province": "QC", "country": "CA", "postalCode": "H1W3Z3", "twitter": "None", "instagram": "None", "facebook": "None", "youtube": "None", "website": "None", "summary": "None", "logo": "None", "latitude": 45.51239400000006, "longitude": -73.55469049999994}, "861170728RR0001": {"name": "QUAY VIEW HOUSING SOCIETY", "designationCode": "C", "categoryCode": "09", "address": "1070 ROOSEVELT CRESCENT", "city": "NORTH VANCOUVER", "province": "BC", "country": "CA", "postalCode": "V7P1M3", "twitter": "None", "instagram": "None", "facebook": "None", "youtube": "None", "website": "None", "summary": "None", "logo": "None", "latitude": 49.32208752799383, "longitude": -123.10408951597}, "811921303RR0001": {"name": "QUBA COMMUNITY SERVICES INC.", "designationCode": "C", "categoryCode": "60", "address": "2655 LAWRENCE AVE EAST        A 19A", "city": "SCARBOROUGH", "province": "ON", "country": "CA", "postalCode": "M1P2S2", "twitter": "None", "instagram": "None", "facebook": "None", "youtube": "None", "website": "None", "summary": "None", "logo": "None", "latitude": 43.751919829794474, "longitude": -79.26304730694228}, "832447254RR0001": {"name": "QUC Residents Housing Foundation", "designationCode": "A", "categoryCode": "03", "address": "1500 WEST GEORGIA STREET      SUITE 1250   BOX 62", "city": "VANCOUVER", "province": "BC", "country": "CA", "postalCode": "V6G2Z6", "twitter": "None", "instagram": "None", "facebook": "None", "youtube": "None", "website": "None", "summary": "None", "logo": "None", "latitude": 49.2900638104334, "longitude": -123.12989899362336}, "119106870RR0001": {"name": "QUEBEC BAPTIST CHURCH", "designationCode": "C", "categoryCode": "31", "address": "2979 BOUL MONSEIGNEUR-GAUTHIERBUREAU 4", "city": "QUEBEC", "province": "QC", "country": "CA", "postalCode": "G1E2V3", "twitter": "None", "instagram": "None", "facebook": "None", "youtube": "None", "website": "None", "summary": "None", "logo": "None", "latitude": 46.847588237318845, "longitude": -71.21266902833385}, "119288918RR1384": {"name": "QUEBEC CIRCUIT 4A OF JEHOVAH'S WITNESSES", "designationCode": "C", "categoryCode": "61", "address": "1375 SHERWOOD CRESCENT        SUITE 404", "city": "MONT-ROYAL", "province": "QC", "country": "CA", "postalCode": "H3R3C8", "twitter": "None", "instagram": "None", "facebook": "None", "youtube": "None", "website": "None", "summary": "None", "logo": "None", "latitude": 45.5133887682784, "longitude": -73.6453210563219}, "119288918RR0933": {"name": "QUEBEC CIRCUIT 4B OF JEHOVAH'S WITNESSES", "designationCode": "C", "categoryCode": "61", "address": "89 TAMARACK DR", "city": "LABRADOR CITY", "province": "NL", "country": "CA", "postalCode": "A2V0A1", "twitter": "None", "instagram": "None", "facebook": "None", "youtube": "None", "website": "None", "summary": "None", "logo": "None", "latitude": 52.943076190338026, "longitude": -66.90149212934872}, "119288918RR0972": {"name": "QUEBEC CIRCUIT 5 OF JEHOVAH'S WITNESSES", "designationCode": "C", "categoryCode": "61", "address": "50, RUE LAPIERRE", "city": "ST-NICEPHORE", "province": "QC", "country": "CA", "postalCode": "J2A1V4", "twitter": "None", "instagram": "None", "facebook": "None", "youtube": "None", "website": "None", "summary": "None", "logo": "None", "latitude": 45.855751703041044, "longitude": -72.41621092786639}, "129716205RR0001": {"name": "QUEBEC FAMILY HISTORY SOCIETY/SOCIETE DE L'HISTOIRE DES FAMILLES DU QUEBEC", "designationCode": "C", "categoryCode": "50", "address": "BOX 715 STN PTE-CLAIRE-DORVAL 15 DONEGANI AVENUE", "city": "POINT CLAIRE", "province": "QC", "country": "CA", "postalCode": "H9R4S8", "twitter": "None", "instagram": "None", "facebook": "None", "youtube": "None", "website": "None", "summary": "None", "logo": "None", "latitude": 45.45131807357591, "longitude": -73.78323716711846}, "888213865RR0001": {"name": "QUEBEC FEDERATION OF THE BLIND FOUNDATION FONDATION DE LA FEDERATION DES AVEUGLES DU QUEBEC", "designationCode": "A", "categoryCode": "13", "address": "301 CHEMIN DU CLUB MARIN,     APT T5,", "city": "VERDUN", "province": "QC", "country": "CA", "postalCode": "H3E1Z2", "twitter": "None", "instagram": "None", "facebook": "None", "youtube": "None", "website": "None", "summary": "None", "logo": "None", "latitude": 45.4596929686364, "longitude": -73.55490267190764}, "107951618RR0399": {"name": "QUEBEC HOTELLERIE ET ANCRAGE POUR HOMMES DE L'ARMEE DU SALUT/MEN'S HOSTEL - ANCHORAGE", "designationCode": "C", "categoryCode": "01", "address": "14 COTE DU PALAIS", "city": "QUEBEC", "province": "QC", "country": "CA", "postalCode": "G1R4H8", "twitter": "None", "instagram": "None", "facebook": "None", "youtube": "None", "website": "None", "summary": "None", "logo": "None", "latitude": 46.814944988603045, "longitude": -71.21111771720796}, "795300292RR0001": {"name": "QUEBEC INTERCESSEURS POUR LA JUSTICE (QCIJ) QUEBEC INTERCESSORS JUSTICE (QCIJ)", "designationCode": "C", "categoryCode": "59", "address": "3126 5E RUE", "city": "LAVAL", "province": "QC", "country": "CA", "postalCode": "H7V1M1", "twitter": "None", "instagram": "None", "facebook": "None", "youtube": "None", "website": "None", "summary": "None", "logo": "None", "latitude": 45.54454132333092, "longitude": -73.73098402455426}, "878855212RR0001": {"name": "QUEBEC RADIO SURVIE SERVICE D'URGENCE SANS BUT LUCRATIF", "designationCode": "C", "categoryCode": "09", "address": "181 TERRASSES LEGAULT #2", "city": "SAINTE-ANNE-DES-PLAINES", "province": "QC", "country": "CA", "postalCode": "J0N1H0", "twitter": "None", "instagram": "None", "facebook": "None", "youtube": "None", "website": "None", "summary": "None", "logo": "None", "latitude": 45.761249558399385, "longitude": -73.8091082776848}, "888695749RR0001": {"name": "QUEBEC SECOURS", "designationCode": "C", "categoryCode": "59", "address": "6341 CH FOREST", "city": "TERREBONNE", "province": "QC", "country": "CA", "postalCode": "J7M1M5", "twitter": "None", "instagram": "None", "facebook": "None", "youtube": "None", "website": "None", "summary": "None", "logo": "None", "latitude": 45.78008326123794, "longitude": -73.70899883830589}, "856528286RR0001": {"name": "QUEBEC STEEL PAN MUSIC ASSOCIATION", "designationCode": "C", "categoryCode": "22", "address": "15888 DE LA CASERNE           APT. 14", "city": "ST. GENEVIEVE", "province": "QC", "country": "CA", "postalCode": "H9H1G4", "twitter": "None", "instagram": "None", "facebook": "None", "youtube": "None", "website": "None", "summary": "None", "logo": "None", "latitude": 45.48061710072727, "longitude": -73.86955521244744}, "894535962RR0001": {"name": "QUEBEC-TRANSPLANT", "designationCode": "C", "categoryCode": "11", "address": "200-4100 RUE MOLSON", "city": "MONTREAL", "province": "QC", "country": "CA", "postalCode": "H1Y3N1", "twitter": "None", "instagram": "None", "facebook": "None", "youtube": "None", "website": "None", "summary": "None", "logo": "None", "latitude": 45.54134650288553, "longitude": -73.5633}, "119107076RR0001": {"name": "QUEEN CHARLOTTE ISLANDS CHRISTIAN FAITH MINISTRIES", "designationCode": "C", "categoryCode": "47", "address": "4531 207A ST", "city": "LANGLEY", "province": "BC", "country": "CA", "postalCode": "V3A5V8", "twitter": "None", "instagram": "None", "facebook": "None", "youtube": "None", "website": "None", "summary": "None", "logo": "None", "latitude": 49.08468513216585, "longitude": -122.64865316348029}, "889632394RR0001": {"name": "QUEEN CHARLOTTE ISLANDS HOSPITAL DAY FOUNDATION", "designationCode": "A", "categoryCode": "13", "address": "PO BOX 9", "city": "QUEEN CHARLOTTE", "province": "BC", "country": "CA", "postalCode": "V0T1S0", "twitter": "None", "instagram": "None", "facebook": "None", "youtube": "None", "website": "None", "summary": "None", "logo": "None", "latitude": 53.50199672573152, "longitude": -132.2619050828624}, "868040346RR0001": {"name": "QUEEN CHARLOTTE ISLANDS SALMON UNLIMITED ASSOCIATION", "designationCode": "C", "categoryCode": "54", "address": "P O BOX 68", "city": "MASSET", "province": "BC", "country": "CA", "postalCode": "V0T1M0", "twitter": "None", "instagram": "None", "facebook": "None", "youtube": "None", "website": "None", "summary": "None", "logo": "None", "latitude": 54.01182000000006, "longitude": -132.14781}, "890848344RR0001": {"name": "QUEEN CHARLOTTE ISLANDS SUPPORT SERVICES SOCIETY", "designationCode": "C", "categoryCode": "09", "address": "PO BOX 778", "city": "QUEEN CHARLOTTE", "province": "BC", "country": "CA", "postalCode": "V0T1S0", "twitter": "None", "instagram": "None", "facebook": "None", "youtube": "None", "website": "None", "summary": "None", "logo": "None", "latitude": 53.50199672573152, "longitude": -132.2619050828624}, "897186557RR0001": {"name": "QUEEN CHARLOTTE YOUTH EDUCATION SOCIETY", "designationCode": "C", "categoryCode": "20", "address": "PO BOX 850", "city": "QUEEN CHARLOTTE", "province": "BC", "country": "CA", "postalCode": "V0T1S0", "twitter": "None", "instagram": "None", "facebook": "None", "youtube": "None", "website": "None", "summary": "None", "logo": "None", "latitude": 53.50199672573152, "longitude": -132.2619050828624}, "137280442RR0001": {"name": "QUEEN ELIZABETH HOSPITAL AUXILIARY INC.", "designationCode": "C", "categoryCode": "19", "address": "PO BOX 6600", "city": "CHARLOTTETOWN", "province": "PE", "country": "CA", "postalCode": "C1A8T5", "twitter": "None", "instagram": "None", "facebook": "None", "youtube": "None", "website": "None", "summary": "None", "logo": "None", "latitude": 46.23659700000006, "longitude": -63.12815449999994}, "892177965RR0001": {"name": "QUEEN ELIZABETH HOSPITAL FOUNDATION INC.", "designationCode": "C", "categoryCode": "13", "address": "PO BOX 6600", "city": "CHARLOTTETOWN", "province": "PE", "country": "CA", "postalCode": "C1A8T5", "twitter": "None", "instagram": "None", "facebook": "None", "youtube": "None", "website": "None", "summary": "None", "logo": "None", "latitude": 46.23659700000006, "longitude": -63.12815449999994}, "107868135RR0001": {"name": "QUEEN MARGARET'S SCHOOL", "designationCode": "C", "categoryCode": "20", "address": "660 BROWNSEY AVE", "city": "DUNCAN", "province": "BC", "country": "CA", "postalCode": "V9L1C2", "twitter": "None", "instagram": "None", "facebook": "None", "youtube": "None", "website": "None", "summary": "None", "logo": "None"}, "107868143RR0001": {"name": "QUEEN MARY COMMUNITY SERVICES ASSOCIATION", "designationCode": "C", "categoryCode": "09", "address": "230 WEST KEITH ROAD", "city": "NORTH VANCOUVER", "province": "BC", "country": "CA", "postalCode": "V7M1L8", "twitter": "None", "instagram": "None", "facebook": "None", "youtube": "None", "website": "None", "summary": "None", "logo": "None", "latitude": 49.31876024212983, "longitude": -123.07798903537477}, "107868200RR0001": {"name": "QUEEN OF APOSTLES RENEWAL CENTRE", "designationCode": "C", "categoryCode": "38", "address": "1617 BLYTHE RD.,", "city": "MISSISSAUGA", "province": "ON", "country": "CA", "postalCode": "L5H2C3", "twitter": "None", "instagram": "None", "facebook": "None", "youtube": "None", "website": "None", "summary": "None", "logo": "None", "latitude": 43.54015100421227, "longitude": -79.64602322393038}, "888270444RR0001": {"name": "QUEEN OF MARTYRS CATHOLIC CHURCH", "designationCode": "C", "categoryCode": "38", "address": "13210-133A AVE NW", "city": "EDMONTON", "province": "AB", "country": "CA", "postalCode": "T5L3T7", "twitter": "None", "instagram": "None", "facebook": "None", "youtube": "None", "website": "None", "summary": "None", "logo": "None", "latitude": 53.5937004865829, "longitude": -113.54943222300767}, "894363969RR0001": {"name": "QUEEN OF PEACE CENTRE", "designationCode": "C", "categoryCode": "47", "address": "1525 LACON STREET", "city": "REGINA", "province": "SK", "country": "CA", "postalCode": "S4N1Z3", "twitter": "None", "instagram": "None", "facebook": "None", "youtube": "None", "website": "None", "summary": "None", "logo": "None", "latitude": 50.45457532944775, "longitude": -104.5692688176181}, "119107266RR0001": {"name": "QUEEN OF PEACE CHURCH", "designationCode": "C", "categoryCode": "38", "address": "BOX 478", "city": "CUDWORTH", "province": "SK", "country": "CA", "postalCode": "S0K1B0", "twitter": "None", "instagram": "None", "facebook": "None", "youtube": "None", "website": "None", "summary": "None", "logo": "None", "latitude": 52.500060000000076, "longitude": -105.73441999999994}, "129950804RR0011": {"name": "QUEEN OF PEACE PARISH", "designationCode": "C", "categoryCode": "38", "address": "849 OLD ESQUIMALT ROAD", "city": "ESQUIMALT", "province": "BC", "country": "CA", "postalCode": "V9A4W9", "twitter": "None", "instagram": "None", "facebook": "None", "youtube": "None", "website": "None", "summary": "None", "logo": "None", "latitude": 48.43292251399404, "longitude": -123.39749241618097}, "119109817RR0126": {"name": "QUEEN OF PEACE POLISH CATHOLIC COMMUNITY", "designationCode": "C", "categoryCode": "38", "address": "566 ROSEDALE AVENUE", "city": "SARNIA", "province": "ON", "country": "CA", "postalCode": "N7V1Z4", "twitter": "None", "instagram": "None", "facebook": "None", "youtube": "None", "website": "None", "summary": "None", "logo": "None", "latitude": 42.990935329667295, "longitude": -82.39179580058878}, "119109791RR0047": {"name": "QUEEN OF THE ANGELS ORATORY", "designationCode": "C", "categoryCode": "38", "address": "317 MORTON STREET", "city": "THOROLD SOUTH", "province": "ON", "country": "CA", "postalCode": "L2V1C4", "twitter": "None", "instagram": "None", "facebook": "None", "youtube": "None", "website": "None", "summary": "None", "logo": "None", "latitude": 43.10018902553523, "longitude": -79.19529017254281}, "119110443RR0042": {"name": "QUEEN OF THE MOST HOLY ROSARY PARISH", "designationCode": "C", "categoryCode": "38", "address": "169 NORTH PARK ST.", "city": "BELLEVILLE", "province": "ON", "country": "CA", "postalCode": "K8P4P1", "twitter": "None", "instagram": "None", "facebook": "None", "youtube": "None", "website": "None", "summary": "None", "logo": "None", "latitude": 44.18594976908646, "longitude": -77.39265154896431}, "128967353RR0025": {"name": "QUEEN OF THE MOST HOLY ROSARY PARISH", "designationCode": "C", "categoryCode": "38", "address": "1153 WELLINGTON ST", "city": "OTTAWA", "province": "ON", "country": "CA", "postalCode": "K1Y2Y9", "twitter": "None", "instagram": "None", "facebook": "None", "youtube": "None", "website": "None", "summary": "None", "logo": "None", "latitude": 45.40141780962534, "longitude": -75.72757764865236}, "129539748RR0001": {"name": "QUEEN STREET BAPTIST CHURCH,", "designationCode": "C", "categoryCode": "31", "address": "57 QUEEN STREET", "city": "ST CATHARINES", "province": "ON", "country": "CA", "postalCode": "L2R5G8", "twitter": "None", "instagram": "None", "facebook": "None", "youtube": "None", "website": "None", "summary": "None", "logo": "None", "latitude": 43.15785550539569, "longitude": -79.24830235457894}, "119107548RR0001": {"name": "QUEEN STREET EAST PRESBYTERIAN CHURCH", "designationCode": "C", "categoryCode": "37", "address": "947 QUEEN ST. E", "city": "TORONTO", "province": "ON", "country": "CA", "postalCode": "M4M1J9", "twitter": "None", "instagram": "None", "facebook": "None", "youtube": "None", "website": "None", "summary": "None", "logo": "None", "latitude": 43.66114277655962, "longitude": -79.33955634748115}, "119107563RR0001": {"name": "QUEEN STREET UNITED CHURCH", "designationCode": "C", "categoryCode": "44", "address": "101 - 55 MARY ST W", "city": "LINDSAY", "province": "ON", "country": "CA", "postalCode": "K9V5Z6", "twitter": "None", "instagram": "None", "facebook": "None", "youtube": "None", "website": "None", "summary": "None", "logo": "None", "latitude": 44.34572340969201, "longitude": -78.736554072046}, "119107381RR0001": {"name": "QUEEN'S DAY CARE CENTRE INC.", "designationCode": "C", "categoryCode": "01", "address": "99 UNIVERSITY AVE", "city": "KINGSTON", "province": "ON", "country": "CA", "postalCode": "K7L3N5", "twitter": "None", "instagram": "None", "facebook": "None", "youtube": "None", "website": "None", "summary": "None", "logo": "None", "latitude": 44.22786945204657, "longitude": -76.4956038812701}, "889124798RR0001": {"name": "QUEEN'S HEALTH OUTREACH", "designationCode": "C", "categoryCode": "11", "address": "PO BOX 2045                   QUEEN'S HEALTH OUTREACH", "city": "KINGSTON", "province": "ON", "country": "CA", "postalCode": "K7L5J8", "twitter": "None", "instagram": "None", "facebook": "None", "youtube": "None", "website": "None", "summary": "None", "logo": "None", "latitude": 44.224619423473705, "longitude": -76.50123613731579}, "107868416RR0001": {"name": "QUEEN'S HOUSE OF RETREATS", "designationCode": "C", "categoryCode": "38", "address": "601 TAYLOR ST WEST", "city": "SASKATOON", "province": "SK", "country": "CA", "postalCode": "S7M0C9", "twitter": "None", "instagram": "None", "facebook": "None", "youtube": "None", "website": "None", "summary": "None", "logo": "None", "latitude": 52.107320454988134, "longitude": -106.67878276005544}, "107868531RR0001": {"name": "QUEEN'S PARK PRESCHOOL SOCIETY", "designationCode": "C", "categoryCode": "20", "address": "1-114 PARK ROW", "city": "NEW WESTMINSTER", "province": "BC", "country": "CA", "postalCode": "V3L2J6", "twitter": "None", "instagram": "None", "facebook": "None", "youtube": "None", "website": "None", "summary": "None", "logo": "None", "latitude": 49.21001514931621, "longitude": -122.90431322768222}, "107868580RR0001": {"name": "QUEEN'S THEOLOGICAL COLLEGE", "designationCode": "C", "categoryCode": "20", "address": "QUEEN'S THEOLOGICAL HALL      THEOLOGICAL HALL", "city": "KINGSTON", "province": "ON", "country": "CA", "postalCode": "K7L3N6", "twitter": "None", "instagram": "None", "facebook": "None", "youtube": "None", "website": "None", "summary": "None", "logo": "None", "latitude": 44.226006000000055, "longitude": -76.49357749999993}, "107868705RR0001": {"name": "QUEEN'S UNIVERSITY AT KINGSTON", "designationCode": "C", "categoryCode": "20", "address": "207 STUART STREET, 3RD FLOOR", "city": "KINGSTON", "province": "ON", "country": "CA", "postalCode": "K7L2V9", "twitter": "None", "instagram": "None", "facebook": "None", "youtube": "None", "website": "None", "summary": "None", "logo": "None", "latitude": 44.22387238386507, "longitude": -76.49806306134222}, "118828979RR0001": {"name": "QUEENS ASSOCIATION FOR SUPPORTED LIVING", "designationCode": "C", "categoryCode": "11", "address": "P O BOX 520", "city": "MILTON", "province": "NS", "country": "CA", "postalCode": "B0T1P0", "twitter": "None", "instagram": "None", "facebook": "None", "youtube": "None", "website": "None", "summary": "None", "logo": "None", "latitude": 44.04603947901783, "longitude": -64.72496115525942}, "119107316RR0001": {"name": "QUEENS AVENUE UNITED CHURCH", "designationCode": "C", "categoryCode": "44", "address": "529 QUEEN'S AVENUE", "city": "NEW WESTMINSTER", "province": "BC", "country": "CA", "postalCode": "V3L1K2", "twitter": "None", "instagram": "None", "facebook": "None", "youtube": "None", "website": "None", "summary": "None", "logo": "None", "latitude": 49.20756667336843, "longitude": -122.91189042425427}, "890930175RR0001": {"name": "QUEENS BUSH RURAL MINISTRIES", "designationCode": "C", "categoryCode": "49", "address": "BOX 522", "city": "MOUNT FOREST", "province": "ON", "country": "CA", "postalCode": "N0G2L0", "twitter": "None", "instagram": "None", "facebook": "None", "youtube": "None", "website": "None", "summary": "None", "logo": "None", "latitude": 44.031723000000056, "longitude": -81.09871549999994}, "894798917RR0001": {"name": "QUEENS COUNTY FOOD BANK", "designationCode": "C", "categoryCode": "09", "address": "P.O. BOX 1149", "city": "LIVERPOOL", "province": "NS", "country": "CA", "postalCode": "B0T1K0", "twitter": "None", "instagram": "None", "facebook": "None", "youtube": "None", "website": "None", "summary": "None", "logo": "None", "latitude": 44.03577000000007, "longitude": -64.72067999999996}, "119107357RR0001": {"name": "QUEENS COUNTY HISTORICAL SOCIETY", "designationCode": "C", "categoryCode": "50", "address": "PO BOX 1078", "city": "LIVERPOOL", "province": "NS", "country": "CA", "postalCode": "B0T1K0", "twitter": "None", "instagram": "None", "facebook": "None", "youtube": "None", "website": "None", "summary": "None", "logo": "None", "latitude": 44.03577000000007, "longitude": -64.72067999999996}, "895126951RR0001": {"name": "QUEENS COUNTY LEARNING NETWORK SOCIETY", "designationCode": "C", "categoryCode": "20", "address": "BOX 1156", "city": "LIVERPOOL", "province": "NS", "country": "CA", "postalCode": "B0T1K0", "twitter": "None", "instagram": "None", "facebook": "None", "youtube": "None", "website": "None", "summary": "None", "logo": "None", "latitude": 44.03577000000007, "longitude": -64.72067999999996}, "891755449RR0001": {"name": "QUEENS COUNTY MUSIC FESTIVAL ASSOCIATION", "designationCode": "C", "categoryCode": "22", "address": "PO BOX 632", "city": "MILTON", "province": "NS", "country": "CA", "postalCode": "B0T1P0", "twitter": "None", "instagram": "None", "facebook": "None", "youtube": "None", "website": "None", "summary": "None", "logo": "None", "latitude": 44.04603947901783, "longitude": -64.72496115525942}, "129268116RR0001": {"name": "QUEENS COUNTY RESIDENTIAL SERVICES INC", "designationCode": "C", "categoryCode": "01", "address": "39 MAYPOINT ROAD", "city": "CHARLOTTETOWN", "province": "PE", "country": "CA", "postalCode": "C1E0H5", "twitter": "None", "instagram": "None", "facebook": "None", "youtube": "None", "website": "None", "summary": "None", "logo": "None", "latitude": 46.25606572217096, "longitude": -63.168392889837676}, "131801359RR0001": {"name": "QUEENS GENERAL HOSPITAL AUXILIARY", "designationCode": "C", "categoryCode": "19", "address": "P.O. BOX 1041", "city": "LIVERPOOL", "province": "NS", "country": "CA", "postalCode": "B0T1K0", "twitter": "None", "instagram": "None", "facebook": "None", "youtube": "None", "website": "None", "summary": "None", "logo": "None", "latitude": 44.03577000000007, "longitude": -64.72067999999996}, "889162392RR0001": {"name": "QUEENS GENERAL HOSPITAL FOUNDATION", "designationCode": "A", "categoryCode": "15", "address": "PO BOX 528", "city": "LIVERPOOL", "province": "NS", "country": "CA", "postalCode": "B0T1K0", "twitter": "None", "instagram": "None", "facebook": "None", "youtube": "None", "website": "None", "summary": "None", "logo": "None", "latitude": 44.03577000000007, "longitude": -64.72067999999996}, "897157632RR0001": {"name": "QUEENS HOME FOR SPECIAL CARE SOCIETY (QUEENS MANOR)", "designationCode": "C", "categoryCode": "01", "address": "P.O. BOX 1283", "city": "LIVERPOOL", "province": "NS", "country": "CA", "postalCode": "B0T1K0", "twitter": "None", "instagram": "None", "facebook": "None", "youtube": "None", "website": "None", "summary": "None", "logo": "None", "latitude": 44.03577000000007, "longitude": -64.72067999999996}, "137025904RR0001": {"name": "QUEENS NORTH HEALTH COMPLEX INC", "designationCode": "C", "categoryCode": "10", "address": "P. O. BOX 1004", "city": "MINTO", "province": "NB", "country": "CA", "postalCode": "E4B3Y6", "twitter": "None", "instagram": "None", "facebook": "None", "youtube": "None", "website": "None", "summary": "None", "logo": "None", "latitude": 46.07656800000005, "longitude": -66.05067049999994}, "119107514RR0001": {"name": "QUEENSTOWN UNITED BAPTIST CHURCH", "designationCode": "C", "categoryCode": "31", "address": "20 NORWOOD ROAD", "city": "GAGETOWN", "province": "NB", "country": "CA", "postalCode": "E5M1J4", "twitter": "None", "instagram": "None", "facebook": "None", "youtube": "None", "website": "None", "summary": "None", "logo": "None", "latitude": 45.774861561169345, "longitude": -66.16130935873387}, "119107589RR0001": {"name": "QUEENSVILLE UNITED CHURCH", "designationCode": "C", "categoryCode": "44", "address": "PO BOX 82                     20453 LESLIE ST", "city": "QUEENSVILLE", "province": "ON", "country": "CA", "postalCode": "L0G1R0", "twitter": "None", "instagram": "None", "facebook": "None", "youtube": "None", "website": "None", "summary": "None", "logo": "None", "latitude": 44.137669683045736, "longitude": -79.4502581720528}, "107868762RR0001": {"name": "QUEENSWAY BAPTIST CHURCH", "designationCode": "C", "categoryCode": "31", "address": "211 ST GEORGE ST", "city": "BRANTFORD", "province": "ON", "country": "CA", "postalCode": "N3R1W5", "twitter": "None", "instagram": "None", "facebook": "None", "youtube": "None", "website": "None", "summary": "None", "logo": "None", "latitude": 43.16179909250967, "longitude": -80.28129636791051}, "869722603RR0001": {"name": "QUEENSWAY BAPTIST CHURCH", "designationCode": "C", "categoryCode": "31", "address": "950 ISLINGTON AVENUE", "city": "ETOBICOKE", "province": "ON", "country": "CA", "postalCode": "M8Z4P6", "twitter": "None", "instagram": "None", "facebook": "None", "youtube": "None", "website": "None", "summary": "None", "logo": "None", "latitude": 43.62731260338164, "longitude": -79.51634412020296}, "118931831RR0001": {"name": "QUEENSWAY FREE METHODIST CHURCH", "designationCode": "C", "categoryCode": "39", "address": "4397 DORCHESTER ROAD", "city": "NIAGARA FALLS", "province": "ON", "country": "CA", "postalCode": "L2E6N5", "twitter": "None", "instagram": "None", "facebook": "None", "youtube": "None", "website": "None", "summary": "None", "logo": "None", "latitude": 43.10952213044607, "longitude": -79.11150803043998}, "119107654RR0001": {"name": "QUEENSWAY PENTECOSTAL CHURCH", "designationCode": "C", "categoryCode": "36", "address": "270 QUEENSWAY", "city": "ESPANOLA", "province": "ON", "country": "CA", "postalCode": "P5E1H8", "twitter": "None", "instagram": "None", "facebook": "None", "youtube": "None", "website": "None", "summary": "None", "logo": "None", "latitude": 46.25000388045271, "longitude": -81.76443399243394}, "107868770RR0001": {"name": "QUEENSWAY-CARLETON HOSPITAL", "designationCode": "C", "categoryCode": "10", "address": "3045 BASELINE RD", "city": "NEPEAN", "province": "ON", "country": "CA", "postalCode": "K2H8P4", "twitter": "None", "instagram": "None", "facebook": "None", "youtube": "None", "website": "None", "summary": "None", "logo": "None", "latitude": 45.333948842138916, "longitude": -75.80472321473805}, "137253571RR0001": {"name": "QUEENSWAY-CARLETON HOSPITAL FOUNDATION", "designationCode": "A", "categoryCode": "13", "address": "3045 BASELINE RD", "city": "NEPEAN", "province": "ON", "country": "CA", "postalCode": "K2H8P4", "twitter": "None", "instagram": "None", "facebook": "None", "youtube": "None", "website": "None", "summary": "None", "logo": "None", "latitude": 45.333948842138916, "longitude": -75.80472321473805}, "119107688RR0001": {"name": "QUEENSWOOD MONTESSORI SOCIETY", "designationCode": "C", "categoryCode": "20", "address": "2619 CURRIE ROAD", "city": "VICTORIA", "province": "BC", "country": "CA", "postalCode": "V8S3B9", "twitter": "None", "instagram": "None", "facebook": "None", "youtube": "None", "website": "None", "summary": "None", "logo": "None", "latitude": 48.42262947847548, "longitude": -123.30471546736699}, "891644163RR0001": {"name": "QUEENSWOOD UNITED CHURCH", "designationCode": "C", "categoryCode": "44", "address": "360 KENNEDY LANE EAST", "city": "ORLEANS", "province": "ON", "country": "CA", "postalCode": "K1E3P3", "twitter": "None", "instagram": "None", "facebook": "None", "youtube": "None", "website": "None", "summary": "None", "logo": "None", "latitude": 45.47875953978906, "longitude": -75.5043172323281}, "119107753RR0001": {"name": "QUESNEL & DISTRICT HOSPICE PALLIATIVE CARE ASSOCIATION", "designationCode": "C", "categoryCode": "10", "address": "BOX 4537", "city": "QUESNEL", "province": "BC", "country": "CA", "postalCode": "V2J3J8", "twitter": "None", "instagram": "None", "facebook": "None", "youtube": "None", "website": "None", "summary": "None", "logo": "None", "latitude": 52.978128000000055, "longitude": -122.49828349999993}, "895508174RR0001": {"name": "QUESNEL & DISTRICT SENIORS' SOCIETY", "designationCode": "C", "categoryCode": "56", "address": "461 CARSON AVE", "city": "QUESNEL", "province": "BC", "country": "CA", "postalCode": "V2J2B6", "twitter": "None", "instagram": "None", "facebook": "None", "youtube": "None", "website": "None", "summary": "None", "logo": "None", "latitude": 52.97600498354416, "longitude": -122.4932285571474}, "119107712RR0001": {"name": "QUESNEL AND DISTRICT CHILD DEVELOPMENT CENTRE ASSOCIATION", "designationCode": "C", "categoryCode": "11", "address": "300 - 488 MCLEAN ST", "city": "QUESNEL", "province": "BC", "country": "CA", "postalCode": "V2J2P2", "twitter": "None", "instagram": "None", "facebook": "None", "youtube": "None", "website": "None", "summary": "None", "logo": "None", "latitude": 52.98051969830919, "longitude": -122.49557769854033}, "107869091RR0001": {"name": "QUESNEL COMMUNITY LIVING ASSOCIATION", "designationCode": "C", "categoryCode": "11", "address": "658 DOHERTY DR", "city": "QUESNEL", "province": "BC", "country": "CA", "postalCode": "V2J1B9", "twitter": "None", "instagram": "None", "facebook": "None", "youtube": "None", "website": "None", "summary": "None", "logo": "None", "latitude": 52.97192117845811, "longitude": -122.51211112865707}, "870214236RR0001": {"name": "QUESNEL FESTIVAL OF THE PERFORMING ARTS", "designationCode": "C", "categoryCode": "22", "address": "P.O. BOX 4374", "city": "QUESNEL", "province": "BC", "country": "CA", "postalCode": "V2J3J4", "twitter": "None", "instagram": "None", "facebook": "None", "youtube": "None", "website": "None", "summary": "None", "logo": "None", "latitude": 52.978128000000055, "longitude": -122.49828349999993}, "890381445RR0001": {"name": "QUESNEL GOOD CHEER", "designationCode": "C", "categoryCode": "09", "address": "PO BOX 4354", "city": "QUESNEL", "province": "BC", "country": "CA", "postalCode": "V2J3J3", "twitter": "None", "instagram": "None", "facebook": "None", "youtube": "None", "website": "None", "summary": "None", "logo": "None", "latitude": 52.978128000000055, "longitude": -122.49828349999993}, "892147174RR0001": {"name": "QUESNEL INTERDENOMINATIONAL CHRISTIAN SCHOOL SOCIETY", "designationCode": "C", "categoryCode": "20", "address": "2876 RED BLUFF RD", "city": "QUESNEL", "province": "BC", "country": "CA", "postalCode": "V2J6C7", "twitter": "None", "instagram": "None", "facebook": "None", "youtube": "None", "website": "None", "summary": "None", "logo": "None", "latitude": 52.924190429338275, "longitude": -122.46533203739354}}