{"805506730RR0001": {"name": "EIF Canada", "designationCode": "C", "categoryCode": "13", "address": "820 - 330 BAY ST", "city": "TORONTO", "province": "ON", "country": "CA", "postalCode": "M5H2S8", "twitter": "None", "instagram": "None", "facebook": "None", "youtube": "None", "website": "None", "summary": "None", "logo": "None", "latitude": 43.65015448819902, "longitude": -79.38088577479927}, "886393198RR0001": {"name": "EINE KLEINE SUMMER MUSIC SOCIETY", "designationCode": "C", "categoryCode": "22", "address": "250 MOSS STREET", "city": "VICTORIA", "province": "BC", "country": "CA", "postalCode": "V8V4M4", "twitter": "None", "instagram": "None", "facebook": "None", "youtube": "None", "website": "None", "summary": "None", "logo": "None", "latitude": 48.4127606261469, "longitude": -123.34949934834654}, "888338092RR0001": {"name": "EIRANA SUPPORT SERVICES SOCIETY", "designationCode": "C", "categoryCode": "49", "address": "21804 52 AVE", "city": "LANGLEY", "province": "BC", "country": "CA", "postalCode": "V2Y1L3", "twitter": "None", "instagram": "None", "facebook": "None", "youtube": "None", "website": "None", "summary": "None", "logo": "None", "latitude": 49.09673852394869, "longitude": -122.61878091618097}, "889110599RR0001": {"name": "EIS-THE ECOFORESTRY INSTITUTE SOCIETY", "designationCode": "C", "categoryCode": "59", "address": "PO BOX 5070 STN B", "city": "VICTORIA", "province": "BC", "country": "CA", "postalCode": "V8R6N3", "twitter": "None", "instagram": "None", "facebook": "None", "youtube": "None", "website": "None", "summary": "None", "logo": "None", "latitude": 48.42854700000005, "longitude": -123.36445249999994}, "129799599RR0001": {"name": "EITZ CHAIM SCHOOLS", "designationCode": "C", "categoryCode": "20", "address": "475 PATRICIA AVE", "city": "TORONTO", "province": "ON", "country": "CA", "postalCode": "M2R2N1", "twitter": "None", "instagram": "None", "facebook": "None", "youtube": "None", "website": "None", "summary": "None", "logo": "None", "latitude": 43.78413760557469, "longitude": -79.44472886715933}, "859128944RR0001": {"name": "EIZER MORDECHAI", "designationCode": "C", "categoryCode": "09", "address": "179 ANDRE OUELLET", "city": "BOISBRIAND", "province": "QC", "country": "CA", "postalCode": "J7E4H4", "twitter": "None", "instagram": "None", "facebook": "None", "youtube": "None", "website": "None", "summary": "None", "logo": "None", "latitude": 45.612753515696134, "longitude": -73.86956987235254}, "830190427RR0001": {"name": "EJHS Charitable Properties Ltd.", "designationCode": "C", "categoryCode": "59", "address": "401-10010 105 STREET", "city": "EDMONTON", "province": "AB", "country": "CA", "postalCode": "T5J1C4", "twitter": "None", "instagram": "None", "facebook": "None", "youtube": "None", "website": "None", "summary": "None", "logo": "None", "latitude": 53.5390551618097, "longitude": -113.50114817822697}, "853421162RR0001": {"name": "EKAL VIDYALAYA FOUNDATION OF CANADA", "designationCode": "C", "categoryCode": "09", "address": "5448 ELGAR CRT", "city": "MISSISSAUGA", "province": "ON", "country": "CA", "postalCode": "L5M5C9", "twitter": "None", "instagram": "None", "facebook": "None", "youtube": "None", "website": "None", "summary": "None", "logo": "None", "latitude": 43.5636516330718, "longitude": -79.72287306567006}, "864958160RR0001": {"name": "EKI-LIB SANTE COTE-NORD", "designationCode": "C", "categoryCode": "09", "address": "652 DE QUEN", "city": "SEPT-ILES", "province": "QC", "country": "CA", "postalCode": "G4R2R5", "twitter": "None", "instagram": "None", "facebook": "None", "youtube": "None", "website": "None", "summary": "None", "logo": "None", "latitude": 50.212348270067416, "longitude": -66.38952449858635}, "806295341RR0001": {"name": "EKKLESIA KINGDOM MINISTRIES (2005) INC.", "designationCode": "C", "categoryCode": "39", "address": "321 REXDALE BLVD. UNIT 6", "city": "REXDALE", "province": "ON", "country": "CA", "postalCode": "M9W1R8", "twitter": "None", "instagram": "None", "facebook": "None", "youtube": "None", "website": "None", "summary": "None", "logo": "None", "latitude": 43.71456489255034, "longitude": -79.5844086848634}, "864957790RR0001": {"name": "EKOMKAR STUDY CIRCLE INTERNATIONAL", "designationCode": "C", "categoryCode": "62", "address": "26 CATCHFLY CRES", "city": "BRAMPTON", "province": "ON", "country": "CA", "postalCode": "L6P2H8", "twitter": "None", "instagram": "None", "facebook": "None", "youtube": "None", "website": "None", "summary": "None", "logo": "None", "latitude": 43.769702786023345, "longitude": -79.71283382610086}, "118896752RR0001": {"name": "EKON JESUIT FATHERS OF MUSKOKA", "designationCode": "C", "categoryCode": "49", "address": "43 QUEEN'S PARK CRES. EAST", "city": "TORONTO", "province": "ON", "country": "CA", "postalCode": "M5S2C3", "twitter": "None", "instagram": "None", "facebook": "None", "youtube": "None", "website": "None", "summary": "None", "logo": "None", "latitude": 43.66441275021635, "longitude": -79.39092008350191}, "119293025RR0010": {"name": "EL ENCUENTRO ALLIANCE CHURCH", "designationCode": "C", "categoryCode": "39", "address": "PO BOX 51008                  RPO BEDDINGTON", "city": "CALGARY", "province": "AB", "country": "CA", "postalCode": "T3K4V9", "twitter": "None", "instagram": "None", "facebook": "None", "youtube": "None", "website": "None", "summary": "None", "logo": "None", "latitude": 51.128584718547586, "longitude": -114.06502043950208}, "119288918RR0773": {"name": "EL REINO CONGREGATION OF JEHOVAH'S WITNESSES, CALGARY, ALBERTA", "designationCode": "C", "categoryCode": "61", "address": "2900 14 AVENUE NE.", "city": "CALGARY", "province": "AB", "country": "CA", "postalCode": "T2A6J4", "twitter": "None", "instagram": "None", "facebook": "None", "youtube": "None", "website": "None", "summary": "None", "logo": "None", "latitude": 51.06510652596792, "longitude": -113.99202008381903}, "132024068RR0001": {"name": "EL SHADDAI OUTREACH MINISTRIES INC", "designationCode": "C", "categoryCode": "39", "address": "L3 - 625 KING ST E", "city": "KITCHENER", "province": "ON", "country": "CA", "postalCode": "N2G4V4", "twitter": "None", "instagram": "None", "facebook": "None", "youtube": "None", "website": "None", "summary": "None", "logo": "None", "latitude": 43.44526306659368, "longitude": -80.47917247129078}, "816384135RR0001": {"name": "EL SISTEMA GREY-BRUCE (THE BIG SOUND)", "designationCode": "C", "categoryCode": "22", "address": "1030 2ND AVENUE  EAST         PO BOX 100", "city": "OWEN SOUND", "province": "ON", "country": "CA", "postalCode": "N4K5P1", "twitter": "None", "instagram": "None", "facebook": "None", "youtube": "None", "website": "None", "summary": "None", "logo": "None", "latitude": 44.56850010159263, "longitude": -80.94289310078457}, "119288918RR1423": {"name": "EL VALLE CONGREGATION OF JEHOVAH'S WITNESSES, TORONTO, ONTARIO", "designationCode": "C", "categoryCode": "61", "address": "16 ARROW RD.", "city": "TORONTO", "province": "ON", "country": "CA", "postalCode": "M9M2L7", "twitter": "None", "instagram": "None", "facebook": "None", "youtube": "None", "website": "None", "summary": "None", "logo": "None", "latitude": 43.73638723896361, "longitude": -79.52951807608606}, "864662952RR0001": {"name": "EL-ELYON EVANGELISTIC MINISTRIES - WORLD OUTREACH", "designationCode": "C", "categoryCode": "45", "address": "1005 - 20 GREENCREST CIRCT", "city": "SCARBOROUGH", "province": "ON", "country": "CA", "postalCode": "M1G1B8", "twitter": "None", "instagram": "None", "facebook": "None", "youtube": "None", "website": "None", "summary": "None", "logo": "None", "latitude": 43.75860881401976, "longitude": -79.22283905949186}, "838922920RR0001": {"name": "EL-RAYES FOUNDATION", "designationCode": "C", "categoryCode": "59", "address": "307-1190 10TH AVE W", "city": "VANCOUVER", "province": "BC", "country": "CA", "postalCode": "V6H1J1", "twitter": "None", "instagram": "None", "facebook": "None", "youtube": "None", "website": "None", "summary": "None", "logo": "None", "latitude": 49.26247248456368, "longitude": -123.13108286081135}, "118896794RR0001": {"name": "ELBOW & COMMUNITY DONORS CHOICE ORGANIZATION", "designationCode": "A", "categoryCode": "05", "address": "BOX 8", "city": "ELBOW", "province": "SK", "country": "CA", "postalCode": "S0H1J0", "twitter": "None", "instagram": "None", "facebook": "None", "youtube": "None", "website": "None", "summary": "None", "logo": "None", "latitude": 51.116760000000056, "longitude": -106.58454999999998}, "118896802RR0001": {"name": "ELBOW LUTHERAN BIBLE CAMP", "designationCode": "C", "categoryCode": "32", "address": "PO BOX 776", "city": "OUTLOOK", "province": "SK", "country": "CA", "postalCode": "S0L2N0", "twitter": "None", "instagram": "None", "facebook": "None", "youtube": "None", "website": "None", "summary": "None", "logo": "None", "latitude": 51.5306764246367, "longitude": -107.23731016398128}, "892322249RR0001": {"name": "ELBOW PARK PARENT SOCIETY", "designationCode": "C", "categoryCode": "21", "address": "1005 39 AVENUE SW", "city": "CALGARY", "province": "AB", "country": "CA", "postalCode": "T2T2K6", "twitter": "None", "instagram": "None", "facebook": "None", "youtube": "None", "website": "None", "summary": "None", "logo": "None", "latitude": 51.01918748124546, "longitude": -114.08682141618097}, "130167133RR0001": {"name": "ELBOW PARK RESIDENTS ASSOCIATION", "designationCode": "C", "categoryCode": "55", "address": "800 34 AVENUE SW", "city": "CALGARY", "province": "AB", "country": "CA", "postalCode": "T2T2A3", "twitter": "None", "instagram": "None", "facebook": "None", "youtube": "None", "website": "None", "summary": "None", "logo": "None", "latitude": 51.02331946378897, "longitude": -114.08207285789716}, "118896810RR0001": {"name": "ELBOYA HEIGHTS COMMUNITY ASSOCIATION", "designationCode": "C", "categoryCode": "56", "address": "BOX 20573 CHINOOK PO BOX 30573", "city": "CALGARY", "province": "AB", "country": "CA", "postalCode": "T2H2W2", "twitter": "None", "instagram": "None", "facebook": "None", "youtube": "None", "website": "None", "summary": "None", "logo": "None", "latitude": 50.98129139699782, "longitude": -114.08479083842305}, "886303759RR0001": {"name": "ELBOYA SCHOOL BAND PARENTS' ASSOCIATION", "designationCode": "C", "categoryCode": "21", "address": "4804-6 ST SW", "city": "CALGARY", "province": "AB", "country": "CA", "postalCode": "T2S2N3", "twitter": "None", "instagram": "None", "facebook": "None", "youtube": "None", "website": "None", "summary": "None", "logo": "None", "latitude": 51.010812922009364, "longitude": -114.07881984081605}, "875768673RR0001": {"name": "ELBOYA SCHOOL FUND RAISING SOCIETY", "designationCode": "C", "categoryCode": "21", "address": "4804 6 ST SW", "city": "CALGARY", "province": "AB", "country": "CA", "postalCode": "T2S2N3", "twitter": "None", "instagram": "None", "facebook": "None", "youtube": "None", "website": "None", "summary": "None", "logo": "None", "latitude": 51.010812922009364, "longitude": -114.07881984081605}, "118896828RR0001": {"name": "ELCHO UNITED CHURCH", "designationCode": "C", "categoryCode": "44", "address": "6124 CANBOROUGH RD", "city": "WELLANDPORT", "province": "ON", "country": "CA", "postalCode": "L0R2J0", "twitter": "None", "instagram": "None", "facebook": "None", "youtube": "None", "website": "None", "summary": "None", "logo": "None", "latitude": 43.00861689992361, "longitude": -79.46394275019095}, "118896844RR0001": {"name": "ELDAD - HAMPTON PASTORAL CHARGE", "designationCode": "C", "categoryCode": "44", "address": "6198 SOLINA ROAD", "city": "HAMPTON", "province": "ON", "country": "CA", "postalCode": "L0B1J0", "twitter": "None", "instagram": "None", "facebook": "None", "youtube": "None", "website": "None", "summary": "None", "logo": "None", "latitude": 43.97779944427341, "longitude": -78.78551299238302}, "107290652RR0001": {"name": "ELDER CITIZENS RECREATION ASSOCIATION", "designationCode": "C", "categoryCode": "56", "address": "1692-10TH AVE", "city": "PRINCE GEORGE", "province": "BC", "country": "CA", "postalCode": "V2L3S4", "twitter": "None", "instagram": "None", "facebook": "None", "youtube": "None", "website": "None", "summary": "None", "logo": "None", "latitude": 53.91348309244603, "longitude": -122.75702622978834}, "869634261RR0001": {"name": "ELDER HELP - PEEL", "designationCode": "C", "categoryCode": "09", "address": "37 GEORGE ST N                UNIT 102", "city": "BRAMPTON", "province": "ON", "country": "CA", "postalCode": "L6X1R5", "twitter": "None", "instagram": "None", "facebook": "None", "youtube": "None", "website": "None", "summary": "None", "logo": "None", "latitude": 43.686569242570286, "longitude": -79.76299219124004}, "889488201RR0001": {"name": "ELDER'S CARING SHELTER SOCIETY OF GRANDE PRAIRIE", "designationCode": "C", "categoryCode": "01", "address": "9702-99 AVE", "city": "GRANDE PRAIRIE", "province": "AB", "country": "CA", "postalCode": "T8V0R2", "twitter": "None", "instagram": "None", "facebook": "None", "youtube": "None", "website": "None", "summary": "None", "logo": "None"}, "132194234RR0001": {"name": "ELDERCARE EDMONTON SOCIETY FOR ADULT DAY PROGRAMS", "designationCode": "C", "categoryCode": "01", "address": "C201-17203 99 AVE", "city": "EDMONTON", "province": "AB", "country": "CA", "postalCode": "T5T6S5", "twitter": "None", "instagram": "None", "facebook": "None", "youtube": "None", "website": "None", "summary": "None", "logo": "None", "latitude": 53.53568563387987, "longitude": -113.61984739912852}, "885753129RR0001": {"name": "ELDERFIT-LUNENBURG SOCIETY", "designationCode": "C", "categoryCode": "09", "address": "21 FEINDEL STREET", "city": "WILEVILLE", "province": "NS", "country": "CA", "postalCode": "B4V5K6", "twitter": "None", "instagram": "None", "facebook": "None", "youtube": "None", "website": "None", "summary": "None", "logo": "None", "latitude": 44.370290482110846, "longitude": -64.54901188190317}, "889516795RR0001": {"name": "ELDERWOOD FOUNDATION", "designationCode": "B", "categoryCode": "03", "address": "45 ELDERWOOD DRIVE", "city": "TORONTO", "province": "ON", "country": "CA", "postalCode": "M5P1W9", "twitter": "None", "instagram": "None", "facebook": "None", "youtube": "None", "website": "None", "summary": "None", "logo": "None", "latitude": 43.69581289312724, "longitude": -79.42004717692889}, "119288918RR1183": {"name": "ELDORADO CONGREGATION OF JEHOVAH'S WITNESSES, BRAMPTON, ONTARIO", "designationCode": "C", "categoryCode": "61", "address": "107-330 MILL STREET", "city": "BRAMPTON", "province": "ON", "country": "CA", "postalCode": "L6Y3V3", "twitter": "None", "instagram": "None", "facebook": "None", "youtube": "None", "website": "None", "summary": "None", "logo": "None", "latitude": 43.67073181767543, "longitude": -79.74414971602546}, "892979840RR0001": {"name": "ELDRIDGE MEMORIAL LIBRARY", "designationCode": "C", "categoryCode": "50", "address": "15 CHAMPLAIN ROAD", "city": "SANDY COVE", "province": "NS", "country": "CA", "postalCode": "B0V1E0", "twitter": "None", "instagram": "None", "facebook": "None", "youtube": "None", "website": "None", "summary": "None", "logo": "None", "latitude": 44.497957705782326, "longitude": -66.09622289534894}, "118896893RR0001": {"name": "ELEANOR CORKUM BOLIVAR MEMORIAL TRUST", "designationCode": "A", "categoryCode": "25", "address": "1709 HOLLIS STREET, 5TH FLOOR P.O. BOX 457", "city": "HALIFAX", "province": "NS", "country": "CA", "postalCode": "B3J2P8", "twitter": "None", "instagram": "None", "facebook": "None", "youtube": "None", "website": "None", "summary": "None", "logo": "None", "latitude": 44.647722827370295, "longitude": -63.57286089243476}, "897510160RR0001": {"name": "ELEANOR LUXTON HISTORICAL FOUNDATION", "designationCode": "B", "categoryCode": "53", "address": "P.0. BOX 1480", "city": "BANFF", "province": "AB", "country": "CA", "postalCode": "T1L1B4", "twitter": "None", "instagram": "None", "facebook": "None", "youtube": "None", "website": "None", "summary": "None", "logo": "None", "latitude": 51.17577900000006, "longitude": -115.57274299999993}, "872054168RR0001": {"name": "ELECTRIC COMPANY THEATRE SOCIETY", "designationCode": "C", "categoryCode": "22", "address": "1422 WILLIAM ST.", "city": "VANCOUVER", "province": "BC", "country": "CA", "postalCode": "V5L2P7", "twitter": "None", "instagram": "None", "facebook": "None", "youtube": "None", "website": "None", "summary": "None", "logo": "None", "latitude": 49.27403754674262, "longitude": -123.07524163780367}, "890395593RR0001": {"name": "ELECTROZAD FOUNDATION INC.", "designationCode": "B", "categoryCode": "23", "address": "2900 JEFFERSON BLVD", "city": "WINDSOR", "province": "ON", "country": "CA", "postalCode": "N8N2M4", "twitter": "None", "instagram": "None", "facebook": "None", "youtube": "None", "website": "None", "summary": "None", "logo": "None", "latitude": 42.30089477021165, "longitude": -82.94579160193935}, "894795582RR0001": {"name": "ELEKTRA WOMEN'S CHOIR", "designationCode": "C", "categoryCode": "22", "address": "949 WEST 49TH AVENUE", "city": "VANCOUVER", "province": "BC", "country": "CA", "postalCode": "V5Z2T1", "twitter": "None", "instagram": "None", "facebook": "None", "youtube": "None", "website": "None", "summary": "None", "logo": "None", "latitude": 49.22653944993916, "longitude": -123.12757091756595}, "865474902RR0001": {"name": "ELEMENTARY TEACHERS' FEDERATION OF ONTARIO HUMANITY FUND", "designationCode": "A", "categoryCode": "03", "address": "136 ISABELLA STREET", "city": "TORONTO", "province": "ON", "country": "CA", "postalCode": "M4Y0B5", "twitter": "None", "instagram": "None", "facebook": "None", "youtube": "None", "website": "None", "summary": "None", "logo": "None", "latitude": 43.66919419069178, "longitude": -79.3779184848808}, "843176751RR0001": {"name": "ELEPHANT ARTIST RELIEF SOCIETY", "designationCode": "C", "categoryCode": "09", "address": "223 12 AVENUE SOUTHWEST       SUITE 14", "city": "CALGARY", "province": "AB", "country": "CA", "postalCode": "T2R0G9", "twitter": "None", "instagram": "None", "facebook": "None", "youtube": "None", "website": "None", "summary": "None", "logo": "None", "latitude": 51.04147448845882, "longitude": -114.0671642216227}, "852139336RR0001": {"name": "ELEPHANT THOUGHTS EDUCATIONAL OUTREACH", "designationCode": "C", "categoryCode": "20", "address": "10138 HWY 26 EAST", "city": "COLLINGWOOD", "province": "ON", "country": "CA", "postalCode": "L9Y3Z1", "twitter": "None", "instagram": "None", "facebook": "None", "youtube": "None", "website": "None", "summary": "None", "logo": "None", "latitude": 44.49888103130595, "longitude": -80.18893965324901}, "846028819RR0001": {"name": "ELEVATE SOCIAL BUSINESSES", "designationCode": "C", "categoryCode": "09", "address": "595 BURRARD STREET            SUITE 3123  THREE BENTALL CENT", "city": "VANCOUVER", "province": "BC", "country": "CA", "postalCode": "V7X1J1", "twitter": "None", "instagram": "None", "facebook": "None", "youtube": "None", "website": "None", "summary": "None", "logo": "None", "latitude": 49.285749245109116, "longitude": -123.11912667060957}, "828949511RR0001": {"name": "ELEVATION CHURCH", "designationCode": "C", "categoryCode": "36", "address": "22 WILLOW ST", "city": "WATERLOO", "province": "ON", "country": "CA", "postalCode": "N2J1V5", "twitter": "None", "instagram": "None", "facebook": "None", "youtube": "None", "website": "None", "summary": "None", "logo": "None", "latitude": 43.464763590916824, "longitude": -80.51756233533438}, "890689995RR0001": {"name": "ELFROS UNION CHURCH", "designationCode": "C", "categoryCode": "39", "address": "P.O. BOX 44", "city": "MOZART", "province": "SK", "country": "CA", "postalCode": "S0A2S0", "twitter": "None", "instagram": "None", "facebook": "None", "youtube": "None", "website": "None", "summary": "None", "logo": "None", "latitude": 51.777270000000044, "longitude": -103.99038999999999}, "875386104RR0001": {"name": "ELGIN AND AREA DONORS CHOICE", "designationCode": "A", "categoryCode": "05", "address": "BOX 113", "city": "ELGIN", "province": "MB", "country": "CA", "postalCode": "R0K0T0", "twitter": "None", "instagram": "None", "facebook": "None", "youtube": "None", "website": "None", "summary": "None", "logo": "None", "latitude": 49.86890677733277, "longitude": -99.36570547925011}, "865293104RR0001": {"name": "ELGIN AND AREA HERITAGE SOCIETY", "designationCode": "C", "categoryCode": "50", "address": "P. O. BOX 480", "city": "ELGIN", "province": "ON", "country": "CA", "postalCode": "K0G1E0", "twitter": "None", "instagram": "None", "facebook": "None", "youtube": "None", "website": "None", "summary": "None", "logo": "None", "latitude": 44.91404284441957, "longitude": -75.83470875089802}, "891715575RR0001": {"name": "ELGIN AND DISTRICT HISTORICAL MUSEUM INC.", "designationCode": "C", "categoryCode": "50", "address": "PO BOX 156", "city": "ELGIN", "province": "MB", "country": "CA", "postalCode": "R0K0T0", "twitter": "None", "instagram": "None", "facebook": "None", "youtube": "None", "website": "None", "summary": "None", "logo": "None", "latitude": 49.86890677733277, "longitude": -99.36570547925011}, "132502428RR0001": {"name": "ELGIN AREA BIBLE CLUB", "designationCode": "C", "categoryCode": "47", "address": "PO BOX 22072", "city": "ST THOMAS", "province": "ON", "country": "CA", "postalCode": "N5R6A1", "twitter": "None", "instagram": "None", "facebook": "None", "youtube": "None", "website": "None", "summary": "None", "logo": "None", "latitude": 42.778932000000054, "longitude": -81.19315249999994}, "888461043RR0001": {"name": "ELGIN COUNTY PIONEER MUSEUM", "designationCode": "C", "categoryCode": "50", "address": "450 SUNSET DRIVE", "city": "ST THOMAS", "province": "ON", "country": "CA", "postalCode": "N5R5V1", "twitter": "None", "instagram": "None", "facebook": "None", "youtube": "None", "website": "None", "summary": "None", "logo": "None", "latitude": 42.73771164887843, "longitude": -81.19228835112156}, "892669565RR0001": {"name": "ELGIN COUNTY RAILWAY MUSEUM INC", "designationCode": "C", "categoryCode": "50", "address": "P.O. BOX 20062", "city": "ST. THOMAS", "province": "ON", "country": "CA", "postalCode": "N5P4H4", "twitter": "None", "instagram": "None", "facebook": "None", "youtube": "None", "website": "None", "summary": "None", "logo": "None", "latitude": 42.778932000000054, "longitude": -81.19315249999994}, "888687340RR0001": {"name": "ELGIN COUNTY 4-H ASSOCIATION", "designationCode": "C", "categoryCode": "29", "address": "44219 SPARTA LINE", "city": "ST THOMAS", "province": "ON", "country": "CA", "postalCode": "N5P3S8", "twitter": "None", "instagram": "None", "facebook": "None", "youtube": "None", "website": "None", "summary": "None", "logo": "None", "latitude": 42.703384528420756, "longitude": -81.14622155398465}, "118897024RR0001": {"name": "ELGIN FIRST UNITED BAPTIST CHURCH", "designationCode": "C", "categoryCode": "31", "address": "21 RIVER ROAD", "city": "ELGIN", "province": "NB", "country": "CA", "postalCode": "E4Z2H3", "twitter": "None", "instagram": "None", "facebook": "None", "youtube": "None", "website": "None", "summary": "None", "logo": "None", "latitude": 45.793670605886355, "longitude": -65.10597280911011}, "860735026RR0001": {"name": "ELGIN MISSIONARY CHURCH", "designationCode": "C", "categoryCode": "39", "address": "4192 PERTH LINE 36            RR 5", "city": "STRATFORD", "province": "ON", "country": "CA", "postalCode": "N5A6S6", "twitter": "None", "instagram": "None", "facebook": "None", "youtube": "None", "website": "None", "summary": "None", "logo": "None", "latitude": 43.361171602355654, "longitude": -80.97318840017287}, "118897065RR0001": {"name": "ELGIN PORTLAND PASTORAL CHARGE", "designationCode": "C", "categoryCode": "44", "address": "302 CEDAR SANDS RDWY", "city": "LYNDHURST", "province": "ON", "country": "CA", "postalCode": "K0E1N0", "twitter": "None", "instagram": "None", "facebook": "None", "youtube": "None", "website": "None", "summary": "None", "logo": "None", "latitude": 44.583383838718945, "longitude": -76.16011457934408}, "107965212RR0001": {"name": "ELGIN SECOND UNITED BAPTIST CHURCH", "designationCode": "C", "categoryCode": "31", "address": "90 LOUNSBURY RD", "city": "PARKINDALE", "province": "NB", "country": "CA", "postalCode": "E4Z0C2", "twitter": "None", "instagram": "None", "facebook": "None", "youtube": "None", "website": "None", "summary": "None", "logo": "None", "latitude": 45.85876227200065, "longitude": -64.95559146023959}, "118897107RR0001": {"name": "ELGIN ST. THOMAS UNITED WAY SERVICES", "designationCode": "A", "categoryCode": "03", "address": "103 - 10 MONDAMIN ST", "city": "ST THOMAS", "province": "ON", "country": "CA", "postalCode": "N5P2V1", "twitter": "None", "instagram": "None", "facebook": "None", "youtube": "None", "website": "None", "summary": "None", "logo": "None", "latitude": 42.779456520948095, "longitude": -81.19308356118464}, "118897081RR0001": {"name": "ELGIN STREET BAPTIST CHURCH", "designationCode": "C", "categoryCode": "31", "address": "135 ELGIN ST W", "city": "ARNPRIOR", "province": "ON", "country": "CA", "postalCode": "K7S1N9", "twitter": "None", "instagram": "None", "facebook": "None", "youtube": "None", "website": "None", "summary": "None", "logo": "None", "latitude": 45.43555767084072, "longitude": -76.3582195382885}, "823944673RR0001": {"name": "ELGIN STREET MISSION (SUDBURY)", "designationCode": "C", "categoryCode": "09", "address": "344 ELGIN ST", "city": "SUDBURY", "province": "ON", "country": "CA", "postalCode": "P3E3N9", "twitter": "None", "instagram": "None", "facebook": "None", "youtube": "None", "website": "None", "summary": "None", "logo": "None", "latitude": 46.48713580641658, "longitude": -80.99027034821529}, "118897123RR0001": {"name": "ELGIN THEATRE GUILD", "designationCode": "C", "categoryCode": "22", "address": "PO BOX 20154                  40 PRINCESS AVE", "city": "ST THOMAS", "province": "ON", "country": "CA", "postalCode": "N5R3V5", "twitter": "None", "instagram": "None", "facebook": "None", "youtube": "None", "website": "None", "summary": "None", "logo": "None", "latitude": 42.776851572472836, "longitude": -81.19220390544908}, "118897149RR0001": {"name": "ELGIN UNITED CHURCH", "designationCode": "C", "categoryCode": "44", "address": "BOX 306", "city": "HARTNEY", "province": "MB", "country": "CA", "postalCode": "R0M0X0", "twitter": "None", "instagram": "None", "facebook": "None", "youtube": "None", "website": "None", "summary": "None", "logo": "None", "latitude": 49.48117000000008, "longitude": -100.52134999999998}, "865337109RR0001": {"name": "ELGIN-ST. THOMAS COMMUNITY FOUNDATION", "designationCode": "A", "categoryCode": "03", "address": "PO BOX 20150", "city": "ST THOMAS", "province": "ON", "country": "CA", "postalCode": "N5P4H4", "twitter": "None", "instagram": "None", "facebook": "None", "youtube": "None", "website": "None", "summary": "None", "logo": "None", "latitude": 42.778932000000054, "longitude": -81.19315249999994}, "118897115RR0001": {"name": "ELGIN-ST. THOMAS YOUTH EMPLOYMENT COUNSELLING CENTRE", "designationCode": "C", "categoryCode": "59", "address": "400 TALBOT ST", "city": "ST THOMAS", "province": "ON", "country": "CA", "postalCode": "N5P1B8", "twitter": "None", "instagram": "None", "facebook": "None", "youtube": "None", "website": "None", "summary": "None", "logo": "None", "latitude": 42.77895988618209, "longitude": -81.19752949718894}, "107293383RR0001": {"name": "ELIE MINI-FRAN INC.", "designationCode": "C", "categoryCode": "20", "address": "BOX 412", "city": "ELIE", "province": "MB", "country": "CA", "postalCode": "R0H1H0", "twitter": "None", "instagram": "None", "facebook": "None", "youtube": "None", "website": "None", "summary": "None", "logo": "None", "latitude": 49.90010894942103, "longitude": -97.75774884595309}, "107293458RR0001": {"name": "ELIM BAPTIST CHURCH", "designationCode": "C", "categoryCode": "31", "address": "BOX 873", "city": "BEAUSEJOUR", "province": "MB", "country": "CA", "postalCode": "R0E0C0", "twitter": "None", "instagram": "None", "facebook": "None", "youtube": "None", "website": "None", "summary": "None", "logo": "None", "latitude": 50.061750000000075, "longitude": -96.50519999999995}, "118789551RR0001": {"name": "ELIM BIBLE CHAPEL (ARKONA)", "designationCode": "C", "categoryCode": "39", "address": "PO BOX 127", "city": "ARKONA", "province": "ON", "country": "CA", "postalCode": "N0M1B0", "twitter": "None", "instagram": "None", "facebook": "None", "youtube": "None", "website": "None", "summary": "None", "logo": "None", "latitude": 43.07320905262437, "longitude": -81.83406466557034}, "107293466RR0001": {"name": "ELIM CHAPEL", "designationCode": "C", "categoryCode": "36", "address": "BOX 726 PAOC", "city": "MELITA", "province": "MB", "country": "CA", "postalCode": "R0M1L0", "twitter": "None", "instagram": "None", "facebook": "None", "youtube": "None", "website": "None", "summary": "None", "logo": "None", "latitude": 49.26665000000003, "longitude": -100.96985999999998}, "118897172RR0001": {"name": "ELIM CHAPEL FELLOWSHIP", "designationCode": "C", "categoryCode": "39", "address": "546 PORTAGE AVE", "city": "WINNIPEG", "province": "MB", "country": "CA", "postalCode": "R3C0G3", "twitter": "None", "instagram": "None", "facebook": "None", "youtube": "None", "website": "None", "summary": "None", "logo": "None", "latitude": 49.889481896445474, "longitude": -97.15473645571022}, "871049904RR0001": {"name": "ELIM CHRISTIAN CARE SOCIETY", "designationCode": "C", "categoryCode": "01", "address": "9025 160 ST", "city": "SURREY", "province": "BC", "country": "CA", "postalCode": "V4N2X7", "twitter": "None", "instagram": "None", "facebook": "None", "youtube": "None", "website": "None", "summary": "None", "logo": "None", "latitude": 49.16673900000001, "longitude": -122.77892302132109}, "832810345RR0001": {"name": "ELIM CHRISTIAN FELLOWSHIP ST. CATHARINES", "designationCode": "C", "categoryCode": "39", "address": "15 ST. JULIEN DRIVE", "city": "ST. CATHARINES", "province": "ON", "country": "CA", "postalCode": "L2T2G3", "twitter": "None", "instagram": "None", "facebook": "None", "youtube": "None", "website": "None", "summary": "None", "logo": "None", "latitude": 43.1378355004327, "longitude": -79.22883111226845}, "891598781RR0001": {"name": "ELIM CHRISTIAN TABERNACLE", "designationCode": "C", "categoryCode": "39", "address": "PO BOX 4251", "city": "BARRHEAD", "province": "AB", "country": "CA", "postalCode": "T7N1A3", "twitter": "None", "instagram": "None", "facebook": "None", "youtube": "None", "website": "None", "summary": "None", "logo": "None", "latitude": 54.12098400000005, "longitude": -114.40600999999992}, "107293524RR0001": {"name": "ELIM EVANGELICAL FREE CHURCH", "designationCode": "B", "categoryCode": "39", "address": "PO BOX 28", "city": "FOSSTON", "province": "SK", "country": "CA", "postalCode": "S0E0V0", "twitter": "None", "instagram": "None", "facebook": "None", "youtube": "None", "website": "None", "summary": "None", "logo": "None", "latitude": 52.200000000000045, "longitude": -103.81769999999995}, "131820086RR0001": {"name": "ELIM FELLOWSHIP CANADA", "designationCode": "C", "categoryCode": "39", "address": "379 GOLF RD                   RR # 6", "city": "BRANTFORD", "province": "ON", "country": "CA", "postalCode": "N3T5L8", "twitter": "None", "instagram": "None", "facebook": "None", "youtube": "None", "website": "None", "summary": "None", "logo": "None", "latitude": 43.166735087604295, "longitude": -80.30663575700427}, "859372476RR0001": {"name": "ELIM GOSPEL CHAPEL", "designationCode": "C", "categoryCode": "39", "address": "566 - 5TH STREET", "city": "COURTENAY", "province": "BC", "country": "CA", "postalCode": "V9N1K3", "twitter": "None", "instagram": "None", "facebook": "None", "youtube": "None", "website": "None", "summary": "None", "logo": "None", "latitude": 49.6893889567189, "longitude": -125.00294240974151}, "893216366RR0001": {"name": "ELIM HOMES", "designationCode": "C", "categoryCode": "01", "address": "229 LEDWITH DR", "city": "MILTON", "province": "ON", "country": "CA", "postalCode": "L9T5X2", "twitter": "None", "instagram": "None", "facebook": "None", "youtube": "None", "website": "None", "summary": "None", "logo": "None", "latitude": 43.518263395233376, "longitude": -79.86638256895962}, "119336766RR0001": {"name": "ELIM LODGE INC", "designationCode": "C", "categoryCode": "01", "address": "1123 MOSS AVENUE", "city": "SASKATOON", "province": "SK", "country": "CA", "postalCode": "S7H5K8", "twitter": "None", "instagram": "None", "facebook": "None", "youtube": "None", "website": "None", "summary": "None", "logo": "None", "latitude": 52.11294338773155, "longitude": -106.59384827713748}, "107293573RR0001": {"name": "ELIM MENNONITE CHURCH", "designationCode": "C", "categoryCode": "34", "address": "BOX 269", "city": "GRUNTHAL", "province": "MB", "country": "CA", "postalCode": "R0A0R0", "twitter": "None", "instagram": "None", "facebook": "None", "youtube": "None", "website": "None", "summary": "None", "logo": "None", "latitude": 49.40668000000005, "longitude": -96.85131999999999}, "107293599RR0001": {"name": "ELIM MINISTRIES", "designationCode": "C", "categoryCode": "47", "address": "696 ELIM LODGE ROAD", "city": "LAKEHURST", "province": "ON", "country": "CA", "postalCode": "K0L1J0", "twitter": "None", "instagram": "None", "facebook": "None", "youtube": "None", "website": "None", "summary": "None", "logo": "None", "latitude": 44.48227328880778, "longitude": -78.47965210050539}, "893725127RR0001": {"name": "ELIM PENTECOSTAL CHURCH", "designationCode": "C", "categoryCode": "36", "address": "2169 WESTMEATH RD", "city": "WESTMEATH", "province": "ON", "country": "CA", "postalCode": "K0J2L0", "twitter": "None", "instagram": "None", "facebook": "None", "youtube": "None", "website": "None", "summary": "None", "logo": "None", "latitude": 45.81928602025512, "longitude": -76.89034903958658}, "118897321RR0001": {"name": "ELIM PENTECOSTAL TABERNACLE", "designationCode": "C", "categoryCode": "36", "address": "BOX 1228", "city": "DRUMHELLER", "province": "AB", "country": "CA", "postalCode": "T0J0Y0", "twitter": "None", "instagram": "None", "facebook": "None", "youtube": "None", "website": "None", "summary": "None", "logo": "None", "latitude": 51.46154700000005, "longitude": -112.70878099999993}, "830355251RR0001": {"name": "ELIM PENTECOSTAL TABERNACLE SAULT INC.", "designationCode": "C", "categoryCode": "36", "address": "306 MCNABB ST", "city": "SAULT STE MARIE", "province": "ON", "country": "CA", "postalCode": "P6B1Y6", "twitter": "None", "instagram": "None", "facebook": "None", "youtube": "None", "website": "None", "summary": "None", "logo": "None", "latitude": 46.521825482687746, "longitude": -84.31237349999999}, "118897347RR0001": {"name": "ELIM SOCIETY FOR SENIOR CITIZENS CARE", "designationCode": "C", "categoryCode": "09", "address": "104-1408 9 AVE A SOUTH", "city": "LETHBRIDGE", "province": "AB", "country": "CA", "postalCode": "T1J1X8", "twitter": "None", "instagram": "None", "facebook": "None", "youtube": "None", "website": "None", "summary": "None", "logo": "None", "latitude": 49.686526083217615, "longitude": -112.82403487943525}, "107293698RR0001": {"name": "ELIM TABERNACLE", "designationCode": "C", "categoryCode": "36", "address": "312-9TH STREET", "city": "KEREMEOS", "province": "BC", "country": "CA", "postalCode": "V0X1N2", "twitter": "None", "instagram": "None", "facebook": "None", "youtube": "None", "website": "None", "summary": "None", "logo": "None", "latitude": 49.207987037192, "longitude": -119.81867248338023}, "815549985RR0001": {"name": "ELIM TABERNACLE PORT ALBERNI", "designationCode": "C", "categoryCode": "36", "address": "3946 WALLACE ST", "city": "PORT ALBERNI", "province": "BC", "country": "CA", "postalCode": "V9Y3Y7", "twitter": "None", "instagram": "None", "facebook": "None", "youtube": "None", "website": "None", "summary": "None", "logo": "None", "latitude": 49.250615481245454, "longitude": -124.79229000000001}, "789750718RR0001": {"name": "ELINA & GIUSEPPE BORSELLINO FAMILY FOUNDATION / FONDATION FAMILIALE ELINA & GIUSEPPE BORSELLINO", "designationCode": "B", "categoryCode": "03", "address": "808 - 8000 BOUL LANGELIER", "city": "SAINT-LEONARD", "province": "QC", "country": "CA", "postalCode": "H1P3K2", "twitter": "None", "instagram": "None", "facebook": "None", "youtube": "None", "website": "None", "summary": "None", "logo": "None", "latitude": 45.59449782177304, "longitude": -73.58091260384299}, "119235026RR0001": {"name": "ELISABETH BRUYERE RESEARCH INSTITUTE/ INSTITUTE DE RECHERCHEELISABETH BRUYERE", "designationCode": "C", "categoryCode": "13", "address": "43 BRUYERE STREET", "city": "OTTAWA", "province": "ON", "country": "CA", "postalCode": "K1N5C8", "twitter": "None", "instagram": "None", "facebook": "None", "youtube": "None", "website": "None", "summary": "None", "logo": "None", "latitude": 45.43180409911897, "longitude": -75.69682699321322}, "899305015RR0001": {"name": "ELIZA J RAMSDEN TRUST", "designationCode": "B", "categoryCode": "03", "address": "155 WELLINGTON ST. W.,        20TH FLOOR TRANSIT #04043", "city": "TORONTO", "province": "ON", "country": "CA", "postalCode": "M5V3K7", "twitter": "None", "instagram": "None", "facebook": "None", "youtube": "None", "website": "None", "summary": "None", "logo": "None", "latitude": 43.64596585316531, "longitude": -79.38574575644876}, "866417884RR0001": {"name": "ELIZABETH B WELDON SCHOLARSHIPS FOUNDATION", "designationCode": "B", "categoryCode": "23", "address": "1402 - 1 KING ST W", "city": "HAMILTON", "province": "ON", "country": "CA", "postalCode": "L8P1A4", "twitter": "None", "instagram": "None", "facebook": "None", "youtube": "None", "website": "None", "summary": "None", "logo": "None", "latitude": 43.26019321073324, "longitude": -79.88135629363086}, "135120145RR0001": {"name": "ELIZABETH BAGSHAW SOCIETY", "designationCode": "C", "categoryCode": "09", "address": "200-1177 W BROADWAY", "city": "VANCOUVER", "province": "BC", "country": "CA", "postalCode": "V6H1G3", "twitter": "None", "instagram": "None", "facebook": "None", "youtube": "None", "website": "None", "summary": "None", "logo": "None", "latitude": 49.263477504327845, "longitude": -123.13050283236194}, "118897404RR0001": {"name": "ELIZABETH BAY UNITED CHURCH", "designationCode": "C", "categoryCode": "44", "address": "S.S. #1, BOX 11", "city": "GORE BAY", "province": "ON", "country": "CA", "postalCode": "P0P1H0", "twitter": "None", "instagram": "None", "facebook": "None", "youtube": "None", "website": "None", "summary": "None", "logo": "None", "latitude": 45.908699595586484, "longitude": -82.45974519518938}, "888966116RR0001": {"name": "ELIZABETH FOUNDATION INC.", "designationCode": "B", "categoryCode": "46", "address": "1336 BEDFORD HIGHWAY", "city": "BEDFORD", "province": "NS", "country": "CA", "postalCode": "B4A1C9", "twitter": "None", "instagram": "None", "facebook": "None", "youtube": "None", "website": "None", "summary": "None", "logo": "None", "latitude": 44.72738379684339, "longitude": -63.665516586473416}, "118897453RR0001": {"name": "ELIZABETH FRY SOCIETY OF KINGSTON", "designationCode": "C", "categoryCode": "59", "address": "127 CHARLES STREET", "city": "KINGSTON", "province": "ON", "country": "CA", "postalCode": "K7K1V8", "twitter": "None", "instagram": "None", "facebook": "None", "youtube": "None", "website": "None", "summary": "None", "logo": "None"}, "132033986RR0001": {"name": "ELIZABETH FRY SOCIETY OF MAINLAND NOVA SCOTIA", "designationCode": "C", "categoryCode": "59", "address": "1 TULIP STREET", "city": "DARTMOUTH", "province": "NS", "country": "CA", "postalCode": "B3A2S3", "twitter": "None", "instagram": "None", "facebook": "None", "youtube": "None", "website": "None", "summary": "None", "logo": "None", "latitude": 44.670812363869786, "longitude": -63.569332350279765}, "885038802RR0001": {"name": "ELIZABETH FRY SOCIETY OF NORTHWESTERN ONTARIO", "designationCode": "C", "categoryCode": "59", "address": "210 - 212 MILES ST E", "city": "THUNDER BAY", "province": "ON", "country": "CA", "postalCode": "P7C1J6", "twitter": "None", "instagram": "None", "facebook": "None", "youtube": "None", "website": "None", "summary": "None", "logo": "None", "latitude": 48.38551650000001, "longitude": -89.24463449999999}, "118897487RR0001": {"name": "ELIZABETH FRY SOCIETY OF PEEL", "designationCode": "C", "categoryCode": "59", "address": "200 - 44 PEEL CENTRE DR", "city": "BRAMPTON", "province": "ON", "country": "CA", "postalCode": "L6T4B5", "twitter": "None", "instagram": "None", "facebook": "None", "youtube": "None", "website": "None", "summary": "None", "logo": "None", "latitude": 43.71549204498226, "longitude": -79.72561377439524}, "135997849RR0001": {"name": "ELIZABETH FRY SOCIETY OF SIMCOE COUNTY", "designationCode": "C", "categoryCode": "59", "address": "102 MAPLE AVE", "city": "BARRIE", "province": "ON", "country": "CA", "postalCode": "L4N1S4", "twitter": "None", "instagram": "None", "facebook": "None", "youtube": "None", "website": "None", "summary": "None", "logo": "None", "latitude": 44.391956647786984, "longitude": -79.69399728977426}, "889222097RR0001": {"name": "ELIZABETH HAUB FOUNDATION FOR ENVIRONMENTAL LAW AND POLICY", "designationCode": "A", "categoryCode": "53", "address": "57 LOUIS-PASTEUR PVT", "city": "OTTAWA", "province": "ON", "country": "CA", "postalCode": "K1N6N5", "twitter": "None", "instagram": "None", "facebook": "None", "youtube": "None", "website": "None", "summary": "None", "logo": "None", "latitude": 45.424155383028356, "longitude": -75.68309778902444}, "850961772RR0001": {"name": "ELIZABETH KELLY LIBRARY FOUNDATION INC.", "designationCode": "A", "categoryCode": "53", "address": "P.O. BOX 820", "city": "ALMONTE", "province": "ON", "country": "CA", "postalCode": "K0A1A0", "twitter": "None", "instagram": "None", "facebook": "None", "youtube": "None", "website": "None", "summary": "None", "logo": "None", "latitude": 45.223665000000054, "longitude": -76.20363799999993}}