{"119286490RR0001": {"name": "VINOK FOLKDANCE SOCIETY", "designationCode": "C", "categoryCode": "22", "address": "BOX 4867", "city": "EDMONTON", "province": "AB", "country": "CA", "postalCode": "T6E5G7", "twitter": "None", "instagram": "None", "facebook": "None", "youtube": "None", "website": "None", "summary": "None", "logo": "None", "latitude": 53.499354000000054, "longitude": -113.46577549999994}, "891571440RR0001": {"name": "VINTAGE MINISTRIES INTERNATIONAL", "designationCode": "C", "categoryCode": "47", "address": "2143 VENABLES STREET", "city": "VANCOUVER", "province": "BC", "country": "CA", "postalCode": "V5L2J3", "twitter": "None", "instagram": "None", "facebook": "None", "youtube": "None", "website": "None", "summary": "None", "logo": "None", "latitude": 49.27668353318128, "longitude": -123.06072052553523}, "890929839RR0001": {"name": "VINTAGE POWER MACHINES INC.", "designationCode": "C", "categoryCode": "50", "address": "PO BOX 2137 STN MAIN", "city": "PRINCE ALBERT", "province": "SK", "country": "CA", "postalCode": "S6V6V4", "twitter": "None", "instagram": "None", "facebook": "None", "youtube": "None", "website": "None", "summary": "None", "logo": "None", "latitude": 53.199456000000055, "longitude": -105.74863099999993}, "880650908RR0001": {"name": "VINTAGE WINGS OF CANADA/LES AILES D'EPOQUE DU CANADA", "designationCode": "C", "categoryCode": "50", "address": "1699 RUE ARTHUR-FECTEAU", "city": "GATINEAU", "province": "QC", "country": "CA", "postalCode": "J8R2Z9", "twitter": "None", "instagram": "None", "facebook": "None", "youtube": "None", "website": "None", "summary": "None", "logo": "None", "latitude": 45.51732525676587, "longitude": -75.5635272999018}, "119286516RR0001": {"name": "VINTON PARISH CEMETERY FUND", "designationCode": "C", "categoryCode": "59", "address": "1766 HWY 748                  RR 4 CAMPBELL'S BAY", "city": "VINTON", "province": "QC", "country": "CA", "postalCode": "J0X1K0", "twitter": "None", "instagram": "None", "facebook": "None", "youtube": "None", "website": "None", "summary": "None", "logo": "None", "latitude": 45.72793500000006, "longitude": -76.59761299999994}, "129029534RR0001": {"name": "VIOL-SECOURS", "designationCode": "C", "categoryCode": "09", "address": "3291-3293, 1ERE AVENUE", "city": "QU\u00c9BEC", "province": "QC", "country": "CA", "postalCode": "G1L3R2", "twitter": "None", "instagram": "None", "facebook": "None", "youtube": "None", "website": "None", "summary": "None", "logo": "None", "latitude": 46.83167516771952, "longitude": -71.23937068857164}, "892805151RR0001": {"name": "VIOLENCE AGAINST WOMEN SERVICES ELGIN COUNTY", "designationCode": "C", "categoryCode": "01", "address": "300 TALBOT ST.", "city": "ST THOMAS", "province": "ON", "country": "CA", "postalCode": "N5P4E2", "twitter": "None", "instagram": "None", "facebook": "None", "youtube": "None", "website": "None", "summary": "None", "logo": "None", "latitude": 42.77900729346107, "longitude": -81.19996129981506}, "137123147RR0001": {"name": "VIOLENCE INFO", "designationCode": "C", "categoryCode": "09", "address": "CP 34055 CSP CA CHARLESBOURG", "city": "QUEBEC", "province": "QC", "country": "CA", "postalCode": "G1G6P2", "twitter": "None", "instagram": "None", "facebook": "None", "youtube": "None", "website": "None", "summary": "None", "logo": "None", "latitude": 46.861680000000035, "longitude": -71.26939999999996}, "870065547RR0001": {"name": "VIOLENCE PREVENTION SOUTH & CENTRAL INC.", "designationCode": "C", "categoryCode": "09", "address": "5 HARDY AVENUE", "city": "GRAND FALLS-WINDSOR", "province": "NL", "country": "CA", "postalCode": "A2A2P8", "twitter": "None", "instagram": "None", "facebook": "None", "youtube": "None", "website": "None", "summary": "None", "logo": "None", "latitude": 48.950062084985284, "longitude": -55.64861731477787}, "835701673RR0001": {"name": "VIOLONISSIMO", "designationCode": "C", "categoryCode": "22", "address": "1665 BOULEVARD DE L'ENTENTE", "city": "QUEBEC", "province": "QC", "country": "CA", "postalCode": "G1S2V4", "twitter": "None", "instagram": "None", "facebook": "None", "youtube": "None", "website": "None", "summary": "None", "logo": "None", "latitude": 46.79168767886215, "longitude": -71.26446724865848}, "108186347RR0001": {"name": "VIP VOLUNTEERS FOR INTERGENERATIONAL PROGRAMS", "designationCode": "C", "categoryCode": "09", "address": "203-2101 HOLDOM AVE", "city": "BURNABY", "province": "BC", "country": "CA", "postalCode": "V5B0A4", "twitter": "None", "instagram": "None", "facebook": "None", "youtube": "None", "website": "None", "summary": "None", "logo": "None", "latitude": 49.264669676380635, "longitude": -122.98127352276526}, "135887867RR0001": {"name": "VIPASSANA FOUNDATION", "designationCode": "C", "categoryCode": "39", "address": "80 HIGH STREET", "city": "VICTORIA", "province": "BC", "country": "CA", "postalCode": "V8Z5C7", "twitter": "None", "instagram": "None", "facebook": "None", "youtube": "None", "website": "None", "summary": "None", "logo": "None", "latitude": 48.46818934139296, "longitude": -123.42117629952644}, "120598297RR0001": {"name": "VIRAGE SANT\u00c9 MENTALE", "designationCode": "C", "categoryCode": "09", "address": "209 DES ERABLES  C.P.69", "city": "WEEDON", "province": "QC", "country": "CA", "postalCode": "J0B3J0", "twitter": "None", "instagram": "None", "facebook": "None", "youtube": "None", "website": "None", "summary": "None", "logo": "None", "latitude": 45.70103446324071, "longitude": -71.46192516345447}, "119286573RR0001": {"name": "VIRDEN & DISTRICT HOSPITAL AUXILIARY", "designationCode": "C", "categoryCode": "19", "address": "BOX 2526", "city": "VIRDEN", "province": "MB", "country": "CA", "postalCode": "R0M2C0", "twitter": "None", "instagram": "None", "facebook": "None", "youtube": "None", "website": "None", "summary": "None", "logo": "None", "latitude": 49.85688000000005, "longitude": -100.92262999999997}, "119286540RR0001": {"name": "VIRDEN ALLIANCE CHURCH", "designationCode": "C", "categoryCode": "39", "address": "P O BOX 685", "city": "VIRDEN", "province": "MB", "country": "CA", "postalCode": "R0M2C0", "twitter": "None", "instagram": "None", "facebook": "None", "youtube": "None", "website": "None", "summary": "None", "logo": "None", "latitude": 49.85688000000005, "longitude": -100.92262999999997}, "130736119RR0001": {"name": "VIRDEN AND DISTRICT PLAYGROUND DEVELOPMENT FUND", "designationCode": "C", "categoryCode": "56", "address": "BOX 2314", "city": "VIRDEN", "province": "MB", "country": "CA", "postalCode": "R0M2C0", "twitter": "None", "instagram": "None", "facebook": "None", "youtube": "None", "website": "None", "summary": "None", "logo": "None", "latitude": 49.85688000000005, "longitude": -100.92262999999997}, "861801314RR0001": {"name": "VIRDEN AREA FOOD CUPBOARD", "designationCode": "C", "categoryCode": "09", "address": "P.O. BOX 1413", "city": "VIRDEN", "province": "MB", "country": "CA", "postalCode": "R0M2C0", "twitter": "None", "instagram": "None", "facebook": "None", "youtube": "None", "website": "None", "summary": "None", "logo": "None", "latitude": 49.85688000000005, "longitude": -100.92262999999997}, "889911723RR0001": {"name": "VIRDEN AREA WILDLIFE ASSOCIATION INC", "designationCode": "C", "categoryCode": "56", "address": "PO BOX 809", "city": "VIRDEN", "province": "MB", "country": "CA", "postalCode": "R0M2C0", "twitter": "None", "instagram": "None", "facebook": "None", "youtube": "None", "website": "None", "summary": "None", "logo": "None", "latitude": 49.85688000000005, "longitude": -100.92262999999997}, "129762324RR0001": {"name": "VIRDEN AUDITORIUM RESTORATION COMMITTEE INC", "designationCode": "C", "categoryCode": "56", "address": "BOX 1982", "city": "VIRDEN", "province": "MB", "country": "CA", "postalCode": "R0M2C0", "twitter": "None", "instagram": "None", "facebook": "None", "youtube": "None", "website": "None", "summary": "None", "logo": "None", "latitude": 49.85688000000005, "longitude": -100.92262999999997}, "890587637RR0001": {"name": "VIRDEN BAPTIST CHURCH INC.", "designationCode": "C", "categoryCode": "39", "address": "BOX 2173", "city": "VIRDEN", "province": "MB", "country": "CA", "postalCode": "R0M2C0", "twitter": "None", "instagram": "None", "facebook": "None", "youtube": "None", "website": "None", "summary": "None", "logo": "None"}, "890154198RR0001": {"name": "VIRDEN C I L OFFICERS ASSOCIATION INC", "designationCode": "C", "categoryCode": "29", "address": "PO BOX 2288", "city": "VIRDEN", "province": "MB", "country": "CA", "postalCode": "R0M2C0", "twitter": "None", "instagram": "None", "facebook": "None", "youtube": "None", "website": "None", "summary": "None", "logo": "None", "latitude": 49.85688000000005, "longitude": -100.92262999999997}, "108103557RR0001": {"name": "VIRDEN COMMUNITY ARTS COUNCIL INCORPORATED", "designationCode": "C", "categoryCode": "22", "address": "P.O. BOX 2399", "city": "VIRDEN", "province": "MB", "country": "CA", "postalCode": "R0M2C0", "twitter": "None", "instagram": "None", "facebook": "None", "youtube": "None", "website": "None", "summary": "None", "logo": "None", "latitude": 49.85688000000005, "longitude": -100.92262999999997}, "119286599RR0001": {"name": "VIRDEN MUSIC & ARTS FESTIVAL", "designationCode": "C", "categoryCode": "22", "address": "PO BOX 2047", "city": "VIRDEN", "province": "MB", "country": "CA", "postalCode": "R0M2C0", "twitter": "None", "instagram": "None", "facebook": "None", "youtube": "None", "website": "None", "summary": "None", "logo": "None", "latitude": 49.85688000000005, "longitude": -100.92262999999997}, "119094076RR0001": {"name": "VIRDEN PIONEER HOME MUSEUM INC.", "designationCode": "C", "categoryCode": "50", "address": "BOX 2001", "city": "VIRDEN", "province": "MB", "country": "CA", "postalCode": "R0M2C0", "twitter": "None", "instagram": "None", "facebook": "None", "youtube": "None", "website": "None", "summary": "None", "logo": "None", "latitude": 49.85688000000005, "longitude": -100.92262999999997}, "841790728RR0001": {"name": "VIRGIN UNITE (CANADA) INC.", "designationCode": "C", "categoryCode": "03", "address": "720 KING STREET WEST          SUITE 905", "city": "TORONTO", "province": "ON", "country": "CA", "postalCode": "M5V2T3", "twitter": "None", "instagram": "None", "facebook": "None", "youtube": "None", "website": "None", "summary": "None", "logo": "None", "latitude": 43.6436542018003, "longitude": -79.40406964530548}, "864675780RR0001": {"name": "VIRGINIA J WATT PERPETUAL CHARITABLE FOUNDATION/LA FONDATIONPERPETUELLE VIRGINIA J WATT", "designationCode": "B", "categoryCode": "03", "address": "110 YONGE ST. 12TH FLOOR", "city": "TORONTO", "province": "ON", "country": "CA", "postalCode": "M5C1T4", "twitter": "None", "instagram": "None", "facebook": "None", "youtube": "None", "website": "None", "summary": "None", "logo": "None", "latitude": 43.650145351924564, "longitude": -79.37834446367339}, "119286615RR0001": {"name": "VIRGINIA PARKER FOUNDATION", "designationCode": "B", "categoryCode": "03", "address": "56 RUE ST-PIERRE 2IEME ETAGE", "city": "QUEBEC", "province": "QC", "country": "CA", "postalCode": "G1K4A1", "twitter": "None", "instagram": "None", "facebook": "None", "youtube": "None", "website": "None", "summary": "None", "logo": "None", "latitude": 46.8141046239252, "longitude": -71.20265827477061}, "866728553RR0001": {"name": "VIRGINIA UNITED CHURCH", "designationCode": "C", "categoryCode": "44", "address": "28280 HIGHWAY #48             PO BOX 224", "city": "SUTTON WEST", "province": "ON", "country": "CA", "postalCode": "L0E1R0", "twitter": "None", "instagram": "None", "facebook": "None", "youtube": "None", "website": "None", "summary": "None", "logo": "None", "latitude": 44.3161670923501, "longitude": -79.27971876048936}, "887816700RR0001": {"name": "VIRTUAL SCIENCE FAIR INC.", "designationCode": "C", "categoryCode": "21", "address": "2051 HEDGESTONE LANE", "city": "VICTORIA", "province": "BC", "country": "CA", "postalCode": "V9B6V2", "twitter": "None", "instagram": "None", "facebook": "None", "youtube": "None", "website": "None", "summary": "None", "logo": "None", "latitude": 48.47605230308685, "longitude": -123.52838165173615}, "887886216RR0001": {"name": "VISA-ART", "designationCode": "C", "categoryCode": "22", "address": "302 - 95 RUE MERRY N", "city": "MAGOG", "province": "QC", "country": "CA", "postalCode": "J1X2E7", "twitter": "None", "instagram": "None", "facebook": "None", "youtube": "None", "website": "None", "summary": "None", "logo": "None", "latitude": 45.26733096333669, "longitude": -72.15545880704816}, "870569563RR0001": {"name": "VISCOUNT COMMUNITY NON-PROFIT HOUSING BOARD CORP", "designationCode": "C", "categoryCode": "09", "address": "P.O. BOX 84", "city": "VISCOUNT", "province": "SK", "country": "CA", "postalCode": "S0K4M0", "twitter": "None", "instagram": "None", "facebook": "None", "youtube": "None", "website": "None", "summary": "None", "logo": "None", "latitude": 51.94915000000003, "longitude": -105.64071999999999}, "119286631RR0001": {"name": "VISCOUNT CULTURAL COUNCIL INC", "designationCode": "C", "categoryCode": "56", "address": "BOX 186", "city": "NEEPAWA", "province": "MB", "country": "CA", "postalCode": "R0J1H0", "twitter": "None", "instagram": "None", "facebook": "None", "youtube": "None", "website": "None", "summary": "None", "logo": "None", "latitude": 50.22581100000005, "longitude": -99.48963949999994}, "890057482RR0001": {"name": "VISHVA ADHYATMIK SANGH INC", "designationCode": "C", "categoryCode": "39", "address": "118 ABBEYWOOD TRAIL", "city": "TORONTO", "province": "ON", "country": "CA", "postalCode": "M3B3B5", "twitter": "None", "instagram": "None", "facebook": "None", "youtube": "None", "website": "None", "summary": "None", "logo": "None", "latitude": 43.7521082581222, "longitude": -79.36281420910055}, "880759485RR0001": {"name": "VISHVA SHAKTI DURGA MANDIR ASSOCIATION", "designationCode": "C", "categoryCode": "48", "address": "55 CLAREY AVENUE", "city": "OTTAWA", "province": "ON", "country": "CA", "postalCode": "K1S2R6", "twitter": "None", "instagram": "None", "facebook": "None", "youtube": "None", "website": "None", "summary": "None", "logo": "None", "latitude": 45.40073547628245, "longitude": -75.68619055787977}, "889158861RR0001": {"name": "VISHWA HINDU PARISHAD OF ONTARIO (CANADA)", "designationCode": "C", "categoryCode": "48", "address": "5498 FLEUR DE LIS COURT", "city": "MISSISSAUGA", "province": "ON", "country": "CA", "postalCode": "L5R2Z5", "twitter": "None", "instagram": "None", "facebook": "None", "youtube": "None", "website": "None", "summary": "None", "logo": "None", "latitude": 43.607492843730256, "longitude": -79.67936152902632}, "889738373RR0001": {"name": "VISHWA NIRMALA DHARMA EDUCATIONAL SOCIETY", "designationCode": "C", "categoryCode": "39", "address": "8272 141A ST", "city": "SURREY", "province": "BC", "country": "CA", "postalCode": "V3W0V6", "twitter": "None", "instagram": "None", "facebook": "None", "youtube": "None", "website": "None", "summary": "None", "logo": "None", "latitude": 49.153746866495496, "longitude": -122.83042602801673}, "130383458RR0001": {"name": "VISION '74 INC", "designationCode": "C", "categoryCode": "09", "address": "229 WELLINGTON STREET", "city": "SARNIA", "province": "ON", "country": "CA", "postalCode": "N7T1G9", "twitter": "None", "instagram": "None", "facebook": "None", "youtube": "None", "website": "None", "summary": "None", "logo": "None", "latitude": 42.9686483620673, "longitude": -82.40386261450551}, "890251978RR0001": {"name": "VISION ACTION PARTAGE", "designationCode": "C", "categoryCode": "09", "address": "5635, RUE BOIS", "city": "SAINT-HYACINTHE", "province": "QC", "country": "CA", "postalCode": "J2S1A2", "twitter": "None", "instagram": "None", "facebook": "None", "youtube": "None", "website": "None", "summary": "None", "logo": "None", "latitude": 45.63604693089614, "longitude": -72.97296647088675}, "890623549RR0001": {"name": "VISION BAPTIST CHURCH OF LEDUC", "designationCode": "C", "categoryCode": "31", "address": "4816  49TH AVE", "city": "LEDUC", "province": "AB", "country": "CA", "postalCode": "T9E6X5", "twitter": "None", "instagram": "None", "facebook": "None", "youtube": "None", "website": "None", "summary": "None", "logo": "None", "latitude": 53.26398150764606, "longitude": -113.54953041618097}, "119286706RR0001": {"name": "VISION D'ESPOIR DE SOBRIETE", "designationCode": "C", "categoryCode": "57", "address": "63 LECLERC", "city": "BAIE-ST-PAUL", "province": "QC", "country": "CA", "postalCode": "G3Z2K3", "twitter": "None", "instagram": "None", "facebook": "None", "youtube": "None", "website": "None", "summary": "None", "logo": "None", "latitude": 47.44410851041602, "longitude": -70.50087560964272}, "890466642RR0001": {"name": "VISION EXCELLENCE", "designationCode": "C", "categoryCode": "21", "address": "400 RUE JOSEPH-PAQUETTE", "city": "BOIS-DES-FILION", "province": "QC", "country": "CA", "postalCode": "J6Z4P7", "twitter": "None", "instagram": "None", "facebook": "None", "youtube": "None", "website": "None", "summary": "None", "logo": "None", "latitude": 45.67035647264712, "longitude": -73.75958284072914}, "889152211RR0001": {"name": "VISION FELLOWSHIP", "designationCode": "C", "categoryCode": "47", "address": "2 TWENTY SIXTH ST", "city": "ETOBICOKE", "province": "ON", "country": "CA", "postalCode": "M8V3R1", "twitter": "None", "instagram": "None", "facebook": "None", "youtube": "None", "website": "None", "summary": "None", "logo": "None", "latitude": 43.59693765803792, "longitude": -79.52461680420448}, "888290996RR0001": {"name": "VISION IMPAIRED RESOURCE NETWORK (VIRN) INC.", "designationCode": "C", "categoryCode": "11", "address": "P.O BOX 2454 STATION MAIN", "city": "WINNIPEG", "province": "MB", "country": "CA", "postalCode": "R3C4A7", "twitter": "None", "instagram": "None", "facebook": "None", "youtube": "None", "website": "None", "summary": "None", "logo": "None", "latitude": 49.899525000000054, "longitude": -97.14112999999993}, "867600843RR0001": {"name": "VISION INFANTILE DE CUBA/VISION INFANTIL DE CUBA", "designationCode": "C", "categoryCode": "09", "address": "102-625 PLACE GEORGES D'OR", "city": "LAVAL", "province": "QC", "country": "CA", "postalCode": "H7R0B9", "twitter": "None", "instagram": "None", "facebook": "None", "youtube": "None", "website": "None", "summary": "None", "logo": "None", "latitude": 45.553435762709825, "longitude": -73.85446146944444}, "138164330RR0001": {"name": "VISION INSTITUTE OF CANADA", "designationCode": "C", "categoryCode": "09", "address": "205-4025 YONGE STREET", "city": "TORONTO", "province": "ON", "country": "CA", "postalCode": "M2P2E3", "twitter": "None", "instagram": "None", "facebook": "None", "youtube": "None", "website": "None", "summary": "None", "logo": "None", "latitude": 43.744853367476466, "longitude": -79.40686377791594}, "134813682RR0001": {"name": "VISION INTER-CULTURES", "designationCode": "C", "categoryCode": "59", "address": "670, RUE SAINT-JEAN", "city": "LONGUEUIL", "province": "QC", "country": "CA", "postalCode": "J4H2Y4", "twitter": "None", "instagram": "None", "facebook": "None", "youtube": "None", "website": "None", "summary": "None", "logo": "None", "latitude": 45.53364126504709, "longitude": -73.5025231984534}, "708628896RR0001": {"name": "VISION LOSS REHABILITATION CANADA/ R\u00c9ADAPTATION EN D\u00c9FICIENCE VISUELLE CANADA", "designationCode": "C", "categoryCode": "11", "address": "1929 BAYVIEW AVE", "city": "EAST YORK", "province": "ON", "country": "CA", "postalCode": "M4G3E8", "twitter": "None", "instagram": "None", "facebook": "None", "youtube": "None", "website": "None", "summary": "None", "logo": "None", "latitude": 43.71726697391652, "longitude": -79.37817360248759}, "140774514RR0001": {"name": "VISION MINISTRIES CANADA", "designationCode": "C", "categoryCode": "47", "address": "145 LINCOLN ROAD", "city": "WATERLOO", "province": "ON", "country": "CA", "postalCode": "N2J2N8", "twitter": "None", "instagram": "None", "facebook": "None", "youtube": "None", "website": "None", "summary": "None", "logo": "None", "latitude": 43.472397700502235, "longitude": -80.51112907574029}, "834209769RR0001": {"name": "VISION PRESBYTERIAN CHURCH", "designationCode": "C", "categoryCode": "37", "address": "646 MADORE AVE", "city": "COQUITLAM", "province": "BC", "country": "CA", "postalCode": "V3K3B2", "twitter": "None", "instagram": "None", "facebook": "None", "youtube": "None", "website": "None", "summary": "None", "logo": "None", "latitude": 49.24628550678067, "longitude": -122.8834935}, "888588670RR0001": {"name": "VISION QUEST CONFERENCES INC", "designationCode": "C", "categoryCode": "20", "address": "200-208 EDMONTON STREET", "city": "WINNIPEG", "province": "MB", "country": "CA", "postalCode": "R3C1R7", "twitter": "None", "instagram": "None", "facebook": "None", "youtube": "None", "website": "None", "summary": "None", "logo": "None", "latitude": 49.89014061281672, "longitude": -97.14602657302764}, "885593392RR0001": {"name": "VISION QUEST EDUCATIONAL PROGRAMS", "designationCode": "C", "categoryCode": "09", "address": "33 STEPHEN ST", "city": "KINGSTON", "province": "ON", "country": "CA", "postalCode": "K7K2C2", "twitter": "None", "instagram": "None", "facebook": "None", "youtube": "None", "website": "None", "summary": "None", "logo": "None", "latitude": 44.24267939829181, "longitude": -76.48912753872119}, "864561378RR0001": {"name": "VISION TEAM INTERNATIONAL (CANADA) SOCIETY", "designationCode": "C", "categoryCode": "39", "address": "17-1560 PRINCE ST", "city": "PORT MOODY", "province": "BC", "country": "CA", "postalCode": "V3H3W8", "twitter": "None", "instagram": "None", "facebook": "None", "youtube": "None", "website": "None", "summary": "None", "logo": "None", "latitude": 49.28551905161872, "longitude": -122.86890203494163}, "891733644RR0001": {"name": "VISION 2000 EDUCATION & HEALTH ORGANIZATION", "designationCode": "C", "categoryCode": "21", "address": "202 - 4250 WESTON RD", "city": "NORTH YORK", "province": "ON", "country": "CA", "postalCode": "M9L1W9", "twitter": "None", "instagram": "None", "facebook": "None", "youtube": "None", "website": "None", "summary": "None", "logo": "None", "latitude": 43.7680337746264, "longitude": -79.54602685697353}, "881739924RR0001": {"name": "VISIONLEDD", "designationCode": "C", "categoryCode": "47", "address": "BOX 460", "city": "BURLINGTON", "province": "ON", "country": "CA", "postalCode": "L7R3Y3", "twitter": "None", "instagram": "None", "facebook": "None", "youtube": "None", "website": "None", "summary": "None", "logo": "None", "latitude": 43.326195000000055, "longitude": -79.79863399999994}, "884133042RR0001": {"name": "VISIONQUEST RECOVERY SOCIETY", "designationCode": "C", "categoryCode": "10", "address": "UNIT 7 7551 VANTAGE WAY", "city": "DELTA", "province": "BC", "country": "CA", "postalCode": "V4G1C9", "twitter": "None", "instagram": "None", "facebook": "None", "youtube": "None", "website": "None", "summary": "None", "logo": "None", "latitude": 49.1386954899011, "longitude": -123.01418322300768}, "869837179RR0001": {"name": "VISIONS OF INDEPENDENCE INC", "designationCode": "C", "categoryCode": "11", "address": "211-530 CENTURY ST", "city": "WINNIPEG", "province": "MB", "country": "CA", "postalCode": "R3H0Y4", "twitter": "None", "instagram": "None", "facebook": "None", "youtube": "None", "website": "None", "summary": "None", "logo": "None"}, "890240195RR0001": {"name": "VISIONS SUR L'ART (QUEBEC) INC.", "designationCode": "B", "categoryCode": "22", "address": "6560 RUE VIAU", "city": "MONTR\u00c9AL", "province": "QC", "country": "CA", "postalCode": "H1T2Y7", "twitter": "None", "instagram": "None", "facebook": "None", "youtube": "None", "website": "None", "summary": "None", "logo": "None", "latitude": 45.57146811904913, "longitude": -73.57342021094689}, "871860474RR0001": {"name": "VISIT CANADA VISITEZ", "designationCode": "C", "categoryCode": "56", "address": "65 BRUNSWICK ST", "city": "FREDERICTON", "province": "NB", "country": "CA", "postalCode": "E3B1G5", "twitter": "None", "instagram": "None", "facebook": "None", "youtube": "None", "website": "None", "summary": "None", "logo": "None", "latitude": 45.96439337333348, "longitude": -66.6524763918865}, "783207483RR0001": {"name": "VISITATION HOUSE", "designationCode": "C", "categoryCode": "09", "address": "900 11TH AVE", "city": "REGINA", "province": "SK", "country": "CA", "postalCode": "S4N0K7", "twitter": "None", "instagram": "None", "facebook": "None", "youtube": "None", "website": "None", "summary": "None", "logo": "None", "latitude": 50.450383507646045, "longitude": -104.59413352553523}, "119109817RR0007": {"name": "VISITATION PARISH", "designationCode": "C", "categoryCode": "38", "address": "5407 COMBER SIDE ROAD         P.O. BOX 220", "city": "COMBER", "province": "ON", "country": "CA", "postalCode": "N0P1J0", "twitter": "None", "instagram": "None", "facebook": "None", "youtube": "None", "website": "None", "summary": "None", "logo": "None", "latitude": 42.2497316111563, "longitude": -82.55170017255624}, "108185133RR0001": {"name": "VISITING HOMEMAKERS ASSOCIATION OF OTTAWA/ASSOCIATION DES AUXILIAIRES FAMILIALES D'OTTAWA", "designationCode": "C", "categoryCode": "09", "address": "250 CITY CENTRE AVE SUITE 700", "city": "OTTAWA", "province": "ON", "country": "CA", "postalCode": "K1R6K7", "twitter": "None", "instagram": "None", "facebook": "None", "youtube": "None", "website": "None", "summary": "None", "logo": "None", "latitude": 45.408701589214715, "longitude": -75.71772291222757}, "892693722RR0001": {"name": "VISTA FAMILY RESOURCE CENTRE INC.", "designationCode": "C", "categoryCode": "09", "address": "134 CONFEDERATION DRIVE       BOX 458", "city": "BONAVISTA", "province": "NL", "country": "CA", "postalCode": "A0C1B0", "twitter": "None", "instagram": "None", "facebook": "None", "youtube": "None", "website": "None", "summary": "None", "logo": "None", "latitude": 48.64868755376051, "longitude": -53.10458204319752}, "867878860RR0001": {"name": "VISUAL AND PERFORMING ARTS NEWMARKET", "designationCode": "C", "categoryCode": "22", "address": "BOX 95524                     350 DAVIS DR", "city": "NEWMARKET", "province": "ON", "country": "CA", "postalCode": "L3Y8J8", "twitter": "None", "instagram": "None", "facebook": "None", "youtube": "None", "website": "None", "summary": "None", "logo": "None", "latitude": 44.058312882018754, "longitude": -79.46471391006413}, "119063618RR0001": {"name": "VISUAL ARTS NOVA SCOTIA", "designationCode": "C", "categoryCode": "22", "address": "1113 MARGINAL RD", "city": "HALIFAX", "province": "NS", "country": "CA", "postalCode": "B3H4P7", "twitter": "None", "instagram": "None", "facebook": "None", "youtube": "None", "website": "None", "summary": "None", "logo": "None", "latitude": 44.639260983351576, "longitude": -63.56640067941039}, "826886327RR0001": {"name": "VISUAL LITERACY FOUNDATION OF CANADA", "designationCode": "C", "categoryCode": "22", "address": "1500 WEST GEORGIA STREET      SUITE 1250, BOX 62", "city": "VANCOUVER", "province": "BC", "country": "CA", "postalCode": "V6G2Z6", "twitter": "None", "instagram": "None", "facebook": "None", "youtube": "None", "website": "None", "summary": "None", "logo": "None", "latitude": 49.2900638104334, "longitude": -123.12989899362336}, "891330680RR0001": {"name": "VISVA DHARMA PRACHARAK SAMITI", "designationCode": "C", "categoryCode": "39", "address": "713 JANE ST.", "city": "TORONTO", "province": "ON", "country": "CA", "postalCode": "M6N4B1", "twitter": "None", "instagram": "None", "facebook": "None", "youtube": "None", "website": "None", "summary": "None", "logo": "None", "latitude": 43.669870595620026, "longitude": -79.49295176184445}, "891870636RR0001": {"name": "VITA & DISTRICT HEALTH CENTRE FOUNDATION INC.", "designationCode": "A", "categoryCode": "13", "address": "P.O. BOX 222", "city": "VITA", "province": "MB", "country": "CA", "postalCode": "R0A2K0", "twitter": "None", "instagram": "None", "facebook": "None", "youtube": "None", "website": "None", "summary": "None", "logo": "None", "latitude": 49.13337000000007, "longitude": -96.56287999999995}, "108185323RR0001": {"name": "VITA BIBLE CHURCH", "designationCode": "C", "categoryCode": "34", "address": "BOX 306", "city": "VITA", "province": "MB", "country": "CA", "postalCode": "R0A2K0", "twitter": "None", "instagram": "None", "facebook": "None", "youtube": "None", "website": "None", "summary": "None", "logo": "None", "latitude": 49.13337000000007, "longitude": -96.56287999999995}, "891981235RR0001": {"name": "VITA Centre", "designationCode": "C", "categoryCode": "01", "address": "75 WATLINE AVENUE             SUITE 101", "city": "MISSISAUGA", "province": "ON", "country": "CA", "postalCode": "L4Z3E5", "twitter": "None", "instagram": "None", "facebook": "None", "youtube": "None", "website": "None", "summary": "None", "logo": "None", "latitude": 43.622396253707464, "longitude": -79.67055838014282}, "862662491RR0001": {"name": "VITA COMMUNITY CHILD CARE CENTRE INC.", "designationCode": "C", "categoryCode": "01", "address": "P.O. BOX 207", "city": "VITA", "province": "MB", "country": "CA", "postalCode": "R0A2K0", "twitter": "None", "instagram": "None", "facebook": "None", "youtube": "None", "website": "None", "summary": "None", "logo": "None", "latitude": 49.13337000000007, "longitude": -96.56287999999995}, "121264998RR0001": {"name": "VITA COMMUNITY LIVING SERVICES OF TORONTO", "designationCode": "C", "categoryCode": "11", "address": "4301 WESTON RD", "city": "TORONTO", "province": "ON", "country": "CA", "postalCode": "M9L2Y3", "twitter": "None", "instagram": "None", "facebook": "None", "youtube": "None", "website": "None", "summary": "None", "logo": "None", "latitude": 43.77004598112989, "longitude": -79.54641702703577}, "878783711RR0001": {"name": "VITAL ENRICHMENT SERVICES ASSOCIATION", "designationCode": "C", "categoryCode": "59", "address": "2238 DUNDAS ST. W. U107B", "city": "TORONTO", "province": "ON", "country": "CA", "postalCode": "M6R3A9", "twitter": "None", "instagram": "None", "facebook": "None", "youtube": "None", "website": "None", "summary": "None", "logo": "None", "latitude": 43.65430183181367, "longitude": -79.45188353756735}, "889128286RR0001": {"name": "VITAL-LINK MISSIONS FOUNDATION", "designationCode": "A", "categoryCode": "53", "address": "213 RIVERSIDE CIRCLE S.E.", "city": "CALGARY", "province": "AB", "country": "CA", "postalCode": "T2C3Y3", "twitter": "None", "instagram": "None", "facebook": "None", "youtube": "None", "website": "None", "summary": "None", "logo": "None", "latitude": 50.9809444565756, "longitude": -114.0268765073576}, "889233060RR0001": {"name": "VIVA CHORALE! SOCIETY - SALT SPRING ISLAND", "designationCode": "C", "categoryCode": "22", "address": "PO BOX 707", "city": "SALT SPRING ISLAND", "province": "BC", "country": "CA", "postalCode": "V8K2W3", "twitter": "None", "instagram": "None", "facebook": "None", "youtube": "None", "website": "None", "summary": "None", "logo": "None", "latitude": 48.85955700000005, "longitude": -123.50808349999994}, "894019868RR0001": {"name": "VIVA YOUTH CHOIRS SOCIETY OF VICTORIA", "designationCode": "C", "categoryCode": "22", "address": "1273 FORT ST", "city": "VICTORIA", "province": "BC", "country": "CA", "postalCode": "V8V3L4", "twitter": "None", "instagram": "None", "facebook": "None", "youtube": "None", "website": "None", "summary": "None", "logo": "None", "latitude": 48.42335993640742, "longitude": -123.346214283773}, "878870518RR0001": {"name": "VIVA! YOUTH SINGERS OF TORONTO INC.", "designationCode": "C", "categoryCode": "22", "address": "427 BLOOR STREET WEST         P.O. BOX 5", "city": "TORONTO", "province": "ON", "country": "CA", "postalCode": "M5S1X7", "twitter": "None", "instagram": "None", "facebook": "None", "youtube": "None", "website": "None", "summary": "None", "logo": "None", "latitude": 43.66625081652159, "longitude": -79.40573662155927}, "894726223RR0001": {"name": "VIVAVOCE MUSIC INC/MUSIQUE VIVAVOCE INC.", "designationCode": "C", "categoryCode": "22", "address": "2200 - 1010 RUE SHERBROOKE O", "city": "MONTREAL", "province": "QC", "country": "CA", "postalCode": "H3A2R7", "twitter": "None", "instagram": "None", "facebook": "None", "youtube": "None", "website": "None", "summary": "None", "logo": "None", "latitude": 45.50420051526984, "longitude": -73.57425178965626}, "866186851RR0001": {"name": "VIVE LA VIE - I LOVE LIFE INC.", "designationCode": "A", "categoryCode": "03", "address": "15, RUE PRINCIPALE NORD", "city": "MONTCERT-LYTTON", "province": "QC", "country": "CA", "postalCode": "J0W1N0", "twitter": "None", "instagram": "None", "facebook": "None", "youtube": "None", "website": "None", "summary": "None", "logo": "None", "latitude": 46.53935750652088, "longitude": -76.04398237056353}, "872766605RR0001": {"name": "VIVEK ASHRAM SOCIETY", "designationCode": "C", "categoryCode": "62", "address": "7575 - 127 STREET", "city": "SURREY", "province": "BC", "country": "CA", "postalCode": "V3W0G2", "twitter": "None", "instagram": "None", "facebook": "None", "youtube": "None", "website": "None", "summary": "None", "logo": "None", "latitude": 49.14055699417162, "longitude": -122.8708554245195}, "808158679RR0001": {"name": "VIVEK EDUCATIONAL FOUNDATION OF CANADA", "designationCode": "C", "categoryCode": "09", "address": "11473 139TH ST", "city": "SURREY", "province": "BC", "country": "CA", "postalCode": "V3R3E4", "twitter": "None", "instagram": "None", "facebook": "None", "youtube": "None", "website": "None", "summary": "None", "logo": "None", "latitude": 49.210850126839404, "longitude": -122.8369633301689}, "119286870RR0001": {"name": "VIVEKANANDA VEDANTA SOCIETY OF BRITISH COLUMBIA", "designationCode": "C", "categoryCode": "47", "address": "4-638 EAST 5TH AVE            PURABI DAS", "city": "VANCOUVER", "province": "BC", "country": "CA", "postalCode": "V5T1J2", "twitter": "None", "instagram": "None", "facebook": "None", "youtube": "None", "website": "None", "summary": "None", "logo": "None", "latitude": 49.26617550000001, "longitude": -123.0898905}, "119035426RR0001": {"name": "VIVIAN BAPTIST CHURCH", "designationCode": "C", "categoryCode": "39", "address": "16690 HIGHWAY 48", "city": "STOUFFVILLE", "province": "ON", "country": "CA", "postalCode": "L4A3M6", "twitter": "None", "instagram": "None", "facebook": "None", "youtube": "None", "website": "None", "summary": "None", "logo": "None", "latitude": 44.07350406817042, "longitude": -79.30561229367223}, "853447357RR0001": {"name": "VLC Global Ministries", "designationCode": "C", "categoryCode": "39", "address": "748 - 2ND AVE. EAST", "city": "OWEN SOUND", "province": "ON", "country": "CA", "postalCode": "N4K2H1", "twitter": "None", "instagram": "None", "facebook": "None", "youtube": "None", "website": "None", "summary": "None", "logo": "None", "latitude": 44.56294460738966, "longitude": -80.94220115172261}, "840324289RR0001": {"name": "VLN Reach Foundation", "designationCode": "B", "categoryCode": "03", "address": "1166 RAINBOW STREET", "city": "GLOUCESTER", "province": "ON", "country": "CA", "postalCode": "K1J6X7", "twitter": "None", "instagram": "None", "facebook": "None", "youtube": "None", "website": "None", "summary": "None", "logo": "None", "latitude": 45.45468163214911, "longitude": -75.58809361590379}, "140783705RR0001": {"name": "VOCA CHORUS OF TORONTO", "designationCode": "C", "categoryCode": "22", "address": "86 HARCOURT AVE", "city": "TORONTO", "province": "ON", "country": "CA", "postalCode": "M4J1J2", "twitter": "None", "instagram": "None", "facebook": "None", "youtube": "None", "website": "None", "summary": "None", "logo": "None", "latitude": 43.67793619790515, "longitude": -79.34142806869983}, "801666702RR0001": {"name": "VOCALEYE DESCRIPTIVE ARTS SOCIETY", "designationCode": "C", "categoryCode": "22", "address": "303-355 15TH E AVE", "city": "VANCOUVER", "province": "BC", "country": "CA", "postalCode": "V5T2R2", "twitter": "None", "instagram": "None", "facebook": "None", "youtube": "None", "website": "None", "summary": "None", "logo": "None", "latitude": 49.257485830585715, "longitude": -123.09838797158451}, "814114146RR0001": {"name": "VOCI CRESCENDI SOCIETY", "designationCode": "C", "categoryCode": "22", "address": "3803 WEST 30TH AVENUE", "city": "VANCOUVER", "province": "BC", "country": "CA", "postalCode": "V6S1W9", "twitter": "None", "instagram": "None", "facebook": "None", "youtube": "None", "website": "None", "summary": "None", "logo": "None", "latitude": 49.24528649321932, "longitude": -123.18834086081135}, "119286920RR0001": {"name": "VOCM CARES", "designationCode": "A", "categoryCode": "03", "address": "PO BOX 8590 STN A", "city": "ST. JOHN'S", "province": "NL", "country": "CA", "postalCode": "A1B3P5", "twitter": "None", "instagram": "None", "facebook": "None", "youtube": "None", "website": "None", "summary": "None", "logo": "None", "latitude": 47.56938900000006, "longitude": -52.78609699999993}, "892497249RR0001": {"name": "VOCPRI, THE VOLUNTEER ORGANIZATION OF CHILD AND PARENT RESOURCE INSTITUTE", "designationCode": "C", "categoryCode": "11", "address": "600 SANATORIUM ROAD", "city": "LONDON", "province": "ON", "country": "CA", "postalCode": "N6H3W7", "twitter": "None", "instagram": "None", "facebook": "None", "youtube": "None", "website": "None", "summary": "None", "logo": "None", "latitude": 42.96726518199867, "longitude": -81.33217021850311}, "892193442RR0001": {"name": "VOHON UKRAINIAN DANCE ENSEMBLE SOCIETY", "designationCode": "C", "categoryCode": "22", "address": "1100 - 10020 101A AVE NW", "city": "EDMONTON", "province": "AB", "country": "CA", "postalCode": "T5J3G2", "twitter": "None", "instagram": "None", "facebook": "None", "youtube": "None", "website": "None", "summary": "None", "logo": "None", "latitude": 53.54220282138859, "longitude": -113.49142139891461}, "862572922RR0001": {"name": "VOICE FOR CHANGE INTNL", "designationCode": "C", "categoryCode": "47", "address": "920 DUNDAS ST", "city": "LONDON", "province": "ON", "country": "CA", "postalCode": "N5W3A1", "twitter": "None", "instagram": "None", "facebook": "None", "youtube": "None", "website": "None", "summary": "None", "logo": "None", "latitude": 42.99210496476992, "longitude": -81.22057987275657}, "123609364RR0001": {"name": "VOICE FOR HEARING IMPAIRED CHILDREN", "designationCode": "C", "categoryCode": "21", "address": "2315 GUILDSTONE CRES", "city": "OAKVILLE", "province": "ON", "country": "CA", "postalCode": "L6M3Y8", "twitter": "None", "instagram": "None", "facebook": "None", "youtube": "None", "website": "None", "summary": "None", "logo": "None", "latitude": 43.44846711685609, "longitude": -79.74682497126213}, "119286938RR0001": {"name": "VOICE FOR LIFE", "designationCode": "C", "categoryCode": "09", "address": "29-B PEEL ST", "city": "SIMCOE", "province": "ON", "country": "CA", "postalCode": "N3Y1S1", "twitter": "None", "instagram": "None", "facebook": "None", "youtube": "None", "website": "None", "summary": "None", "logo": "None", "latitude": 42.83604136164807, "longitude": -80.30457437399731}, "853086874RR0001": {"name": "VOICE INTERMEDIATE SCHOOL ASSOCIATION", "designationCode": "C", "categoryCode": "21", "address": "50 GRISTMILL LANE", "city": "TORONTO", "province": "ON", "country": "CA", "postalCode": "M5A3C4", "twitter": "None", "instagram": "None", "facebook": "None", "youtube": "None", "website": "None", "summary": "None", "logo": "None", "latitude": 43.650071434358615, "longitude": -79.35991141326677}, "119211613RR0001": {"name": "VOICE OF ALBERTANS WITH DISABILITIES SOCIETY", "designationCode": "C", "categoryCode": "09", "address": "106-10423 178 ST NW", "city": "EDMONTON", "province": "AB", "country": "CA", "postalCode": "T5S1R5", "twitter": "None", "instagram": "None", "facebook": "None", "youtube": "None", "website": "None", "summary": "None", "logo": "None", "latitude": 53.547047193173285, "longitude": -113.62735578181108}, "890451396RR0001": {"name": "VOICE OF CHRIST MEDIA MINISTRIES", "designationCode": "C", "categoryCode": "47", "address": "P.O. BOX 42029 RPO GUILDFORD", "city": "SURREY", "province": "BC", "country": "CA", "postalCode": "V3R1S5", "twitter": "None", "instagram": "None", "facebook": "None", "youtube": "None", "website": "None", "summary": "None", "logo": "None", "latitude": 49.19824255693469, "longitude": -122.79742933555187}, "888925468RR0001": {"name": "VOICE OF CONCERN FOR ANIMAL LIFE SOCIETY", "designationCode": "C", "categoryCode": "54", "address": "1-1665 FELL ST", "city": "VICTORIA", "province": "BC", "country": "CA", "postalCode": "V8R4V9", "twitter": "None", "instagram": "None", "facebook": "None", "youtube": "None", "website": "None", "summary": "None", "logo": "None", "latitude": 48.42825328282069, "longitude": -123.32756215774165}, "137603684RR0001": {"name": "VOICE OF DHARMA TEMPLE SCARBOROUGH INC", "designationCode": "C", "categoryCode": "39", "address": "86 GENNELA SQUARE", "city": "SCARBOROUGH", "province": "ON", "country": "CA", "postalCode": "M1B5M7", "twitter": "None", "instagram": "None", "facebook": "None", "youtube": "None", "website": "None", "summary": "None", "logo": "None", "latitude": 43.81407119565478, "longitude": -79.19960281167414}, "867087132RR0001": {"name": "VOICE OF GOD TABERNACLE", "designationCode": "C", "categoryCode": "39", "address": "1910 ST LAURENT BLVD          BOX 41007", "city": "OTTAWA", "province": "ON", "country": "CA", "postalCode": "K1G5K9", "twitter": "None", "instagram": "None", "facebook": "None", "youtube": "None", "website": "None", "summary": "None", "logo": "None", "latitude": 45.40021610199096, "longitude": -75.62383862137412}, "871738597RR0001": {"name": "VOICE OF HOPE MINISTERIES, INC.", "designationCode": "C", "categoryCode": "39", "address": "12073 RTE 8", "city": "UPPER BLACKVILLE", "province": "NB", "country": "CA", "postalCode": "E9B1Z8", "twitter": "None", "instagram": "None", "facebook": "None", "youtube": "None", "website": "None", "summary": "None", "logo": "None", "latitude": 46.63489172972568, "longitude": -65.87234258320842}}