{"104482641RR0001": {"name": "PROPULSION LANAUDIERE", "designationCode": "C", "categoryCode": "09", "address": "387 RUE BABY", "city": "JOLIETTE", "province": "QC", "country": "CA", "postalCode": "J6E2V9", "twitter": "None", "instagram": "None", "facebook": "None", "youtube": "None", "website": "None", "summary": "None", "logo": "None", "latitude": 46.02758559365814, "longitude": -73.44217584344177}, "890016868RR0001": {"name": "PROSCIENCE INC. EMPLOYEE'S CHARITABLE TRUST", "designationCode": "C", "categoryCode": "75", "address": "92 RAILSIDE RD.", "city": "DON MILLS", "province": "ON", "country": "CA", "postalCode": "M3A1A3", "twitter": "None", "instagram": "None", "facebook": "None", "youtube": "None", "website": "None", "summary": "None", "logo": "None", "latitude": 43.73594335665641, "longitude": -79.32457167542834}, "119105625RR0001": {"name": "PROSPECT CEMETERY MAINTENANCE FUND", "designationCode": "C", "categoryCode": "59", "address": "312 - 1201 SASKATCHEWAN AVE E", "city": "PORTAGE LA PRAIRIE", "province": "MB", "country": "CA", "postalCode": "R1N1N3", "twitter": "None", "instagram": "None", "facebook": "None", "youtube": "None", "website": "None", "summary": "None", "logo": "None", "latitude": 49.9721955789742, "longitude": -98.27569714114995}, "893971069RR0001": {"name": "PROSPECT HILL CEMETERY", "designationCode": "C", "categoryCode": "59", "address": "5042 LINE 2                   RR 2", "city": "GRANTON", "province": "ON", "country": "CA", "postalCode": "N0M1V0", "twitter": "None", "instagram": "None", "facebook": "None", "youtube": "None", "website": "None", "summary": "None", "logo": "None", "latitude": 43.23000954382664, "longitude": -81.30364284814118}, "106831290RR0001": {"name": "PROSPECT HUMAN SERVICES SOCIETY", "designationCode": "C", "categoryCode": "20", "address": "915 33 ST NE", "city": "CALGARY", "province": "AB", "country": "CA", "postalCode": "T2A6T2", "twitter": "None", "instagram": "None", "facebook": "None", "youtube": "None", "website": "None", "summary": "None", "logo": "None", "latitude": 51.0602847485429, "longitude": -113.98603623968476}, "107861965RR0001": {"name": "PROSPECT MISSIONARY CHURCH", "designationCode": "C", "categoryCode": "39", "address": "PO BOX 670", "city": "COLBORNE", "province": "ON", "country": "CA", "postalCode": "K0K1S0", "twitter": "None", "instagram": "None", "facebook": "None", "youtube": "None", "website": "None", "summary": "None", "logo": "None", "latitude": 44.47739277748983, "longitude": -77.31137062647974}, "107861932RR0001": {"name": "PROSPECT-BELVEDERE SERVICES CORPORATION-CORPORATION DE SERVICES PROSPECT-BELVEDERE", "designationCode": "C", "categoryCode": "09", "address": "4505 RUE SAINTE-CATHERINE O", "city": "WESTMOUNT", "province": "QC", "country": "CA", "postalCode": "H3Z1R9", "twitter": "None", "instagram": "None", "facebook": "None", "youtube": "None", "website": "None", "summary": "None", "logo": "None", "latitude": 45.48068076853821, "longitude": -73.59388116530079}, "887756435RR0001": {"name": "PROSPECTORS AND DEVELOPERS ASSOCIATION OF CANADA MINING MATTERS", "designationCode": "C", "categoryCode": "21", "address": "135 KING STREET EAST", "city": "TORONTO", "province": "ON", "country": "CA", "postalCode": "M5C1G6", "twitter": "None", "instagram": "None", "facebook": "None", "youtube": "None", "website": "None", "summary": "None", "logo": "None", "latitude": 43.6501097510244, "longitude": -79.37334709893824}, "897344560RR0001": {"name": "PROSPER CANADA / PROSP\u00c9RIT\u00c9 CANADA", "designationCode": "C", "categoryCode": "59", "address": "60 ST. CLAIR AVE EAST #700", "city": "TORONTO", "province": "ON", "country": "CA", "postalCode": "M4T1N5", "twitter": "None", "instagram": "None", "facebook": "None", "youtube": "None", "website": "None", "summary": "None", "logo": "None", "latitude": 43.68873422733551, "longitude": -79.39115932835122}, "891270944RR0001": {"name": "PROSTATE CANCER CANADA", "designationCode": "C", "categoryCode": "11", "address": "2 LOMBARD ST, 3RD FLOOR", "city": "TORONTO", "province": "ON", "country": "CA", "postalCode": "M5C1M1", "twitter": "None", "instagram": "None", "facebook": "None", "youtube": "None", "website": "None", "summary": "None", "logo": "None", "latitude": 43.65139316515656, "longitude": -79.37728767805407}, "848726386RR0001": {"name": "PROSTATE CANCER CANADA NETWORK - REGINA INC.", "designationCode": "C", "categoryCode": "11", "address": "PO BOX 37264", "city": "REGINA", "province": "SK", "country": "CA", "postalCode": "S4S7K4", "twitter": "None", "instagram": "None", "facebook": "None", "youtube": "None", "website": "None", "summary": "None", "logo": "None", "latitude": 50.448246000000054, "longitude": -104.59517299999993}, "864053285RR0001": {"name": "PROSTATE CANCER CANADA NETWORK - THUNDER BAY", "designationCode": "C", "categoryCode": "11", "address": "374-1100 MEMORIAL AVE", "city": "THUNDER BAY", "province": "ON", "country": "CA", "postalCode": "P7B4A3", "twitter": "None", "instagram": "None", "facebook": "None", "youtube": "None", "website": "None", "summary": "None", "logo": "None", "latitude": 48.40423121426511, "longitude": -89.24559377676118}, "869261602RR0001": {"name": "PROSTATE CANCER CANADA NETWORK CALGARY SOCIETY", "designationCode": "C", "categoryCode": "19", "address": "POST OFFICE BOX 72126         RPO GLENMORE LANDING", "city": "CALGARY", "province": "AB", "country": "CA", "postalCode": "T2V5H9", "twitter": "None", "instagram": "None", "facebook": "None", "youtube": "None", "website": "None", "summary": "None", "logo": "None", "latitude": 50.994305999999995, "longitude": -114.07152574813585}, "878085661RR0001": {"name": "PROSVITA COMMUNITY ASSOCIATION", "designationCode": "C", "categoryCode": "56", "address": "POST OFFICE BOX 122", "city": "GRASSLAND", "province": "AB", "country": "CA", "postalCode": "T0A1V0", "twitter": "None", "instagram": "None", "facebook": "None", "youtube": "None", "website": "None", "summary": "None", "logo": "None", "latitude": 54.82033000000007, "longitude": -112.68602999999996}, "893187120RR0001": {"name": "PROTECH FOUNDATION/FONDATION PROTECH", "designationCode": "B", "categoryCode": "03", "address": "7600 HENRI BOURASSA WEST", "city": "ST LAURENT", "province": "QC", "country": "CA", "postalCode": "H4S1W3", "twitter": "None", "instagram": "None", "facebook": "None", "youtube": "None", "website": "None", "summary": "None", "logo": "None", "latitude": 45.506280377690906, "longitude": -73.73912239237744}, "875434904RR0001": {"name": "PROTECTING ANIMAL LIFE SOCIETY (P.A.L.S.)", "designationCode": "C", "categoryCode": "54", "address": "BOX 56", "city": "NAKUSP", "province": "BC", "country": "CA", "postalCode": "V0G1R0", "twitter": "None", "instagram": "None", "facebook": "None", "youtube": "None", "website": "None", "summary": "None", "logo": "None", "latitude": 50.23888800000006, "longitude": -117.80203399999994}, "107487340RR0001": {"name": "PROTECTION OF B.V.M. CHURCH", "designationCode": "C", "categoryCode": "38", "address": "419 PEARL ST", "city": "BURLINGTON", "province": "ON", "country": "CA", "postalCode": "L7R2N2", "twitter": "None", "instagram": "None", "facebook": "None", "youtube": "None", "website": "None", "summary": "None", "logo": "None", "latitude": 43.32692451569613, "longitude": -79.79509498415963}, "119105658RR0001": {"name": "PROTECTION OF BLESSED VIRGIN MARY CHURCH", "designationCode": "C", "categoryCode": "38", "address": "1095 3ST", "city": "VAL DOR", "province": "QC", "country": "CA", "postalCode": "J9P4A9", "twitter": "None", "instagram": "None", "facebook": "None", "youtube": "None", "website": "None", "summary": "None", "logo": "None", "latitude": 48.10379100000006, "longitude": -77.79715999999993}, "891404980RR0001": {"name": "PROTECTION OF THE BLESSED VIRGIN MARY UKRAINIAN CATHOLIC CHURCH - ST PAUL", "designationCode": "C", "categoryCode": "38", "address": "5201-51 STREET", "city": "ST PAUL", "province": "AB", "country": "CA", "postalCode": "T0A3A1", "twitter": "None", "instagram": "None", "facebook": "None", "youtube": "None", "website": "None", "summary": "None", "logo": "None", "latitude": 53.993547419095165, "longitude": -111.29969579332361}, "864650080RR0001": {"name": "PROTECTION OF THE BLESSED VIRGIN MARY UKRAINIAN CATHOLIC PARISH OF ELDORENA", "designationCode": "C", "categoryCode": "39", "address": "51238 RANGE ROAD 223", "city": "SHERWOOD PARK", "province": "AB", "country": "CA", "postalCode": "T8C1H2", "twitter": "None", "instagram": "None", "facebook": "None", "youtube": "None", "website": "None", "summary": "None", "logo": "None", "latitude": 53.40245369608749, "longitude": -113.17257706339011}, "129120663RR0001": {"name": "PROTECTION OF THE BLESSED VIRGIN MARY UKRAINIAN CATHOLIC PARISH, KRAKOW", "designationCode": "C", "categoryCode": "39", "address": "PO BOX 568", "city": "LAMONT", "province": "AB", "country": "CA", "postalCode": "T0B2R0", "twitter": "None", "instagram": "None", "facebook": "None", "youtube": "None", "website": "None", "summary": "None", "logo": "None", "latitude": 53.759960000000035, "longitude": -112.77838999999994}, "107862112RR0001": {"name": "PROTECTION OF THE HOLY VIRGIN RUSSIAN ORTHODOX CHURCH (OUTSIDE OF RUSSIA) IN OTTAWA, INCORPORATED", "designationCode": "C", "categoryCode": "39", "address": "99 STONEHURST AVE", "city": "OTTAWA", "province": "ON", "country": "CA", "postalCode": "K1Y4R7", "twitter": "None", "instagram": "None", "facebook": "None", "youtube": "None", "website": "None", "summary": "None", "logo": "None", "latitude": 45.40708915072983, "longitude": -75.72859031992671}, "839707569RR0001": {"name": "PROTEIN FOR PEOPLE SOCIETY", "designationCode": "C", "categoryCode": "09", "address": "7565 SIXTH STREET", "city": "BURNABY", "province": "BC", "country": "CA", "postalCode": "V3N3M2", "twitter": "None", "instagram": "None", "facebook": "None", "youtube": "None", "website": "None", "summary": "None", "logo": "None", "latitude": 49.22286022611021, "longitude": -122.93264657700064}, "890637598RR0001": {"name": "PROTESTANT CHAPEL FUND, CFB ESQUIMALT", "designationCode": "A", "categoryCode": "39", "address": "BCHAPLAIN(P) CFB ESQUIMALT    PO BOX 17000 STN FORCES", "city": "VICTORIA", "province": "BC", "country": "CA", "postalCode": "V9A7N2", "twitter": "None", "instagram": "None", "facebook": "None", "youtube": "None", "website": "None", "summary": "None", "logo": "None", "latitude": 48.42854700000005, "longitude": -123.36445249999994}, "845393149RR0001": {"name": "PROTON FOUNDATION", "designationCode": "A", "categoryCode": "03", "address": "BOX 4763                      2900 VANGAALEN ROAD", "city": "SMITHERS", "province": "BC", "country": "CA", "postalCode": "V0J2N0", "twitter": "None", "instagram": "None", "facebook": "None", "youtube": "None", "website": "None", "summary": "None", "logo": "None", "latitude": 54.757180690814565, "longitude": -127.09330090210892}, "104335435RR0001": {"name": "PROVERBS HERITAGE ORGANIZATION", "designationCode": "C", "categoryCode": "21", "address": "932 CONCESSION 6 RD           RR#3", "city": "ESSEX", "province": "ON", "country": "CA", "postalCode": "N8M2X7", "twitter": "None", "instagram": "None", "facebook": "None", "youtube": "None", "website": "None", "summary": "None", "logo": "None", "latitude": 42.19981349959549, "longitude": -82.6358184599686}, "854978269RR0001": {"name": "PROVIDENCE CANADA LIVING COMMUNITIES ASSOCIATION", "designationCode": "C", "categoryCode": "09", "address": "120 WENTWORTH STREET NORTH", "city": "HAMILTON", "province": "ON", "country": "CA", "postalCode": "L8L5V7", "twitter": "None", "instagram": "None", "facebook": "None", "youtube": "None", "website": "None", "summary": "None", "logo": "None", "latitude": 43.25615104218364, "longitude": -79.84716001038736}, "107862369RR0001": {"name": "PROVIDENCE CANADIAN REFORMED CHURCH", "designationCode": "C", "categoryCode": "39", "address": "13520  134 STREET NW", "city": "EDMONTON", "province": "AB", "country": "CA", "postalCode": "T5L1W5", "twitter": "None", "instagram": "None", "facebook": "None", "youtube": "None", "website": "None", "summary": "None", "logo": "None", "latitude": 53.59698958673323, "longitude": -113.55200031643467}, "892745563RR0001": {"name": "PROVIDENCE CEMETERY", "designationCode": "C", "categoryCode": "59", "address": "13595 TORBRAM RD", "city": "CALEDON", "province": "ON", "country": "CA", "postalCode": "L7C2T7", "twitter": "None", "instagram": "None", "facebook": "None", "youtube": "None", "website": "None", "summary": "None", "logo": "None", "latitude": 43.81395223206737, "longitude": -79.81483203935638}, "864111760RR0001": {"name": "PROVIDENCE CHRISTIAN CHURCH", "designationCode": "C", "categoryCode": "39", "address": "105 HOWARD AVENUE", "city": "RIVERVIEW", "province": "NB", "country": "CA", "postalCode": "E1B1L8", "twitter": "None", "instagram": "None", "facebook": "None", "youtube": "None", "website": "None", "summary": "None", "logo": "None", "latitude": 46.07353944601537, "longitude": -64.77864860395856}, "130692601RR0001": {"name": "PROVIDENCE CHRISTIAN REFORMED CHURCH OF BEAMSVILLE", "designationCode": "C", "categoryCode": "39", "address": "PO BOX 533", "city": "BEAMSVILLE", "province": "ON", "country": "CA", "postalCode": "L0R1B0", "twitter": "None", "instagram": "None", "facebook": "None", "youtube": "None", "website": "None", "summary": "None", "logo": "None", "latitude": 43.16732700000006, "longitude": -79.47640249999994}, "899440093RR0001": {"name": "PROVIDENCE CHRISTIAN SCHOOL SOCIETY", "designationCode": "C", "categoryCode": "20", "address": "BOX 240", "city": "MONARCH", "province": "AB", "country": "CA", "postalCode": "T0L1M0", "twitter": "None", "instagram": "None", "facebook": "None", "youtube": "None", "website": "None", "summary": "None", "logo": "None", "latitude": 49.80453000000006, "longitude": -113.09581999999995}, "891413643RR0001": {"name": "PROVIDENCE CHRISTIAN SERVICES INC", "designationCode": "C", "categoryCode": "47", "address": "BOX 10", "city": "STE AGATHE", "province": "MB", "country": "CA", "postalCode": "R0G1Y0", "twitter": "None", "instagram": "None", "facebook": "None", "youtube": "None", "website": "None", "summary": "None", "logo": "None", "latitude": 49.56510341838856, "longitude": -97.18561846610768}, "899084198RR0001": {"name": "PROVIDENCE COMMUNITY CHURCH", "designationCode": "C", "categoryCode": "47", "address": "327 SCOTT STREET", "city": "ST. CATHARINES", "province": "ON", "country": "CA", "postalCode": "L2N1J7", "twitter": "None", "instagram": "None", "facebook": "None", "youtube": "None", "website": "None", "summary": "None", "logo": "None", "latitude": 43.18760561506707, "longitude": -79.2329126214437}, "817660079RR0001": {"name": "PROVIDENCE FREE REFORMED CHURCH", "designationCode": "C", "categoryCode": "39", "address": "9 BEVERLY STREET              PO BOX 534", "city": "ST GEORGE", "province": "ON", "country": "CA", "postalCode": "N0E1N0", "twitter": "None", "instagram": "None", "facebook": "None", "youtube": "None", "website": "None", "summary": "None", "logo": "None", "latitude": 43.24566961174883, "longitude": -80.25214973899227}, "864435573RR0001": {"name": "PROVIDENCE HEALTH CARE RESEARCH INSTITUTE TRUST", "designationCode": "C", "categoryCode": "13", "address": "1081 BURRARD STREET", "city": "VANCOUVER", "province": "BC", "country": "CA", "postalCode": "V6Z1Y6", "twitter": "None", "instagram": "None", "facebook": "None", "youtube": "None", "website": "None", "summary": "None", "logo": "None", "latitude": 49.280098400228916, "longitude": -123.1276761243046}, "873465728RR0001": {"name": "PROVIDENCE HEALTH CARE SOCIETY", "designationCode": "C", "categoryCode": "19", "address": "1081 BURRARD STREET", "city": "VANCOUVER", "province": "BC", "country": "CA", "postalCode": "V6Z1Y6", "twitter": "None", "instagram": "None", "facebook": "None", "youtube": "None", "website": "None", "summary": "None", "logo": "None", "latitude": 49.280098400228916, "longitude": -123.1276761243046}, "140011115RR0003": {"name": "PROVIDENCE HEALTHCARE", "designationCode": "C", "categoryCode": "01", "address": "30 BOND ST", "city": "TORONTO", "province": "ON", "country": "CA", "postalCode": "M5B1W8", "twitter": "None", "instagram": "None", "facebook": "None", "youtube": "None", "website": "None", "summary": "None", "logo": "None", "latitude": 43.653711971406366, "longitude": -79.37730546658757}, "133338046RR0001": {"name": "PROVIDENCE HEALTHCARE FOUNDATION", "designationCode": "A", "categoryCode": "13", "address": "3276 ST. CLAIR AVENUE EAST", "city": "TORONTO", "province": "ON", "country": "CA", "postalCode": "M1L1W1", "twitter": "None", "instagram": "None", "facebook": "None", "youtube": "None", "website": "None", "summary": "None", "logo": "None", "latitude": 43.71157329040116, "longitude": -79.28361257887245}, "891726044RR0001": {"name": "PROVIDENCE MAITREYA BUDDHA MISSIONARY TEMPLE", "designationCode": "C", "categoryCode": "35", "address": "3495 EAST HASTINGS STREET", "city": "VANCOUVER", "province": "BC", "country": "CA", "postalCode": "V5K2A5", "twitter": "None", "instagram": "None", "facebook": "None", "youtube": "None", "website": "None", "summary": "None", "logo": "None", "latitude": 49.28113452986306, "longitude": -123.02886205536961}, "890660541RR0001": {"name": "PROVIDENCE MAITREYA BUDDHA SOCIETY", "designationCode": "C", "categoryCode": "35", "address": "3495 EAST HASTINGS STREET", "city": "VANCOUVER", "province": "BC", "country": "CA", "postalCode": "V5K2A5", "twitter": "None", "instagram": "None", "facebook": "None", "youtube": "None", "website": "None", "summary": "None", "logo": "None", "latitude": 49.28113452986306, "longitude": -123.02886205536961}, "122084395RR0001": {"name": "PROVIDENCE MANOR", "designationCode": "C", "categoryCode": "01", "address": "340 UNION ST POSTAL BAG 3600", "city": "KINGSTON", "province": "ON", "country": "CA", "postalCode": "K7L5A2", "twitter": "None", "instagram": "None", "facebook": "None", "youtube": "None", "website": "None", "summary": "None", "logo": "None", "latitude": 44.22544645910384, "longitude": -76.50641336990181}, "107270951RR0001": {"name": "PROVIDENCE PLACE CHRISTIAN HOMES INC.", "designationCode": "C", "categoryCode": "01", "address": "100 GLEN HILL DR SOUTH", "city": "WHITBY", "province": "ON", "country": "CA", "postalCode": "L1N8R4", "twitter": "None", "instagram": "None", "facebook": "None", "youtube": "None", "website": "None", "summary": "None", "logo": "None", "latitude": 43.88416035662777, "longitude": -78.91489730102698}, "899076095RR0001": {"name": "PROVIDENCE PLACE FOR HOLISTIC HEALTH INC.", "designationCode": "C", "categoryCode": "10", "address": "55 DIEFENBAKER DR", "city": "MOOSE JAW", "province": "SK", "country": "CA", "postalCode": "S6J0C2", "twitter": "None", "instagram": "None", "facebook": "None", "youtube": "None", "website": "None", "summary": "None", "logo": "None", "latitude": 50.41760445078033, "longitude": -105.52915463769627}, "867944027RR0001": {"name": "PROVIDENCE PLACE FOUNDATION INC", "designationCode": "A", "categoryCode": "13", "address": "100 2ND AVE NE", "city": "MOOSE JAW", "province": "SK", "country": "CA", "postalCode": "S6H1B8", "twitter": "None", "instagram": "None", "facebook": "None", "youtube": "None", "website": "None", "summary": "None", "logo": "None", "latitude": 50.3906972743203, "longitude": -105.52961127432032}, "818009870RR0001": {"name": "PROVIDENCE PLACE SOCIETY", "designationCode": "C", "categoryCode": "09", "address": "7050 RUPERT STREET            BOX 1708", "city": "PORT HARDY", "province": "BC", "country": "CA", "postalCode": "V0N2P0", "twitter": "None", "instagram": "None", "facebook": "None", "youtube": "None", "website": "None", "summary": "None", "logo": "None", "latitude": 50.72011510020766, "longitude": -127.49631270102182}, "135298073RR0001": {"name": "PROVIDENCE REFORMED CHURCH OF WINNIPEG", "designationCode": "C", "categoryCode": "39", "address": "50 STRONGBERG DR.", "city": "WINNIPEG", "province": "MB", "country": "CA", "postalCode": "R2G4C4", "twitter": "None", "instagram": "None", "facebook": "None", "youtube": "None", "website": "None", "summary": "None", "logo": "None", "latitude": 49.940528512609056, "longitude": -97.04247506760329}, "880132964RR0001": {"name": "PROVIDENCE REFORMED COLLEGIATE ASSOCIATION INC.", "designationCode": "C", "categoryCode": "20", "address": "93 QUEEN STREET               P.O. BOX 114", "city": "KOMOKA", "province": "ON", "country": "CA", "postalCode": "N0L1R0", "twitter": "None", "instagram": "None", "facebook": "None", "youtube": "None", "website": "None", "summary": "None", "logo": "None", "latitude": 42.95282055423667, "longitude": -81.43075337759313}, "119105781RR0001": {"name": "PROVIDENCE RENEWAL CENTRE", "designationCode": "C", "categoryCode": "46", "address": "3005 119 STREET NW", "city": "EDMONTON", "province": "AB", "country": "CA", "postalCode": "T6J5R5", "twitter": "None", "instagram": "None", "facebook": "None", "youtube": "None", "website": "None", "summary": "None", "logo": "None", "latitude": 53.46215250021689, "longitude": -113.53871263127581}, "735969099RR0001": {"name": "PROVIDENCE RESIDENTIAL AND COMMUNITY CARE SERVICES SOCIETY", "designationCode": "C", "categoryCode": "10", "address": "1800-510 GEORGIA W ST", "city": "VANCOUVER", "province": "BC", "country": "CA", "postalCode": "V6B0M3", "twitter": "None", "instagram": "None", "facebook": "None", "youtube": "None", "website": "None", "summary": "None", "logo": "None", "latitude": 49.28012307167682, "longitude": -123.11442679241839}, "119105807RR0001": {"name": "PROVIDENCE UNITED CHURCH", "designationCode": "C", "categoryCode": "44", "address": "70 BRUINSMA AVE", "city": "CHATHAM", "province": "ON", "country": "CA", "postalCode": "N7M6C3", "twitter": "None", "instagram": "None", "facebook": "None", "youtube": "None", "website": "None", "summary": "None", "logo": "None", "latitude": 42.3959643918865, "longitude": -82.15898965127809}, "891081440RR0001": {"name": "PROVIDENCE UNITED CHURCH", "designationCode": "C", "categoryCode": "44", "address": "207 DEVITT'S ROAD             RR #3", "city": "BOBCAYGEON", "province": "ON", "country": "CA", "postalCode": "K0M1A0", "twitter": "None", "instagram": "None", "facebook": "None", "youtube": "None", "website": "None", "summary": "None", "logo": "None", "latitude": 44.60413036955486, "longitude": -78.60404430015788}, "891590929RR0001": {"name": "PROVIDENCE UNITED REFORMED CHURCH OF STRATHROY", "designationCode": "C", "categoryCode": "39", "address": "447 SECOND ST", "city": "STRATHROY", "province": "ON", "country": "CA", "postalCode": "N7G3H8", "twitter": "None", "instagram": "None", "facebook": "None", "youtube": "None", "website": "None", "summary": "None", "logo": "None", "latitude": 42.98028010743131, "longitude": -81.60066707128433}, "898116462RR0001": {"name": "PROVIDING ALTERNATIVES COUNSELLING & EDUCATION SOCIETY VANCOUVER", "designationCode": "C", "categoryCode": "09", "address": "148 HASTINGS ST W", "city": "VANCOUVER", "province": "BC", "country": "CA", "postalCode": "V6B1G8", "twitter": "None", "instagram": "None", "facebook": "None", "youtube": "None", "website": "None", "summary": "None", "logo": "None", "latitude": 49.282156815834774, "longitude": -123.1085927258888}, "869570549RR0001": {"name": "PROVIDING AVENUES TO HOPE SOCIETY", "designationCode": "C", "categoryCode": "59", "address": "P.O.BOX 76155, MILLRISE RPO", "city": "CALGARY", "province": "AB", "country": "CA", "postalCode": "T2Y2Z9", "twitter": "None", "instagram": "None", "facebook": "None", "youtube": "None", "website": "None", "summary": "None", "logo": "None", "latitude": 50.91454132111086, "longitude": -114.09693237631686}, "119105864RR0001": {"name": "PROVINCE DE SAINT JOSEPH DES SERVANTES DU SAINT COEUR DE MARIE", "designationCode": "C", "categoryCode": "46", "address": "37 AV. DES CASCADES", "city": "QU\u00c9BEC", "province": "QC", "country": "CA", "postalCode": "G1E2K1", "twitter": "None", "instagram": "None", "facebook": "None", "youtube": "None", "website": "None", "summary": "None", "logo": "None", "latitude": 46.86351893649338, "longitude": -71.19932503993329}, "833332547RR0001": {"name": "PROVINCE DU CANADA DES FILLES DE JESUS/PROVINCE OF CANADA OF DAUGHTERS OF JESUS", "designationCode": "C", "categoryCode": "46", "address": "566, RUE NOTRE-DAME EST", "city": "TROIS-RIVIERES", "province": "QC", "country": "CA", "postalCode": "G8T4G7", "twitter": "None", "instagram": "None", "facebook": "None", "youtube": "None", "website": "None", "summary": "None", "logo": "None", "latitude": 46.365804, "longitude": -72.50117327699232}, "107862559RR0001": {"name": "PROVINCE DU SAINT-COEUR DE MARIE DES SERVANTES DU SAINT-COEUR DE MARIE", "designationCode": "C", "categoryCode": "46", "address": "30 DES CASCADES", "city": "QU\u00c9BEC", "province": "QC", "country": "CA", "postalCode": "G1E2J8", "twitter": "None", "instagram": "None", "facebook": "None", "youtube": "None", "website": "None", "summary": "None", "logo": "None", "latitude": 46.86371086427381, "longitude": -71.20026688856827}, "861289981RR0001": {"name": "PROVINCE MARIE-REINE-DU-MONDE", "designationCode": "C", "categoryCode": "46", "address": "140, PLACE JUGE-DESNOYERS", "city": "LAVAL", "province": "QC", "country": "CA", "postalCode": "H7G1A4", "twitter": "None", "instagram": "None", "facebook": "None", "youtube": "None", "website": "None", "summary": "None", "logo": "None", "latitude": 45.560928361936526, "longitude": -73.67525525607338}, "824581078RR0001": {"name": "PROVINCE OF ONTARIO COUNCIL FOR THE ARTS", "designationCode": "C", "categoryCode": "23", "address": "700 - 121 BLOOR ST E", "city": "TORONTO", "province": "ON", "country": "CA", "postalCode": "M4W3M5", "twitter": "None", "instagram": "None", "facebook": "None", "youtube": "None", "website": "None", "summary": "None", "logo": "None", "latitude": 43.67244585876691, "longitude": -79.37634608562912}, "891380339RR0001": {"name": "PROVINCIAL ASSOCIATION OF TRANSITION HOUSES OF SASKATCHEWAN INC", "designationCode": "C", "categoryCode": "59", "address": "2505 11TH AVE                 SUITE 308", "city": "REGINA", "province": "SK", "country": "CA", "postalCode": "S4P0K6", "twitter": "None", "instagram": "None", "facebook": "None", "youtube": "None", "website": "None", "summary": "None", "logo": "None", "latitude": 50.45034150678068, "longitude": -104.61735040588052}, "886880996RR0001": {"name": "PROVINCIAL C G I T BOARD OF BRITISH COLUMBIA", "designationCode": "C", "categoryCode": "49", "address": "2437 QUENNELL RD.,", "city": "NANAIMO", "province": "BC", "country": "CA", "postalCode": "V9X1K4", "twitter": "None", "instagram": "None", "facebook": "None", "youtube": "None", "website": "None", "summary": "None", "logo": "None", "latitude": 49.07982356678924, "longitude": -123.84219085599788}, "107761694RR0186": {"name": "PROVINCIAL COUNCIL OF NFLD AND LABRADOR", "designationCode": "C", "categoryCode": "29", "address": "55 KARWOOD DR", "city": "PARADISE", "province": "NL", "country": "CA", "postalCode": "A1L0L3", "twitter": "None", "instagram": "None", "facebook": "None", "youtube": "None", "website": "None", "summary": "None", "logo": "None", "latitude": 47.529261210400804, "longitude": -52.852710223393004}, "119105955RR0001": {"name": "PROVINCIAL EXHIBITION OF MANITOBA", "designationCode": "C", "categoryCode": "56", "address": "115 10TH STREET", "city": "BRANDON", "province": "MB", "country": "CA", "postalCode": "R7A4E7", "twitter": "None", "instagram": "None", "facebook": "None", "youtube": "None", "website": "None", "summary": "None", "logo": "None", "latitude": 49.848021974464785, "longitude": -99.95139092988654}, "888256849RR0001": {"name": "PROVINCIAL INFORMATION AND LIBRARY RESOURCES BOARD", "designationCode": "C", "categoryCode": "50", "address": "48 ST.GEORGE'S AVE.", "city": "STEPHENVILLE", "province": "NL", "country": "CA", "postalCode": "A2N1K9", "twitter": "None", "instagram": "None", "facebook": "None", "youtube": "None", "website": "None", "summary": "None", "logo": "None", "latitude": 48.55041149160427, "longitude": -58.57854747833926}, "866074024RR0001": {"name": "PROVINCIAL INFORMATION EQUIPMENT RECYCLING AND REFURBISHING ENTERPRISES INC", "designationCode": "C", "categoryCode": "21", "address": "P.O. BOX 39062", "city": "ST. JOHN'S", "province": "NL", "country": "CA", "postalCode": "A1E5Y7", "twitter": "None", "instagram": "None", "facebook": "None", "youtube": "None", "website": "None", "summary": "None", "logo": "None", "latitude": 47.56082100000006, "longitude": -52.71219349999993}, "879529212RR0001": {"name": "PROVINCIAL SYNOD OF ONTARIO OF THE CHURCH OF ENGLAND IN CANADA", "designationCode": "C", "categoryCode": "30", "address": "P.O. BOX 1168                 619 WELLINGTON STREET EAST", "city": "SAULT STE MARIE", "province": "ON", "country": "CA", "postalCode": "P6A5N7", "twitter": "None", "instagram": "None", "facebook": "None", "youtube": "None", "website": "None", "summary": "None", "logo": "None", "latitude": 46.510487728547616, "longitude": -84.3266628526457}, "878121904RR0001": {"name": "PROVISION COMPASSION", "designationCode": "C", "categoryCode": "09", "address": "3719, RUE DES COMMISSAIRES", "city": "RAWDON", "province": "QC", "country": "CA", "postalCode": "J0K1S0", "twitter": "None", "instagram": "None", "facebook": "None", "youtube": "None", "website": "None", "summary": "None", "logo": "None", "latitude": 46.04234158061638, "longitude": -73.7123954603265}, "864926027RR0001": {"name": "PROVISION FOR VISION FOUNDATION", "designationCode": "B", "categoryCode": "05", "address": "23 BAYVIEW HEIGHTS            P.O. BOX 606", "city": "LEWISPORTE", "province": "NL", "country": "CA", "postalCode": "A0G3A0", "twitter": "None", "instagram": "None", "facebook": "None", "youtube": "None", "website": "None", "summary": "None", "logo": "None", "latitude": 49.25761863644381, "longitude": -55.0488422343221}, "136105251RR0001": {"name": "PROVOST AND DISTRICT HEALTH SERVICES FOUNDATION", "designationCode": "C", "categoryCode": "11", "address": "PO BOX 252", "city": "PROVOST", "province": "AB", "country": "CA", "postalCode": "T0B3S0", "twitter": "None", "instagram": "None", "facebook": "None", "youtube": "None", "website": "None", "summary": "None", "logo": "None", "latitude": 52.82485171250891, "longitude": -110.88936481833932}, "871854923RR0001": {"name": "PROVOST AND DISTRICT MUSEUM SOCIETY", "designationCode": "C", "categoryCode": "50", "address": "PO BOX 1293", "city": "PROVOST", "province": "AB", "country": "CA", "postalCode": "T0B3S0", "twitter": "None", "instagram": "None", "facebook": "None", "youtube": "None", "website": "None", "summary": "None", "logo": "None", "latitude": 52.82485171250891, "longitude": -110.88936481833932}, "119293025RR0004": {"name": "PROVOST COMMUNITY CHURCH OF THE CHRISTIAN & MISS ALLIANCE", "designationCode": "C", "categoryCode": "39", "address": "BOX 1175", "city": "PROVOST", "province": "AB", "country": "CA", "postalCode": "T0B3S0", "twitter": "None", "instagram": "None", "facebook": "None", "youtube": "None", "website": "None", "summary": "None", "logo": "None", "latitude": 52.82485171250891, "longitude": -110.88936481833932}, "804087336RR0001": {"name": "PROVOST HOSPITAL AUXILIARY SOCIETY", "designationCode": "C", "categoryCode": "19", "address": "PO BOX 126", "city": "BRUCE", "province": "AB", "country": "CA", "postalCode": "T0B0R0", "twitter": "None", "instagram": "None", "facebook": "None", "youtube": "None", "website": "None", "summary": "None", "logo": "None", "latitude": 53.17282000000006, "longitude": -112.03915999999998}, "119106011RR0001": {"name": "PROVOST LIONS COMMUNITY HANDI-VAN SERVICE SOCIETY", "designationCode": "C", "categoryCode": "09", "address": "BOX 463", "city": "PROVOST", "province": "AB", "country": "CA", "postalCode": "T0B3S0", "twitter": "None", "instagram": "None", "facebook": "None", "youtube": "None", "website": "None", "summary": "None", "logo": "None", "latitude": 52.82485171250891, "longitude": -110.88936481833932}, "119106029RR0001": {"name": "PROVOST MUSIC FESTIVAL ASSOCIATION", "designationCode": "C", "categoryCode": "22", "address": "BOX 1379", "city": "PROVOST", "province": "AB", "country": "CA", "postalCode": "T0B3S0", "twitter": "None", "instagram": "None", "facebook": "None", "youtube": "None", "website": "None", "summary": "None", "logo": "None", "latitude": 52.82485171250891, "longitude": -110.88936481833932}, "107864910RR0001": {"name": "PROVOST PRE-SCHOOL SOCIETY", "designationCode": "C", "categoryCode": "20", "address": "BOX 123", "city": "PROVOST", "province": "AB", "country": "CA", "postalCode": "T0B3S0", "twitter": "None", "instagram": "None", "facebook": "None", "youtube": "None", "website": "None", "summary": "None", "logo": "None", "latitude": 52.82485171250891, "longitude": -110.88936481833932}, "107864951RR0001": {"name": "PROVOST SENIOR CITIZENS HOME FOUNDATION", "designationCode": "C", "categoryCode": "01", "address": "PO BOX 510", "city": "PROVOST", "province": "AB", "country": "CA", "postalCode": "T0B3S0", "twitter": "None", "instagram": "None", "facebook": "None", "youtube": "None", "website": "None", "summary": "None", "logo": "None", "latitude": 52.82485171250891, "longitude": -110.88936481833932}, "119106037RR0001": {"name": "PROVOST-MACKLIN PASTORAL CHARGE", "designationCode": "C", "categoryCode": "44", "address": "BOX 51", "city": "MACKLIN", "province": "SK", "country": "CA", "postalCode": "S0L2C0", "twitter": "None", "instagram": "None", "facebook": "None", "youtube": "None", "website": "None", "summary": "None", "logo": "None", "latitude": 52.33280000000008, "longitude": -109.93590999999998}, "896819646RR0001": {"name": "PRUDE INC.", "designationCode": "C", "categoryCode": "59", "address": "PO BOX 22003                  LANSDOWNE RPO", "city": "SAINT JOHN", "province": "NB", "country": "CA", "postalCode": "E2K4T7", "twitter": "None", "instagram": "None", "facebook": "None", "youtube": "None", "website": "None", "summary": "None", "logo": "None", "latitude": 45.27825409134918, "longitude": -66.07661935522188}, "831808563RR0001": {"name": "PRYTULA/CHARPENTIER FOUNDATION - FONDATION PRYTULA/CHARPENTIER", "designationCode": "B", "categoryCode": "23", "address": "4028 MARLOWE", "city": "MONTREAL", "province": "QC", "country": "CA", "postalCode": "H4A3M2", "twitter": "None", "instagram": "None", "facebook": "None", "youtube": "None", "website": "None", "summary": "None", "logo": "None", "latitude": 45.478541756852806, "longitude": -73.61489510756523}, "859074171RR0001": {"name": "PSALM 23 TRANSITION SOCIETY", "designationCode": "C", "categoryCode": "57", "address": "115 CARIBOO HWY 97 PO BOX 387", "city": "CLINTON", "province": "BC", "country": "CA", "postalCode": "V0K1K0", "twitter": "None", "instagram": "None", "facebook": "None", "youtube": "None", "website": "None", "summary": "None", "logo": "None", "latitude": 51.64621072624149, "longitude": -121.29626129827801}, "793356296RR0001": {"name": "PSALT Ministries", "designationCode": "C", "categoryCode": "47", "address": "30 LARK ST", "city": "TORONTO", "province": "ON", "country": "CA", "postalCode": "M4L3M6", "twitter": "None", "instagram": "None", "facebook": "None", "youtube": "None", "website": "None", "summary": "None", "logo": "None", "latitude": 43.66884814847949, "longitude": -79.31092041563271}, "811905165RR0001": {"name": "PSC Partners Seeking a Cure Canada", "designationCode": "A", "categoryCode": "03", "address": "18 WEMBLEY RD", "city": "TORONTO", "province": "ON", "country": "CA", "postalCode": "M6C2E9", "twitter": "None", "instagram": "None", "facebook": "None", "youtube": "None", "website": "None", "summary": "None", "logo": "None", "latitude": 43.70159946047074, "longitude": -79.426932474609}, "829997113RR0001": {"name": "PSFA Primary Schools for Africa Society", "designationCode": "C", "categoryCode": "21", "address": "3301 WORDWORTH STREET", "city": "VICTORIA", "province": "BC", "country": "CA", "postalCode": "V8P4B9", "twitter": "None", "instagram": "None", "facebook": "None", "youtube": "None", "website": "None", "summary": "None", "logo": "None", "latitude": 48.45107607799065, "longitude": -123.33545107060439}, "876070962RR0001": {"name": "PSORIASIS SOCIETY OF CANADA", "designationCode": "C", "categoryCode": "11", "address": "P O BOX 25015", "city": "HALIFAX", "province": "NS", "country": "CA", "postalCode": "B3M4H4", "twitter": "None", "instagram": "None", "facebook": "None", "youtube": "None", "website": "None", "summary": "None", "logo": "None", "latitude": 44.66728500000005, "longitude": -63.658200499999936}, "136746575RR0001": {"name": "PSYCOHESION", "designationCode": "C", "categoryCode": "09", "address": "100 RUE DU MARCHER", "city": "VALLEYFIELD", "province": "QC", "country": "CA", "postalCode": "J6T1P7", "twitter": "None", "instagram": "None", "facebook": "None", "youtube": "None", "website": "None", "summary": "None", "logo": "None", "latitude": 45.25323132307112, "longitude": -74.13672371011018}, "875849192RR0001": {"name": "PTARMIGAN CHARITABLE FOUNDATION", "designationCode": "B", "categoryCode": "03", "address": "7 CLEAR MOUNTAIN RISE SW", "city": "CALGARY", "province": "AB", "country": "CA", "postalCode": "T3Z3J9", "twitter": "None", "instagram": "None", "facebook": "None", "youtube": "None", "website": "None", "summary": "None", "logo": "None", "latitude": 51.049161218448724, "longitude": -114.26856856341969}, "119056463RR0001": {"name": "PTC PLAYWRIGHTS THEATRE CENTRE", "designationCode": "C", "categoryCode": "22", "address": "202-739 GORE AVE", "city": "VANCOUVER", "province": "BC", "country": "CA", "postalCode": "V6A2Z9", "twitter": "None", "instagram": "None", "facebook": "None", "youtube": "None", "website": "None", "summary": "None", "logo": "None", "latitude": 49.2778654365803, "longitude": -123.09704293701299}, "893031229RR0001": {"name": "PTP Adult Learning and Employment Programs", "designationCode": "C", "categoryCode": "59", "address": "5353 DUNDAS ST W, STE 300", "city": "TORONTO", "province": "ON", "country": "CA", "postalCode": "M9B6H8", "twitter": "None", "instagram": "None", "facebook": "None", "youtube": "None", "website": "None", "summary": "None", "logo": "None", "latitude": 43.63635391698904, "longitude": -79.53981963636137}, "135980068RR0001": {"name": "PTT BUDDHIST SOCIETY", "designationCode": "C", "categoryCode": "35", "address": "514 KEEFER ST", "city": "VANCOUVER", "province": "BC", "country": "CA", "postalCode": "V6A1Y3", "twitter": "None", "instagram": "None", "facebook": "None", "youtube": "None", "website": "None", "summary": "None", "logo": "None", "latitude": 49.27923808493557, "longitude": -123.09315529931693}, "136236601RR0001": {"name": "PU TE RELIGIOUS SOCIETY OF GREATER VANCOUVER", "designationCode": "C", "categoryCode": "39", "address": "6651 FRANCIS ROAD", "city": "RICHMOND", "province": "BC", "country": "CA", "postalCode": "V7C1K4", "twitter": "None", "instagram": "None", "facebook": "None", "youtube": "None", "website": "None", "summary": "None", "logo": "None", "latitude": 49.14834147879261, "longitude": -123.1507215}, "136679743RR0001": {"name": "PUBLIC ACCESS", "designationCode": "C", "categoryCode": "22", "address": "303 GOLDFARB CTR FOR FINE ARTSYORK UNIVERSITY,4700 KEELE ST.", "city": "TORONTO", "province": "ON", "country": "CA", "postalCode": "M3J1P3", "twitter": "None", "instagram": "None", "facebook": "None", "youtube": "None", "website": "None", "summary": "None", "logo": "None", "latitude": 43.77170000000007, "longitude": -79.49862999999993}, "119106151RR0001": {"name": "PUBLIC GENERAL HOSPITAL SOCIETY OF CHATHAM", "designationCode": "C", "categoryCode": "10", "address": "80 GRAND AVE. WEST", "city": "CHATHAM", "province": "ON", "country": "CA", "postalCode": "N7M5L9", "twitter": "None", "instagram": "None", "facebook": "None", "youtube": "None", "website": "None", "summary": "None", "logo": "None", "latitude": 42.405873363264185, "longitude": -82.19401407363415}, "134653989RR0001": {"name": "PUBLIC LEGAL EDUCATION AND INFORMATION SERVICE OF NEW BRUNSWICK INC /SERVICE PUBLIC D'EDUCATION ET D'INFORMATION JURIDIQUE DU NOUVEAU BRUNSWICK", "designationCode": "C", "categoryCode": "59", "address": "PO BOX 6000", "city": "FREDERICTON", "province": "NB", "country": "CA", "postalCode": "E3B5H1", "twitter": "None", "instagram": "None", "facebook": "None", "youtube": "None", "website": "None", "summary": "None", "logo": "None", "latitude": 45.96062100000006, "longitude": -66.63911299999994}, "129866661RR0001": {"name": "PUBLIC LEGAL EDUCATION ASSOCIATION OF SASKATCHEWAN INC", "designationCode": "C", "categoryCode": "59", "address": "500-333 25TH ST E", "city": "SASKATOON", "province": "SK", "country": "CA", "postalCode": "S7K0L4", "twitter": "None", "instagram": "None", "facebook": "None", "youtube": "None", "website": "None", "summary": "None", "logo": "None", "latitude": 52.13312100000001, "longitude": -106.65954675}, "107865743RR0001": {"name": "PUBLIC LEGAL INFORMATION ASSOCIATION OF NEWFOUNDLAND", "designationCode": "C", "categoryCode": "59", "address": "101 - 31 PEET ST", "city": "ST. JOHN'S", "province": "NL", "country": "CA", "postalCode": "A1B3W8", "twitter": "None", "instagram": "None", "facebook": "None", "youtube": "None", "website": "None", "summary": "None", "logo": "None", "latitude": 47.55933102746848, "longitude": -52.76067346880928}, "844430009RR0001": {"name": "PUBLIC POLICY FORUM FORUM DES POLITIQUES PUBLIQUES", "designationCode": "A", "categoryCode": "21", "address": "1400 - 130 ALBERT ST", "city": "OTTAWA", "province": "ON", "country": "CA", "postalCode": "K1P5G4", "twitter": "None", "instagram": "None", "facebook": "None", "youtube": "None", "website": "None", "summary": "None", "logo": "None", "latitude": 45.42076882295, "longitude": -75.69835894262502}, "829574953RR0001": {"name": "PUBLIC RECORDINGS PERFORMANCE PROJECTS", "designationCode": "C", "categoryCode": "22", "address": "2832 DUNDAS ST W", "city": "TORONTO", "province": "ON", "country": "CA", "postalCode": "M6P1Y7", "twitter": "None", "instagram": "None", "facebook": "None", "youtube": "None", "website": "None", "summary": "None", "logo": "None", "latitude": 43.665436507646056, "longitude": -79.46376169025909}, "808030647RR0001": {"name": "PUBLIC SCHOOLS BRANCH", "designationCode": "C", "categoryCode": "20", "address": "P.O. BOX 8600 STN CENTRAL", "city": "CHARLOTTETOWN", "province": "PE", "country": "CA", "postalCode": "C1A8V7", "twitter": "None", "instagram": "None", "facebook": "None", "youtube": "None", "website": "None", "summary": "None", "logo": "None", "latitude": 46.23659700000006, "longitude": -63.12815449999994}, "119106144RR0001": {"name": "PUBLICATIONS CHRETIENNES INC.", "designationCode": "C", "categoryCode": "47", "address": "230, RUE LUPIEN", "city": "TROIS-RIVIERES", "province": "QC", "country": "CA", "postalCode": "G8T6W4", "twitter": "None", "instagram": "None", "facebook": "None", "youtube": "None", "website": "None", "summary": "None", "logo": "None", "latitude": 46.36782952290949, "longitude": -72.52543389451222}}