{"844570689RR0001": {"name": "Orchestre de Saint-Donat", "designationCode": "C", "categoryCode": "22", "address": "982 RUE PRINCIPALE", "city": "SAINT-DONAT", "province": "QC", "country": "CA", "postalCode": "J0T2C0", "twitter": "None", "instagram": "None", "facebook": "None", "youtube": "None", "website": "None", "summary": "None", "logo": "None", "latitude": 46.30842413849615, "longitude": -74.2070173148768}, "839945276RR0001": {"name": "Orchestre des jeunes du Saguenay-Lac-Saint-Jean", "designationCode": "C", "categoryCode": "22", "address": "202 JACQUES-CARTIER E", "city": "CHICOUTIMI", "province": "QC", "country": "CA", "postalCode": "G7H6R8", "twitter": "None", "instagram": "None", "facebook": "None", "youtube": "None", "website": "None", "summary": "None", "logo": "None", "latitude": 48.42631653563412, "longitude": -71.06143100291419}, "814311007RR0001": {"name": "Orchestre du septi\u00e8me art", "designationCode": "C", "categoryCode": "22", "address": "900, RUE SYLVIO-LACHARITE", "city": "SHERBROOKE", "province": "QC", "country": "CA", "postalCode": "J1L2N1", "twitter": "None", "instagram": "None", "facebook": "None", "youtube": "None", "website": "None", "summary": "None", "logo": "None", "latitude": 45.41176766472387, "longitude": -71.95534387757534}, "850517467RR0001": {"name": "Orchestre philharmonique des musiciens de Montr\u00e9al, OPMEN", "designationCode": "C", "categoryCode": "22", "address": "CASE POSTALE 8888             SUCCURSALE CENTRE-VILLE", "city": "MONTR\u00c9AL", "province": "QC", "country": "CA", "postalCode": "H3C3P8", "twitter": "None", "instagram": "None", "facebook": "None", "youtube": "None", "website": "None", "summary": "None", "logo": "None", "latitude": 45.49833600000005, "longitude": -73.55148649999994}, "811707173RR0001": {"name": "Orchestre National de Jazz", "designationCode": "C", "categoryCode": "22", "address": "900 - 505 BOUL RENE-LEVESQUE O", "city": "MONTREAL", "province": "QC", "country": "CA", "postalCode": "H2Z1Y7", "twitter": "None", "instagram": "None", "facebook": "None", "youtube": "None", "website": "None", "summary": "None", "logo": "None", "latitude": 45.50392864891217, "longitude": -73.56588739344436}, "797809894RR0001": {"name": "Orchestre Philharmonique de la Rel\u00e8ve du Qu\u00e9bec", "designationCode": "C", "categoryCode": "22", "address": "CP 68502 QUE CP               SEIGNEURIALE", "city": "QU\u00c9BEC", "province": "QC", "country": "CA", "postalCode": "G1C0G7", "twitter": "None", "instagram": "None", "facebook": "None", "youtube": "None", "website": "None", "summary": "None", "logo": "None", "latitude": 46.87811000000005, "longitude": -71.19944999999996}, "722495694RR0001": {"name": "Orchestre Renaissance de Longueuil", "designationCode": "C", "categoryCode": "22", "address": "106 RUE LOUISE", "city": "LONGUEUIL", "province": "QC", "country": "CA", "postalCode": "J4J2S9", "twitter": "None", "instagram": "None", "facebook": "None", "youtube": "None", "website": "None", "summary": "None", "logo": "None", "latitude": 45.528252276155605, "longitude": -73.47463881152991}, "813209939RR0001": {"name": "Orchestre Symphonique de l'Agora", "designationCode": "C", "categoryCode": "22", "address": "5650 AV DE L'ESPLANADE", "city": "MONTREAL", "province": "QC", "country": "CA", "postalCode": "H2T3A1", "twitter": "None", "instagram": "None", "facebook": "None", "youtube": "None", "website": "None", "summary": "None", "logo": "None", "latitude": 45.52418984067184, "longitude": -73.60271305219563}, "801884420RR0001": {"name": "Orchestre Symphonique de la Vall\u00e9e-du-Haut-Saint-Laurent", "designationCode": "C", "categoryCode": "22", "address": "9040 PLACE DE MONTGOLFIER", "city": "MONTREAL", "province": "QC", "country": "CA", "postalCode": "H2M2A1", "twitter": "None", "instagram": "None", "facebook": "None", "youtube": "None", "website": "None", "summary": "None", "logo": "None", "latitude": 45.557305230076814, "longitude": -73.64044903883676}, "893703801RR0001": {"name": "Orchestre Symphonique de L'Isle", "designationCode": "C", "categoryCode": "22", "address": "5423 RUE MARQUETTE", "city": "MONTREAL", "province": "QC", "country": "CA", "postalCode": "H2J3Z3", "twitter": "None", "instagram": "None", "facebook": "None", "youtube": "None", "website": "None", "summary": "None", "logo": "None", "latitude": 45.5371141737549, "longitude": -73.58582793337764}, "892312463RR0001": {"name": "Orchid Species Preservation Foundation", "designationCode": "C", "categoryCode": "50", "address": "PO BOX 76040                  468 SOUTHGATE SHOPPING CENTRE", "city": "EDMONTON", "province": "AB", "country": "CA", "postalCode": "T6H4M6", "twitter": "None", "instagram": "None", "facebook": "None", "youtube": "None", "website": "None", "summary": "None", "logo": "None", "latitude": 53.48412992555879, "longitude": -113.51409007011249}, "898434303RR0001": {"name": "Order of St. Luke Region 10", "designationCode": "C", "categoryCode": "39", "address": "705 - 610 PORTAGE AVE", "city": "WINNIPEG", "province": "MB", "country": "CA", "postalCode": "R3C0G5", "twitter": "None", "instagram": "None", "facebook": "None", "youtube": "None", "website": "None", "summary": "None", "logo": "None", "latitude": 49.88882991476732, "longitude": -97.15709514167015}, "811540905RR0001": {"name": "Ordinariate Parish Society", "designationCode": "C", "categoryCode": "38", "address": "7963 SEE SEA PL", "city": "SAANICHTON", "province": "BC", "country": "CA", "postalCode": "V8M1L4", "twitter": "None", "instagram": "None", "facebook": "None", "youtube": "None", "website": "None", "summary": "None", "logo": "None", "latitude": 48.599155349947665, "longitude": -123.41549459540875}, "891458374RR0001": {"name": "Ordre souverain militaire hospitalier de St-Jean de J\u00e9rusalem, de Rhodes et de Malte-Association Canadienne /Sovereign Military Hospitaller Order of St-John of Jerusalem of R", "designationCode": "C", "categoryCode": "11", "address": "1247 KILBORN PLACE", "city": "OTTAWA", "province": "ON", "country": "CA", "postalCode": "K1H6K9", "twitter": "None", "instagram": "None", "facebook": "None", "youtube": "None", "website": "None", "summary": "None", "logo": "None", "latitude": 45.38617910467131, "longitude": -75.67189246282967}, "122918642RR0001": {"name": "Orford Musique / Orford Music", "designationCode": "C", "categoryCode": "22", "address": "3165 CHEMIN DE PARC", "city": "ORFORD", "province": "QC", "country": "CA", "postalCode": "J1X7A2", "twitter": "None", "instagram": "None", "facebook": "None", "youtube": "None", "website": "None", "summary": "None", "logo": "None", "latitude": 45.321271274907474, "longitude": -72.18273525651315}, "858863624RR0001": {"name": "Organic Agriculture Centre of Canada Foundation", "designationCode": "A", "categoryCode": "03", "address": "P.O. BOX 550", "city": "TRURO", "province": "NS", "country": "CA", "postalCode": "B2N5E3", "twitter": "None", "instagram": "None", "facebook": "None", "youtube": "None", "website": "None", "summary": "None", "logo": "None", "latitude": 45.36602700000006, "longitude": -63.289042999999936}, "818085524RR0001": {"name": "Organisation agricole de solidarit\u00e9 urbaine et rurale", "designationCode": "C", "categoryCode": "59", "address": "2 - 7652 AV CASGRAIN", "city": "MONTREAL", "province": "QC", "country": "CA", "postalCode": "H2R1Y8", "twitter": "None", "instagram": "None", "facebook": "None", "youtube": "None", "website": "None", "summary": "None", "logo": "None", "latitude": 45.53814103523008, "longitude": -73.62395037567076}, "832800890RR0001": {"name": "Organisation caritative mains tendues / Extended Hands Charitable Organization", "designationCode": "C", "categoryCode": "09", "address": "1810 RUE SAINT-ANTOINE", "city": "LACHINE", "province": "QC", "country": "CA", "postalCode": "H8S1V4", "twitter": "None", "instagram": "None", "facebook": "None", "youtube": "None", "website": "None", "summary": "None", "logo": "None", "latitude": 45.43993146047075, "longitude": -73.68076277699232}, "809721426RR0001": {"name": "Organisation d'aide en sant\u00e9 pour la protection et la promotion des femmes et enfants victimes des violences sexuelles en milieu rural (OSAMIPE)", "designationCode": "C", "categoryCode": "09", "address": "1900, AVENUE MAILLOUX BUREAU  SS075", "city": "QU\u00c9BEC", "province": "QC", "country": "CA", "postalCode": "G1J5B9", "twitter": "None", "instagram": "None", "facebook": "None", "youtube": "None", "website": "None", "summary": "None", "logo": "None", "latitude": 46.84178869637594, "longitude": -71.2193290681229}, "839040847RR0001": {"name": "Organisation pour le d\u00e9veloppement avec des nouvelles solidarit\u00e9s au Canada (ODNS)", "designationCode": "C", "categoryCode": "11", "address": "600 - 4 PLACE VILLE-MARIE", "city": "MONTREAL", "province": "QC", "country": "CA", "postalCode": "H3B2E7", "twitter": "None", "instagram": "None", "facebook": "None", "youtube": "None", "website": "None", "summary": "None", "logo": "None", "latitude": 45.50107017040803, "longitude": -73.57055723867516}, "820406650RR0001": {"name": "Organisation pour le d\u00e9veloppement de fond-des-n\u00e8gres au Qu\u00e9bec", "designationCode": "C", "categoryCode": "09", "address": "9024 RUE DE PROVENCE", "city": "SAINT-LEONARD", "province": "QC", "country": "CA", "postalCode": "H1R2W3", "twitter": "None", "instagram": "None", "facebook": "None", "youtube": "None", "website": "None", "summary": "None", "logo": "None", "latitude": 45.58717978238801, "longitude": -73.61292435902233}, "806818902RR0001": {"name": "Organisation CHABAD Westmount / Westmount CHABAD Organization", "designationCode": "C", "categoryCode": "42", "address": "110-4 WESTMOUNTSQ", "city": "WESTMOUNT", "province": "QC", "country": "CA", "postalCode": "H3Z2S6", "twitter": "None", "instagram": "None", "facebook": "None", "youtube": "None", "website": "None", "summary": "None", "logo": "None", "latitude": 45.48747300000005, "longitude": -73.58817049999993}, "868513300RR0001": {"name": "Organisme communautaire famille l'Embellie", "designationCode": "C", "categoryCode": "09", "address": "5 - 315 CH PRINCIPAL", "city": "CAP-AUX-MEULES", "province": "QC", "country": "CA", "postalCode": "G4T0L7", "twitter": "None", "instagram": "None", "facebook": "None", "youtube": "None", "website": "None", "summary": "None", "logo": "None", "latitude": 47.37844823926997, "longitude": -61.865031264928156}, "819128323RR0001": {"name": "Organisme d'Aide et Services d'Intervention Sociale O.A.S.I.S. / Organization for Assistance and Social Intervention Se rvices O.A.S.I.S.", "designationCode": "C", "categoryCode": "09", "address": "5660 RUE CHAUVEAU", "city": "MONTR\u00c9AL", "province": "QC", "country": "CA", "postalCode": "H1N1G9", "twitter": "None", "instagram": "None", "facebook": "None", "youtube": "None", "website": "None", "summary": "None", "logo": "None", "latitude": 45.57208117791937, "longitude": -73.54627016367328}, "883675902RR0001": {"name": "Organisme de bassins versants de Kamouraska, L'Islet et Rivi\u00e8re-du-Loup", "designationCode": "C", "categoryCode": "59", "address": "536 AV. DE LA GARE", "city": "SAINT-PASCAL", "province": "QC", "country": "CA", "postalCode": "G0L3Y0", "twitter": "None", "instagram": "None", "facebook": "None", "youtube": "None", "website": "None", "summary": "None", "logo": "None", "latitude": 47.52564575575628, "longitude": -69.80138540132155}, "877734418RR0001": {"name": "Organisme de Bassin Versant de la Yamaska", "designationCode": "C", "categoryCode": "59", "address": "201-160 RUE COWIE", "city": "GRANBY", "province": "QC", "country": "CA", "postalCode": "J2G3V3", "twitter": "None", "instagram": "None", "facebook": "None", "youtube": "None", "website": "None", "summary": "None", "logo": "None", "latitude": 45.39719002412159, "longitude": -72.72697455063775}, "806160065RR0001": {"name": "Organisme de Bassin Versant Lac-Saint-Jean", "designationCode": "C", "categoryCode": "59", "address": "1013 RUE DU CENTRE-SPORTIF", "city": "NORMANDIN", "province": "QC", "country": "CA", "postalCode": "G8M4L7", "twitter": "None", "instagram": "None", "facebook": "None", "youtube": "None", "website": "None", "summary": "None", "logo": "None", "latitude": 48.836738217640665, "longitude": -72.5263921325818}, "118788686RR0001": {"name": "Organisme pour l'int\u00e9gration sociale Apprenti-Loisirs", "designationCode": "C", "categoryCode": "20", "address": "14 RUE SAINT-AMAND", "city": "QU\u00c9BEC", "province": "QC", "country": "CA", "postalCode": "G2A2K9", "twitter": "None", "instagram": "None", "facebook": "None", "youtube": "None", "website": "None", "summary": "None", "logo": "None", "latitude": 46.85452957397995, "longitude": -71.35925387619037}, "846638260RR0001": {"name": "Organisme Renaissance Autochtone", "designationCode": "C", "categoryCode": "47", "address": "2490 RUE LIONEL", "city": "QUEBEC", "province": "QC", "country": "CA", "postalCode": "G1P2M8", "twitter": "None", "instagram": "None", "facebook": "None", "youtube": "None", "website": "None", "summary": "None", "logo": "None", "latitude": 46.81852334000799, "longitude": -71.30682709270583}, "119069789RR0001": {"name": "Organisme Vou\u00e9 aux Personnes Atteintes de Cancer (OVPAC)", "designationCode": "C", "categoryCode": "11", "address": "320 CHEMIN LAROCQUE", "city": "SALABERRY-DE-VALLEYFIELD", "province": "QC", "country": "CA", "postalCode": "J6T4C2", "twitter": "None", "instagram": "None", "facebook": "None", "youtube": "None", "website": "None", "summary": "None", "logo": "None", "latitude": 45.24571185149187, "longitude": -74.12922498312042}, "803889088RR0001": {"name": "Organization for Relief & Development of Afghanistan", "designationCode": "C", "categoryCode": "09", "address": "8 BELLINGHAM PLACE,", "city": "OTTAWA", "province": "ON", "country": "CA", "postalCode": "K1T4B1", "twitter": "None", "instagram": "None", "facebook": "None", "youtube": "None", "website": "None", "summary": "None", "logo": "None", "latitude": 45.36616150288553, "longitude": -75.6318735}, "852186709RR0001": {"name": "Orgyen Khamdroling Canada", "designationCode": "C", "categoryCode": "09", "address": "37 RUE SAINTE-ANNE", "city": "SAINTE-ANNE-DE-BELLEVUE", "province": "QC", "country": "CA", "postalCode": "H9X1L4", "twitter": "None", "instagram": "None", "facebook": "None", "youtube": "None", "website": "None", "summary": "None", "logo": "None", "latitude": 45.40275138054685, "longitude": -73.94789855661037}, "844532358RR0001": {"name": "Origine cr\u00e9ation", "designationCode": "C", "categoryCode": "47", "address": "2767, RUE TOULOUSE", "city": "MASCOUCHE", "province": "QC", "country": "CA", "postalCode": "J7K1K4", "twitter": "None", "instagram": "None", "facebook": "None", "youtube": "None", "website": "None", "summary": "None", "logo": "None", "latitude": 45.75239943381034, "longitude": -73.6094073899246}, "816329536RR0001": {"name": "Orignal tatou\u00e9, caf\u00e9 de rue", "designationCode": "C", "categoryCode": "09", "address": "144, RUE ST-JOSEPH            SUITE 142", "city": "JOLIETTE", "province": "QC", "country": "CA", "postalCode": "J6E5C4", "twitter": "None", "instagram": "None", "facebook": "None", "youtube": "None", "website": "None", "summary": "None", "logo": "None", "latitude": 46.026606530122855, "longitude": -73.44158207325879}, "873399539RR0001": {"name": "Orillia Concert Band", "designationCode": "C", "categoryCode": "22", "address": "P.O. BOX 2416", "city": "ORILLIA", "province": "ON", "country": "CA", "postalCode": "L3V7A3", "twitter": "None", "instagram": "None", "facebook": "None", "youtube": "None", "website": "None", "summary": "None", "logo": "None", "latitude": 44.60657100000006, "longitude": -79.41824449999993}, "886701994RR0001": {"name": "Orillia Star Of Hope Spiritualist Church", "designationCode": "C", "categoryCode": "39", "address": "P.O. BOX 2093 STATION MAIN", "city": "ORILLIA", "province": "ON", "country": "CA", "postalCode": "L3V6R9", "twitter": "None", "instagram": "None", "facebook": "None", "youtube": "None", "website": "None", "summary": "None", "logo": "None", "latitude": 44.58482747647954, "longitude": -79.42452845126093}, "826359978RR0001": {"name": "Orillia Vocal Ensemble", "designationCode": "C", "categoryCode": "22", "address": "17070 YONGE STREET            SUITE 101", "city": "NEW MARKET", "province": "ON", "country": "CA", "postalCode": "L3Y8Z4", "twitter": "None", "instagram": "None", "facebook": "None", "youtube": "None", "website": "None", "summary": "None", "logo": "None", "latitude": 44.04413591090086, "longitude": -79.47784708387634}, "119248995RR0001": {"name": "Ormond Protestant Cemetery", "designationCode": "C", "categoryCode": "59", "address": "1156 COUNTY ROAD 31           RURAL ROUTE 1", "city": "WINCHESTER", "province": "ON", "country": "CA", "postalCode": "K0C2K0", "twitter": "None", "instagram": "None", "facebook": "None", "youtube": "None", "website": "None", "summary": "None", "logo": "None", "latitude": 45.137097479865844, "longitude": -75.43426469906707}, "864390232RR0001": {"name": "Ornge", "designationCode": "C", "categoryCode": "11", "address": "5310 EXPLORER DRIVE", "city": "MISSISSAUGA", "province": "ON", "country": "CA", "postalCode": "L4W5H8", "twitter": "None", "instagram": "None", "facebook": "None", "youtube": "None", "website": "None", "summary": "None", "logo": "None", "latitude": 43.66337354420379, "longitude": -79.60335067799676}, "862458775RR0001": {"name": "Oromo Evangelical Church of Calgary", "designationCode": "C", "categoryCode": "39", "address": "3104 34 AVE NW", "city": "CALGARY", "province": "AB", "country": "CA", "postalCode": "T2L2A3", "twitter": "None", "instagram": "None", "facebook": "None", "youtube": "None", "website": "None", "summary": "None", "logo": "None", "latitude": 51.08303747100233, "longitude": -114.12806450291419}, "828065201RR0001": {"name": "Oromo Evangelical Church of Ottawa", "designationCode": "C", "categoryCode": "39", "address": "2120 PRINCE CHARLES ROAD", "city": "OTTAWA", "province": "ON", "country": "CA", "postalCode": "K2A3L3", "twitter": "None", "instagram": "None", "facebook": "None", "youtube": "None", "website": "None", "summary": "None", "logo": "None", "latitude": 45.37624969605882, "longitude": -75.77108411102769}, "841835614RR0001": {"name": "Oromocto Pioneer Gardens Cemetery Company Inc.", "designationCode": "C", "categoryCode": "59", "address": "4 DOYLE DRIVE", "city": "OROMOCTO", "province": "NB", "country": "CA", "postalCode": "E2V2V3", "twitter": "None", "instagram": "None", "facebook": "None", "youtube": "None", "website": "None", "summary": "None", "logo": "None", "latitude": 45.84150077381834, "longitude": -66.5072654874492}, "107804163RR0001": {"name": "Oromocto Training & Employment Centre Inc.", "designationCode": "C", "categoryCode": "59", "address": "286D RESTIGOUCHE RD", "city": "OROMOCTO", "province": "NB", "country": "CA", "postalCode": "E2V2H5", "twitter": "None", "instagram": "None", "facebook": "None", "youtube": "None", "website": "None", "summary": "None", "logo": "None", "latitude": 45.842904674426094, "longitude": -66.50369298748262}, "857090328RR0001": {"name": "Oromocto Watershed Association Inc.", "designationCode": "C", "categoryCode": "52", "address": "13-14 PIONEER PLAZA           261 RESTIGOUCHE RD", "city": "OROMOCTO", "province": "NB", "country": "CA", "postalCode": "E2V2H1", "twitter": "None", "instagram": "None", "facebook": "None", "youtube": "None", "website": "None", "summary": "None", "logo": "None", "latitude": 45.84067572433535, "longitude": -66.49821655623501}, "811034685RR0001": {"name": "Orthodox Community of Saint Paul", "designationCode": "C", "categoryCode": "39", "address": "5200 LAKESHORE ROAD           SUITE 409", "city": "BURLINTON", "province": "ON", "country": "CA", "postalCode": "L7L1C5", "twitter": "None", "instagram": "None", "facebook": "None", "youtube": "None", "website": "None", "summary": "None", "logo": "None", "latitude": 43.36496691280544, "longitude": -79.73701803825985}, "835642299RR0001": {"name": "Orville and Alvera Woolacott Foundation", "designationCode": "A", "categoryCode": "05", "address": "PO BOX 10085                  LCD PACIFIC CENTRE", "city": "VANCOUVER", "province": "BC", "country": "CA", "postalCode": "V7Y1B6", "twitter": "None", "instagram": "None", "facebook": "None", "youtube": "None", "website": "None", "summary": "None", "logo": "None", "latitude": 49.28299000000004, "longitude": -123.11890999999997}, "832467153RR0001": {"name": "OrKidstra - Sistema Ottawa", "designationCode": "C", "categoryCode": "22", "address": "204 - 211 BRONSON AVE", "city": "OTTAWA", "province": "ON", "country": "CA", "postalCode": "K1R6H5", "twitter": "None", "instagram": "None", "facebook": "None", "youtube": "None", "website": "None", "summary": "None", "logo": "None", "latitude": 45.41349725618897, "longitude": -75.7068905103587}, "822564415RR0001": {"name": "Osage Church Historical Society", "designationCode": "C", "categoryCode": "52", "address": "PO BOX 52", "city": "OSAGE", "province": "SK", "country": "CA", "postalCode": "S0G3T0", "twitter": "None", "instagram": "None", "facebook": "None", "youtube": "None", "website": "None", "summary": "None", "logo": "None", "latitude": 49.88222235956949, "longitude": -103.43592029772978}, "785527128RR0001": {"name": "Osborne Village Resource Centre Manitoba Incorporated", "designationCode": "C", "categoryCode": "59", "address": "1-107 OSBORNE ST", "city": "WINNIPEG", "province": "MB", "country": "CA", "postalCode": "R3L1Y4", "twitter": "None", "instagram": "None", "facebook": "None", "youtube": "None", "website": "None", "summary": "None", "logo": "None", "latitude": 49.877895644766994, "longitude": -97.14525461800174}, "846306504RR0001": {"name": "Osei-Akoto Centre for Leadership Excellence, Health Promotions and Relief Ministry, Inc.", "designationCode": "C", "categoryCode": "47", "address": "103 WATSONBROOK DRIVE", "city": "BRAMPTON", "province": "ON", "country": "CA", "postalCode": "L6R0R5", "twitter": "None", "instagram": "None", "facebook": "None", "youtube": "None", "website": "None", "summary": "None", "logo": "None", "latitude": 43.75953074300298, "longitude": -79.769841253419}, "108133760RR0001": {"name": "Osgoode Care Centre", "designationCode": "C", "categoryCode": "01", "address": "7650 SNAKE ISLAND ROAD", "city": "METCALFE", "province": "ON", "country": "CA", "postalCode": "K0A2P0", "twitter": "None", "instagram": "None", "facebook": "None", "youtube": "None", "website": "None", "summary": "None", "logo": "None", "latitude": 45.22279363191796, "longitude": -75.50440933259307}, "862517539RR0001": {"name": "Oshawa Civic Band Inc.", "designationCode": "C", "categoryCode": "22", "address": "1204 712 ROSSLAND ROAD E", "city": "WHITBY", "province": "ON", "country": "CA", "postalCode": "L1N9E8", "twitter": "None", "instagram": "None", "facebook": "None", "youtube": "None", "website": "None", "summary": "None", "logo": "None", "latitude": 43.902493945558355, "longitude": -78.92788466814449}, "847479102RR0001": {"name": "Oskar Foundation", "designationCode": "A", "categoryCode": "03", "address": "SUITE 1165                    5328 CALGARY TRAIL NW", "city": "EDMONTON", "province": "AB", "country": "CA", "postalCode": "T6H4J8", "twitter": "None", "instagram": "None", "facebook": "None", "youtube": "None", "website": "None", "summary": "None", "logo": "None", "latitude": 53.49123769080735, "longitude": -113.49539595798925}, "836061192RR0001": {"name": "Osler Mission Chapel Inc.", "designationCode": "C", "categoryCode": "39", "address": "110 6TH AVENUE, BOX 160", "city": "OSLER", "province": "SK", "country": "CA", "postalCode": "S0K3A0", "twitter": "None", "instagram": "None", "facebook": "None", "youtube": "None", "website": "None", "summary": "None", "logo": "None", "latitude": 52.36426036164808, "longitude": -106.54119756480468}, "816280606RR0001": {"name": "Osoyoos Secondary Scholarship Foundation", "designationCode": "C", "categoryCode": "21", "address": "5800-115 ST.", "city": "OSOYOOS", "province": "BC", "country": "CA", "postalCode": "V0H1V4", "twitter": "None", "instagram": "None", "facebook": "None", "youtube": "None", "website": "None", "summary": "None", "logo": "None", "latitude": 49.01690807600964, "longitude": -119.48090559645594}, "765473095RR0001": {"name": "Ostermann Oel Foundation", "designationCode": "B", "categoryCode": "05", "address": "BOX 6 SITE 1                  RR 1", "city": "CARSTAIRS", "province": "AB", "country": "CA", "postalCode": "T0M0N0", "twitter": "None", "instagram": "None", "facebook": "None", "youtube": "None", "website": "None", "summary": "None", "logo": "None", "latitude": 51.56511000000006, "longitude": -114.09910099999993}, "119277093RR0001": {"name": "Ostomy Canada Society Inc.- Soci\u00e9t\u00e9 Canadienne des PersonnesStomis\u00e9es inc.", "designationCode": "C", "categoryCode": "11", "address": "210-5800 AMBLER DR", "city": "MISSISSAUGA", "province": "ON", "country": "CA", "postalCode": "L4W4J4", "twitter": "None", "instagram": "None", "facebook": "None", "youtube": "None", "website": "None", "summary": "None", "logo": "None", "latitude": 43.643388746523684, "longitude": -79.64606757790467}, "119277184RR0001": {"name": "Ostomy Halifax Society", "designationCode": "C", "categoryCode": "11", "address": "11 TAYLOR DRIVE", "city": "WINDSOR JUNCTION", "province": "NS", "country": "CA", "postalCode": "B2T1K7", "twitter": "None", "instagram": "None", "facebook": "None", "youtube": "None", "website": "None", "summary": "None", "logo": "None", "latitude": 44.80498112629113, "longitude": -63.64672545328604}, "858123615RR0001": {"name": "Osung Presbyterian Church", "designationCode": "C", "categoryCode": "37", "address": "3817 LAWRENCE AVENUE EAST", "city": "SCARBOROUGH", "province": "ON", "country": "CA", "postalCode": "M1G1R2", "twitter": "None", "instagram": "None", "facebook": "None", "youtube": "None", "website": "None", "summary": "None", "logo": "None", "latitude": 43.7625258087313, "longitude": -79.21246711766413}, "833896145RR0001": {"name": "Other Sights for Artists' Projects Association", "designationCode": "C", "categoryCode": "22", "address": "3810 COMMERCIAL ST", "city": "VANCOUVER", "province": "BC", "country": "CA", "postalCode": "V5N4G2", "twitter": "None", "instagram": "None", "facebook": "None", "youtube": "None", "website": "None", "summary": "None", "logo": "None", "latitude": 49.25095785817089, "longitude": -123.06798759570776}, "855073862RR0001": {"name": "Otherhalf-Chinese Stem Cell Initiative", "designationCode": "C", "categoryCode": "19", "address": "301 - 385 SILVER STAR BLVD", "city": "SCARBOROUGH", "province": "ON", "country": "CA", "postalCode": "M1V0E3", "twitter": "None", "instagram": "None", "facebook": "None", "youtube": "None", "website": "None", "summary": "None", "logo": "None", "latitude": 43.81526883265039, "longitude": -79.2956278850485}, "847938537RR0001": {"name": "Othman Bin Affan Islamic Society", "designationCode": "C", "categoryCode": "60", "address": "1250-1500 GEORGIA WEST STREET BOX 62", "city": "VANCOUVER", "province": "BC", "country": "CA", "postalCode": "V6G2Z6", "twitter": "None", "instagram": "None", "facebook": "None", "youtube": "None", "website": "None", "summary": "None", "logo": "None", "latitude": 49.290187500000016, "longitude": -123.130035}, "131516205RR0001": {"name": "Otonabee - South Monaghan Public Library", "designationCode": "C", "categoryCode": "50", "address": "PO BOX 9", "city": "KEENE", "province": "ON", "country": "CA", "postalCode": "K0L2G0", "twitter": "None", "instagram": "None", "facebook": "None", "youtube": "None", "website": "None", "summary": "None", "logo": "None", "latitude": 44.24727677333229, "longitude": -78.16825131123774}, "841856776RR0001": {"name": "Otra Fe Association for Food Security and Community Development in Western El Salvador", "designationCode": "C", "categoryCode": "09", "address": "147 MAIN STREET", "city": "WEST LORNE", "province": "ON", "country": "CA", "postalCode": "N0L2P0", "twitter": "None", "instagram": "None", "facebook": "None", "youtube": "None", "website": "None", "summary": "None", "logo": "None", "latitude": 42.60513878552957, "longitude": -81.60476898925465}, "888127669RR0001": {"name": "Ottawa Arts Council / Counseil des arts d'Ottawa", "designationCode": "C", "categoryCode": "22", "address": "1-2 DALY AVE", "city": "OTTAWA", "province": "ON", "country": "CA", "postalCode": "K1N6E2", "twitter": "None", "instagram": "None", "facebook": "None", "youtube": "None", "website": "None", "summary": "None", "logo": "None", "latitude": 45.42564301552326, "longitude": -75.68902925893026}, "838906733RR0001": {"name": "Ottawa Baptist Association / L'Association Baptiste d'Ottawa", "designationCode": "C", "categoryCode": "49", "address": "130 DEERCROFT AVENUE", "city": "OTTAWA", "province": "ON", "country": "CA", "postalCode": "K2J5H7", "twitter": "None", "instagram": "None", "facebook": "None", "youtube": "None", "website": "None", "summary": "None", "logo": "None", "latitude": 45.276389443533866, "longitude": -75.73615105066642}, "841082779RR0001": {"name": "Ottawa Biosphere Ecocity", "designationCode": "C", "categoryCode": "21", "address": "102 VARLEY LANE", "city": "OTTAWA", "province": "ON", "country": "CA", "postalCode": "K1K1E5", "twitter": "None", "instagram": "None", "facebook": "None", "youtube": "None", "website": "None", "summary": "None", "logo": "None", "latitude": 45.33249503580702, "longitude": -75.90548390328345}, "833613235RR0001": {"name": "Ottawa Bird Count", "designationCode": "C", "categoryCode": "52", "address": "25 INVERNESS AVENUE", "city": "OTTAWA", "province": "ON", "country": "CA", "postalCode": "K2E6N6", "twitter": "None", "instagram": "None", "facebook": "None", "youtube": "None", "website": "None", "summary": "None", "logo": "None", "latitude": 45.35825528700432, "longitude": -75.71437495824905}, "869963967RR0001": {"name": "Ottawa Catholic District School Board", "designationCode": "C", "categoryCode": "20", "address": "570 WEST HUNT CLUB RD.", "city": "NEPEAN", "province": "ON", "country": "CA", "postalCode": "K2G3R4", "twitter": "None", "instagram": "None", "facebook": "None", "youtube": "None", "website": "None", "summary": "None", "logo": "None", "latitude": 45.33298800579972, "longitude": -75.72819528377299}, "857122782RR0001": {"name": "Ottawa Chinese-Canadian Heritage Centre", "designationCode": "C", "categoryCode": "56", "address": "397 KENT STREET", "city": "OTTAWA", "province": "ON", "country": "CA", "postalCode": "K2P2B1", "twitter": "None", "instagram": "None", "facebook": "None", "youtube": "None", "website": "None", "summary": "None", "logo": "None", "latitude": 45.41205431225106, "longitude": -75.69642825448685}, "856847793RR0001": {"name": "Ottawa Chinese-Canadian Heritage Foundation", "designationCode": "C", "categoryCode": "59", "address": "397  KENT  STREET", "city": "OTTAWA", "province": "ON", "country": "CA", "postalCode": "K2P2B1", "twitter": "None", "instagram": "None", "facebook": "None", "youtube": "None", "website": "None", "summary": "None", "logo": "None", "latitude": 45.41205431225106, "longitude": -75.69642825448685}, "814041604RR0001": {"name": "Ottawa Christian Reformed Campus Chaplaincy", "designationCode": "C", "categoryCode": "47", "address": "1475 MERIVALE ROAD,", "city": "OTTAWA", "province": "ON", "country": "CA", "postalCode": "K2E5N9", "twitter": "None", "instagram": "None", "facebook": "None", "youtube": "None", "website": "None", "summary": "None", "logo": "None", "latitude": 45.360191851491855, "longitude": -75.73532801687956}, "119227981RR0001": {"name": "Ottawa Community Foundation / Fondation Communautaire d'Ottawa", "designationCode": "A", "categoryCode": "03", "address": "301-75 ALBERT ST", "city": "OTTAWA", "province": "ON", "country": "CA", "postalCode": "K1P5E7", "twitter": "None", "instagram": "None", "facebook": "None", "youtube": "None", "website": "None", "summary": "None", "logo": "None", "latitude": 45.42209635250147, "longitude": -75.69529427228912}, "857846117RR0001": {"name": "Ottawa Dance Directive", "designationCode": "C", "categoryCode": "22", "address": "2 DALY AVENUE,                SUITE 200", "city": "OTTAWA", "province": "ON", "country": "CA", "postalCode": "K1S4R2", "twitter": "None", "instagram": "None", "facebook": "None", "youtube": "None", "website": "None", "summary": "None", "logo": "None", "latitude": 45.42564301552326, "longitude": -75.68902925893026}, "834727232RR0001": {"name": "Ottawa Dog Rescue", "designationCode": "C", "categoryCode": "54", "address": "310 SHADEHILL CR,", "city": "OTTAWA", "province": "ON", "country": "CA", "postalCode": "K2J0G6", "twitter": "None", "instagram": "None", "facebook": "None", "youtube": "None", "website": "None", "summary": "None", "logo": "None", "latitude": 45.24842045074723, "longitude": -75.72466309062835}, "897771721RR0001": {"name": "Ottawa Fringe Festival", "designationCode": "C", "categoryCode": "22", "address": "2 DALY AVENUE                 #-100", "city": "OTTAWA", "province": "ON", "country": "CA", "postalCode": "K1N6E2", "twitter": "None", "instagram": "None", "facebook": "None", "youtube": "None", "website": "None", "summary": "None", "logo": "None", "latitude": 45.42564301552326, "longitude": -75.68902925893026}, "890551344RR0001": {"name": "Ottawa Gay Men's Chorus/Le Choeur gai d'Ottawa", "designationCode": "C", "categoryCode": "22", "address": "PO BOX 71021 RPO LAURIER WEST", "city": "OTTAWA", "province": "ON", "country": "CA", "postalCode": "K2P2L9", "twitter": "None", "instagram": "None", "facebook": "None", "youtube": "None", "website": "None", "summary": "None", "logo": "None", "latitude": 45.41932063522377, "longitude": -75.69713827602023}, "137412649RR0001": {"name": "Ottawa Heart Institute Research Corporation-Corporation de Recherches de l'institut de Cardiologie d'ottawa", "designationCode": "C", "categoryCode": "11", "address": "ATT:MARION FRASER             40 RUSKIN STREET RM H2405", "city": "OTTAWA", "province": "ON", "country": "CA", "postalCode": "K1Y4W7", "twitter": "None", "instagram": "None", "facebook": "None", "youtube": "None", "website": "None", "summary": "None", "logo": "None", "latitude": 45.393975317224154, "longitude": -75.72246593163077}, "886822212RR0001": {"name": "Ottawa Hospital Research Institute/Institut de recherche de l'hopital d'Ottawa", "designationCode": "C", "categoryCode": "11", "address": "725 PARKDALE", "city": "OTTAWA", "province": "ON", "country": "CA", "postalCode": "K1Y4E9", "twitter": "None", "instagram": "None", "facebook": "None", "youtube": "None", "website": "None", "summary": "None", "logo": "None", "latitude": 45.39317547570439, "longitude": -75.7244741004476}, "799993555RR0001": {"name": "Ottawa Institute for Object Relations Therapy", "designationCode": "C", "categoryCode": "11", "address": "5 CLAUDET CRESCENT", "city": "OTTAWA", "province": "ON", "country": "CA", "postalCode": "K1G4R3", "twitter": "None", "instagram": "None", "facebook": "None", "youtube": "None", "website": "None", "summary": "None", "logo": "None", "latitude": 45.37267387483406, "longitude": -75.61379939774353}, "785373499RR0001": {"name": "Ottawa Integrative Cancer Centre Foundation", "designationCode": "A", "categoryCode": "13", "address": "29 BAYSWATER AVENUE", "city": "OTTAWA", "province": "ON", "country": "CA", "postalCode": "K1Y2Z9", "twitter": "None", "instagram": "None", "facebook": "None", "youtube": "None", "website": "None", "summary": "None", "logo": "None", "latitude": 45.40663466668577, "longitude": -75.7206427994118}, "863676425RR0001": {"name": "Ottawa Korean New Hope Church", "designationCode": "C", "categoryCode": "39", "address": "715 ROSSEVELT AVE", "city": "OTTAWA", "province": "ON", "country": "CA", "postalCode": "K2A2A8", "twitter": "None", "instagram": "None", "facebook": "None", "youtube": "None", "website": "None", "summary": "None", "logo": "None", "latitude": 45.380821105487776, "longitude": -75.75069404114538}, "119277192RR0001": {"name": "Ottawa Ostomy Support Group", "designationCode": "C", "categoryCode": "11", "address": "P.O. BOX 11134, STATION \"H\"", "city": "NEPEAN", "province": "ON", "country": "CA", "postalCode": "K2H7T8", "twitter": "None", "instagram": "None", "facebook": "None", "youtube": "None", "website": "None", "summary": "None", "logo": "None", "latitude": 45.34429200000005, "longitude": -75.76434349999994}, "801021007RR0001": {"name": "Ottawa Peace Foundation", "designationCode": "C", "categoryCode": "23", "address": "362 MARIPOSA AVENUE", "city": "OTTAWA", "province": "ON", "country": "CA", "postalCode": "K1M0T3", "twitter": "None", "instagram": "None", "facebook": "None", "youtube": "None", "website": "None", "summary": "None", "logo": "None", "latitude": 45.44862164383452, "longitude": -75.67642608976298}, "827196536RR0001": {"name": "Ottawa Pet Rat Rescue", "designationCode": "C", "categoryCode": "54", "address": "#5-12 DEERFIELD DR.", "city": "NEPEAN", "province": "ON", "country": "CA", "postalCode": "K2G4L2", "twitter": "None", "instagram": "None", "facebook": "None", "youtube": "None", "website": "None", "summary": "None", "logo": "None", "latitude": 45.35299149128609, "longitude": -75.75263363838059}, "805514866RR0001": {"name": "Ottawa Power Wheelchair Hockey League (OPWHL)", "designationCode": "C", "categoryCode": "56", "address": "185 WITHROW AVENUE", "city": "OTTAWA", "province": "ON", "country": "CA", "postalCode": "K2G3N6", "twitter": "None", "instagram": "None", "facebook": "None", "youtube": "None", "website": "None", "summary": "None", "logo": "None", "latitude": 45.347096200386666, "longitude": -75.75126815404805}, "848599056RR0001": {"name": "Ottawa River of Life Christian Church", "designationCode": "C", "categoryCode": "39", "address": "3272 STEEPLE HILL CRESCENT", "city": "OTTAWA", "province": "ON", "country": "CA", "postalCode": "K0A2Z0", "twitter": "None", "instagram": "None", "facebook": "None", "youtube": "None", "website": "None", "summary": "None", "logo": "None", "latitude": 45.237432886490815, "longitude": -75.80872079565903}, "840163810RR0001": {"name": "Ottawa Sids Society", "designationCode": "C", "categoryCode": "11", "address": "102-2600 SKYMARK AVE BLDG 10", "city": "MISSISSAUGA", "province": "ON", "country": "CA", "postalCode": "L4W5B2", "twitter": "None", "instagram": "None", "facebook": "None", "youtube": "None", "website": "None", "summary": "None", "logo": "None", "latitude": 43.65846057865447, "longitude": -79.59871498066852}, "829521970RR0001": {"name": "Ottawa Singers", "designationCode": "C", "categoryCode": "22", "address": "254 KNOX CRES", "city": "OTTAWA", "province": "ON", "country": "CA", "postalCode": "K1G0K8", "twitter": "None", "instagram": "None", "facebook": "None", "youtube": "None", "website": "None", "summary": "None", "logo": "None", "latitude": 45.40614555785113, "longitude": -75.6559399926424}, "835524240RR0001": {"name": "Ottawa Spiritual Pathways Centre", "designationCode": "C", "categoryCode": "39", "address": "24 DORLAND CRESCENT", "city": "OTTAWA", "province": "ON", "country": "CA", "postalCode": "K2H6E7", "twitter": "None", "instagram": "None", "facebook": "None", "youtube": "None", "website": "None", "summary": "None", "logo": "None", "latitude": 45.32109881652158, "longitude": -75.81846482194592}, "836414573RR0001": {"name": "Ottawa Stray Cat Rescue", "designationCode": "C", "categoryCode": "54", "address": "921 WILDCARROT CRES", "city": "GLOUCESTER", "province": "ON", "country": "CA", "postalCode": "K1V2M7", "twitter": "None", "instagram": "None", "facebook": "None", "youtube": "None", "website": "None", "summary": "None", "logo": "None", "latitude": 45.28451719790515, "longitude": -75.664267071614}, "848388252RR0001": {"name": "Ottawa Suzuki Strings", "designationCode": "C", "categoryCode": "22", "address": "83 BEAVER RIDGE", "city": "NEPEAN", "province": "ON", "country": "CA", "postalCode": "K2E6E5", "twitter": "None", "instagram": "None", "facebook": "None", "youtube": "None", "website": "None", "summary": "None", "logo": "None", "latitude": 45.357938665820406, "longitude": -75.72820855285946}, "847682291RR0001": {"name": "Ottawa Theravada Buddhist and Cultural Center Inc.", "designationCode": "C", "categoryCode": "35", "address": "1153 ST. PIERRE ST", "city": "ORLEANS", "province": "ON", "country": "CA", "postalCode": "K1C1L4", "twitter": "None", "instagram": "None", "facebook": "None", "youtube": "None", "website": "None", "summary": "None", "logo": "None", "latitude": 45.47407738747175, "longitude": -75.52133926946183}, "850520453RR0001": {"name": "Ottawa Valley Deaf Church", "designationCode": "C", "categoryCode": "39", "address": "407 - 2651 REGINA ST", "city": "OTTAWA", "province": "ON", "country": "CA", "postalCode": "K2B8B5", "twitter": "None", "instagram": "None", "facebook": "None", "youtube": "None", "website": "None", "summary": "None", "logo": "None", "latitude": 45.36545485599258, "longitude": -75.79234986805336}, "107805673RR0001": {"name": "Ottawa-Carleton Lifeskills Inc.", "designationCode": "C", "categoryCode": "09", "address": "9-1 BREWER HUNT WAY", "city": "OTTAWA", "province": "ON", "country": "CA", "postalCode": "K2K2B5", "twitter": "None", "instagram": "None", "facebook": "None", "youtube": "None", "website": "None", "summary": "None", "logo": "None", "latitude": 45.33722340691881, "longitude": -75.90445592278874}, "119288918RR1710": {"name": "Ouellette French Congregation of Jehovah's Witnesses, Windsor, Ontario", "designationCode": "C", "categoryCode": "61", "address": "900 NORTH SERVICE RD E", "city": "WINDSOR", "province": "ON", "country": "CA", "postalCode": "N8X5B1", "twitter": "None", "instagram": "None", "facebook": "None", "youtube": "None", "website": "None", "summary": "None", "logo": "None", "latitude": 42.28063611192175, "longitude": -82.99924832073383}, "708859095RR0001": {"name": "Our Christ is Wonderful Missions & Ministries International Inc. - West Sector", "designationCode": "C", "categoryCode": "39", "address": "28 JORDENSEN DR", "city": "BRAMPTON", "province": "ON", "country": "CA", "postalCode": "L6X0T2", "twitter": "None", "instagram": "None", "facebook": "None", "youtube": "None", "website": "None", "summary": "None", "logo": "None", "latitude": 43.67026003719198, "longitude": -79.80304091231449}, "119108421RR0001": {"name": "Our Daily Bread Ministries Canada / Minist\u00e8res notre pain quotidien", "designationCode": "C", "categoryCode": "47", "address": "PO BOX 1622 STN A", "city": "WINDSOR", "province": "ON", "country": "CA", "postalCode": "N9A6Z7", "twitter": "None", "instagram": "None", "facebook": "None", "youtube": "None", "website": "None", "summary": "None", "logo": "None", "latitude": 42.31784400000005, "longitude": -83.03387299999993}, "107396905RR0074": {"name": "Our God Hears - Kitchener-Waterloo Foursquare Gospel Church", "designationCode": "C", "categoryCode": "39", "address": "685 WINDFLOWER CRESCENT", "city": "KITCHENER", "province": "ON", "country": "CA", "postalCode": "N2E4E4", "twitter": "None", "instagram": "None", "facebook": "None", "youtube": "None", "website": "None", "summary": "None", "logo": "None", "latitude": 43.41454766778229, "longitude": -80.52097985856099}, "826869703RR0001": {"name": "Our Health Centre Association", "designationCode": "C", "categoryCode": "11", "address": "POST OFFICE BOX 74", "city": "CHESTER", "province": "NS", "country": "CA", "postalCode": "B0J1J0", "twitter": "None", "instagram": "None", "facebook": "None", "youtube": "None", "website": "None", "summary": "None", "logo": "None", "latitude": 44.54628000000008, "longitude": -64.24174999999997}}