{"119288918RR1222": {"name": "MAPLE RIDGE EAST CONGREGATION OF JEHOVAH'S WITNESSES", "designationCode": "C", "categoryCode": "61", "address": "105 - 11566 224 ST", "city": "MAPLE RIDGE", "province": "BC", "country": "CA", "postalCode": "V2X9C9", "twitter": "None", "instagram": "None", "facebook": "None", "youtube": "None", "website": "None", "summary": "None", "logo": "None", "latitude": 49.21261339575297, "longitude": -122.6025623578685}, "894809318RR0001": {"name": "MAPLE RIDGE KOREAN COMMUNITY CHURCH", "designationCode": "C", "categoryCode": "39", "address": "21746 LOUGHEED HWY            BOX 322", "city": "MAPLE RIDGE", "province": "BC", "country": "CA", "postalCode": "V2X7G2", "twitter": "None", "instagram": "None", "facebook": "None", "youtube": "None", "website": "None", "summary": "None", "logo": "None", "latitude": 49.21696647619647, "longitude": -122.61902230252755}, "118818491RR0019": {"name": "MAPLE RIDGE SEVENTH-DAY ADVENTIST CHURCH", "designationCode": "C", "categoryCode": "41", "address": "PO 1000", "city": "ABBOTSFORD", "province": "BC", "country": "CA", "postalCode": "V2S4P5", "twitter": "None", "instagram": "None", "facebook": "None", "youtube": "None", "website": "None", "summary": "None", "logo": "None", "latitude": 49.03851300000005, "longitude": -122.29441549999993}, "135980092RR0001": {"name": "MAPLE RIDGE VINEYARD CHRISTIAN FELLOWSHIP", "designationCode": "C", "categoryCode": "39", "address": "23419 128TH AVE", "city": "MAPLE RIDGE", "province": "BC", "country": "CA", "postalCode": "V2X4R9", "twitter": "None", "instagram": "None", "facebook": "None", "youtube": "None", "website": "None", "summary": "None", "logo": "None", "latitude": 49.234749605436605, "longitude": -122.573333602909}, "888228590RR0001": {"name": "MAPLE RIDGE-PITT MEADOWS COMMUNITY SERVICES HOUSING SOCIETY", "designationCode": "C", "categoryCode": "09", "address": "11907-228TH STREET", "city": "MAPLE RIDGE", "province": "BC", "country": "CA", "postalCode": "V2X8G8", "twitter": "None", "instagram": "None", "facebook": "None", "youtube": "None", "website": "None", "summary": "None", "logo": "None", "latitude": 49.218787005828375, "longitude": -122.59036553055554}, "130917768RR0001": {"name": "MAPLE RIDGE/PITT MEADOWS COMMUNITY SERVICES", "designationCode": "C", "categoryCode": "09", "address": "11907 228 ST", "city": "MAPLE RIDGE", "province": "BC", "country": "CA", "postalCode": "V2X8G8", "twitter": "None", "instagram": "None", "facebook": "None", "youtube": "None", "website": "None", "summary": "None", "logo": "None", "latitude": 49.218787005828375, "longitude": -122.59036553055554}, "888233996RR0001": {"name": "MAPLE RIDGE/PITT MEADOWS YOUTH CENTRE SOCIETY", "designationCode": "C", "categoryCode": "09", "address": "11925 HANEY PLACE", "city": "MAPLE RIDGE", "province": "BC", "country": "CA", "postalCode": "V2X6A9", "twitter": "None", "instagram": "None", "facebook": "None", "youtube": "None", "website": "None", "summary": "None", "logo": "None", "latitude": 49.219146812349344, "longitude": -122.6007625172164}, "829096619RR0001": {"name": "MAPLE TREE COMMUNITY HOUSING CORPORATION", "designationCode": "C", "categoryCode": "09", "address": "321 BAYFIELD RD               PO BOX 264", "city": "GODERICH", "province": "ON", "country": "CA", "postalCode": "N7A3Z2", "twitter": "None", "instagram": "None", "facebook": "None", "youtube": "None", "website": "None", "summary": "None", "logo": "None", "latitude": 43.732043528449424, "longitude": -81.70588294717014}, "861100444RR0001": {"name": "MAPLE VIEW LODGE AUXILIARY", "designationCode": "C", "categoryCode": "09", "address": "P.O. BOX 100", "city": "ATHENS", "province": "ON", "country": "CA", "postalCode": "K0E1B0", "twitter": "None", "instagram": "None", "facebook": "None", "youtube": "None", "website": "None", "summary": "None", "logo": "None", "latitude": 44.62545000000006, "longitude": -75.95340999999996}, "119032142RR0001": {"name": "MAPLE VIEW MENNONITE CHURCH", "designationCode": "C", "categoryCode": "34", "address": "5074 DEBORAH GLAISTER LINE RR2", "city": "WELLESLEY", "province": "ON", "country": "CA", "postalCode": "N0B2T0", "twitter": "None", "instagram": "None", "facebook": "None", "youtube": "None", "website": "None", "summary": "None", "logo": "None", "latitude": 43.48885565416591, "longitude": -80.77769278879884}, "893311845RR0001": {"name": "MAPLE VISTA FOUNDATION INC.", "designationCode": "B", "categoryCode": "03", "address": "307 579 3RD ST SE", "city": "MEDICINE HAT", "province": "AB", "country": "CA", "postalCode": "T1A0H2", "twitter": "None", "instagram": "None", "facebook": "None", "youtube": "None", "website": "None", "summary": "None", "logo": "None", "latitude": 50.03815617463778, "longitude": -110.68027556554813}, "107663528RR0001": {"name": "MAPLERIDGE COOPERATIVE PRESCHOOL ASSOCIATION", "designationCode": "C", "categoryCode": "20", "address": "600 ACADIA DR SE", "city": "CALGARY", "province": "AB", "country": "CA", "postalCode": "T2J0B8", "twitter": "None", "instagram": "None", "facebook": "None", "youtube": "None", "website": "None", "summary": "None", "logo": "None", "latitude": 50.963606999999996, "longitude": -114.04838735856099}, "890609647RR0001": {"name": "MAPLERIDGE ELEMENTARY SCHOOL PARENT TEACHER ASSOCIATION", "designationCode": "C", "categoryCode": "21", "address": "10203 MAPLEMONT ROAD S.E.", "city": "CALGARY", "province": "AB", "country": "CA", "postalCode": "T2J1W3", "twitter": "None", "instagram": "None", "facebook": "None", "youtube": "None", "website": "None", "summary": "None", "logo": "None", "latitude": 50.96145942521201, "longitude": -114.04126200502031}, "119032092RR0001": {"name": "MAPLES COMMUNITY CHURCH INC.", "designationCode": "C", "categoryCode": "39", "address": "1640 LEILA AVENUE", "city": "WINNIPEG", "province": "MB", "country": "CA", "postalCode": "R2P2X6", "twitter": "None", "instagram": "None", "facebook": "None", "youtube": "None", "website": "None", "summary": "None", "logo": "None", "latitude": 49.96272811068192, "longitude": -97.17679995536352}, "103493557RR0001": {"name": "MAPLES DAYCARE INC.", "designationCode": "C", "categoryCode": "01", "address": "27 ANGLIA AVENUE", "city": "WINNIPEG", "province": "MB", "country": "CA", "postalCode": "R2P2R1", "twitter": "None", "instagram": "None", "facebook": "None", "youtube": "None", "website": "None", "summary": "None", "logo": "None", "latitude": 49.957267411730356, "longitude": -97.18523213052964}, "888003845RR0001": {"name": "MAPLES SENIOR RESIDENTS' COUNCIL INC.", "designationCode": "C", "categoryCode": "09", "address": "500 MANDALAY DRIVE", "city": "WINNIPEG", "province": "MB", "country": "CA", "postalCode": "R2P1V4", "twitter": "None", "instagram": "None", "facebook": "None", "youtube": "None", "website": "None", "summary": "None", "logo": "None", "latitude": 49.95994346906908, "longitude": -97.1829047659698}, "119032118RR0001": {"name": "MAPLETON CEMETERY COMPANY", "designationCode": "C", "categoryCode": "59", "address": "302 - 155 SPRING ST", "city": "AMHERST", "province": "NS", "country": "CA", "postalCode": "B4H0C7", "twitter": "None", "instagram": "None", "facebook": "None", "youtube": "None", "website": "None", "summary": "None", "logo": "None", "latitude": 45.83737267862586, "longitude": -64.19510736551221}, "119032126RR0001": {"name": "MAPLETON CHURCH OF CHRIST (DISCIPLES)", "designationCode": "C", "categoryCode": "39", "address": "1 MELVIN DRIVE", "city": "DORCHESTER", "province": "ON", "country": "CA", "postalCode": "N0L1G1", "twitter": "None", "instagram": "None", "facebook": "None", "youtube": "None", "website": "None", "summary": "None", "logo": "None", "latitude": 42.99328937301637, "longitude": -81.07720294090814}, "131437782RR0001": {"name": "MAPLEVIEW CHARITIES", "designationCode": "C", "categoryCode": "56", "address": "14 WOODLAND DR", "city": "WELLAND", "province": "ON", "country": "CA", "postalCode": "L3C7C9", "twitter": "None", "instagram": "None", "facebook": "None", "youtube": "None", "website": "None", "summary": "None", "logo": "None", "latitude": 43.02008449711447, "longitude": -79.26071005536961}, "870871779RR0001": {"name": "MAPLEVIEW COMMUNITY CHURCH", "designationCode": "C", "categoryCode": "36", "address": "300 MAPLE VIEW DRIVE WEST", "city": "BARRIE", "province": "ON", "country": "CA", "postalCode": "L4N9E7", "twitter": "None", "instagram": "None", "facebook": "None", "youtube": "None", "website": "None", "summary": "None", "logo": "None", "latitude": 44.33051516515657, "longitude": -79.7067060133302}, "119288918RR1363": {"name": "MAPLEVIEW CONGREGATION OF JEHOVAH'S WITNESSES, BARRIE, ONTARIO", "designationCode": "C", "categoryCode": "61", "address": "497 MCKAY ROAD W.", "city": "BARRIE", "province": "ON", "country": "CA", "postalCode": "L9J0G2", "twitter": "None", "instagram": "None", "facebook": "None", "youtube": "None", "website": "None", "summary": "None", "logo": "None", "latitude": 44.299455680528034, "longitude": -79.72917706864895}, "893743260RR0001": {"name": "MAPLEWOOD CEMETERY", "designationCode": "C", "categoryCode": "59", "address": "312662 HWY 6 RR 3", "city": "DURHAM", "province": "ON", "country": "CA", "postalCode": "N0G1R0", "twitter": "None", "instagram": "None", "facebook": "None", "youtube": "None", "website": "None", "summary": "None", "logo": "None", "latitude": 44.176688567977884, "longitude": -80.81860791431941}, "119032175RR0001": {"name": "MAPLEWOOD CONGREGATION OF JEHOVAH'S WITNESSES", "designationCode": "C", "categoryCode": "61", "address": "6 GRANVILLE CRES", "city": "SHERWOOD PARK", "province": "AB", "country": "CA", "postalCode": "T8A3B8", "twitter": "None", "instagram": "None", "facebook": "None", "youtube": "None", "website": "None", "summary": "None", "logo": "None", "latitude": 53.5344375231693, "longitude": -113.27878768821029}, "119288918RR0332": {"name": "MAPLEWOOD CONGREGATION OF JEHOVAH'S WITNESSES CHATHAM ONTARIO", "designationCode": "C", "categoryCode": "61", "address": "11 DETROIT DR", "city": "CHATHAM", "province": "ON", "country": "CA", "postalCode": "N7M2M2", "twitter": "None", "instagram": "None", "facebook": "None", "youtube": "None", "website": "None", "summary": "None", "logo": "None", "latitude": 42.38471528253225, "longitude": -82.16445142535622}, "107663726RR0001": {"name": "MAPLEWOOD MANOR INC.", "designationCode": "C", "categoryCode": "01", "address": "100 - 284 LOEWEN BLVD", "city": "STEINBACH", "province": "MB", "country": "CA", "postalCode": "R5G1K3", "twitter": "None", "instagram": "None", "facebook": "None", "youtube": "None", "website": "None", "summary": "None", "logo": "None", "latitude": 49.532095989437956, "longitude": -96.68277198943794}, "119032191RR0001": {"name": "MAPLEWOOD PRESBYTERIAN CHURCH", "designationCode": "C", "categoryCode": "37", "address": "215 MCLEOD ST.", "city": "CHATEAUGUAY", "province": "QC", "country": "CA", "postalCode": "J6J2H5", "twitter": "None", "instagram": "None", "facebook": "None", "youtube": "None", "website": "None", "summary": "None", "logo": "None", "latitude": 45.3643914316173, "longitude": -73.73039028114725}, "880913314RR0001": {"name": "MAR ELIAS EASTERN ORTHODOX CHURCH ORGANIZATION OF ONTARIO", "designationCode": "C", "categoryCode": "39", "address": "5878 GREENSBORO DR", "city": "MISSISSAUGA", "province": "ON", "country": "CA", "postalCode": "L5M5S7", "twitter": "None", "instagram": "None", "facebook": "None", "youtube": "None", "website": "None", "summary": "None", "logo": "None", "latitude": 43.56668758782974, "longitude": -79.73942582641799}, "119032803RR0001": {"name": "MAR GREGORIOS ASRAM CHARITABLE ASSOCIATION", "designationCode": "C", "categoryCode": "03", "address": "2541 PALISANDER AVENUE", "city": "MISSISSAUGA", "province": "ON", "country": "CA", "postalCode": "L5B2L1", "twitter": "None", "instagram": "None", "facebook": "None", "youtube": "None", "website": "None", "summary": "None", "logo": "None", "latitude": 43.565838819608665, "longitude": -79.62922411460572}, "898230446RR0001": {"name": "MAR-KIN FOUNDATION / FONDATION MAR-KIN", "designationCode": "B", "categoryCode": "03", "address": "2 PLACE ALEXIS NIHON SUITE1810", "city": "MONTREAL", "province": "QC", "country": "CA", "postalCode": "H3Z3C1", "twitter": "None", "instagram": "None", "facebook": "None", "youtube": "None", "website": "None", "summary": "None", "logo": "None", "latitude": 45.489719952247846, "longitude": -73.5852200150036}, "890314040RR0001": {"name": "MAR-LU NATURE PARK SOCIETY", "designationCode": "C", "categoryCode": "56", "address": "18 SELKIRK BLVD", "city": "RED DEER", "province": "AB", "country": "CA", "postalCode": "T4N0G2", "twitter": "None", "instagram": "None", "facebook": "None", "youtube": "None", "website": "None", "summary": "None", "logo": "None", "latitude": 52.25091442382702, "longitude": -113.80001608979164}, "119032209RR0001": {"name": "MARA COMMUNITY CHURCH (INTER-DENOMINATIONAL)", "designationCode": "C", "categoryCode": "39", "address": "396 RIVERSIDE RD", "city": "MARA", "province": "BC", "country": "CA", "postalCode": "V0E2K0", "twitter": "None", "instagram": "None", "facebook": "None", "youtube": "None", "website": "None", "summary": "None", "logo": "None", "latitude": 50.685270284339026, "longitude": -119.06377321594888}, "882169105RR0001": {"name": "MARALEE DAWN MINISTRIES", "designationCode": "C", "categoryCode": "47", "address": "#63-9208 208TH STREET", "city": "LANGLEY", "province": "BC", "country": "CA", "postalCode": "V1M2M9", "twitter": "None", "instagram": "None", "facebook": "None", "youtube": "None", "website": "None", "summary": "None", "logo": "None", "latitude": 49.169160000000005, "longitude": -122.64580099440276}, "107663817RR0001": {"name": "MARANATHA BAPTIST CHURCH", "designationCode": "C", "categoryCode": "31", "address": "112 SCOTT AVENUE", "city": "PARIS", "province": "ON", "country": "CA", "postalCode": "N3L3K4", "twitter": "None", "instagram": "None", "facebook": "None", "youtube": "None", "website": "None", "summary": "None", "logo": "None", "latitude": 43.21126071048553, "longitude": -80.40171900262573}, "107663825RR0001": {"name": "MARANATHA BAPTIST CHURCH", "designationCode": "C", "categoryCode": "31", "address": "3580 CLEARBROOK ROAD", "city": "CLEARBROOK", "province": "BC", "country": "CA", "postalCode": "V2T5C1", "twitter": "None", "instagram": "None", "facebook": "None", "youtube": "None", "website": "None", "summary": "None", "logo": "None", "latitude": 49.066956869553934, "longitude": -122.33812817978576}, "889420998RR0001": {"name": "MARANATHA BAPTIST CHURCH", "designationCode": "C", "categoryCode": "31", "address": "346 THIRD AVE.", "city": "SAULT ST MARIE", "province": "ON", "country": "CA", "postalCode": "P6C4M4", "twitter": "None", "instagram": "None", "facebook": "None", "youtube": "None", "website": "None", "summary": "None", "logo": "None", "latitude": 46.53241553250272, "longitude": -84.36739813437977}, "107663866RR0001": {"name": "MARANATHA CANADIAN REFORMED CHURCH", "designationCode": "C", "categoryCode": "39", "address": "7624 147 ST", "city": "SURREY", "province": "BC", "country": "CA", "postalCode": "V3S3B1", "twitter": "None", "instagram": "None", "facebook": "None", "youtube": "None", "website": "None", "summary": "None", "logo": "None", "latitude": 49.1417264815339, "longitude": -122.81524306506448}, "107663874RR0001": {"name": "MARANATHA CHRISTIAN ACADEMY OF WINDSOR", "designationCode": "C", "categoryCode": "20", "address": "939 NORTHWOOD ST", "city": "WINDSOR", "province": "ON", "country": "CA", "postalCode": "N9E1A2", "twitter": "None", "instagram": "None", "facebook": "None", "youtube": "None", "website": "None", "summary": "None", "logo": "None", "latitude": 42.27884340541918, "longitude": -83.02640305889031}, "140560368RR0001": {"name": "MARANATHA CHRISTIAN ASSEMBLY INC", "designationCode": "C", "categoryCode": "39", "address": "1699 ROUTE 705", "city": "WICKHAM", "province": "NB", "country": "CA", "postalCode": "E5T3Y6", "twitter": "None", "instagram": "None", "facebook": "None", "youtube": "None", "website": "None", "summary": "None", "logo": "None", "latitude": 45.69348624703404, "longitude": -66.06597115464083}, "830373619RR0001": {"name": "MARANATHA CHRISTIAN CHURCH", "designationCode": "C", "categoryCode": "39", "address": "17 GILMOUR DRIVE", "city": "AJAX", "province": "ON", "country": "CA", "postalCode": "L1S5J9", "twitter": "None", "instagram": "None", "facebook": "None", "youtube": "None", "website": "None", "summary": "None", "logo": "None", "latitude": 43.86028255842804, "longitude": -79.02378609989054}, "119032506RR0001": {"name": "MARANATHA CHRISTIAN FELLOWSHIP", "designationCode": "C", "categoryCode": "39", "address": "1699 ROUTE 705", "city": "WICKHAM", "province": "NB", "country": "CA", "postalCode": "E5T3Y6", "twitter": "None", "instagram": "None", "facebook": "None", "youtube": "None", "website": "None", "summary": "None", "logo": "None", "latitude": 45.69348624703404, "longitude": -66.06597115464083}, "107664013RR0001": {"name": "MARANATHA CHRISTIAN REFORMED CHURCH", "designationCode": "C", "categoryCode": "39", "address": "BOX 20008 BEVERLY PO", "city": "EDMONTON", "province": "AB", "country": "CA", "postalCode": "T5W0Z9", "twitter": "None", "instagram": "None", "facebook": "None", "youtube": "None", "website": "None", "summary": "None", "logo": "None", "latitude": 53.57172085808644, "longitude": -113.37534064551632}, "132154980RR0001": {"name": "MARANATHA CHRISTIAN REFORMED CHURCH", "designationCode": "C", "categoryCode": "39", "address": "100 COLLEGE ST W", "city": "BELLEVILLE", "province": "ON", "country": "CA", "postalCode": "K8P2G5", "twitter": "None", "instagram": "None", "facebook": "None", "youtube": "None", "website": "None", "summary": "None", "logo": "None", "latitude": 44.17530102061324, "longitude": -77.39710777754037}, "107663940RR0001": {"name": "MARANATHA CHRISTIAN REFORMED CHURCH OF BOWMANVILLE", "designationCode": "C", "categoryCode": "39", "address": "2805 HWY 2", "city": "BOWMANVILLE", "province": "ON", "country": "CA", "postalCode": "L1C3K5", "twitter": "None", "instagram": "None", "facebook": "None", "youtube": "None", "website": "None", "summary": "None", "logo": "None", "latitude": 43.91210539040407, "longitude": -78.66402536832321}, "107663999RR0001": {"name": "MARANATHA CHRISTIAN REFORMED CHURCH OF CALGARY", "designationCode": "C", "categoryCode": "39", "address": "2111 52 ST NW", "city": "CALGARY", "province": "AB", "country": "CA", "postalCode": "T3B1C3", "twitter": "None", "instagram": "None", "facebook": "None", "youtube": "None", "website": "None", "summary": "None", "logo": "None", "latitude": 51.07997013711118, "longitude": -114.16604405704307}, "106919731RR0001": {"name": "MARANATHA CHRISTIAN REFORMED CHURCH OF CAMBRIDGE", "designationCode": "C", "categoryCode": "39", "address": "94 ELGIN STREET SOUTH", "city": "CAMBRIDGE", "province": "ON", "country": "CA", "postalCode": "N1R5G5", "twitter": "None", "instagram": "None", "facebook": "None", "youtube": "None", "website": "None", "summary": "None", "logo": "None", "latitude": 43.350055869265475, "longitude": -80.29394324845599}, "107663981RR0001": {"name": "MARANATHA CHRISTIAN REFORMED CHURCH OF LETHBRIDGE", "designationCode": "C", "categoryCode": "39", "address": "260 MCGILL BLVD W", "city": "LETHBRIDGE", "province": "AB", "country": "CA", "postalCode": "T1K4C6", "twitter": "None", "instagram": "None", "facebook": "None", "youtube": "None", "website": "None", "summary": "None", "logo": "None", "latitude": 49.665551555889216, "longitude": -112.87904023143314}, "107663965RR0001": {"name": "MARANATHA CHRISTIAN REFORMED CHURCH OF WOODBRIDGE", "designationCode": "C", "categoryCode": "39", "address": "4561 LANGSTAFF ROAD", "city": "WOODBRIDGE", "province": "ON", "country": "CA", "postalCode": "L4L2B2", "twitter": "None", "instagram": "None", "facebook": "None", "youtube": "None", "website": "None", "summary": "None", "logo": "None", "latitude": 43.80262701298444, "longitude": -79.58014927904114}, "107663973RR0001": {"name": "MARANATHA CHRISTIAN REFORMED CHURCH OF WOODSTOCK", "designationCode": "C", "categoryCode": "39", "address": "735 FRONTENAC CRES", "city": "WOODSTOCK", "province": "ON", "country": "CA", "postalCode": "N4V0B1", "twitter": "None", "instagram": "None", "facebook": "None", "youtube": "None", "website": "None", "summary": "None", "logo": "None", "latitude": 43.10859485589393, "longitude": -80.75075197478925}, "126010461RR0001": {"name": "MARANATHA CHRISTIAN REFORMED CHURCH OF YORK", "designationCode": "C", "categoryCode": "39", "address": "33 KING AVE", "city": "YORK", "province": "ON", "country": "CA", "postalCode": "N0A1R0", "twitter": "None", "instagram": "None", "facebook": "None", "youtube": "None", "website": "None", "summary": "None", "logo": "None", "latitude": 43.02204395412178, "longitude": -79.88805629063259}, "859788036RR0001": {"name": "MARANATHA CHURCH OF GOD", "designationCode": "C", "categoryCode": "39", "address": "3 HAWTHORNE DR", "city": "INNISFIL", "province": "ON", "country": "CA", "postalCode": "L9S1R4", "twitter": "None", "instagram": "None", "facebook": "None", "youtube": "None", "website": "None", "summary": "None", "logo": "None", "latitude": 44.350261090529955, "longitude": -79.5535067864205}, "889219499RR0001": {"name": "MARANATHA CHURCH OF SUDBURY", "designationCode": "C", "categoryCode": "39", "address": "PO BOX 731 STN B", "city": "SUDBURY", "province": "ON", "country": "CA", "postalCode": "P3E4R6", "twitter": "None", "instagram": "None", "facebook": "None", "youtube": "None", "website": "None", "summary": "None", "logo": "None"}, "856001078RR0001": {"name": "MARANATHA CONSERVATIVE MENNONITE CHURCH", "designationCode": "C", "categoryCode": "34", "address": "7219 LINE 86 R.R. 3", "city": "WALLENSTEIN", "province": "ON", "country": "CA", "postalCode": "N0B2S0", "twitter": "None", "instagram": "None", "facebook": "None", "youtube": "None", "website": "None", "summary": "None", "logo": "None", "latitude": 43.59197400000005, "longitude": -80.64126349999994}, "882753346RR0001": {"name": "MARANATHA EVANGELICAL LUTHERAN CHURCH", "designationCode": "C", "categoryCode": "39", "address": "236 WOODHAVEN RD", "city": "KITCHENER", "province": "ON", "country": "CA", "postalCode": "N2C1V5", "twitter": "None", "instagram": "None", "facebook": "None", "youtube": "None", "website": "None", "summary": "None", "logo": "None", "latitude": 43.42405911466303, "longitude": -80.45475422078597}, "107664062RR0001": {"name": "MARANATHA FELLOWSHIP CHURCH OF THE DEAF", "designationCode": "C", "categoryCode": "39", "address": "1307 BLOOR ST WEST", "city": "TORONTO", "province": "ON", "country": "CA", "postalCode": "M6H1P1", "twitter": "None", "instagram": "None", "facebook": "None", "youtube": "None", "website": "None", "summary": "None", "logo": "None", "latitude": 43.65815581320336, "longitude": -79.44347422370016}, "119032407RR0001": {"name": "MARANATHA FOUNDATION", "designationCode": "B", "categoryCode": "03", "address": "12745 7TH CONCESSION", "city": "KING CITY", "province": "ON", "country": "CA", "postalCode": "L7B1K4", "twitter": "None", "instagram": "None", "facebook": "None", "youtube": "None", "website": "None", "summary": "None", "logo": "None", "latitude": 43.9067056670975, "longitude": -79.60184820719921}, "107396905RR0037": {"name": "MARANATHA FOURSQUARE GOSPEL CHURCH", "designationCode": "C", "categoryCode": "39", "address": "6553 PORTSMOUTH RD", "city": "NANAIMO", "province": "BC", "country": "CA", "postalCode": "V9V1A3", "twitter": "None", "instagram": "None", "facebook": "None", "youtube": "None", "website": "None", "summary": "None", "logo": "None", "latitude": 49.239636922100274, "longitude": -124.0464117974402}, "119032480RR0003": {"name": "MARANATHA FULL GOSPEL FELLOWSHIP", "designationCode": "C", "categoryCode": "39", "address": "1699 ROUTE 705", "city": "WICKHAM", "province": "NB", "country": "CA", "postalCode": "E5T3Y6", "twitter": "None", "instagram": "None", "facebook": "None", "youtube": "None", "website": "None", "summary": "None", "logo": "None", "latitude": 45.69348624703404, "longitude": -66.06597115464083}, "894043660RR0001": {"name": "MARANATHA GOSPEL FELLOWSHIP", "designationCode": "C", "categoryCode": "39", "address": "2411 96TH ST NW", "city": "EDMONTON", "province": "AB", "country": "CA", "postalCode": "T6N0A7", "twitter": "None", "instagram": "None", "facebook": "None", "youtube": "None", "website": "None", "summary": "None", "logo": "None", "latitude": 53.45364599999999, "longitude": -113.47549733230461}, "886423193RR0001": {"name": "MARANATHA MINISTRIES OF CANADA INC.", "designationCode": "C", "categoryCode": "47", "address": "2202 8TH AVE N", "city": "REGINA", "province": "SK", "country": "CA", "postalCode": "S4R7T9", "twitter": "None", "instagram": "None", "facebook": "None", "youtube": "None", "website": "None", "summary": "None", "logo": "None", "latitude": 50.48206176217231, "longitude": -104.61217073782771}, "890324775RR0001": {"name": "MARANATHA MISSIONARY SOCIETY", "designationCode": "C", "categoryCode": "47", "address": "472 ACADEMY ROAD", "city": "WINNIPEG", "province": "MB", "country": "CA", "postalCode": "R3N0C7", "twitter": "None", "instagram": "None", "facebook": "None", "youtube": "None", "website": "None", "summary": "None", "logo": "None", "latitude": 49.87404052510252, "longitude": -97.19136436372554}, "119032423RR0001": {"name": "MARANATHA NIVERVILLE INC.", "designationCode": "C", "categoryCode": "47", "address": "P.O. BOX 130", "city": "NIVERVILLE", "province": "MB", "country": "CA", "postalCode": "R0A1E0", "twitter": "None", "instagram": "None", "facebook": "None", "youtube": "None", "website": "None", "summary": "None", "logo": "None", "latitude": 49.60599000000006, "longitude": -97.04598199999994}, "107833394RR0130": {"name": "MARANATHA PENTECOSTAL TABERNACLE", "designationCode": "C", "categoryCode": "36", "address": "BOX 48", "city": "TRITON", "province": "NL", "country": "CA", "postalCode": "A0J1V0", "twitter": "None", "instagram": "None", "facebook": "None", "youtube": "None", "website": "None", "summary": "None", "logo": "None", "latitude": 49.51395000000008, "longitude": -55.618349999999964}, "890963440RR0001": {"name": "MARANATHA PROPHECY CONFERENCES", "designationCode": "C", "categoryCode": "39", "address": "15 CARLYLE BAY", "city": "WINNIPEG", "province": "MB", "country": "CA", "postalCode": "R3K0H2", "twitter": "None", "instagram": "None", "facebook": "None", "youtube": "None", "website": "None", "summary": "None", "logo": "None", "latitude": 49.87114348600596, "longitude": -97.29131124992787}, "119032472RR0001": {"name": "MARANATHA REFORMED CHURCH", "designationCode": "C", "categoryCode": "39", "address": "42896 GILMORE RD              RR 1", "city": "WAINFLEET", "province": "ON", "country": "CA", "postalCode": "L0S1V0", "twitter": "None", "instagram": "None", "facebook": "None", "youtube": "None", "website": "None", "summary": "None", "logo": "None", "latitude": 42.942743633360266, "longitude": -79.4196585121181}, "119032480RR0001": {"name": "MARANATHA REVIVALS INCORPORATED", "designationCode": "C", "categoryCode": "49", "address": "1699 ROUTE 705", "city": "WICKHAM", "province": "NB", "country": "CA", "postalCode": "E5T3Y6", "twitter": "None", "instagram": "None", "facebook": "None", "youtube": "None", "website": "None", "summary": "None", "logo": "None", "latitude": 45.69348624703404, "longitude": -66.06597115464083}, "130172513RR0001": {"name": "MARANATHA SEVENTH-DAY ADVENTIST CHURCH", "designationCode": "C", "categoryCode": "39", "address": "121 SALISBURY ROAD", "city": "MONCTON", "province": "NB", "country": "CA", "postalCode": "E1E1A6", "twitter": "None", "instagram": "None", "facebook": "None", "youtube": "None", "website": "None", "summary": "None", "logo": "None", "latitude": 46.0711640413756, "longitude": -64.82144086984238}, "107797383RR0104": {"name": "MARANATHA SPANISH SEVENTH-DAY ADVENTIST CHURCH", "designationCode": "A", "categoryCode": "41", "address": "1111-551 THE WEST MALL", "city": "ETOBICOKE", "province": "ON", "country": "CA", "postalCode": "M9C1G7", "twitter": "None", "instagram": "None", "facebook": "None", "youtube": "None", "website": "None", "summary": "None", "logo": "None", "latitude": 43.65170230754787, "longitude": -79.56976118192055}, "107664146RR0001": {"name": "MARANATHA TABERNACLE", "designationCode": "C", "categoryCode": "39", "address": "PO BOX 19678", "city": "VANCOUVER", "province": "BC", "country": "CA", "postalCode": "V5T4E7", "twitter": "None", "instagram": "None", "facebook": "None", "youtube": "None", "website": "None", "summary": "None", "logo": "None", "latitude": 49.26037200000006, "longitude": -123.11336149999994}, "890811847RR0001": {"name": "MARANATHA VOLUNTEERS INTERNATIONAL ASSOCIATION", "designationCode": "C", "categoryCode": "41", "address": "BOX 62  SUITE                 1250 1500 WEST GEORGIA ST.....", "city": "VANCOUVER", "province": "BC", "country": "CA", "postalCode": "V6G2Z6", "twitter": "None", "instagram": "None", "facebook": "None", "youtube": "None", "website": "None", "summary": "None", "logo": "None", "latitude": 49.29013479542975, "longitude": -123.1300069287031}, "133773861RR0001": {"name": "MARATHI BHASHIK MANDAL, TORONTO INC.", "designationCode": "C", "categoryCode": "22", "address": "10 GLAMORGAN CRT", "city": "MARKHAM", "province": "ON", "country": "CA", "postalCode": "L3R7V4", "twitter": "None", "instagram": "None", "facebook": "None", "youtube": "None", "website": "None", "summary": "None", "logo": "None", "latitude": 43.8687054904207, "longitude": -79.34310727979094}, "893753913RR0001": {"name": "MARATHI SOCIETY OF B.C.", "designationCode": "C", "categoryCode": "20", "address": "6294 LANARK ST", "city": "VANCOUVER", "province": "BC", "country": "CA", "postalCode": "V5P2Y8", "twitter": "None", "instagram": "None", "facebook": "None", "youtube": "None", "website": "None", "summary": "None", "logo": "None", "latitude": 49.22729899417163, "longitude": -123.07577047665781}, "839630522RR0001": {"name": "MARATHON & DISTRICT HISTORICAL SOCIETY", "designationCode": "C", "categoryCode": "50", "address": "P.O. BOX 728", "city": "MARATHON", "province": "ON", "country": "CA", "postalCode": "P0T2E0", "twitter": "None", "instagram": "None", "facebook": "None", "youtube": "None", "website": "None", "summary": "None", "logo": "None", "latitude": 48.721610000000055, "longitude": -86.37360999999999}, "119032522RR0001": {"name": "MARATHON CHILDREN AND FAMILY CENTRE", "designationCode": "C", "categoryCode": "20", "address": "BOX 1270                      21 CHISLOM TRAIL", "city": "MARATHON", "province": "ON", "country": "CA", "postalCode": "P0T2E0", "twitter": "None", "instagram": "None", "facebook": "None", "youtube": "None", "website": "None", "summary": "None", "logo": "None", "latitude": 48.719922000000054, "longitude": -86.37569449999994}, "841825342RR0001": {"name": "MARATHON COMMUNITY COLLECTIVE FOR THE ASSISTANCE OF THE NEEDY", "designationCode": "C", "categoryCode": "09", "address": "84 EVERGREEN DRIVE            P.O BOX 984", "city": "MARATHON", "province": "ON", "country": "CA", "postalCode": "P0T2E0", "twitter": "None", "instagram": "None", "facebook": "None", "youtube": "None", "website": "None", "summary": "None", "logo": "None", "latitude": 48.7218587643546, "longitude": -86.37793899128609}, "119288918RR0872": {"name": "MARATHON CONGREGATION OF JEHOVAH'S WITNESSES", "designationCode": "C", "categoryCode": "61", "address": "BOX 682", "city": "MARATHON", "province": "ON", "country": "CA", "postalCode": "P0T2E0", "twitter": "None", "instagram": "None", "facebook": "None", "youtube": "None", "website": "None", "summary": "None", "logo": "None", "latitude": 48.721610000000055, "longitude": -86.37360999999999}, "875779217RR0001": {"name": "MARATHON HUMANE SOCIETY", "designationCode": "C", "categoryCode": "54", "address": "P.O.BOX 1329                  PENN LAKE ROAD", "city": "MARATHON", "province": "ON", "country": "CA", "postalCode": "P0T2E0", "twitter": "None", "instagram": "None", "facebook": "None", "youtube": "None", "website": "None", "summary": "None", "logo": "None", "latitude": 48.72237062550433, "longitude": -86.36898479235641}, "889546040RR0001": {"name": "MARATHON PASTORAL CHARGE,", "designationCode": "C", "categoryCode": "44", "address": "PO BOX 698", "city": "MARATHON", "province": "ON", "country": "CA", "postalCode": "P0T2E0", "twitter": "None", "instagram": "None", "facebook": "None", "youtube": "None", "website": "None", "summary": "None", "logo": "None", "latitude": 48.721610000000055, "longitude": -86.37360999999999}, "897065470RR0001": {"name": "MARBLE RIDGE CHARITABLE TRUST", "designationCode": "B", "categoryCode": "39", "address": "2500-201 PORTAGE AVENUE", "city": "WINNIPEG", "province": "MB", "country": "CA", "postalCode": "R3B3K6", "twitter": "None", "instagram": "None", "facebook": "None", "youtube": "None", "website": "None", "summary": "None", "logo": "None", "latitude": 49.895359615067065, "longitude": -97.13919299627776}, "888863685RR0001": {"name": "MARBURG COMMUNITY ASSOCIATION", "designationCode": "C", "categoryCode": "56", "address": "1265 ST JOHN'S RD E", "city": "PORT DOVER", "province": "ON", "country": "CA", "postalCode": "N0A1N1", "twitter": "None", "instagram": "None", "facebook": "None", "youtube": "None", "website": "None", "summary": "None", "logo": "None", "latitude": 42.81741724897559, "longitude": -80.17698887552653}, "119032571RR0001": {"name": "MARCELIN SENIOR CO-OPERATIVE CENTRE", "designationCode": "C", "categoryCode": "56", "address": "PO BOX 245", "city": "MARCELIN", "province": "SK", "country": "CA", "postalCode": "S0J1R0", "twitter": "None", "instagram": "None", "facebook": "None", "youtube": "None", "website": "None", "summary": "None", "logo": "None", "latitude": 52.91679000000005, "longitude": -106.78444999999999}, "107883928RR0001": {"name": "MARCH OF DIMES CANADA", "designationCode": "C", "categoryCode": "11", "address": "ANDRIA SPINDEL                10 OVERLEA BLVD", "city": "TORONTO", "province": "ON", "country": "CA", "postalCode": "M4H1A4", "twitter": "None", "instagram": "None", "facebook": "None", "youtube": "None", "website": "None", "summary": "None", "logo": "None", "latitude": 43.703301361936546, "longitude": -79.35180606719926}, "879585214RR0001": {"name": "MARCH OF DIMES CANADA FOUNDATION", "designationCode": "C", "categoryCode": "11", "address": "10 OVERLEA BOULEVARD", "city": "TORONTO", "province": "ON", "country": "CA", "postalCode": "M4H1A4", "twitter": "None", "instagram": "None", "facebook": "None", "youtube": "None", "website": "None", "summary": "None", "logo": "None", "latitude": 43.703301361936546, "longitude": -79.35180606719926}, "137261996RR0001": {"name": "MARCHE POUR JESUS - MONTREAL", "designationCode": "C", "categoryCode": "47", "address": "6956 ST DENIS", "city": "MONTREAL", "province": "QC", "country": "CA", "postalCode": "H2S2S4", "twitter": "None", "instagram": "None", "facebook": "None", "youtube": "None", "website": "None", "summary": "None", "logo": "None", "latitude": 45.53723677127951, "longitude": -73.61223531906039}, "107665010RR0001": {"name": "MARCHMONT BAPTIST CHURCH", "designationCode": "C", "categoryCode": "31", "address": "19 BROADVIEW AVE", "city": "ORO-MEDONTE", "province": "ON", "country": "CA", "postalCode": "L3V0J9", "twitter": "None", "instagram": "None", "facebook": "None", "youtube": "None", "website": "None", "summary": "None", "logo": "None", "latitude": 44.61282584156161, "longitude": -79.50664799413146}, "886712298RR0001": {"name": "MARCO FRAGOMELI TRUST", "designationCode": "B", "categoryCode": "25", "address": "1623 RAMBLEWOOD DRIVE", "city": "PETERBOROUGH", "province": "ON", "country": "CA", "postalCode": "K9K2C3", "twitter": "None", "instagram": "None", "facebook": "None", "youtube": "None", "website": "None", "summary": "None", "logo": "None", "latitude": 44.27268432056094, "longitude": -78.36179653346974}, "119032621RR0001": {"name": "MARCO POLO HARBOURFRONT HISTORICAL VILLAGE & MUSEUM INC.", "designationCode": "C", "categoryCode": "50", "address": "P.O. BOX 6582", "city": "SAINT JOHN", "province": "NB", "country": "CA", "postalCode": "E2L4S5", "twitter": "None", "instagram": "None", "facebook": "None", "youtube": "None", "website": "None", "summary": "None", "logo": "None", "latitude": 45.27342600000006, "longitude": -66.06407149999993}, "894945633RR0030": {"name": "MARCOUX RD. BIBLE CHURCH", "designationCode": "C", "categoryCode": "39", "address": "19755 MARCOUX ROAD            GB 198", "city": "ALEXANDRIA", "province": "ON", "country": "CA", "postalCode": "K0C1A0", "twitter": "None", "instagram": "None", "facebook": "None", "youtube": "None", "website": "None", "summary": "None", "logo": "None", "latitude": 45.28067184624317, "longitude": -74.6714544400589}, "885547745RR0001": {"name": "MARENGO HISTORY BOOK COMMITTEE", "designationCode": "C", "categoryCode": "21", "address": "P.O. BOX 9", "city": "MARENGO", "province": "SK", "country": "CA", "postalCode": "S0L2K0", "twitter": "None", "instagram": "None", "facebook": "None", "youtube": "None", "website": "None", "summary": "None", "logo": "None", "latitude": 51.48342000000008, "longitude": -109.78484999999995}, "141140723RR0001": {"name": "MARGAREE ANGLERS ASSOCIATION", "designationCode": "C", "categoryCode": "50", "address": "PO BOX 638", "city": "MARGAREE FORKS", "province": "NS", "country": "CA", "postalCode": "B0E2A0", "twitter": "None", "instagram": "None", "facebook": "None", "youtube": "None", "website": "None", "summary": "None", "logo": "None", "latitude": 46.33353000000005, "longitude": -61.096829999999954}, "119032647RR0001": {"name": "MARGAREE PASTORAL CHARGE", "designationCode": "C", "categoryCode": "44", "address": "10527 CABOT TRAIL", "city": "BELLE COTE", "province": "NS", "country": "CA", "postalCode": "B0E1C0", "twitter": "None", "instagram": "None", "facebook": "None", "youtube": "None", "website": "None", "summary": "None", "logo": "None", "latitude": 46.43809717828428, "longitude": -61.09768650452844}, "119032654RR0001": {"name": "MARGAREE SALMON ASSOCIATION", "designationCode": "C", "categoryCode": "54", "address": "PO BOX 108", "city": "MARGAREE CENTRE", "province": "NS", "country": "CA", "postalCode": "B0E1Z0", "twitter": "None", "instagram": "None", "facebook": "None", "youtube": "None", "website": "None", "summary": "None", "logo": "None", "latitude": 46.359580579471505, "longitude": -61.07713412541493}, "107665606RR0001": {"name": "MARGAREE VALLEY BAPTIST CHURCH", "designationCode": "C", "categoryCode": "31", "address": "PO BOX 23", "city": "MARGAREE VALLEY", "province": "NS", "country": "CA", "postalCode": "B0E2C0", "twitter": "None", "instagram": "None", "facebook": "None", "youtube": "None", "website": "None", "summary": "None", "logo": "None", "latitude": 46.359580579471505, "longitude": -61.07713412541493}, "107665614RR0001": {"name": "MARGAREE VOLUNTEER FIRE DEPARTMENT", "designationCode": "C", "categoryCode": "59", "address": "PO BOX 629", "city": "MARGAREE FORKS", "province": "NS", "country": "CA", "postalCode": "B0E2A0", "twitter": "None", "instagram": "None", "facebook": "None", "youtube": "None", "website": "None", "summary": "None", "logo": "None", "latitude": 46.33353000000005, "longitude": -61.096829999999954}, "893005249RR0001": {"name": "MARGARET AND WALLACE MCCAIN FAMILY FOUNDATION INC", "designationCode": "B", "categoryCode": "03", "address": "1500 - 30 ST CLAIR AVE W", "city": "TORONTO", "province": "ON", "country": "CA", "postalCode": "M4V3A1", "twitter": "None", "instagram": "None", "facebook": "None", "youtube": "None", "website": "None", "summary": "None", "logo": "None", "latitude": 43.68788710460182, "longitude": -79.39487415272116}, "119098556RR0001": {"name": "MARGARET KENNEDY AUXILIARY, WOMEN'S MISSIONARY SOCIETY, MAISONNEUVE - ST. CUTHBERT'S PRESBYTERIAN CHURCH", "designationCode": "C", "categoryCode": "47", "address": "8160 LEFEBVRE ST", "city": "LASALLE", "province": "QC", "country": "CA", "postalCode": "H8N2B1", "twitter": "None", "instagram": "None", "facebook": "None", "youtube": "None", "website": "None", "summary": "None", "logo": "None", "latitude": 45.43345032973622, "longitude": -73.62383093280073}, "119032704RR0001": {"name": "MARGARET LAURENCE HOME COMMITTEE INC.", "designationCode": "C", "categoryCode": "50", "address": "BOX 2099", "city": "NEEPAWA", "province": "MB", "country": "CA", "postalCode": "R0J1H0", "twitter": "None", "instagram": "None", "facebook": "None", "youtube": "None", "website": "None", "summary": "None", "logo": "None", "latitude": 50.22581100000005, "longitude": -99.48963949999994}, "890494396RR0001": {"name": "MARGARET M. ALLEMANG CENTRE FOR THE HISTORY OF NURSING", "designationCode": "C", "categoryCode": "50", "address": "901 - 1000 MOUNT PLEASANT RD", "city": "TORONTO", "province": "ON", "country": "CA", "postalCode": "M4P2M2", "twitter": "None", "instagram": "None", "facebook": "None", "youtube": "None", "website": "None", "summary": "None", "logo": "None", "latitude": 43.71329559616829, "longitude": -79.39207724398392}, "890601040RR0001": {"name": "MARGARET PENWARDEN MEMORIAL FOUNDATION", "designationCode": "B", "categoryCode": "25", "address": "447 PORTAGE AVE               INVESTORS GROUP TRUST CO. LTD", "city": "WINNIPEG", "province": "MB", "country": "CA", "postalCode": "R3C3B6", "twitter": "None", "instagram": "None", "facebook": "None", "youtube": "None", "website": "None", "summary": "None", "logo": "None", "latitude": 49.89130006996929, "longitude": -97.15018001889877}, "119032720RR0001": {"name": "MARGARET RODGER MEMORIAL PRESBYTERIAN CHURCH", "designationCode": "C", "categoryCode": "37", "address": "P.O. BOX 877", "city": "LACHUTE", "province": "QC", "country": "CA", "postalCode": "J8H4G5", "twitter": "None", "instagram": "None", "facebook": "None", "youtube": "None", "website": "None", "summary": "None", "logo": "None", "latitude": 45.65588100000005, "longitude": -74.34017449999993}, "118890391RR0001": {"name": "MARGARET'S HOUSING AND COMMUNITY SUPPORT SERVICES INC.", "designationCode": "C", "categoryCode": "01", "address": "301 BROADVIEW AVE.", "city": "TORONTO", "province": "ON", "country": "CA", "postalCode": "M4M2G8", "twitter": "None", "instagram": "None", "facebook": "None", "youtube": "None", "website": "None", "summary": "None", "logo": "None", "latitude": 43.66409158979165, "longitude": -79.35200051468652}}