{"867966129RR0001": {"name": "TWENTY MILE POST HISTORICAL SOCIETY", "designationCode": "C", "categoryCode": "50", "address": "6 CORBITT WAY SE", "city": "MEDICINE HAT", "province": "AB", "country": "CA", "postalCode": "T1B2T6", "twitter": "None", "instagram": "None", "facebook": "None", "youtube": "None", "website": "None", "summary": "None", "logo": "None", "latitude": 50.02088271135091, "longitude": -110.64410172355593}, "873285555RR0001": {"name": "TWENTY VALLEY COMMUNITY CHURCH", "designationCode": "C", "categoryCode": "36", "address": "3994 VICTORIA AVE", "city": "VINELAND", "province": "ON", "country": "CA", "postalCode": "L0R2C0", "twitter": "None", "instagram": "None", "facebook": "None", "youtube": "None", "website": "None", "summary": "None", "logo": "None", "latitude": 43.155574847625395, "longitude": -79.39312043551244}, "892928276RR0001": {"name": "TWILIGHT CHARITABLE TRUST", "designationCode": "B", "categoryCode": "39", "address": "3425 2 AVE S", "city": "LETHBRIDGE", "province": "AB", "country": "CA", "postalCode": "T1J4V1", "twitter": "None", "instagram": "None", "facebook": "None", "youtube": "None", "website": "None", "summary": "None", "logo": "None", "latitude": 49.696839530439966, "longitude": -112.78914308381903}, "119273100RR0001": {"name": "TWILIGHT CLUB OF LA GLACE", "designationCode": "C", "categoryCode": "56", "address": "BOX 159", "city": "LA GLACE", "province": "AB", "country": "CA", "postalCode": "T0H2J0", "twitter": "None", "instagram": "None", "facebook": "None", "youtube": "None", "website": "None", "summary": "None", "logo": "None", "latitude": 58.187140000000056, "longitude": -116.40519999999998}, "131214561RR0001": {"name": "TWIN CITIES KIWANIS FAMILY HOUSING FOUNDATION", "designationCode": "C", "categoryCode": "09", "address": "226 INGLESIDE PL", "city": "KITCHENER", "province": "ON", "country": "CA", "postalCode": "N2M2H2", "twitter": "None", "instagram": "None", "facebook": "None", "youtube": "None", "website": "None", "summary": "None", "logo": "None", "latitude": 43.43889725838199, "longitude": -80.5307244837556}, "119273126RR0001": {"name": "TWIN CITIES' KIWANIS FOUNDATION", "designationCode": "C", "categoryCode": "59", "address": "226 INGLESIDE PL", "city": "KITCHENER", "province": "ON", "country": "CA", "postalCode": "N2M2H2", "twitter": "None", "instagram": "None", "facebook": "None", "youtube": "None", "website": "None", "summary": "None", "logo": "None", "latitude": 43.43889725838199, "longitude": -80.5307244837556}, "872132493RR0001": {"name": "TWIN CREEK CHARITABLE TRUST", "designationCode": "B", "categoryCode": "39", "address": "RR 1, BOX 4 SITE 2", "city": "STANDARD", "province": "AB", "country": "CA", "postalCode": "T0J3G0", "twitter": "None", "instagram": "None", "facebook": "None", "youtube": "None", "website": "None", "summary": "None", "logo": "None", "latitude": 51.10447901358629, "longitude": -112.98614556267219}, "119122331RR0001": {"name": "TWIN LAKES RANCH MINISTRIES INC.", "designationCode": "C", "categoryCode": "47", "address": "BOX 1175", "city": "MOOSE JAW", "province": "SK", "country": "CA", "postalCode": "S6H4P9", "twitter": "None", "instagram": "None", "facebook": "None", "youtube": "None", "website": "None", "summary": "None", "logo": "None", "latitude": 50.39688300000006, "longitude": -105.53701399999993}, "119273142RR0001": {"name": "TWIN OAKS SENIOR CITIZENS ASSOCIATION", "designationCode": "C", "categoryCode": "01", "address": "7702 HIGHWAY 7", "city": "MUSSQUODOBOIT HARBOUR", "province": "NS", "country": "CA", "postalCode": "B0J2L0", "twitter": "None", "instagram": "None", "facebook": "None", "youtube": "None", "website": "None", "summary": "None", "logo": "None", "latitude": 44.78357429928976, "longitude": -63.15883325098643}, "866322647RR0001": {"name": "TWIN OAKS/BIRCHES HEALTH CARE CHARITABLE FOUNDATION", "designationCode": "A", "categoryCode": "13", "address": "PO BOX 186", "city": "MUSQUODOBOIT HARBOUR", "province": "NS", "country": "CA", "postalCode": "B0J2L0", "twitter": "None", "instagram": "None", "facebook": "None", "youtube": "None", "website": "None", "summary": "None", "logo": "None", "latitude": 44.786579926712626, "longitude": -63.14877998110121}, "888431442RR0001": {"name": "TWIN RIVERS HEALTH CARE FOUNDATION INC", "designationCode": "A", "categoryCode": "13", "address": "BOX 58", "city": "PARADISE HILL", "province": "SK", "country": "CA", "postalCode": "S0M2G0", "twitter": "None", "instagram": "None", "facebook": "None", "youtube": "None", "website": "None", "summary": "None", "logo": "None", "latitude": 53.53915000000006, "longitude": -109.45828999999998}, "863586418RR0001": {"name": "TWIN RIVERS MUSIC FESTIVAL", "designationCode": "C", "categoryCode": "22", "address": "BOX 22", "city": "DALMENY", "province": "SK", "country": "CA", "postalCode": "S0K1E0", "twitter": "None", "instagram": "None", "facebook": "None", "youtube": "None", "website": "None", "summary": "None", "logo": "None", "latitude": 52.143390000000004, "longitude": -106.76546549999999}, "849418488RR0001": {"name": "TWN Community Society", "designationCode": "C", "categoryCode": "20", "address": "3075 TAKAYA DRIVE", "city": "NORTH VANCOUVER", "province": "BC", "country": "CA", "postalCode": "V7H3A8", "twitter": "None", "instagram": "None", "facebook": "None", "youtube": "None", "website": "None", "summary": "None", "logo": "None", "latitude": 49.311268576172985, "longitude": -122.98874029655494}, "892746785RR0001": {"name": "TWO FRIENDS FOR LIFE", "designationCode": "C", "categoryCode": "09", "address": "RR 1", "city": "CAMPBELLCROFT", "province": "ON", "country": "CA", "postalCode": "L0A1B0", "twitter": "None", "instagram": "None", "facebook": "None", "youtube": "None", "website": "None", "summary": "None", "logo": "None", "latitude": 44.06612000000007, "longitude": -78.36619999999994}, "876181629RR0001": {"name": "TWO HILLS AND AREA VICTIM SERVICES SOCIETY", "designationCode": "C", "categoryCode": "09", "address": "BOX 100", "city": "TWO HILLS", "province": "AB", "country": "CA", "postalCode": "T0B4K0", "twitter": "None", "instagram": "None", "facebook": "None", "youtube": "None", "website": "None", "summary": "None", "logo": "None", "latitude": 53.0322595713471, "longitude": -110.29668827146116}, "119273175RR0001": {"name": "TWO HILLS AND DISTRICT HISTORICAL ASSOCIATION", "designationCode": "C", "categoryCode": "50", "address": "PO BOX 441", "city": "TWO HILLS", "province": "AB", "country": "CA", "postalCode": "T0B4K0", "twitter": "None", "instagram": "None", "facebook": "None", "youtube": "None", "website": "None", "summary": "None", "logo": "None", "latitude": 53.42860638169389, "longitude": -110.1791835}, "119273183RR0001": {"name": "TWO HILLS AND DISTRICT SWIMMING POOL AUTHORITY ASSOCIATION", "designationCode": "C", "categoryCode": "56", "address": "BOX 652", "city": "TWO HILLS", "province": "AB", "country": "CA", "postalCode": "T0B4K0", "twitter": "None", "instagram": "None", "facebook": "None", "youtube": "None", "website": "None", "summary": "None", "logo": "None", "latitude": 52.87049385416454, "longitude": -112.95123468893277}, "890685993RR0001": {"name": "TWO HILLS AND DISTRICT UNITED AID FOUNDATION", "designationCode": "A", "categoryCode": "05", "address": "BOX 687", "city": "TWO HILLS", "province": "AB", "country": "CA", "postalCode": "T0B4K0", "twitter": "None", "instagram": "None", "facebook": "None", "youtube": "None", "website": "None", "summary": "None", "logo": "None", "latitude": 52.87052868893276, "longitude": -112.95112214583544}, "851248740RR0001": {"name": "TWO HILLS ELEMENTARY PARENT COUNCIL COMMITTEE", "designationCode": "C", "categoryCode": "21", "address": "P. O. BOX 427", "city": "TWO HILLS", "province": "AB", "country": "CA", "postalCode": "T0B4K0", "twitter": "None", "instagram": "None", "facebook": "None", "youtube": "None", "website": "None", "summary": "None", "logo": "None", "latitude": 53.42860638169389, "longitude": -110.1791835}, "108146366RR0001": {"name": "TWO HILLS PASTORAL CHARGE", "designationCode": "C", "categoryCode": "44", "address": "BOX 795", "city": "TWO HILLS", "province": "AB", "country": "CA", "postalCode": "T0B4K0", "twitter": "None", "instagram": "None", "facebook": "None", "youtube": "None", "website": "None", "summary": "None", "logo": "None", "latitude": 52.87092552427849, "longitude": -112.95115908090014}, "897561288RR0001": {"name": "TWO HILLS RESIDENT COUNCIL CLUB", "designationCode": "C", "categoryCode": "19", "address": "BOX 160", "city": "TWO HILLS", "province": "AB", "country": "CA", "postalCode": "T0B4K0", "twitter": "None", "instagram": "None", "facebook": "None", "youtube": "None", "website": "None", "summary": "None", "logo": "None", "latitude": 53.032698341056324, "longitude": -110.29566447547296}, "137462875RR0001": {"name": "TWO HILLS SENIOR CITIZENS CENTRE", "designationCode": "C", "categoryCode": "56", "address": "PO BOX 147", "city": "TWO HILLS", "province": "AB", "country": "CA", "postalCode": "T0B4K0", "twitter": "None", "instagram": "None", "facebook": "None", "youtube": "None", "website": "None", "summary": "None", "logo": "None", "latitude": 53.42860638169389, "longitude": -110.1791835}, "892373135RR0001": {"name": "TWO RIVERS DEVELOPMENT ASSOCIATION", "designationCode": "C", "categoryCode": "56", "address": "P.O. BOX 6270", "city": "MARION BRIDGE", "province": "NS", "country": "CA", "postalCode": "B1K3T8", "twitter": "None", "instagram": "None", "facebook": "None", "youtube": "None", "website": "None", "summary": "None", "logo": "None", "latitude": 45.97193338551182, "longitude": -60.22918713788111}, "892923731RR0001": {"name": "TWO RIVERS PASTORAL CHARGE", "designationCode": "C", "categoryCode": "44", "address": "25 BEVERLEY HILLS DRIVE", "city": "GRAND BAY-WESTFIELD", "province": "NB", "country": "CA", "postalCode": "E5K1X5", "twitter": "None", "instagram": "None", "facebook": "None", "youtube": "None", "website": "None", "summary": "None", "logo": "None", "latitude": 45.32647658547694, "longitude": -66.2099000614729}, "897969267RR0001": {"name": "TWO RIVERS SENIOR RESOURCE COUNCIL INC.", "designationCode": "C", "categoryCode": "09", "address": "PO BOX 272", "city": "PINAWA", "province": "MB", "country": "CA", "postalCode": "R0E1L0", "twitter": "None", "instagram": "None", "facebook": "None", "youtube": "None", "website": "None", "summary": "None", "logo": "None", "latitude": 50.310997570508235, "longitude": -95.8027417506436}, "818869547RR0001": {"name": "TWO WHEEL VIEW - CALGARY LTD.", "designationCode": "C", "categoryCode": "29", "address": "101 - 1725 10 AVE SW", "city": "CALGARY", "province": "AB", "country": "CA", "postalCode": "T3C0K1", "twitter": "None", "instagram": "None", "facebook": "None", "youtube": "None", "website": "None", "summary": "None", "logo": "None", "latitude": 51.04434152842076, "longitude": -114.10080083097697}, "891579146RR0001": {"name": "TWO/TEN CHARITY TRUST OF CANADA INC", "designationCode": "C", "categoryCode": "21", "address": "298 JOHN ST. #87617", "city": "THORNHILL", "province": "ON", "country": "CA", "postalCode": "L3T7R3", "twitter": "None", "instagram": "None", "facebook": "None", "youtube": "None", "website": "None", "summary": "None", "logo": "None", "latitude": 43.81922420959058, "longitude": -79.39812779560263}, "119288918RR1234": {"name": "TWYN RIVERS CONGREGATION OF JEHOVAH'S WITNESSES", "designationCode": "C", "categoryCode": "61", "address": "1720 GREENVALE CRES", "city": "PICKERING", "province": "ON", "country": "CA", "postalCode": "L1V4X7", "twitter": "None", "instagram": "None", "facebook": "None", "youtube": "None", "website": "None", "summary": "None", "logo": "None", "latitude": 43.82986385954194, "longitude": -79.12999219320194}, "892959966RR0001": {"name": "TYEE ELEMENTARY MONTESSORI SOCIETY", "designationCode": "C", "categoryCode": "21", "address": "3525 DUMFRIES ST", "city": "VANCOUVER", "province": "BC", "country": "CA", "postalCode": "V5N3S5", "twitter": "None", "instagram": "None", "facebook": "None", "youtube": "None", "website": "None", "summary": "None", "logo": "None", "latitude": 49.253409000000005, "longitude": -123.07298212721383}, "832709521RR0001": {"name": "TYLER SAMPSON-SILENT HERO-MEMORIAL FUND", "designationCode": "C", "categoryCode": "57", "address": "30 KENNEDY'S ROAD             BOUTILIER'S POINT", "city": "HALIFAX COUNTY", "province": "NS", "country": "CA", "postalCode": "B3Z1R8", "twitter": "None", "instagram": "None", "facebook": "None", "youtube": "None", "website": "None", "summary": "None", "logo": "None", "latitude": 44.664200287264116, "longitude": -63.9509121091527}, "860791466RR0001": {"name": "TYNDALE ST. GEORGE'S FOUNDATION / FONDATION TYNDALE ST-GEORGES", "designationCode": "A", "categoryCode": "03", "address": "870 RICHMOND SQUARE", "city": "MONTREAL", "province": "QC", "country": "CA", "postalCode": "H3J1V7", "twitter": "None", "instagram": "None", "facebook": "None", "youtube": "None", "website": "None", "summary": "None", "logo": "None", "latitude": 45.49138968935237, "longitude": -73.57321702890827}, "107796880RR0001": {"name": "TYNDALE UNIVERSITY COLLEGE & SEMINARY", "designationCode": "C", "categoryCode": "20", "address": "3377 BAYVIEW AVE", "city": "NORTH YORK", "province": "ON", "country": "CA", "postalCode": "M2M3S4", "twitter": "None", "instagram": "None", "facebook": "None", "youtube": "None", "website": "None", "summary": "None", "logo": "None", "latitude": 43.796829308384595, "longitude": -79.39456567017875}, "888744869RR0001": {"name": "TYNDALL PARK PLAYSCHOOL COOPERATIVE INC", "designationCode": "B", "categoryCode": "01", "address": "2221 KING EDWARD ST           ADMINISTRATOR", "city": "WINNIPEG", "province": "MB", "country": "CA", "postalCode": "R2R1M5", "twitter": "None", "instagram": "None", "facebook": "None", "youtube": "None", "website": "None", "summary": "None", "logo": "None", "latitude": 49.936896199001666, "longitude": -97.20672831101123}, "119273266RR0001": {"name": "TYNE VALLEY PRESBYTERIAN CHURCH,", "designationCode": "C", "categoryCode": "37", "address": "PO BOX 65", "city": "TYNE VALLEY", "province": "PE", "country": "CA", "postalCode": "C0B2C0", "twitter": "None", "instagram": "None", "facebook": "None", "youtube": "None", "website": "None", "summary": "None", "logo": "None", "latitude": 46.58344000000005, "longitude": -63.93202999999994}, "752377929RR0001": {"name": "TYNE VALLEY RURAL COMMUNITY FIRE COMPANY", "designationCode": "C", "categoryCode": "59", "address": "P.O. BOX 86", "city": "TYNE VALLEY", "province": "PE", "country": "CA", "postalCode": "C0B2C0", "twitter": "None", "instagram": "None", "facebook": "None", "youtube": "None", "website": "None", "summary": "None", "logo": "None", "latitude": 46.58344000000005, "longitude": -63.93202999999994}, "119288918RR0596": {"name": "TYNEHEAD PARK CONGREGATION OF JEHOVAH'S WITNESSES, SURREY B C", "designationCode": "C", "categoryCode": "61", "address": "16290 94 AVE.AVENUE", "city": "SURREY", "province": "BC", "country": "CA", "postalCode": "V4N3C5", "twitter": "None", "instagram": "None", "facebook": "None", "youtube": "None", "website": "None", "summary": "None", "logo": "None", "latitude": 49.17348147792725, "longitude": -122.77105149708581}, "892297136RR0001": {"name": "TYRCONNELL HERITAGE SOCIETY", "designationCode": "C", "categoryCode": "52", "address": "29424 LAKEVIEW LINE BOX 26", "city": "WALLACETOWN", "province": "ON", "country": "CA", "postalCode": "N0L2M0", "twitter": "None", "instagram": "None", "facebook": "None", "youtube": "None", "website": "None", "summary": "None", "logo": "None", "latitude": 42.60655564318397, "longitude": -81.44609284334004}, "119273282RR0001": {"name": "TYRRELL BAPTIST CHURCH,", "designationCode": "C", "categoryCode": "31", "address": "987 MCDOWELL RD E             RR 1", "city": "SIMCOE", "province": "ON", "country": "CA", "postalCode": "N3Y4J9", "twitter": "None", "instagram": "None", "facebook": "None", "youtube": "None", "website": "None", "summary": "None", "logo": "None", "latitude": 42.797823264787304, "longitude": -80.41116354247211}, "119273290RR0001": {"name": "TYVAN COMMUNITY CEMETERY", "designationCode": "C", "categoryCode": "59", "address": "BOX 29", "city": "TYVAN", "province": "SK", "country": "CA", "postalCode": "S0G4X0", "twitter": "None", "instagram": "None", "facebook": "None", "youtube": "None", "website": "None", "summary": "None", "logo": "None", "latitude": 50.10065163583077, "longitude": -103.8645396507683}, "119273308RR0001": {"name": "TYVAN COMMUNITY HALL CO-OPERATIVE ASSOCIATION LIMITED", "designationCode": "C", "categoryCode": "56", "address": "PO BOX 40", "city": "TYVAN", "province": "SK", "country": "CA", "postalCode": "S0G4X0", "twitter": "None", "instagram": "None", "facebook": "None", "youtube": "None", "website": "None", "summary": "None", "logo": "None", "latitude": 50.10065163583077, "longitude": -103.8645396507683}, "870427994RR0001": {"name": "TZIR CHEMED OF CANADA", "designationCode": "C", "categoryCode": "11", "address": "2255 BEDFORD ROAD", "city": "MONTREAL", "province": "QC", "country": "CA", "postalCode": "H3S1E8", "twitter": "None", "instagram": "None", "facebook": "None", "youtube": "None", "website": "None", "summary": "None", "logo": "None", "latitude": 45.51469974161801, "longitude": -73.62726970901365}, "890961782RR0001": {"name": "TZIVOS HASHEM CANADA INC", "designationCode": "C", "categoryCode": "49", "address": "3727 CHESSWOOD DR.", "city": "NORTH YORK", "province": "ON", "country": "CA", "postalCode": "M3J2P6", "twitter": "None", "instagram": "None", "facebook": "None", "youtube": "None", "website": "None", "summary": "None", "logo": "None", "latitude": 43.75624900346742, "longitude": -79.47433992060962}, "888835592RR0001": {"name": "TZU YANG YEN SCHOLARSHIP FOUNDATION", "designationCode": "B", "categoryCode": "25", "address": "150 ALTON TOWERS CIRCLE       APT. 903", "city": "SCARBOROUGH", "province": "ON", "country": "CA", "postalCode": "M1V4X7", "twitter": "None", "instagram": "None", "facebook": "None", "youtube": "None", "website": "None", "summary": "None", "logo": "None", "latitude": 43.82605925838201, "longitude": -79.27302616270372}, "108146879RR0001": {"name": "T2: THOMPSON TODDLERS' DAYCARE INC.", "designationCode": "C", "categoryCode": "01", "address": "3 BROADWAY STREET", "city": "THOMPSON", "province": "MB", "country": "CA", "postalCode": "R8N1Z5", "twitter": "None", "instagram": "None", "facebook": "None", "youtube": "None", "website": "None", "summary": "None", "logo": "None", "latitude": 55.746633641064705, "longitude": -97.86669958675473}, "119273365RR0001": {"name": "U C T CHAPEL GROVE YOUTH CENTRE INC", "designationCode": "C", "categoryCode": "56", "address": "13 STEVENS COURT", "city": "GRAND BAY-WESTFIELD", "province": "NB", "country": "CA", "postalCode": "E5K1Z3", "twitter": "None", "instagram": "None", "facebook": "None", "youtube": "None", "website": "None", "summary": "None", "logo": "None", "latitude": 45.323991838738564, "longitude": -66.20194474591717}, "119280139RR0001": {"name": "U T S ALUMNI ASSOCIATION", "designationCode": "A", "categoryCode": "21", "address": "371 BLOOR ST. WEST", "city": "TORONTO", "province": "ON", "country": "CA", "postalCode": "M5S2R7", "twitter": "None", "instagram": "None", "facebook": "None", "youtube": "None", "website": "None", "summary": "None", "logo": "None", "latitude": 43.666892845375024, "longitude": -79.4025973874431}, "119280154RR0001": {"name": "U T S PARENTS' ASSOCIATION TRUST FUND", "designationCode": "C", "categoryCode": "21", "address": "371 BLOOR STREET WEST", "city": "TORONTO", "province": "ON", "country": "CA", "postalCode": "M5S2R8", "twitter": "None", "instagram": "None", "facebook": "None", "youtube": "None", "website": "None", "summary": "None", "logo": "None", "latitude": 43.666892845375024, "longitude": -79.4025973874431}, "864719547RR0001": {"name": "U.C.M.U. MONTEREGIE", "designationCode": "C", "categoryCode": "59", "address": "82 DE L'AMANDIER", "city": "SAINT-CONSTANT", "province": "QC", "country": "CA", "postalCode": "J5A2P6", "twitter": "None", "instagram": "None", "facebook": "None", "youtube": "None", "website": "None", "summary": "None", "logo": "None", "latitude": 45.37123252345775, "longitude": -73.5835237578624}, "119275501RR0001": {"name": "U.N.F. EDUCATION & RECREATION SOCIETY", "designationCode": "C", "categoryCode": "59", "address": "145 EVANS AVE SUITE 210", "city": "TORONTO", "province": "ON", "country": "CA", "postalCode": "M8Z5X8", "twitter": "None", "instagram": "None", "facebook": "None", "youtube": "None", "website": "None", "summary": "None", "logo": "None", "latitude": 43.61887343542647, "longitude": -79.50980318870123}, "867155111RR0001": {"name": "U.P.C. HOUSE OF PRAYER INC.", "designationCode": "C", "categoryCode": "39", "address": "264 23RD STREET WEST", "city": "PRINCE ALBERT", "province": "SK", "country": "CA", "postalCode": "S6V4L6", "twitter": "None", "instagram": "None", "facebook": "None", "youtube": "None", "website": "None", "summary": "None", "logo": "None", "latitude": 53.19231831907322, "longitude": -105.76162570449594}, "821542669RR0001": {"name": "U-Campus Baptist Church", "designationCode": "C", "categoryCode": "31", "address": "410 - 6268 EAGLES DR", "city": "VANCOUVER", "province": "BC", "country": "CA", "postalCode": "V6T0A2", "twitter": "None", "instagram": "None", "facebook": "None", "youtube": "None", "website": "None", "summary": "None", "logo": "None", "latitude": 49.257923090268406, "longitude": -123.24606136793832}, "844317172RR0001": {"name": "U-R Home Awareness & Support Services", "designationCode": "C", "categoryCode": "09", "address": "800 DAVIS DRIVE", "city": "NEWMARKET", "province": "ON", "country": "CA", "postalCode": "L3Y2R5", "twitter": "None", "instagram": "None", "facebook": "None", "youtube": "None", "website": "None", "summary": "None", "logo": "None", "latitude": 44.06313789976368, "longitude": -79.44333426406614}, "849982285RR0001": {"name": "U-Turn Drop In Center Corp.", "designationCode": "C", "categoryCode": "57", "address": "46 POWELL DRIVE", "city": "CARBONEAR", "province": "NL", "country": "CA", "postalCode": "A1Y1A5", "twitter": "None", "instagram": "None", "facebook": "None", "youtube": "None", "website": "None", "summary": "None", "logo": "None", "latitude": 47.729508103354824, "longitude": -53.23196835431688}, "775822927RR0001": {"name": "U-Turn Parkinson's Inc.", "designationCode": "C", "categoryCode": "11", "address": "46 BELAIR RD", "city": "WINNIPEG", "province": "MB", "country": "CA", "postalCode": "R3T0S2", "twitter": "None", "instagram": "None", "facebook": "None", "youtube": "None", "website": "None", "summary": "None", "logo": "None", "latitude": 49.832149119049106, "longitude": -97.15845140700571}, "108149022RR0001": {"name": "U'MISTA CULTURAL SOCIETY", "designationCode": "C", "categoryCode": "22", "address": "PO BOX 253", "city": "ALERT BAY", "province": "BC", "country": "CA", "postalCode": "V0N1A0", "twitter": "None", "instagram": "None", "facebook": "None", "youtube": "None", "website": "None", "summary": "None", "logo": "None", "latitude": 50.6420595, "longitude": -127.02791249999999}, "803725456RR0001": {"name": "Ucan Trust", "designationCode": "B", "categoryCode": "03", "address": "157 - 3050 ERIN CENTRE BLVD", "city": "MISSISSAUGA", "province": "ON", "country": "CA", "postalCode": "L5M0P5", "twitter": "None", "instagram": "None", "facebook": "None", "youtube": "None", "website": "None", "summary": "None", "logo": "None", "latitude": 43.551805276415415, "longitude": -79.72385604925277}, "119288918RR1591": {"name": "Ucluelet, British Columbia Congregation of Jehovah's Witnesses", "designationCode": "C", "categoryCode": "61", "address": "BOX 615", "city": "UCLUELET", "province": "BC", "country": "CA", "postalCode": "V0R3A0", "twitter": "None", "instagram": "None", "facebook": "None", "youtube": "None", "website": "None", "summary": "None", "logo": "None", "latitude": 48.938210000000026, "longitude": -125.54276999999996}, "819341793RR0001": {"name": "Ufaratsta Jewish Outreach Centre", "designationCode": "C", "categoryCode": "42", "address": "33 STONEDENE BLVD", "city": "NORTH YORK", "province": "ON", "country": "CA", "postalCode": "M2R3C6", "twitter": "None", "instagram": "None", "facebook": "None", "youtube": "None", "website": "None", "summary": "None", "logo": "None", "latitude": 43.78492684762538, "longitude": -79.44877470757135}, "839893500RR0001": {"name": "UforChange Movement/Mouvement UforChange", "designationCode": "C", "categoryCode": "22", "address": "563 DUNDAS ST. E              UNIT 206", "city": "TORONTO", "province": "ON", "country": "CA", "postalCode": "M5A2B7", "twitter": "None", "instagram": "None", "facebook": "None", "youtube": "None", "website": "None", "summary": "None", "logo": "None", "latitude": 43.66008782763007, "longitude": -79.36287747945643}, "786795724RR0001": {"name": "Ufreshy Kingdom Ministries International", "designationCode": "C", "categoryCode": "39", "address": "1183 FELIX AVE", "city": "WINDSOR", "province": "ON", "country": "CA", "postalCode": "N9C3L6", "twitter": "None", "instagram": "None", "facebook": "None", "youtube": "None", "website": "None", "summary": "None", "logo": "None", "latitude": 42.29235963973692, "longitude": -83.06548170471447}, "852456284RR0001": {"name": "Ugandan Girls Scholarship Foundation", "designationCode": "C", "categoryCode": "21", "address": "2748 LIONEL CRESCENT S.W.", "city": "CALGARY", "province": "AB", "country": "CA", "postalCode": "T3E6B2", "twitter": "None", "instagram": "None", "facebook": "None", "youtube": "None", "website": "None", "summary": "None", "logo": "None", "latitude": 50.996905438253755, "longitude": -114.12325776963472}, "830950911RR0001": {"name": "Ukrainian Canadian Social Services (St. Catherines) Inc.", "designationCode": "C", "categoryCode": "09", "address": "16 DIXIE ROAD", "city": "ST. CATHARINES", "province": "ON", "country": "CA", "postalCode": "L2N7N5", "twitter": "None", "instagram": "None", "facebook": "None", "youtube": "None", "website": "None", "summary": "None", "logo": "None", "latitude": 43.18024570191585, "longitude": -79.23686639295435}, "793131715RR0001": {"name": "Ukrainian Catholic Church of Saints Peter & Paul", "designationCode": "C", "categoryCode": "39", "address": "PO BOX 594", "city": "ROSTHERN", "province": "SK", "country": "CA", "postalCode": "S0K3R0", "twitter": "None", "instagram": "None", "facebook": "None", "youtube": "None", "website": "None", "summary": "None", "logo": "None", "latitude": 52.663230000000055, "longitude": -106.32952999999998}, "118795202RR0001": {"name": "Ukrainian Catholic Parish of the Assumption of the Blessed Virgin Mary at Calder, Saskatchewan of the Ukrainian CatholicEparchy of Saskatoon", "designationCode": "C", "categoryCode": "38", "address": "PO BOX 95", "city": "CALDER", "province": "SK", "country": "CA", "postalCode": "S0A0K0", "twitter": "None", "instagram": "None", "facebook": "None", "youtube": "None", "website": "None", "summary": "None", "logo": "None", "latitude": 51.14999000000006, "longitude": -101.75092999999998}, "884398181RR0001": {"name": "Ukrainian Catholic Parish of the Dormition of the Blessed Mother of God", "designationCode": "C", "categoryCode": "38", "address": "120-105TH STREET WEST", "city": "SASKATOON", "province": "SK", "country": "CA", "postalCode": "S7N1N2", "twitter": "None", "instagram": "None", "facebook": "None", "youtube": "None", "website": "None", "summary": "None", "logo": "None", "latitude": 52.13365504337899, "longitude": -106.60195654337896}, "888554391RR0001": {"name": "Ukrainian Catholic Parish of the Holy Eucharist at Cudworth, Saskatchewan", "designationCode": "C", "categoryCode": "38", "address": "PO BOX 582", "city": "CUDWORTH", "province": "SK", "country": "CA", "postalCode": "S0K1B0", "twitter": "None", "instagram": "None", "facebook": "None", "youtube": "None", "website": "None", "summary": "None", "logo": "None", "latitude": 52.500060000000076, "longitude": -105.73441999999994}, "823072228RR0001": {"name": "Ukrainian Catholic Parish of Ascension of our Lord Jesus Christ of Derwent, Alberta", "designationCode": "C", "categoryCode": "38", "address": "PO BOX 3023 STN MAIN", "city": "VERMILION", "province": "AB", "country": "CA", "postalCode": "T9X2B1", "twitter": "None", "instagram": "None", "facebook": "None", "youtube": "None", "website": "None", "summary": "None", "logo": "None", "latitude": 53.35397700000006, "longitude": -110.85710299999994}, "891282147RR0001": {"name": "Ukrainian Catholic Parish of Spasa (Muskalik)", "designationCode": "C", "categoryCode": "39", "address": "5617 54 ST", "city": "VEGREVILLE", "province": "AB", "country": "CA", "postalCode": "T9C1J8", "twitter": "None", "instagram": "None", "facebook": "None", "youtube": "None", "website": "None", "summary": "None", "logo": "None", "latitude": 53.49991617346646, "longitude": -112.05646482177303}, "119182525RR0001": {"name": "Ukrainian Catholic Parish of St. John Bohoslow", "designationCode": "C", "categoryCode": "38", "address": "BOX 1568", "city": "WYNYARD", "province": "SK", "country": "CA", "postalCode": "S0A4T0", "twitter": "None", "instagram": "None", "facebook": "None", "youtube": "None", "website": "None", "summary": "None", "logo": "None", "latitude": 51.76523000000003, "longitude": -104.18008999999995}, "888498441RR0001": {"name": "Ukrainian Greek Orthodox Church of St. Mary (Shepenitz District)", "designationCode": "C", "categoryCode": "39", "address": "P.O. BOX 721", "city": "TWO HILLS", "province": "AB", "country": "CA", "postalCode": "T0B4K0", "twitter": "None", "instagram": "None", "facebook": "None", "youtube": "None", "website": "None", "summary": "None", "logo": "None", "latitude": 53.42860638169389, "longitude": -110.1791835}, "832919260RR0001": {"name": "Ukrainian Jewish Encounter Initiative", "designationCode": "C", "categoryCode": "21", "address": "1508 KENNETH DR", "city": "MISSISSAUGA", "province": "ON", "country": "CA", "postalCode": "L5E2Y5", "twitter": "None", "instagram": "None", "facebook": "None", "youtube": "None", "website": "None", "summary": "None", "logo": "None", "latitude": 43.59596255508117, "longitude": -79.56245839191516}, "119275063RR0003": {"name": "Ukrainian Museum of Canada of the Ukrainian Women's Association of Canada - Alberta Branch", "designationCode": "C", "categoryCode": "50", "address": "10611 - 110 AVENUE N.W.", "city": "EDMONTON", "province": "AB", "country": "CA", "postalCode": "T5H1H7", "twitter": "None", "instagram": "None", "facebook": "None", "youtube": "None", "website": "None", "summary": "None", "logo": "None", "latitude": 53.556684477350316, "longitude": -113.5034325}, "119293223RR0001": {"name": "Ukrainian Orthodox Church of Canada, Western Eparchy", "designationCode": "C", "categoryCode": "39", "address": "11404 - 112 AVENUE NW", "city": "EDMONTON", "province": "AB", "country": "CA", "postalCode": "T5G0H6", "twitter": "None", "instagram": "None", "facebook": "None", "youtube": "None", "website": "None", "summary": "None", "logo": "None", "latitude": 53.561051076894124, "longitude": -113.51744111792394}, "108148263RR0141": {"name": "Ukrainian Orthodox Church of St. John (North Battleford, SK)", "designationCode": "C", "categoryCode": "39", "address": "8918 GREGORY DR", "city": "NORTH BATTLEFORD", "province": "SK", "country": "CA", "postalCode": "S9A2W7", "twitter": "None", "instagram": "None", "facebook": "None", "youtube": "None", "website": "None", "summary": "None", "logo": "None", "latitude": 52.784734212591665, "longitude": -108.3193498168387}, "108148263RR0128": {"name": "Ukrainian Orthodox Church of Sts. Peter & Paul Kosiw, Manitoba", "designationCode": "C", "categoryCode": "39", "address": "BOX 9", "city": "DAUPHIN", "province": "MB", "country": "CA", "postalCode": "R7N2T9", "twitter": "None", "instagram": "None", "facebook": "None", "youtube": "None", "website": "None", "summary": "None", "logo": "None", "latitude": 51.150138000000055, "longitude": -100.04934049999993}, "764247292RR0001": {"name": "Ukrainian Orthodox Mission Parish of Holy Trinity in Red Deer", "designationCode": "C", "categoryCode": "39", "address": "107 VERMONT AVE", "city": "RED DEER", "province": "AB", "country": "CA", "postalCode": "T4R0S4", "twitter": "None", "instagram": "None", "facebook": "None", "youtube": "None", "website": "None", "summary": "None", "logo": "None", "latitude": 52.23299453427779, "longitude": -113.75423671784313}, "108148263RR0105": {"name": "Ukrainian Orthodox Parish of St. Mary", "designationCode": "C", "categoryCode": "39", "address": "BOX 996", "city": "MELFORT", "province": "SK", "country": "CA", "postalCode": "S0E1A0", "twitter": "None", "instagram": "None", "facebook": "None", "youtube": "None", "website": "None", "summary": "None", "logo": "None", "latitude": 52.85637, "longitude": -104.63436225000001}, "805320405RR0001": {"name": "Ukrainian Orthodox Parish of St. Volodymyr at Westlock", "designationCode": "C", "categoryCode": "39", "address": "39 - 50 MCLAUGHLIN DR", "city": "SPRUCE GROVE", "province": "AB", "country": "CA", "postalCode": "T7X0E1", "twitter": "None", "instagram": "None", "facebook": "None", "youtube": "None", "website": "None", "summary": "None", "logo": "None", "latitude": 53.545537916165785, "longitude": -113.9311603409153}, "108148487RR0001": {"name": "Ukrainian Youth Unity Council", "designationCode": "C", "categoryCode": "29", "address": "9615 153 AVE NW", "city": "EDMONTON", "province": "AB", "country": "CA", "postalCode": "T5E6B1", "twitter": "None", "instagram": "None", "facebook": "None", "youtube": "None", "website": "None", "summary": "None", "logo": "None", "latitude": 53.61394853779849, "longitude": -113.490693}, "839518370RR0001": {"name": "Ulnooweg Financial Education Centre", "designationCode": "C", "categoryCode": "21", "address": "PO BOX 1259", "city": "TRURO", "province": "NS", "country": "CA", "postalCode": "B2N5N2", "twitter": "None", "instagram": "None", "facebook": "None", "youtube": "None", "website": "None", "summary": "None", "logo": "None", "latitude": 45.36602700000006, "longitude": -63.289042999999936}, "887737062RR0001": {"name": "Ultimate Wheelchair Sports Foundation", "designationCode": "C", "categoryCode": "09", "address": "BOX 34284, WESTBROOK PO       1610 37TH STREET SW", "city": "CALGARY", "province": "AB", "country": "CA", "postalCode": "T3C3W2", "twitter": "None", "instagram": "None", "facebook": "None", "youtube": "None", "website": "None", "summary": "None", "logo": "None", "latitude": 51.03908447326274, "longitude": -114.14115573208471}, "827649062RR0001": {"name": "Umbrella Multicultural Health Cooperative", "designationCode": "C", "categoryCode": "11", "address": "1 - 630B CARNARVON ST", "city": "NEW WESTMINSTER", "province": "BC", "country": "CA", "postalCode": "V3M1E5", "twitter": "None", "instagram": "None", "facebook": "None", "youtube": "None", "website": "None", "summary": "None", "logo": "None", "latitude": 49.20353234449314, "longitude": -122.9097035281033}, "861867190RR0001": {"name": "Umbrella Society for Addictions and Mental Health", "designationCode": "C", "categoryCode": "57", "address": "901 KINGS RD", "city": "VICTORIA", "province": "BC", "country": "CA", "postalCode": "V8T1W5", "twitter": "None", "instagram": "None", "facebook": "None", "youtube": "None", "website": "None", "summary": "None", "logo": "None", "latitude": 48.437076678313865, "longitude": -123.36104709463908}, "842776437RR0001": {"name": "Ummah Foundation of Durham", "designationCode": "C", "categoryCode": "60", "address": "1423 THORNTON RD N", "city": "OSHAWA", "province": "ON", "country": "CA", "postalCode": "L1H7K4", "twitter": "None", "instagram": "None", "facebook": "None", "youtube": "None", "website": "None", "summary": "None", "logo": "None", "latitude": 43.928099442985605, "longitude": -78.90884853029667}, "852310846RR0001": {"name": "Ummah Nabawiah Afghan Children's Charity (UNACC)", "designationCode": "C", "categoryCode": "09", "address": "2074 KIPLING AVENUE", "city": "TORONTO", "province": "ON", "country": "CA", "postalCode": "M9W4J9", "twitter": "None", "instagram": "None", "facebook": "None", "youtube": "None", "website": "None", "summary": "None", "logo": "None", "latitude": 43.71507668607551, "longitude": -79.56836256543892}, "856707625RR0001": {"name": "Un ballon pour tout le monde", "designationCode": "C", "categoryCode": "09", "address": "9 RUE WARREN", "city": "SHERBROOKE", "province": "QC", "country": "CA", "postalCode": "J1M2C1", "twitter": "None", "instagram": "None", "facebook": "None", "youtube": "None", "website": "None", "summary": "None", "logo": "None", "latitude": 45.37089223229852, "longitude": -71.85997143643607}, "737988691RR0001": {"name": "Un chat dans ma cour", "designationCode": "C", "categoryCode": "54", "address": "36 AV DE MEY", "city": "LORRAINE", "province": "QC", "country": "CA", "postalCode": "J6Z3T8", "twitter": "None", "instagram": "None", "facebook": "None", "youtube": "None", "website": "None", "summary": "None", "logo": "None", "latitude": 45.68092211627916, "longitude": -73.78541915502902}, "857105829RR0001": {"name": "Un cheval pour un enfant", "designationCode": "C", "categoryCode": "11", "address": "501,RANG DE L'ARNOUCHE", "city": "SAINT-Z\u00c9NON", "province": "QC", "country": "CA", "postalCode": "J0K3N0", "twitter": "None", "instagram": "None", "facebook": "None", "youtube": "None", "website": "None", "summary": "None", "logo": "None", "latitude": 46.53625652120741, "longitude": -73.83258141465176}, "818290041RR0001": {"name": "Un coeur latin / A Latin Heart", "designationCode": "C", "categoryCode": "09", "address": "283, RUE KING-GEORGE", "city": "LONGUEUIL", "province": "QC", "country": "CA", "postalCode": "J4J2V4", "twitter": "None", "instagram": "None", "facebook": "None", "youtube": "None", "website": "None", "summary": "None", "logo": "None", "latitude": 45.53060524646545, "longitude": -73.47259415863569}, "854926896RR0001": {"name": "Un pas vert / One Green Step", "designationCode": "B", "categoryCode": "59", "address": "64 AVENUE DU ROCHER", "city": "LAC DELAGE", "province": "QC", "country": "CA", "postalCode": "G3C5E8", "twitter": "None", "instagram": "None", "facebook": "None", "youtube": "None", "website": "None", "summary": "None", "logo": "None", "latitude": 46.96190544993916, "longitude": -71.40650199861503}, "833629447RR0001": {"name": "Un refuge sous ses ailes - Qu\u00e9bec", "designationCode": "C", "categoryCode": "39", "address": "501-1111, RUE DE DIJON", "city": "QU\u00c9BEC", "province": "QC", "country": "CA", "postalCode": "G1W0C9", "twitter": "None", "instagram": "None", "facebook": "None", "youtube": "None", "website": "None", "summary": "None", "logo": "None", "latitude": 46.754887650585616, "longitude": -71.3108055510418}, "771501293RR0001": {"name": "Un Parfum de Louange", "designationCode": "C", "categoryCode": "39", "address": "124 RUE LEHOUX", "city": "GRANBY", "province": "QC", "country": "CA", "postalCode": "J2H0R2", "twitter": "None", "instagram": "None", "facebook": "None", "youtube": "None", "website": "None", "summary": "None", "logo": "None", "latitude": 45.3924028812107, "longitude": -72.69695021775621}, "748926292RR0001": {"name": "Un Refuge sous ses ailes de la Mont\u00e9r\u00e9gie", "designationCode": "C", "categoryCode": "39", "address": "100 - 1410 RUE PRINCIPALE", "city": "SAINTE-JULIE", "province": "QC", "country": "CA", "postalCode": "J3E1R6", "twitter": "None", "instagram": "None", "facebook": "None", "youtube": "None", "website": "None", "summary": "None", "logo": "None", "latitude": 45.59875458976299, "longitude": -73.33223248886283}, "803286830RR0001": {"name": "Un V\u00e9lo Une ville", "designationCode": "C", "categoryCode": "09", "address": "1, COMPLEXE DESJARDINS        C P 7, SUCC DESJARDINS", "city": "MONTREAL", "province": "QC", "country": "CA", "postalCode": "H5B1B2", "twitter": "None", "instagram": "None", "facebook": "None", "youtube": "None", "website": "None", "summary": "None", "logo": "None", "latitude": 45.51239400000006, "longitude": -73.55469049999994}, "839518891RR0001": {"name": "Unashamed Generation Ministries", "designationCode": "C", "categoryCode": "39", "address": "PO BOX 51174                  RPO EGLINTON SQUARE", "city": "SCARBOROUGH", "province": "ON", "country": "CA", "postalCode": "M1L4T2", "twitter": "None", "instagram": "None", "facebook": "None", "youtube": "None", "website": "None", "summary": "None", "logo": "None", "latitude": 43.723970000000065, "longitude": -79.30103999999994}, "812558377RR0001": {"name": "Unbounded Canada Foundation", "designationCode": "B", "categoryCode": "21", "address": "201 - 803 HASTINGS ST E", "city": "VANCOUVER", "province": "BC", "country": "CA", "postalCode": "V6A1R8", "twitter": "None", "instagram": "None", "facebook": "None", "youtube": "None", "website": "None", "summary": "None", "logo": "None", "latitude": 49.28112747879262, "longitude": -123.08681199708582}, "822842290RR0001": {"name": "Under my Wing Pug Rescue", "designationCode": "C", "categoryCode": "54", "address": "1469 MERIVALE ROAD            PO BOX 78073", "city": "OTTAWA", "province": "ON", "country": "CA", "postalCode": "K2E1B1", "twitter": "None", "instagram": "None", "facebook": "None", "youtube": "None", "website": "None", "summary": "None", "logo": "None", "latitude": 45.360908202111126, "longitude": -75.73468156323852}, "804165975RR0001": {"name": "Under the Fig Tree Canada Foundation", "designationCode": "C", "categoryCode": "47", "address": "1800 - 510 GEORGIA ST W", "city": "VANCOUVER", "province": "BC", "country": "CA", "postalCode": "V6B0M3", "twitter": "None", "instagram": "None", "facebook": "None", "youtube": "None", "website": "None", "summary": "None", "logo": "None", "latitude": 49.281267759207665, "longitude": -123.11633309804196}, "833440290RR0001": {"name": "Under the Juniper Tree Chapel Inc.", "designationCode": "C", "categoryCode": "39", "address": "1643-14TH STR. WEST", "city": "PRINCE ALBERT", "province": "SK", "country": "CA", "postalCode": "S6V3N6", "twitter": "None", "instagram": "None", "facebook": "None", "youtube": "None", "website": "None", "summary": "None", "logo": "None", "latitude": 53.200205488458806, "longitude": -105.79370208243405}, "824343735RR0001": {"name": "Underdogs Rescue", "designationCode": "C", "categoryCode": "54", "address": "126 KINGSWAY GARDEN MALL      POST OFFICE BOX 34164", "city": "EDMONTON", "province": "AB", "country": "CA", "postalCode": "T5G3G4", "twitter": "None", "instagram": "None", "facebook": "None", "youtube": "None", "website": "None", "summary": "None", "logo": "None", "latitude": 53.56118985329173, "longitude": -113.50340554811545}}