{"138956487RR0001": {"name": "L'ALTERNATIVE OUTAOUAIS", "designationCode": "C", "categoryCode": "59", "address": "768 BOUL. ST-JOSEPH           BUREAU 202", "city": "GATINEAU", "province": "QC", "country": "CA", "postalCode": "J8Y4B8", "twitter": "None", "instagram": "None", "facebook": "None", "youtube": "None", "website": "None", "summary": "None", "logo": "None", "latitude": 45.45945574297433, "longitude": -75.7416194862371}, "866440191RR0001": {"name": "L'ALTERNATIVE, CENTRE DE JOUR EN SANTE MENTALE", "designationCode": "C", "categoryCode": "59", "address": "11813 RUE NOTRE-DAME E", "city": "MONTREAL", "province": "QC", "country": "CA", "postalCode": "H1B2Y1", "twitter": "None", "instagram": "None", "facebook": "None", "youtube": "None", "website": "None", "summary": "None", "logo": "None", "latitude": 45.637199968088126, "longitude": -73.49164099197857}, "845229962RR0001": {"name": "L'AMABLE BIBLE CHAPEL", "designationCode": "C", "categoryCode": "39", "address": "BOX 55                        26492 HIGHWAY 62 ROUTE 1", "city": "L'AMBLE", "province": "ON", "country": "CA", "postalCode": "K0L2L0", "twitter": "None", "instagram": "None", "facebook": "None", "youtube": "None", "website": "None", "summary": "None", "logo": "None", "latitude": 45.00917334145731, "longitude": -77.78701756899551}, "107594368RR0001": {"name": "L'AMI DU DEFICIENT MENTAL (MONTREAL) INC.", "designationCode": "C", "categoryCode": "09", "address": "4960, 7E AVENUE", "city": "MONTR\u00c9AL", "province": "QC", "country": "CA", "postalCode": "H1Y2M9", "twitter": "None", "instagram": "None", "facebook": "None", "youtube": "None", "website": "None", "summary": "None", "logo": "None", "latitude": 45.54733911904911, "longitude": -73.57017129476591}, "107594343RR0001": {"name": "L'AMICALE DES PERSONNES HANDICAP\u00c9ES PHYSIQUES DE L'OUTAOUAIS", "designationCode": "C", "categoryCode": "56", "address": "405 NOTRE-DAME", "city": "GATINEAU", "province": "QC", "country": "CA", "postalCode": "J8P1L7", "twitter": "None", "instagram": "None", "facebook": "None", "youtube": "None", "website": "None", "summary": "None", "logo": "None", "latitude": 45.48130746768412, "longitude": -75.63931885775293}, "119004653RR0001": {"name": "L'AMICALE DU CENTRE COMMUNAUTAIRE FRANCOPHONE DE LA REGION DE DURHAM", "designationCode": "C", "categoryCode": "56", "address": "8 - 15 THICKSON RD N", "city": "WHITBY", "province": "ON", "country": "CA", "postalCode": "L1N8W7", "twitter": "None", "instagram": "None", "facebook": "None", "youtube": "None", "website": "None", "summary": "None", "logo": "None", "latitude": 43.895286274561904, "longitude": -78.91654454904076}, "889184040RR0001": {"name": "L'AMICALE DU COLLEGE DE STE-ANNE-DE-LA-POCATIERE", "designationCode": "C", "categoryCode": "21", "address": "100 4 AVENUE", "city": "LA POCATIERE", "province": "QC", "country": "CA", "postalCode": "G0R1Z0", "twitter": "None", "instagram": "None", "facebook": "None", "youtube": "None", "website": "None", "summary": "None", "logo": "None", "latitude": 47.10543000000007, "longitude": -70.35096999999996}, "119002228RR0001": {"name": "L'AMIE", "designationCode": "C", "categoryCode": "09", "address": "840 RUE RAOUL-JOBIN BUREAU 300", "city": "QU\u00c9BEC", "province": "QC", "country": "CA", "postalCode": "G1N1S7", "twitter": "None", "instagram": "None", "facebook": "None", "youtube": "None", "website": "None", "summary": "None", "logo": "None", "latitude": 46.80587583516055, "longitude": -71.24719586736087}, "879192409RR0001": {"name": "L'AMIS-TEMPS DES BOIS FRANCS", "designationCode": "C", "categoryCode": "01", "address": "101 D'ATON", "city": "VICTORIAVILLE", "province": "QC", "country": "CA", "postalCode": "G6P9N9", "twitter": "None", "instagram": "None", "facebook": "None", "youtube": "None", "website": "None", "summary": "None", "logo": "None", "latitude": 46.06312861613493, "longitude": -71.96482371495759}, "886421155RR0001": {"name": "L'AMITIENT", "designationCode": "C", "categoryCode": "01", "address": "60 RUE DU PAVILLON", "city": "GATINEAU", "province": "QC", "country": "CA", "postalCode": "J9H0E8", "twitter": "None", "instagram": "None", "facebook": "None", "youtube": "None", "website": "None", "summary": "None", "logo": "None", "latitude": 45.389002568959626, "longitude": -75.80075902400601}, "119004794RR0001": {"name": "L'AMPHITHEATRE L'ISLET-NORD INC.", "designationCode": "C", "categoryCode": "56", "address": "390, RUE VERREAULT", "city": "ST-JEAN-PORT-JOLI", "province": "QC", "country": "CA", "postalCode": "G0R3G0", "twitter": "None", "instagram": "None", "facebook": "None", "youtube": "None", "website": "None", "summary": "None", "logo": "None", "latitude": 47.211161270916485, "longitude": -70.261271032669}, "854551934RR0001": {"name": "L'ANCRAGE DE L'ISLE-AUX-COUDRES", "designationCode": "C", "categoryCode": "09", "address": "3423, CH. DES COUDRIERS", "city": "ISLE-AUX-COUDRES", "province": "QC", "country": "CA", "postalCode": "G0A3J0", "twitter": "None", "instagram": "None", "facebook": "None", "youtube": "None", "website": "None", "summary": "None", "logo": "None", "latitude": 47.420409082405406, "longitude": -70.38151380347983}, "133063677RR0001": {"name": "L'ANCRE DES JEUNES", "designationCode": "C", "categoryCode": "03", "address": "3565 BOUL LASALLE", "city": "VERDUN", "province": "QC", "country": "CA", "postalCode": "H4G1Z5", "twitter": "None", "instagram": "None", "facebook": "None", "youtube": "None", "website": "None", "summary": "None", "logo": "None", "latitude": 45.46807601304173, "longitude": -73.56680087858496}, "125139972RR0001": {"name": "L'ANCRE, REGROUPEMENT DES PARENTS ET AMIS DES PERSONNES ATTEINTES DE MALADIE MENTALE", "designationCode": "C", "categoryCode": "09", "address": "227 AV. COLLIN", "city": "MONTMAGNY", "province": "QC", "country": "CA", "postalCode": "G5V2S7", "twitter": "None", "instagram": "None", "facebook": "None", "youtube": "None", "website": "None", "summary": "None", "logo": "None", "latitude": 46.97499101358999, "longitude": -70.55754354051021}, "856667340RR0001": {"name": "L'ANNEXE A ROLAND, PLATEAU D'EXPERIMENTATION DE TRAVAIL", "designationCode": "C", "categoryCode": "59", "address": "380 RUE SAINT-LOUIS", "city": "JOLIETTE", "province": "QC", "country": "CA", "postalCode": "J6E2Y6", "twitter": "None", "instagram": "None", "facebook": "None", "youtube": "None", "website": "None", "summary": "None", "logo": "None", "latitude": 46.026678204570246, "longitude": -73.440856386231}, "880669957RR0001": {"name": "L'ANON DE SEPT-ILES INC.", "designationCode": "C", "categoryCode": "09", "address": "84 HOLLIDAY", "city": "SEPT-ILES", "province": "QC", "country": "CA", "postalCode": "G4R1E2", "twitter": "None", "instagram": "None", "facebook": "None", "youtube": "None", "website": "None", "summary": "None", "logo": "None", "latitude": 50.21639295002607, "longitude": -66.36036714374762}, "119005767RR0001": {"name": "L'ANTRE JEUNES", "designationCode": "C", "categoryCode": "59", "address": "655,  9 IEME RUE", "city": "ST-J\u00c9R\u00d4ME", "province": "QC", "country": "CA", "postalCode": "J7Z2Z3", "twitter": "None", "instagram": "None", "facebook": "None", "youtube": "None", "website": "None", "summary": "None", "logo": "None", "latitude": 45.763730600900146, "longitude": -73.99102280310446}, "135075885RR0001": {"name": "L'ANTRE JEUNES DE MERCIER-EST", "designationCode": "C", "categoryCode": "09", "address": "8615 RUE HOCHELAGA", "city": "MONTREAL", "province": "QC", "country": "CA", "postalCode": "H1L2M5", "twitter": "None", "instagram": "None", "facebook": "None", "youtube": "None", "website": "None", "summary": "None", "logo": "None", "latitude": 45.60038966417561, "longitude": -73.52052310271782}, "133512673RR0001": {"name": "L'ANTRE-TEMPS LONGUEUIL", "designationCode": "C", "categoryCode": "09", "address": "950 BOUL ROLAND-THERRIEN", "city": "LONGUEUIL", "province": "QC", "country": "CA", "postalCode": "J4J5H3", "twitter": "None", "instagram": "None", "facebook": "None", "youtube": "None", "website": "None", "summary": "None", "logo": "None", "latitude": 45.540448516735346, "longitude": -73.48819185651217}, "892496845RR0001": {"name": "L'APOSTOLAT MONDIAL DE FATIMA (ARMEE BLEUE) CANADA / THE WORLD APOSTOLATE OF FATIMA (BLUE ARMY) CANADA", "designationCode": "C", "categoryCode": "49", "address": "2065 OUEST, SHERBROOKE", "city": "MONTREAL", "province": "QC", "country": "CA", "postalCode": "H3H1G6", "twitter": "None", "instagram": "None", "facebook": "None", "youtube": "None", "website": "None", "summary": "None", "logo": "None", "latitude": 45.49298040221559, "longitude": -73.5854491729755}, "119006773RR0001": {"name": "L'ARBRE DE VIE DE RIMOUSKI INC.", "designationCode": "C", "categoryCode": "09", "address": "344 AV. ROULEAU", "city": "RIMOUSKI", "province": "QC", "country": "CA", "postalCode": "G5L5V9", "twitter": "None", "instagram": "None", "facebook": "None", "youtube": "None", "website": "None", "summary": "None", "logo": "None", "latitude": 48.441214612556905, "longitude": -68.52338573714594}, "889707766RR0001": {"name": "L'ARC-EN-CIEL", "designationCode": "C", "categoryCode": "09", "address": "33 SAMUEL-MILLER", "city": "BAIE-COMEAU", "province": "QC", "country": "CA", "postalCode": "G4Z2B4", "twitter": "None", "instagram": "None", "facebook": "None", "youtube": "None", "website": "None", "summary": "None", "logo": "None", "latitude": 49.20873920260834, "longitude": -68.1723713630044}, "890817638RR0001": {"name": "L'ARC-EN-CIEL, CENTRE DE REALISATION DE SOI", "designationCode": "C", "categoryCode": "09", "address": "39B GOUIN OUEST", "city": "MONTREAL", "province": "QC", "country": "CA", "postalCode": "H3L1H9", "twitter": "None", "instagram": "None", "facebook": "None", "youtube": "None", "website": "None", "summary": "None", "logo": "None", "latitude": 45.55074481235902, "longitude": -73.67536656313729}, "136034899RR0001": {"name": "L'ARC-EN-CIEL, REGROUPEMENT DE PARENTS ET DE PERSONNES HANDICAP\u00c9ES", "designationCode": "C", "categoryCode": "09", "address": "25 AVENUE STE-MARIE", "city": "MONTMAGNY", "province": "QC", "country": "CA", "postalCode": "J5V2R6", "twitter": "None", "instagram": "None", "facebook": "None", "youtube": "None", "website": "None", "summary": "None", "logo": "None", "latitude": 46.98125961117193, "longitude": -70.55914964250687}, "899752042RR0001": {"name": "L'ARC-EN-SOI \"LA SARRE\" INC", "designationCode": "C", "categoryCode": "11", "address": "679-2E RUE EST                CP 6000", "city": "LA SARRE", "province": "QC", "country": "CA", "postalCode": "J9Z2X7", "twitter": "None", "instagram": "None", "facebook": "None", "youtube": "None", "website": "None", "summary": "None", "logo": "None", "latitude": 48.78645572463426, "longitude": -79.2002841465173}, "140830829RR0001": {"name": "L'ARC-EN-SOI, CENTRE DE PREVENTION ET D'INTERVENTION EN SANTE MENTALE", "designationCode": "C", "categoryCode": "09", "address": "929 RUE DE L'ANNONCIATION NORD", "city": "RIVI\u00c8RE ROUGE", "province": "QC", "country": "CA", "postalCode": "J0T1T0", "twitter": "None", "instagram": "None", "facebook": "None", "youtube": "None", "website": "None", "summary": "None", "logo": "None", "latitude": 46.416877921720896, "longitude": -74.87404180448944}, "119006914RR0001": {"name": "L'ARCHE (STRATFORD)", "designationCode": "C", "categoryCode": "01", "address": "400 HURON STREET", "city": "STRATFORD", "province": "ON", "country": "CA", "postalCode": "N5A5T5", "twitter": "None", "instagram": "None", "facebook": "None", "youtube": "None", "website": "None", "summary": "None", "logo": "None", "latitude": 43.37792103670104, "longitude": -80.9967205955331}, "119006781RR0001": {"name": "L'ARCHE ANTIGONISH", "designationCode": "C", "categoryCode": "01", "address": "4 WEST ST", "city": "ANTIGONISH", "province": "NS", "country": "CA", "postalCode": "B2G1R8", "twitter": "None", "instagram": "None", "facebook": "None", "youtube": "None", "website": "None", "summary": "None", "logo": "None", "latitude": 45.61978464253553, "longitude": -61.99749258886801}, "859744054RR0001": {"name": "L'ARCHE ANTIGONISH FOUNDATION", "designationCode": "A", "categoryCode": "03", "address": "4 WEST STREET", "city": "ANTIGONISH", "province": "NS", "country": "CA", "postalCode": "B2G1R8", "twitter": "None", "instagram": "None", "facebook": "None", "youtube": "None", "website": "None", "summary": "None", "logo": "None", "latitude": 45.61978464253553, "longitude": -61.99749258886801}, "107597650RR0001": {"name": "L'ARCHE ARNPRIOR", "designationCode": "C", "categoryCode": "01", "address": "16 EDWARD STREET SOUTH", "city": "ARNPRIOR", "province": "ON", "country": "CA", "postalCode": "K7S3W4", "twitter": "None", "instagram": "None", "facebook": "None", "youtube": "None", "website": "None", "summary": "None", "logo": "None", "latitude": 45.434786417474626, "longitude": -76.36152819677407}, "132707787RR0001": {"name": "L'ARCHE ASSOCIATION OF CALGARY", "designationCode": "C", "categoryCode": "01", "address": "307-57 AVE SW", "city": "CALGARY", "province": "AB", "country": "CA", "postalCode": "T2H2T6", "twitter": "None", "instagram": "None", "facebook": "None", "youtube": "None", "website": "None", "summary": "None", "logo": "None", "latitude": 51.00239623715959, "longitude": -114.06875191432935}, "107597635RR0001": {"name": "L'ARCHE ASSOCIATION OF EDMONTON", "designationCode": "C", "categoryCode": "01", "address": "10310 - 56 STREET NORTH WEST", "city": "EDMONTON", "province": "AB", "country": "CA", "postalCode": "T6A2J2", "twitter": "None", "instagram": "None", "facebook": "None", "youtube": "None", "website": "None", "summary": "None", "logo": "None", "latitude": 53.54508300000006, "longitude": -113.42314249999993}, "137164968RR0001": {"name": "L'ARCHE ASSOCIATION OF LETHBRIDGE", "designationCode": "C", "categoryCode": "01", "address": "240-12C STREET N", "city": "LETHBRIDGE", "province": "AB", "country": "CA", "postalCode": "T1H2M7", "twitter": "None", "instagram": "None", "facebook": "None", "youtube": "None", "website": "None", "summary": "None", "logo": "None", "latitude": 49.702527586733225, "longitude": -112.82561245354584}, "105553127RR0001": {"name": "L'ARCHE BELOEIL INC.", "designationCode": "C", "categoryCode": "01", "address": "221 RUE BERNARD-PILON", "city": "BELOEIL", "province": "QC", "country": "CA", "postalCode": "J3G1V2", "twitter": "None", "instagram": "None", "facebook": "None", "youtube": "None", "website": "None", "summary": "None", "logo": "None", "latitude": 45.548587497374285, "longitude": -73.21914566429119}, "136019122RR0001": {"name": "L'ARCHE CANADA", "designationCode": "C", "categoryCode": "01", "address": "205 - 500 BOUL GOUIN E", "city": "MONTREAL", "province": "QC", "country": "CA", "postalCode": "H3L3R9", "twitter": "None", "instagram": "None", "facebook": "None", "youtube": "None", "website": "None", "summary": "None", "logo": "None", "latitude": 45.55396891432324, "longitude": -73.67304927282524}, "889909719RR0001": {"name": "L'ARCHE CANADA FOUNDATION / FONDATION L'ARCHE CANADA", "designationCode": "A", "categoryCode": "03", "address": "300-10271 YONGE ST", "city": "RICHMOND HILL", "province": "ON", "country": "CA", "postalCode": "L4C3B5", "twitter": "None", "instagram": "None", "facebook": "None", "youtube": "None", "website": "None", "summary": "None", "logo": "None", "latitude": 43.877944833746916, "longitude": -79.43874387284349}, "130806227RR0001": {"name": "L'ARCHE CAPE BRETON SOCIETY", "designationCode": "C", "categoryCode": "01", "address": "3 LARCHE LANE", "city": "ORANGEDALE", "province": "NS", "country": "CA", "postalCode": "B0E2K0", "twitter": "None", "instagram": "None", "facebook": "None", "youtube": "None", "website": "None", "summary": "None", "logo": "None", "latitude": 45.938739553955976, "longitude": -61.148575251601315}, "899957351RR0001": {"name": "L'ARCHE COMOX VALLEY", "designationCode": "C", "categoryCode": "59", "address": "100 - 1465 GRIEVE AVE", "city": "COURTENAY", "province": "BC", "country": "CA", "postalCode": "V9N2W1", "twitter": "None", "instagram": "None", "facebook": "None", "youtube": "None", "website": "None", "summary": "None", "logo": "None", "latitude": 49.68367188337856, "longitude": -124.99668291512367}, "124336041RR0001": {"name": "L'ARCHE DAYBREAK", "designationCode": "C", "categoryCode": "01", "address": "11339 YONGE ST", "city": "RICHMOND HILL", "province": "ON", "country": "CA", "postalCode": "L4S1L1", "twitter": "None", "instagram": "None", "facebook": "None", "youtube": "None", "website": "None", "summary": "None", "logo": "None", "latitude": 43.90441021852523, "longitude": -79.44492490395373}, "119006849RR0001": {"name": "L'ARCHE DE PAIX INC.", "designationCode": "C", "categoryCode": "49", "address": "28 RUE DE L'ALIZE", "city": "ORFORD", "province": "QC", "country": "CA", "postalCode": "J1X6Y7", "twitter": "None", "instagram": "None", "facebook": "None", "youtube": "None", "website": "None", "summary": "None", "logo": "None", "latitude": 45.311052759039924, "longitude": -72.17721578806031}, "137648671RR0001": {"name": "L'ARCHE FOUNDATION OF GREATER VANCOUVER", "designationCode": "C", "categoryCode": "03", "address": "7401 SUSSEX AVENUE", "city": "BURNABY", "province": "BC", "country": "CA", "postalCode": "V5J3V6", "twitter": "None", "instagram": "None", "facebook": "None", "youtube": "None", "website": "None", "summary": "None", "logo": "None", "latitude": 49.21680482653355, "longitude": -123.00500400949238}, "864759659RR0001": {"name": "L'ARCHE HALIFAX", "designationCode": "C", "categoryCode": "01", "address": "5512 SULLIVAN ST", "city": "HALIFAX", "province": "NS", "country": "CA", "postalCode": "B3K1X7", "twitter": "None", "instagram": "None", "facebook": "None", "youtube": "None", "website": "None", "summary": "None", "logo": "None", "latitude": 44.66174693421438, "longitude": -63.59801460323741}, "131916488RR0001": {"name": "L'ARCHE HAMILTON", "designationCode": "C", "categoryCode": "01", "address": "664 MAIN STREET EAST", "city": "HAMILTON", "province": "ON", "country": "CA", "postalCode": "L8M1K2", "twitter": "None", "instagram": "None", "facebook": "None", "youtube": "None", "website": "None", "summary": "None", "logo": "None", "latitude": 43.24861498415964, "longitude": -79.84354909576425}, "876826520RR0001": {"name": "L'ARCHE JOLIETTE", "designationCode": "C", "categoryCode": "01", "address": "144 RUE ST-JOSEPH             SUITE 2-16", "city": "JOLIETTE", "province": "QC", "country": "CA", "postalCode": "J6E5C4", "twitter": "None", "instagram": "None", "facebook": "None", "youtube": "None", "website": "None", "summary": "None", "logo": "None", "latitude": 46.026606530122855, "longitude": -73.44158207325879}, "107597684RR0001": {"name": "L'ARCHE L'ETOILE INC.", "designationCode": "C", "categoryCode": "01", "address": "218 RUE ST-SAUVEUR", "city": "QU\u00c9BEC", "province": "QC", "country": "CA", "postalCode": "G1N4S1", "twitter": "None", "instagram": "None", "facebook": "None", "youtube": "None", "website": "None", "summary": "None", "logo": "None", "latitude": 46.80993394725612, "longitude": -71.24337103041131}, "129534434RR0001": {"name": "L'ARCHE LE PRINTEMPS INC", "designationCode": "C", "categoryCode": "01", "address": "1375 RUE PRINCIPALE CP 68", "city": "ST-MALACHIE", "province": "QC", "country": "CA", "postalCode": "G0R3N0", "twitter": "None", "instagram": "None", "facebook": "None", "youtube": "None", "website": "None", "summary": "None", "logo": "None", "latitude": 46.6806109236828, "longitude": -70.4520251046224}, "891835241RR0001": {"name": "L'ARCHE LONDON", "designationCode": "C", "categoryCode": "01", "address": "4448 COLONEL TALBOT RD", "city": "LONDON", "province": "ON", "country": "CA", "postalCode": "N6P1B6", "twitter": "None", "instagram": "None", "facebook": "None", "youtube": "None", "website": "None", "summary": "None", "logo": "None", "latitude": 42.9056141693115, "longitude": -81.29815882344647}, "107557118RR0001": {"name": "L'ARCHE NORTH BAY", "designationCode": "C", "categoryCode": "01", "address": "102 FIRST AVE EAST", "city": "NORTH BAY", "province": "ON", "country": "CA", "postalCode": "P1B3B9", "twitter": "None", "instagram": "None", "facebook": "None", "youtube": "None", "website": "None", "summary": "None", "logo": "None", "latitude": 46.31173753095958, "longitude": -79.46055880887552}, "863454872RR0001": {"name": "L'ARCHE SASKATOON INC.", "designationCode": "C", "categoryCode": "11", "address": "P.O. BOX 23006", "city": "SASKATOON", "province": "SK", "country": "CA", "postalCode": "S7J5H3", "twitter": "None", "instagram": "None", "facebook": "None", "youtube": "None", "website": "None", "summary": "None", "logo": "None", "latitude": 52.09428300000006, "longitude": -106.60963399999993}, "107303554RR0001": {"name": "L'ARCHE SUDBURY INC.", "designationCode": "C", "categoryCode": "01", "address": "1173 RIDEAU STREET", "city": "SUDBURY", "province": "ON", "country": "CA", "postalCode": "P3A3A5", "twitter": "None", "instagram": "None", "facebook": "None", "youtube": "None", "website": "None", "summary": "None", "logo": "None", "latitude": 46.522763999999995, "longitude": -80.97031189901294}, "860728179RR0001": {"name": "L'ARCHE TORONTO HOMES INC.", "designationCode": "C", "categoryCode": "09", "address": "186 FLOYD AVENUE", "city": "TORONTO", "province": "ON", "country": "CA", "postalCode": "M4J2J1", "twitter": "None", "instagram": "None", "facebook": "None", "youtube": "None", "website": "None", "summary": "None", "logo": "None", "latitude": 43.68778624176225, "longitude": -79.3468482006751}, "107597692RR0001": {"name": "L'ARCHE WINNIPEG INCORPORATED", "designationCode": "C", "categoryCode": "11", "address": "118 REGENT AVE. E.", "city": "WINNIPEG", "province": "MB", "country": "CA", "postalCode": "R2C0C1", "twitter": "None", "instagram": "None", "facebook": "None", "youtube": "None", "website": "None", "summary": "None", "logo": "None", "latitude": 49.895034539529256, "longitude": -97.00123402553523}, "132710716RR0001": {"name": "L'ARCHE-MONTREAL", "designationCode": "C", "categoryCode": "09", "address": "6105, RUE JOGUES", "city": "MONTR\u00c9AL", "province": "QC", "country": "CA", "postalCode": "H4E2W2", "twitter": "None", "instagram": "None", "facebook": "None", "youtube": "None", "website": "None", "summary": "None", "logo": "None", "latitude": 45.45588924839869, "longitude": -73.60226471665969}, "107597700RR0001": {"name": "L'ARCHE-OTTAWA", "designationCode": "C", "categoryCode": "01", "address": "11 ROSSLAND AVE", "city": "NEPEAN", "province": "ON", "country": "CA", "postalCode": "K2G2K2", "twitter": "None", "instagram": "None", "facebook": "None", "youtube": "None", "website": "None", "summary": "None", "logo": "None", "latitude": 45.354238363609966, "longitude": -75.73717425786239}, "130002553RR0001": {"name": "L'ARCHEV\u00caQUE CATHOLIQUE ROMAIN DE ST-GERMAIN DE RIMOUSKI", "designationCode": "C", "categoryCode": "38", "address": "34 EV\u00caCH\u00c9 OUEST", "city": "RIMOUSKI", "province": "QC", "country": "CA", "postalCode": "G5L4H5", "twitter": "None", "instagram": "None", "facebook": "None", "youtube": "None", "website": "None", "summary": "None", "logo": "None", "latitude": 48.44803701918723, "longitude": -68.52530080841323}, "119006922RR0001": {"name": "L'ARCHEVECHE DE QUEBEC", "designationCode": "C", "categoryCode": "38", "address": "1073 BOUL. RENE-LEVESQUE O", "city": "QU\u00c9BEC", "province": "QC", "country": "CA", "postalCode": "G1S4R5", "twitter": "None", "instagram": "None", "facebook": "None", "youtube": "None", "website": "None", "summary": "None", "logo": "None", "latitude": 46.79480836547074, "longitude": -71.24324980090242}, "131802803RR0001": {"name": "L'ARCHEVEQUE CATHOLIQUE ROMAIN DE GATINEAU-HULL", "designationCode": "C", "categoryCode": "38", "address": "180 MONT-BLEU", "city": "HULL", "province": "QC", "country": "CA", "postalCode": "J8Z3J5", "twitter": "None", "instagram": "None", "facebook": "None", "youtube": "None", "website": "None", "summary": "None", "logo": "None", "latitude": 45.46100249047804, "longitude": -75.76368227130817}, "119006930RR0001": {"name": "L'ARCHEVEQUE CATHOLIQUE ROMAIN DE MONTREAL-THE ROMAN CATHOLIC ARCHBISHOP OF MONTREAL", "designationCode": "C", "categoryCode": "49", "address": "2000 OUEST RUE SHERBROOKE", "city": "MONTREAL", "province": "QC", "country": "CA", "postalCode": "H3H1G4", "twitter": "None", "instagram": "None", "facebook": "None", "youtube": "None", "website": "None", "summary": "None", "logo": "None", "latitude": 45.49368344489018, "longitude": -73.5842704953837}, "130385727RR0001": {"name": "L'ARCHIPEL D'ENTRAIDE", "designationCode": "C", "categoryCode": "11", "address": "190, RUE ST-JOSEPH EST        R.DE-C.", "city": "QUEBEC", "province": "QC", "country": "CA", "postalCode": "G1K3A7", "twitter": "None", "instagram": "None", "facebook": "None", "youtube": "None", "website": "None", "summary": "None", "logo": "None", "latitude": 46.81294800000006, "longitude": -71.22872149999993}, "131959553RR0001": {"name": "L'ARMEE DE MARIE INC", "designationCode": "C", "categoryCode": "49", "address": "626 ROUTE DU SANCTUAIRE", "city": "LAC-ETCHEMIN", "province": "QC", "country": "CA", "postalCode": "G0R1S0", "twitter": "None", "instagram": "None", "facebook": "None", "youtube": "None", "website": "None", "summary": "None", "logo": "None", "latitude": 46.38889625578277, "longitude": -70.50398658702751}, "129620555RR0001": {"name": "L'ARRET-SOURCE INC", "designationCode": "C", "categoryCode": "01", "address": "C.P. 35032                    1221, RUE FLEURY EST", "city": "MONTR\u00c9AL", "province": "QC", "country": "CA", "postalCode": "H2C3K4", "twitter": "None", "instagram": "None", "facebook": "None", "youtube": "None", "website": "None", "summary": "None", "logo": "None", "latitude": 45.55956159867844, "longitude": -73.65836115047003}, "119214237RR0001": {"name": "L'ARRIERE SCENE, CENTRE DRAMATIQUE POUR L'ENFANCE ET LA JEUNESSE EN MONTEREGIE", "designationCode": "C", "categoryCode": "22", "address": "CP 329 SUCC BUREAU-CHEF", "city": "BELOEIL", "province": "QC", "country": "CA", "postalCode": "J3G5S9", "twitter": "None", "instagram": "None", "facebook": "None", "youtube": "None", "website": "None", "summary": "None", "logo": "None", "latitude": 45.56709600000005, "longitude": -73.20307399999993}, "119007250RR0001": {"name": "L'ARSENAL A MUSIQUE INC.", "designationCode": "C", "categoryCode": "22", "address": "1511, RUE CANORA", "city": "VILLE MONT-ROYAL", "province": "QC", "country": "CA", "postalCode": "H3P2J8", "twitter": "None", "instagram": "None", "facebook": "None", "youtube": "None", "website": "None", "summary": "None", "logo": "None", "latitude": 45.51752491369946, "longitude": -73.64613564986446}, "864918412RR0001": {"name": "L'ART RIVE, CENTRE DE JOUR DE RIVIERE DES PRAIRIES", "designationCode": "C", "categoryCode": "11", "address": "8178 BOUL. MAURICE DUPLESSIS", "city": "MONTREAL", "province": "QC", "country": "CA", "postalCode": "H1E2Y5", "twitter": "None", "instagram": "None", "facebook": "None", "youtube": "None", "website": "None", "summary": "None", "logo": "None", "latitude": 45.63325254258769, "longitude": -73.58699254382842}, "141434746RR0001": {"name": "L'ASSEMBL\u00c9E CHR\u00c9TIENNE \u00c9VANGELIQUE DE SAINTE-MARIE-DE-BEAUCE", "designationCode": "C", "categoryCode": "39", "address": "525 RTE SAINT-ELZEAR", "city": "SAINTE-MARIE", "province": "QC", "country": "CA", "postalCode": "G6E0N3", "twitter": "None", "instagram": "None", "facebook": "None", "youtube": "None", "website": "None", "summary": "None", "logo": "None", "latitude": 46.42456397143502, "longitude": -71.03657928660026}, "119008233RR0001": {"name": "L'ASSEMBL\u00c9E CHR\u00c9TIENNE CENTRE-SUD, MONTR\u00c9AL", "designationCode": "C", "categoryCode": "39", "address": "1092, DE NORMANDIE", "city": "MASCOUCHE", "province": "QC", "country": "CA", "postalCode": "J7L1Y8", "twitter": "None", "instagram": "None", "facebook": "None", "youtube": "None", "website": "None", "summary": "None", "logo": "None", "latitude": 45.74483825116863, "longitude": -73.66849827451081}, "118791284RR0001": {"name": "L'ASSEMBL\u00c9E CHR\u00c9TIENNE DE THETFORD MINES", "designationCode": "C", "categoryCode": "39", "address": "725, RUE SIMONEAU", "city": "THETFORD-MINES", "province": "QC", "country": "CA", "postalCode": "G6G1V3", "twitter": "None", "instagram": "None", "facebook": "None", "youtube": "None", "website": "None", "summary": "None", "logo": "None", "latitude": 46.1041372131686, "longitude": -71.29399226882667}, "854375987RR0001": {"name": "L'ASSEMBL\u00c9E SPIRITUELLE DES BAHA'IS DE BROSSARD", "designationCode": "B", "categoryCode": "33", "address": "935 VALOIS", "city": "BROSSARD", "province": "QC", "country": "CA", "postalCode": "J4W2E1", "twitter": "None", "instagram": "None", "facebook": "None", "youtube": "None", "website": "None", "summary": "None", "logo": "None", "latitude": 45.46912421426512, "longitude": -73.48876342143242}, "119022630RR0001": {"name": "L'ASSEMBL\u00c9E SPIRITUELLE DES BAHA'IS DE QU\u00c9BEC", "designationCode": "C", "categoryCode": "33", "address": "75 RUE D'AUTEUIL", "city": "QUEBEC", "province": "QC", "country": "CA", "postalCode": "G1R4C3", "twitter": "None", "instagram": "None", "facebook": "None", "youtube": "None", "website": "None", "summary": "None", "logo": "None", "latitude": 46.81039055704307, "longitude": -71.2104002561603}, "890203045RR0001": {"name": "L'ASSEMBLEE CHRETIENNE DE LA PENTECOTE/PENTECOSTAL CHRISTIANASSEMBLY GASPE, QUEBEC", "designationCode": "C", "categoryCode": "36", "address": "25 MGR. ROSS", "city": "GASPE", "province": "QC", "country": "CA", "postalCode": "G4X1L7", "twitter": "None", "instagram": "None", "facebook": "None", "youtube": "None", "website": "None", "summary": "None", "logo": "None", "latitude": 48.83089501550074, "longitude": -64.48977624075239}, "119008266RR0001": {"name": "L'ASSEMBLEE CHRETIENNE DE MONTMAGNY", "designationCode": "C", "categoryCode": "39", "address": "291 ST-IGNACE", "city": "MONTMAGNY", "province": "QC", "country": "CA", "postalCode": "G5V1S4", "twitter": "None", "instagram": "None", "facebook": "None", "youtube": "None", "website": "None", "summary": "None", "logo": "None", "latitude": 46.9836571110277, "longitude": -70.54374184445138}, "118791433RR0001": {"name": "L'ASSEMBLEE CHRETIENNE DE SHAWINIGAN FALLS", "designationCode": "C", "categoryCode": "39", "address": "1763 69E RUE                  C.P 73", "city": "SHAWINIGAN", "province": "QC", "country": "CA", "postalCode": "G9N6T8", "twitter": "None", "instagram": "None", "facebook": "None", "youtube": "None", "website": "None", "summary": "None", "logo": "None", "latitude": 46.57829494474595, "longitude": -72.71794634196988}, "106727449RR0001": {"name": "L'ASSEMBLEE CHRETIENNE DU NORD", "designationCode": "C", "categoryCode": "39", "address": "357 GAUTHIER", "city": "ST-JEROME", "province": "QC", "country": "CA", "postalCode": "J7Y3G2", "twitter": "None", "instagram": "None", "facebook": "None", "youtube": "None", "website": "None", "summary": "None", "logo": "None", "latitude": 45.7788919350511, "longitude": -74.01268336078269}, "846506160RR0001": {"name": "L'ASSEMBLEE CHRETIENNE MONT DES OLIVIERS", "designationCode": "B", "categoryCode": "47", "address": "53-P, RUE SUMAC", "city": "OTTAWA", "province": "ON", "country": "CA", "postalCode": "K1J7T7", "twitter": "None", "instagram": "None", "facebook": "None", "youtube": "None", "website": "None", "summary": "None", "logo": "None", "latitude": 45.44454439497357, "longitude": -75.60494084647154}, "119008340RR0001": {"name": "L'ASSEMBLEE DE LA BONNE NOUVELLE A MONTREAL", "designationCode": "C", "categoryCode": "39", "address": "7393 18E AVENUE", "city": "MONTREAL", "province": "QC", "country": "CA", "postalCode": "H2A2N4", "twitter": "None", "instagram": "None", "facebook": "None", "youtube": "None", "website": "None", "summary": "None", "logo": "None", "latitude": 45.56535826868243, "longitude": -73.5968492247967}, "839494143RR0001": {"name": "L'ASSEMBLEE DE LA NOUVELLE ALLIANCE", "designationCode": "C", "categoryCode": "39", "address": "307 ST-JACQUES, NORD", "city": "CAUSAPSCAL", "province": "QC", "country": "CA", "postalCode": "G0J1J0", "twitter": "None", "instagram": "None", "facebook": "None", "youtube": "None", "website": "None", "summary": "None", "logo": "None", "latitude": 48.363467426048736, "longitude": -67.2319213191473}, "106727548RR0001": {"name": "L'ASSEMBLEE DU PLEIN EVANGILE", "designationCode": "C", "categoryCode": "36", "address": "300 RUE LAFLEUR", "city": "LASALLE", "province": "QC", "country": "CA", "postalCode": "H8R3H5", "twitter": "None", "instagram": "None", "facebook": "None", "youtube": "None", "website": "None", "summary": "None", "logo": "None", "latitude": 45.42986997475325, "longitude": -73.64762486210941}, "886121110RR0001": {"name": "L'ASSEMBLEE NOUVELLE ALLIANCE", "designationCode": "C", "categoryCode": "39", "address": "541 DANFORTH ROAD", "city": "SCARBOROUGH", "province": "ON", "country": "CA", "postalCode": "M1K1C9", "twitter": "None", "instagram": "None", "facebook": "None", "youtube": "None", "website": "None", "summary": "None", "logo": "None", "latitude": 43.70985180402809, "longitude": -79.26542193961006}, "132135211RR0001": {"name": "L'ASSEMBLEE SPIRITUELLE DES BAHA'IS DE CHELSEA", "designationCode": "C", "categoryCode": "33", "address": "84 JUNIPER RD", "city": "CHELSEA", "province": "QC", "country": "CA", "postalCode": "J9B1T3", "twitter": "None", "instagram": "None", "facebook": "None", "youtube": "None", "website": "None", "summary": "None", "logo": "None", "latitude": 45.527002523717556, "longitude": -75.81529257724084}, "834449928RR0001": {"name": "L'ASSEMBLEE SPIRITUELLE DES BAHA'IS DE DRUMMONDVILLE", "designationCode": "B", "categoryCode": "33", "address": "246 RUE DE LA ROCHE", "city": "DRUMMONDVILLE", "province": "QC", "country": "CA", "postalCode": "J2C1V7", "twitter": "None", "instagram": "None", "facebook": "None", "youtube": "None", "website": "None", "summary": "None", "logo": "None", "latitude": 45.89318238995327, "longitude": -72.50880623988725}, "888780749RR0001": {"name": "L'ASSEMBLEE SPIRITUELLE DES BAHA'IS DE GASPE", "designationCode": "B", "categoryCode": "33", "address": "792 MONTEE DE WAKEHAM", "city": "GASPE", "province": "QC", "country": "CA", "postalCode": "G4X2A1", "twitter": "None", "instagram": "None", "facebook": "None", "youtube": "None", "website": "None", "summary": "None", "logo": "None", "latitude": 48.83818339760565, "longitude": -64.58564774092257}, "119008381RR0001": {"name": "L'ASSEMBLEE SPIRITUELLE DES BAHA'IS DE LONGUEUIL / THE SPIRITUAL ASSEMBLY OF THE BAHA'IS OF LONGUEUIL", "designationCode": "C", "categoryCode": "33", "address": "3189 RUE DU MAJOR", "city": "LONGUEUIL", "province": "QC", "country": "CA", "postalCode": "J4L4K8", "twitter": "None", "instagram": "None", "facebook": "None", "youtube": "None", "website": "None", "summary": "None", "logo": "None", "latitude": 45.51923817291818, "longitude": -73.44818334344178}, "119310811RR0001": {"name": "L'ASSEMBLEE SPIRITUELLE DES BAHA'IS DE SAGUENAY", "designationCode": "C", "categoryCode": "33", "address": "356, DU FOYER", "city": "CHICOUTIMI", "province": "QC", "country": "CA", "postalCode": "G7H3W4", "twitter": "None", "instagram": "None", "facebook": "None", "youtube": "None", "website": "None", "summary": "None", "logo": "None", "latitude": 48.424739866235704, "longitude": -71.03600671236053}, "136031358RR0001": {"name": "L'ASSIETTE BEAUCERONNE", "designationCode": "C", "categoryCode": "09", "address": "12215 2E AVENUE", "city": "SAINT-GEORGES", "province": "QC", "country": "CA", "postalCode": "G5Y1X7", "twitter": "None", "instagram": "None", "facebook": "None", "youtube": "None", "website": "None", "summary": "None", "logo": "None", "latitude": 46.11979186929413, "longitude": -70.66927658240539}, "886610195RR0001": {"name": "L'ASSISTANCE AUX PR\u00caTRES RETIR\u00c9S DU DIOC\u00c8SE DE SHERBROOKE", "designationCode": "C", "categoryCode": "09", "address": "1415 RUE GODBOUT #19", "city": "SHERBROOKE", "province": "QC", "country": "CA", "postalCode": "J1K2C7", "twitter": "None", "instagram": "None", "facebook": "None", "youtube": "None", "website": "None", "summary": "None", "logo": "None", "latitude": 45.385109360811356, "longitude": -71.93699059082991}, "102987435RR0001": {"name": "L'ASSOCIATION ACTION-PLUS FARNHAM INC.", "designationCode": "C", "categoryCode": "01", "address": "102-525 ST-EDOUARD", "city": "FARNHAM", "province": "QC", "country": "CA", "postalCode": "J2N1G6", "twitter": "None", "instagram": "None", "facebook": "None", "youtube": "None", "website": "None", "summary": "None", "logo": "None", "latitude": 45.28669669582767, "longitude": -72.97262011209556}, "119008464RR0001": {"name": "L'ASSOCIATION BENEVOLE DE BELLEVUE INC.", "designationCode": "C", "categoryCode": "01", "address": "CP 27", "city": "ST ISIDORE DE BELLEVUE", "province": "SK", "country": "CA", "postalCode": "S0K3Y0", "twitter": "None", "instagram": "None", "facebook": "None", "youtube": "None", "website": "None", "summary": "None", "logo": "None", "latitude": 52.78337000000005, "longitude": -105.91779999999994}, "894052653RR0001": {"name": "L'ASSOCIATION BENEVOLE DE L'ILE D'ORLEANS", "designationCode": "C", "categoryCode": "09", "address": "1367, CH. ROYAL, PORTE 202", "city": "SAINT-PIERRE-ILE-D'ORLEANS", "province": "QC", "country": "CA", "postalCode": "G0A4E0", "twitter": "None", "instagram": "None", "facebook": "None", "youtube": "None", "website": "None", "summary": "None", "logo": "None", "latitude": 46.89165106092427, "longitude": -71.069569256186}, "840940969RR0001": {"name": "L'ASSOCIATION CANADIENNE DE LA MALADIE COELIAQUE, CHAPITRE QUEBECOIS CANADIAN CELIAC ASSOCIATION, QUEBEC CHAPTER", "designationCode": "C", "categoryCode": "11", "address": "685 RUE VERDURE", "city": "BROSSARD", "province": "QC", "country": "CA", "postalCode": "J4W1R5", "twitter": "None", "instagram": "None", "facebook": "None", "youtube": "None", "website": "None", "summary": "None", "logo": "None", "latitude": 45.477011474032096, "longitude": -73.49257104815626}, "119008480RR0001": {"name": "L'ASSOCIATION CANADIENNE DE PHILOSOPHIE-THE CANADIAN PHILOSOPHICAL ASSOCIATION", "designationCode": "C", "categoryCode": "21", "address": "PO BOX 47077 RPO BLACKBURN", "city": "GLOUCESTER", "province": "ON", "country": "CA", "postalCode": "K1B5P9", "twitter": "None", "instagram": "None", "facebook": "None", "youtube": "None", "website": "None", "summary": "None", "logo": "None", "latitude": 45.42575818823898, "longitude": -75.57498592997155}, "868287368RR0001": {"name": "L'ASSOCIATION CANADIENNE DES ETUDES PATRISTIQUES/THE CANADIAN SOCIETY OF PATRISTIC STUDIES (CSPS/ACEP)", "designationCode": "C", "categoryCode": "49", "address": "7128 ADA BLVD", "city": "EDMONTON", "province": "AB", "country": "CA", "postalCode": "T5B4E4", "twitter": "None", "instagram": "None", "facebook": "None", "youtube": "None", "website": "None", "summary": "None", "logo": "None", "latitude": 53.55944946243265, "longitude": -113.4451323447685}, "886262195RR0001": {"name": "L'ASSOCIATION CANADIENNE DES RELATIONS INDUSTRIELLES/THE CANADIAN INDUSTRIALRELATIONS ASSOCIATIONN", "designationCode": "C", "categoryCode": "59", "address": "UNIVERSIT\u00c9 DE MONTR\u00c9AL        C.P. 6128, SUCC. CENTRE-VILLE", "city": "MONTR\u00c9AL", "province": "QC", "country": "CA", "postalCode": "H3C3J7", "twitter": "None", "instagram": "None", "facebook": "None", "youtube": "None", "website": "None", "summary": "None", "logo": "None", "latitude": 45.49833600000005, "longitude": -73.55148649999994}, "130302110RR0001": {"name": "L'ASSOCIATION CANADIENNE POUR LA SANTE MENTALE FILIALE DE CHICOUTIMI", "designationCode": "C", "categoryCode": "11", "address": "371, RUE RACINE EST", "city": "CHICOUTIMI", "province": "QC", "country": "CA", "postalCode": "G7H1S8", "twitter": "None", "instagram": "None", "facebook": "None", "youtube": "None", "website": "None", "summary": "None", "logo": "None", "latitude": 48.427741727739544, "longitude": -71.05693171968946}, "888799590RR0001": {"name": "L'ASSOCIATION CANADIENNE POUR LA SANTE MENTALE FILIALE DE QUEBEC", "designationCode": "C", "categoryCode": "11", "address": "220 - 8255 BOUL HENRI-BOURASSA", "city": "QUEBEC", "province": "QC", "country": "CA", "postalCode": "G1G4C8", "twitter": "None", "instagram": "None", "facebook": "None", "youtube": "None", "website": "None", "summary": "None", "logo": "None", "latitude": 46.86354429695897, "longitude": -71.26916283974819}, "889757647RR0001": {"name": "L'ASSOCIATION D'ENTRAIDE DES AVOCATS DE MONTREAL/THE MONTREAL ADVOCATES' MUTUAL ASSISTANCEASSOCIATION", "designationCode": "C", "categoryCode": "09", "address": "PALAIS DE JUSTICE 9 E ETAGE", "city": "MONTREAL", "province": "QC", "country": "CA", "postalCode": "H2Y1B6", "twitter": "None", "instagram": "None", "facebook": "None", "youtube": "None", "website": "None", "summary": "None", "logo": "None", "latitude": 45.50626002005265, "longitude": -73.5556100450109}, "120393079RR0001": {"name": "L'ASSOCIATION D'ILEOSTOMIE ET DE COLOSTOMIE DE MONTREAL / ILEOSTOMY AND COLOSTOMY ASSOCIATION OF MONTREAL", "designationCode": "B", "categoryCode": "20", "address": "949 PIERRE LACROIX", "city": "MONTREAL", "province": "QC", "country": "CA", "postalCode": "H1B3C7", "twitter": "None", "instagram": "None", "facebook": "None", "youtube": "None", "website": "None", "summary": "None", "logo": "None", "latitude": 45.64720034000799, "longitude": -73.4949557396561}, "886484088RR0001": {"name": "L'ASSOCIATION DE L'EGLISE NORVEGIENNE/NORWEGIAN CHURCH ASSOCIATION", "designationCode": "C", "categoryCode": "39", "address": "5065 SHERBROOKE STREET", "city": "LACHINE", "province": "QC", "country": "CA", "postalCode": "H8T1H9", "twitter": "None", "instagram": "None", "facebook": "None", "youtube": "None", "website": "None", "summary": "None", "logo": "None", "latitude": 45.444971495672185, "longitude": -73.7139597485429}, "121154124RR0001": {"name": "L'ASSOCIATION DE L'OUIE DE L'OUTAOUAIS", "designationCode": "C", "categoryCode": "09", "address": "115 BOUL. SACRE-COEUR         PIECE 206", "city": "GATINEAU", "province": "QC", "country": "CA", "postalCode": "J8X1C5", "twitter": "None", "instagram": "None", "facebook": "None", "youtube": "None", "website": "None", "summary": "None", "logo": "None", "latitude": 45.43728742829908, "longitude": -75.71438591341101}, "872141924RR0001": {"name": "L'ASSOCIATION DE LA BIBLE DE MONTREAL/THE MONTREAL BIBLE FELLOWSHIP", "designationCode": "C", "categoryCode": "47", "address": "75 CHEMIN DE LA BEAUCE", "city": "SAINTE-MARTINE", "province": "QC", "country": "CA", "postalCode": "J0S1V0", "twitter": "None", "instagram": "None", "facebook": "None", "youtube": "None", "website": "None", "summary": "None", "logo": "None", "latitude": 45.26735105715865, "longitude": -73.7992760942637}, "862066180RR0001": {"name": "L'ASSOCIATION DE LA BIBLIOTHEQUE D'AYER'S CLIFF / AYER'S CLIFF LIBRARY ASSOCIATION", "designationCode": "C", "categoryCode": "50", "address": "150 TYLER", "city": "AYERS CLIFF", "province": "QC", "country": "CA", "postalCode": "J0B1C0", "twitter": "None", "instagram": "None", "facebook": "None", "youtube": "None", "website": "None", "summary": "None", "logo": "None", "latitude": 45.16836162819683, "longitude": -72.03909322120155}}