{"891730731RR0001": {"name": "THE RYCKMAN TRUST", "designationCode": "B", "categoryCode": "05", "address": "155 WELLINGTON ST. W.         20TH FLOOR", "city": "TORONTO", "province": "ON", "country": "CA", "postalCode": "M5V3K7", "twitter": "None", "instagram": "None", "facebook": "None", "youtube": "None", "website": "None", "summary": "None", "logo": "None", "latitude": 43.64596585316531, "longitude": -79.38574575644876}, "846043123RR0001": {"name": "THE RYF CHARITABLE TRUST", "designationCode": "B", "categoryCode": "03", "address": "51 PRUE AVENUE", "city": "TORONTO", "province": "ON", "country": "CA", "postalCode": "M6B1R3", "twitter": "None", "instagram": "None", "facebook": "None", "youtube": "None", "website": "None", "summary": "None", "logo": "None", "latitude": 43.70878481652158, "longitude": -79.43102415430785}, "889090163RR0001": {"name": "THE S & L STERN FOUNDATION", "designationCode": "B", "categoryCode": "25", "address": "6 ELDERBERRY COURT", "city": "DOWNSVIEW", "province": "ON", "country": "CA", "postalCode": "M5H5X4", "twitter": "None", "instagram": "None", "facebook": "None", "youtube": "None", "website": "None", "summary": "None", "logo": "None", "latitude": 43.51352226089217, "longitude": -80.19038008814687}, "889006177RR0001": {"name": "THE S A FOUNDATION (SERVANTS ANONYMOUS)-CANADA", "designationCode": "A", "categoryCode": "53", "address": "1696 W 75 AVENUE", "city": "VANCOUVER", "province": "BC", "country": "CA", "postalCode": "V6P6G2", "twitter": "None", "instagram": "None", "facebook": "None", "youtube": "None", "website": "None", "summary": "None", "logo": "None", "latitude": 49.20618031629543, "longitude": -123.14680625311138}, "888126240RR0001": {"name": "THE S AND M DI COSTANZO FAMILY CHARITABLE FOUNDATION", "designationCode": "B", "categoryCode": "03", "address": "31 TODD COURT", "city": "WOODBRIDGE", "province": "ON", "country": "CA", "postalCode": "L4L2N4", "twitter": "None", "instagram": "None", "facebook": "None", "youtube": "None", "website": "None", "summary": "None", "logo": "None", "latitude": 43.803048423567226, "longitude": -79.58806480985646}, "871077103RR0001": {"name": "THE S E LAM FAMILY FOUNDATION", "designationCode": "B", "categoryCode": "25", "address": "281 ELLERSLIE AVENUE", "city": "TORONTO", "province": "ON", "country": "CA", "postalCode": "M2R1B6", "twitter": "None", "instagram": "None", "facebook": "None", "youtube": "None", "website": "None", "summary": "None", "logo": "None", "latitude": 43.76838686037866, "longitude": -79.42744542838598}, "119257293RR0001": {"name": "THE S SIGLER FAMILY CHARITABLE FOUNDATION", "designationCode": "B", "categoryCode": "23", "address": "600 - 2828 BATHURST ST", "city": "NORTH YORK", "province": "ON", "country": "CA", "postalCode": "M6B3A7", "twitter": "None", "instagram": "None", "facebook": "None", "youtube": "None", "website": "None", "summary": "None", "logo": "None", "latitude": 43.7135261806798, "longitude": -79.42845701390712}, "897948436RR0001": {"name": "THE S.H.A.R.P. FOUNDATION (SOCIETY HOUSING AIDS RESTRICTED PERSONS)", "designationCode": "C", "categoryCode": "09", "address": "A023 - 5717 2 ST SW", "city": "CALGARY", "province": "AB", "country": "CA", "postalCode": "T2H0A1", "twitter": "None", "instagram": "None", "facebook": "None", "youtube": "None", "website": "None", "summary": "None", "logo": "None", "latitude": 51.004217935044956, "longitude": -114.06859520938674}, "899298202RR0001": {"name": "THE S.I.G.N. FOUNDATION (THE STRENGTH IN GREATER NUMBERS FOUNDATION)", "designationCode": "A", "categoryCode": "21", "address": "23 ALMINGTON BAY", "city": "WINNIPEG", "province": "MB", "country": "CA", "postalCode": "R3Y0E5", "twitter": "None", "instagram": "None", "facebook": "None", "youtube": "None", "website": "None", "summary": "None", "logo": "None", "latitude": 49.802727750872336, "longitude": -97.17944908055003}, "888302064RR0001": {"name": "THE SA RANG BAPTIST CHURCH OF SURREY", "designationCode": "C", "categoryCode": "31", "address": "11706 96 AVE", "city": "DELTA", "province": "BC", "country": "CA", "postalCode": "V4C3W7", "twitter": "None", "instagram": "None", "facebook": "None", "youtube": "None", "website": "None", "summary": "None", "logo": "None", "latitude": 49.17705225520043, "longitude": -122.89818841189546}, "884719717RR0001": {"name": "THE SAANICH HISTORICAL ARTIFACTS FOUNDATION", "designationCode": "A", "categoryCode": "53", "address": "7321 LOCHSIDE DRIVE", "city": "SAANICHTON", "province": "BC", "country": "CA", "postalCode": "V8M1W4", "twitter": "None", "instagram": "None", "facebook": "None", "youtube": "None", "website": "None", "summary": "None", "logo": "None", "latitude": 48.57534205672563, "longitude": -123.39705381221923}, "119618429RR0001": {"name": "THE SACKVILLE MEMORIAL HOSPITAL FOUNDATION INCORPORATED", "designationCode": "A", "categoryCode": "13", "address": "SACKVILLE MEMORIAL HOSPITAL   8 MAIN STREET", "city": "SACKVILLE", "province": "NB", "country": "CA", "postalCode": "E4L4A3", "twitter": "None", "instagram": "None", "facebook": "None", "youtube": "None", "website": "None", "summary": "None", "logo": "None", "latitude": 45.892139973887936, "longitude": -64.37274996277934}, "892381963RR0001": {"name": "THE SAE MOON AN PRESBYTERIAN CHURCH OF VANCOUVER", "designationCode": "C", "categoryCode": "37", "address": "2600 AUSTIN AVE", "city": "COQUITLAM", "province": "BC", "country": "CA", "postalCode": "V3K6C4", "twitter": "None", "instagram": "None", "facebook": "None", "youtube": "None", "website": "None", "summary": "None", "logo": "None", "latitude": 49.24904852842077, "longitude": -122.82019102553522}, "869125575RR0001": {"name": "THE SAESON PRESBYTERIAN CHURCH IN CANADA", "designationCode": "C", "categoryCode": "37", "address": "7283 NELSON AVENUE", "city": "BURNABY", "province": "BC", "country": "CA", "postalCode": "V5J4E2", "twitter": "None", "instagram": "None", "facebook": "None", "youtube": "None", "website": "None", "summary": "None", "logo": "None", "latitude": 49.217466739322134, "longitude": -122.9940631374575}, "894907682RR0001": {"name": "THE SAFE HAVEN FOUNDATION OF CANADA", "designationCode": "C", "categoryCode": "01", "address": "609-7620 ELBOW DRIVE SW", "city": "CALGARY", "province": "AB", "country": "CA", "postalCode": "T2V1K2", "twitter": "None", "instagram": "None", "facebook": "None", "youtube": "None", "website": "None", "summary": "None", "logo": "None", "latitude": 50.98527321929785, "longitude": -114.08309202200739}, "823033543RR0001": {"name": "THE SAHARA FOUNDATION", "designationCode": "B", "categoryCode": "03", "address": "6331 DEER VALLEY CRESCENT", "city": "GREELY", "province": "ON", "country": "CA", "postalCode": "K4P0A9", "twitter": "None", "instagram": "None", "facebook": "None", "youtube": "None", "website": "None", "summary": "None", "logo": "None", "latitude": 45.24283080238332, "longitude": -75.61157190328252}, "893304360RR0001": {"name": "THE SAINT GERMAIN FOUNDATION OF OTTAWA", "designationCode": "C", "categoryCode": "47", "address": "6202 RAVINE WAY", "city": "ORLEANS OTTAWA", "province": "ON", "country": "CA", "postalCode": "K1C2W4", "twitter": "None", "instagram": "None", "facebook": "None", "youtube": "None", "website": "None", "summary": "None", "logo": "None", "latitude": 45.47753864862373, "longitude": -75.55026158327077}, "105248637RR0001": {"name": "THE SAINT JOHN BOYS' AND GIRLS' CLUB ENDOWMENT FUND INC.", "designationCode": "C", "categoryCode": "21", "address": "P.O. BOX 2597", "city": "ST-JOHN", "province": "NB", "country": "CA", "postalCode": "E2L4S8", "twitter": "None", "instagram": "None", "facebook": "None", "youtube": "None", "website": "None", "summary": "None", "logo": "None", "latitude": 45.27342600000006, "longitude": -66.06407149999993}, "119253078RR0001": {"name": "THE SAINT JOHN LEARNING EXCHANGE LTD", "designationCode": "C", "categoryCode": "21", "address": "216 - 139 PRINCE EDWARD ST", "city": "SAINT JOHN", "province": "NB", "country": "CA", "postalCode": "E2L3S3", "twitter": "None", "instagram": "None", "facebook": "None", "youtube": "None", "website": "None", "summary": "None", "logo": "None", "latitude": 45.277704498325065, "longitude": -66.05411941034717}, "887875060RR0001": {"name": "THE SAINT JOHN SCHOOL MILK FUND", "designationCode": "C", "categoryCode": "09", "address": "476 ROUTE 845", "city": "KINGSTON", "province": "NB", "country": "CA", "postalCode": "E5N1N4", "twitter": "None", "instagram": "None", "facebook": "None", "youtube": "None", "website": "None", "summary": "None", "logo": "None", "latitude": 45.562749781578965, "longitude": -65.91743718289291}, "140919713RR0001": {"name": "THE SAINT JOHN THEATRE COMPANY INC", "designationCode": "C", "categoryCode": "22", "address": "112 PRINCESS ST", "city": "SAINT JOHN", "province": "NB", "country": "CA", "postalCode": "E2L1K4", "twitter": "None", "instagram": "None", "facebook": "None", "youtube": "None", "website": "None", "summary": "None", "logo": "None", "latitude": 45.271809754919545, "longitude": -66.05891708742571}, "132998360RR0001": {"name": "THE SAINT JOHN-KINGS ASSOCIATION OF UNITED BAPTIST CHURCHES INC", "designationCode": "C", "categoryCode": "31", "address": "P.O.BOX 516 STN MAIN", "city": "SAINT JOHN", "province": "NB", "country": "CA", "postalCode": "E2L3Z8", "twitter": "None", "instagram": "None", "facebook": "None", "youtube": "None", "website": "None", "summary": "None", "logo": "None", "latitude": 45.274774384642015, "longitude": -66.0653109102771}, "127282879RR0001": {"name": "THE SAINT SOPHIA PARISH OF THE RUSSIAN ORTHODOX CHURCH OUTSIDE OF RUSSIA", "designationCode": "C", "categoryCode": "39", "address": "307-1625 OAK BAY AVENUE", "city": "VICTORIA", "province": "BC", "country": "CA", "postalCode": "V8R1B1", "twitter": "None", "instagram": "None", "facebook": "None", "youtube": "None", "website": "None", "summary": "None", "logo": "None", "latitude": 48.42649448124546, "longitude": -123.33530186081134}, "873039093RR0001": {"name": "THE SAINT STEPHEN RURAL CEMETERY", "designationCode": "C", "categoryCode": "59", "address": "147 KING STREET", "city": "ST. STEPHEN", "province": "NB", "country": "CA", "postalCode": "E3L2C7", "twitter": "None", "instagram": "None", "facebook": "None", "youtube": "None", "website": "None", "summary": "None", "logo": "None", "latitude": 45.19902585400202, "longitude": -67.27399523737708}, "119118537RR0001": {"name": "THE SALAMANDER FOUNDATION", "designationCode": "B", "categoryCode": "03", "address": "180 BLOOR STREET WEST         SUITE 1201", "city": "TORONTO", "province": "ON", "country": "CA", "postalCode": "M5S2V6", "twitter": "None", "instagram": "None", "facebook": "None", "youtube": "None", "website": "None", "summary": "None", "logo": "None", "latitude": 43.6685970996594, "longitude": -79.39486806731483}, "132897919RR0001": {"name": "THE SALDEN FOUNDATION", "designationCode": "B", "categoryCode": "03", "address": "45 ST. CLAIR AVE. W.  #200", "city": "TORONTO", "province": "ON", "country": "CA", "postalCode": "M4V1K9", "twitter": "None", "instagram": "None", "facebook": "None", "youtube": "None", "website": "None", "summary": "None", "logo": "None", "latitude": 43.68768979098635, "longitude": -79.3955475478678}, "119132959RR0001": {"name": "THE SALEM MANOR SOCIETY", "designationCode": "C", "categoryCode": "09", "address": "4419-46 STREET", "city": "LEDUC", "province": "AB", "country": "CA", "postalCode": "T9E6L2", "twitter": "None", "instagram": "None", "facebook": "None", "youtube": "None", "website": "None", "summary": "None", "logo": "None", "latitude": 53.25906109521598, "longitude": -113.5431025563515}, "887368199RR0001": {"name": "THE SALISBURY STUDENT-PARENT BAND ASSOCIATION OF ALBERTA", "designationCode": "C", "categoryCode": "22", "address": "20 FESTIVAL WAY", "city": "SHERWOOD PARK", "province": "AB", "country": "CA", "postalCode": "T8A4Y1", "twitter": "None", "instagram": "None", "facebook": "None", "youtube": "None", "website": "None", "summary": "None", "logo": "None", "latitude": 53.52632061829932, "longitude": -113.29992385293416}, "132321696RR0001": {"name": "THE SALLY LETSON FOUNDATION", "designationCode": "B", "categoryCode": "21", "address": "1300 - 100 QUEEN ST", "city": "OTTAWA", "province": "ON", "country": "CA", "postalCode": "K1P1J9", "twitter": "None", "instagram": "None", "facebook": "None", "youtube": "None", "website": "None", "summary": "None", "logo": "None", "latitude": 45.42139508037323, "longitude": -75.698793}, "882556426RR0001": {"name": "THE SALMO WATERSHED STREAMKEEPERS SOCIETY", "designationCode": "C", "categoryCode": "59", "address": "BOX 718", "city": "SALMO", "province": "BC", "country": "CA", "postalCode": "V0G1Z0", "twitter": "None", "instagram": "None", "facebook": "None", "youtube": "None", "website": "None", "summary": "None", "logo": "None", "latitude": 49.19366000000008, "longitude": -117.28050999999999}, "126720366RR0001": {"name": "THE SALMON ARM AND SHUSWAP LAKE AGRICULTURAL ASSOCIATION", "designationCode": "C", "categoryCode": "56", "address": "351 3RD ST SW", "city": "SALMON ARM", "province": "BC", "country": "CA", "postalCode": "V1E1V4", "twitter": "None", "instagram": "None", "facebook": "None", "youtube": "None", "website": "None", "summary": "None", "logo": "None", "latitude": 50.697256953589964, "longitude": -119.28839768771397}, "890389083RR0001": {"name": "THE SALSBURY FOUNDATION", "designationCode": "B", "categoryCode": "03", "address": "1500 - 1090 GEORGIA ST W", "city": "VANCOUVER", "province": "BC", "country": "CA", "postalCode": "V6E3V7", "twitter": "None", "instagram": "None", "facebook": "None", "youtube": "None", "website": "None", "summary": "None", "logo": "None", "latitude": 49.28541748568885, "longitude": -123.12279712756055}, "867929135RR0001": {"name": "THE SALTSPRING ISLAND HISTORICAL SOCIETY", "designationCode": "C", "categoryCode": "50", "address": "129 MCPHILLIPS AVENUE", "city": "SALTSPRING ISLAND", "province": "BC", "country": "CA", "postalCode": "V8K2T6", "twitter": "None", "instagram": "None", "facebook": "None", "youtube": "None", "website": "None", "summary": "None", "logo": "None", "latitude": 48.85256824254138, "longitude": -123.5017340987007}, "107951618RR0574": {"name": "THE SALVATION ARMY - BARBARA MITCHELL FAMILY RESOURCE CENTRE", "designationCode": "C", "categoryCode": "09", "address": "51 MORROW AVENUE", "city": "WINNIPEG", "province": "MB", "country": "CA", "postalCode": "R2M1A5", "twitter": "None", "instagram": "None", "facebook": "None", "youtube": "None", "website": "None", "summary": "None", "logo": "None", "latitude": 49.85346986320595, "longitude": -97.09907166628174}, "107951618RR0223": {"name": "THE SALVATION ARMY A COMMUNITY CHURCH (PRINCE ALBERT)", "designationCode": "C", "categoryCode": "40", "address": "900 CENTRAL AVENUE", "city": "PRINCE ALBERT", "province": "SK", "country": "CA", "postalCode": "S6V4V3", "twitter": "None", "instagram": "None", "facebook": "None", "youtube": "None", "website": "None", "summary": "None", "logo": "None", "latitude": 53.20481918180095, "longitude": -105.75424532671576}, "107951618RR0336": {"name": "THE SALVATION ARMY ACTON CORPS", "designationCode": "C", "categoryCode": "40", "address": "P.O. BOX 359", "city": "ACTON", "province": "ON", "country": "CA", "postalCode": "L7J2M4", "twitter": "None", "instagram": "None", "facebook": "None", "youtube": "None", "website": "None", "summary": "None", "logo": "None", "latitude": 43.630719000000056, "longitude": -80.04032449999994}, "107951618RR0317": {"name": "THE SALVATION ARMY AGINCOURT COMMUNITY CHURCH", "designationCode": "C", "categoryCode": "40", "address": "3080 BIRCHMOUNT RD", "city": "TORONTO", "province": "ON", "country": "CA", "postalCode": "M1W3K3", "twitter": "None", "instagram": "None", "facebook": "None", "youtube": "None", "website": "None", "summary": "None", "logo": "None", "latitude": 43.803537444341934, "longitude": -79.30887328980292}, "107951618RR0322": {"name": "THE SALVATION ARMY ALBERNI VALLEY CORPS", "designationCode": "C", "categoryCode": "40", "address": "4841 REDFORD ST", "city": "PORT ALBERNI", "province": "BC", "country": "CA", "postalCode": "V9Y3P3", "twitter": "None", "instagram": "None", "facebook": "None", "youtube": "None", "website": "None", "summary": "None", "logo": "None", "latitude": 49.245297499413034, "longitude": -124.80533416705798}, "107951618RR0043": {"name": "THE SALVATION ARMY ARNOLD'S COVE CORPS", "designationCode": "C", "categoryCode": "40", "address": "P.O. BOX 310", "city": "ARNOLD COVE", "province": "NL", "country": "CA", "postalCode": "A0B1A0", "twitter": "None", "instagram": "None", "facebook": "None", "youtube": "None", "website": "None", "summary": "None", "logo": "None", "latitude": 46.61659000000003, "longitude": -53.548149999999964}, "107951618RR0529": {"name": "THE SALVATION ARMY BARRIE BAYSIDE MISSION CENTRE", "designationCode": "C", "categoryCode": "09", "address": "P.O. BOX 38", "city": "BARRIE", "province": "ON", "country": "CA", "postalCode": "L4M4S9", "twitter": "None", "instagram": "None", "facebook": "None", "youtube": "None", "website": "None", "summary": "None", "logo": "None", "latitude": 44.38929300000005, "longitude": -79.68626449999994}, "107951618RR0003": {"name": "THE SALVATION ARMY BARRIE CORPS", "designationCode": "C", "categoryCode": "40", "address": "151 LILLIAN CRESCENT", "city": "BARRIE", "province": "ON", "country": "CA", "postalCode": "L4N5X5", "twitter": "None", "instagram": "None", "facebook": "None", "youtube": "None", "website": "None", "summary": "None", "logo": "None", "latitude": 44.404026600063425, "longitude": -79.71954017583238}, "107951618RR0480": {"name": "THE SALVATION ARMY BATHURST COMMUNITY CHURCH", "designationCode": "C", "categoryCode": "40", "address": "112 MAIN ST", "city": "BATHURST", "province": "NB", "country": "CA", "postalCode": "E2A1A4", "twitter": "None", "instagram": "None", "facebook": "None", "youtube": "None", "website": "None", "summary": "None", "logo": "None", "latitude": 47.62046970384909, "longitude": -65.6561786230885}, "107951618RR0111": {"name": "THE SALVATION ARMY BAY ROBERTS CORPS", "designationCode": "C", "categoryCode": "40", "address": "P.O. BOX 759", "city": "BAY ROBERTS", "province": "NL", "country": "CA", "postalCode": "A0A1G0", "twitter": "None", "instagram": "None", "facebook": "None", "youtube": "None", "website": "None", "summary": "None", "logo": "None", "latitude": 47.58335663598053, "longitude": -53.28220018500299}, "107951618RR0045": {"name": "THE SALVATION ARMY BAYVIEW CORPS", "designationCode": "C", "categoryCode": "40", "address": "THE SALVATION ARMY CITADEL    P.O. BOX 225", "city": "TWILLINGATE", "province": "NL", "country": "CA", "postalCode": "A0G4M0", "twitter": "None", "instagram": "None", "facebook": "None", "youtube": "None", "website": "None", "summary": "None", "logo": "None", "latitude": 49.18741800000005, "longitude": -54.38943799999993}, "107951618RR0143": {"name": "THE SALVATION ARMY BERKSHIRE CITADEL COMMUNITY CHURCH", "designationCode": "C", "categoryCode": "40", "address": "222 SANDARAC DR NW", "city": "CALGARY", "province": "AB", "country": "CA", "postalCode": "T3K3M5", "twitter": "None", "instagram": "None", "facebook": "None", "youtube": "None", "website": "None", "summary": "None", "logo": "None", "latitude": 51.13778429309249, "longitude": -114.09992246765545}, "107951618RR0113": {"name": "THE SALVATION ARMY BIRCHY BAY CORPS", "designationCode": "C", "categoryCode": "40", "address": "MAIN STREET                   P.O. BOX 39", "city": "BIRCHY BAY", "province": "NL", "country": "CA", "postalCode": "A0G1E0", "twitter": "None", "instagram": "None", "facebook": "None", "youtube": "None", "website": "None", "summary": "None", "logo": "None", "latitude": 49.35440381063464, "longitude": -54.73890077763049}, "107951618RR0099": {"name": "THE SALVATION ARMY BISHOP'S FALLS CORPS", "designationCode": "C", "categoryCode": "40", "address": "P.O. BOX 29", "city": "BISHOP'S FALLS", "province": "NL", "country": "CA", "postalCode": "A0H1C0", "twitter": "None", "instagram": "None", "facebook": "None", "youtube": "None", "website": "None", "summary": "None", "logo": "None", "latitude": 49.02673000000004, "longitude": -55.45667999999995}, "107951618RR0404": {"name": "THE SALVATION ARMY BLOOR CENTRAL CORPS", "designationCode": "C", "categoryCode": "40", "address": "789 DOVERCOURT RD", "city": "TORONTO", "province": "ON", "country": "CA", "postalCode": "M6H2X4", "twitter": "None", "instagram": "None", "facebook": "None", "youtube": "None", "website": "None", "summary": "None", "logo": "None", "latitude": 43.66239084124875, "longitude": -79.42967810571892}, "107951618RR0421": {"name": "THE SALVATION ARMY BONAVISTA CORPS", "designationCode": "C", "categoryCode": "40", "address": "P.O. BOX 40", "city": "BONAVISTA", "province": "NL", "country": "CA", "postalCode": "A0C1B0", "twitter": "None", "instagram": "None", "facebook": "None", "youtube": "None", "website": "None", "summary": "None", "logo": "None", "latitude": 48.60760000000005, "longitude": -53.09807999999998}, "107951618RR0112": {"name": "THE SALVATION ARMY BOTWOOD CORPS", "designationCode": "C", "categoryCode": "40", "address": "P.O. BOX 21", "city": "BOTWOOD", "province": "NL", "country": "CA", "postalCode": "A0H1E0", "twitter": "None", "instagram": "None", "facebook": "None", "youtube": "None", "website": "None", "summary": "None", "logo": "None", "latitude": 49.12576868009626, "longitude": -55.37020900602628}, "107951618RR0290": {"name": "THE SALVATION ARMY BOWMANVILLE CORPS", "designationCode": "C", "categoryCode": "40", "address": "75 LIBERTY ST S", "city": "BOWMANVILLE", "province": "ON", "country": "CA", "postalCode": "L1C2N8", "twitter": "None", "instagram": "None", "facebook": "None", "youtube": "None", "website": "None", "summary": "None", "logo": "None", "latitude": 43.9069091693115, "longitude": -78.6786007766752}, "107951618RR0275": {"name": "THE SALVATION ARMY BRACEBRIDGE COMMUNITY CHURCH", "designationCode": "C", "categoryCode": "40", "address": "P.O. BOX 383", "city": "BRACEBRIDGE", "province": "ON", "country": "CA", "postalCode": "P1L1T7", "twitter": "None", "instagram": "None", "facebook": "None", "youtube": "None", "website": "None", "summary": "None", "logo": "None", "latitude": 45.055572000000055, "longitude": -79.28863099999994}, "107951618RR0272": {"name": "THE SALVATION ARMY BRAMPTON CORPS", "designationCode": "C", "categoryCode": "40", "address": "9395 BRAMALEA RD N", "city": "BRAMPTON", "province": "ON", "country": "CA", "postalCode": "L6S4B7", "twitter": "None", "instagram": "None", "facebook": "None", "youtube": "None", "website": "None", "summary": "None", "logo": "None", "latitude": 43.733006064429325, "longitude": -79.7288349598365}, "107951618RR0581": {"name": "THE SALVATION ARMY BRAMPTON CUTHBERT HOUSE", "designationCode": "C", "categoryCode": "59", "address": "44 NELSON STREET WEST", "city": "BRAMPTON", "province": "ON", "country": "CA", "postalCode": "L6X1C1", "twitter": "None", "instagram": "None", "facebook": "None", "youtube": "None", "website": "None", "summary": "None", "logo": "None", "latitude": 43.68488072996126, "longitude": -79.76415294382232}, "107951618RR0540": {"name": "THE SALVATION ARMY BRAMPTON FAMILY LIFE RESOURCE CENTRE", "designationCode": "C", "categoryCode": "01", "address": "535 MAIN ST N", "city": "BRAMPTON", "province": "ON", "country": "CA", "postalCode": "L6X3C9", "twitter": "None", "instagram": "None", "facebook": "None", "youtube": "None", "website": "None", "summary": "None", "logo": "None", "latitude": 43.70152064415166, "longitude": -79.78111163979422}, "107951618RR0157": {"name": "THE SALVATION ARMY BRANDON CORPS", "designationCode": "C", "categoryCode": "40", "address": "9 PRINCESS AVE E", "city": "BRANDON", "province": "MB", "country": "CA", "postalCode": "R7A1R8", "twitter": "None", "instagram": "None", "facebook": "None", "youtube": "None", "website": "None", "summary": "None", "logo": "None", "latitude": 49.846946467684106, "longitude": -99.9386505}, "107951618RR0159": {"name": "THE SALVATION ARMY BRANDON DINSDALE PERSONAL CARE HOME", "designationCode": "C", "categoryCode": "01", "address": "510 6TH ST.", "city": "BRANDON", "province": "MB", "country": "CA", "postalCode": "R7A3N9", "twitter": "None", "instagram": "None", "facebook": "None", "youtube": "None", "website": "None", "summary": "None", "logo": "None", "latitude": 49.84159500000001, "longitude": -99.94601360286205}, "107951618RR0009": {"name": "THE SALVATION ARMY BRANTFORD BOOTH CENTRE", "designationCode": "C", "categoryCode": "01", "address": "187 DALHOUSIE ST", "city": "BRANTFORD", "province": "ON", "country": "CA", "postalCode": "N3T2J6", "twitter": "None", "instagram": "None", "facebook": "None", "youtube": "None", "website": "None", "summary": "None", "logo": "None", "latitude": 43.13963250678068, "longitude": -80.25944057937562}, "107951618RR0382": {"name": "THE SALVATION ARMY BRIDGETOWN COMMUNITY CHURCH", "designationCode": "C", "categoryCode": "40", "address": "PO BOX 550", "city": "BRIDGETOWN", "province": "NS", "country": "CA", "postalCode": "B0S1C0", "twitter": "None", "instagram": "None", "facebook": "None", "youtube": "None", "website": "None", "summary": "None", "logo": "None", "latitude": 44.85015000000004, "longitude": -65.29881999999998}, "107951618RR0200": {"name": "THE SALVATION ARMY BRIDGEWATER CORPS", "designationCode": "C", "categoryCode": "40", "address": "215 DOMINION STREET", "city": "BRIDGEWATER", "province": "NS", "country": "CA", "postalCode": "B4V2K7", "twitter": "None", "instagram": "None", "facebook": "None", "youtube": "None", "website": "None", "summary": "None", "logo": "None", "latitude": 44.37118726946184, "longitude": -64.52630832910197}, "107951618RR0452": {"name": "THE SALVATION ARMY BRITISH COLUMBIA DIVISION", "designationCode": "C", "categoryCode": "40", "address": "103 - 3833 HENNING DR", "city": "BURNABY", "province": "BC", "country": "CA", "postalCode": "V5C6N5", "twitter": "None", "instagram": "None", "facebook": "None", "youtube": "None", "website": "None", "summary": "None", "logo": "None", "latitude": 49.26402733471163, "longitude": -123.02021576725173}, "107951618RR0285": {"name": "THE SALVATION ARMY BROCKVILLE COMMUNITY CHURCH", "designationCode": "C", "categoryCode": "40", "address": "P.O. BOX 751", "city": "BROCKVILLE", "province": "ON", "country": "CA", "postalCode": "K6V5W1", "twitter": "None", "instagram": "None", "facebook": "None", "youtube": "None", "website": "None", "summary": "None", "logo": "None", "latitude": 44.59037100000006, "longitude": -75.68301049999994}, "107951618RR0115": {"name": "THE SALVATION ARMY BUCHANS CORPS", "designationCode": "C", "categoryCode": "40", "address": "P.O. BOX 88                   LAKEVIEW AVENUE", "city": "BUCHANS", "province": "NL", "country": "CA", "postalCode": "A0H1G0", "twitter": "None", "instagram": "None", "facebook": "None", "youtube": "None", "website": "None", "summary": "None", "logo": "None", "latitude": 48.823796988415424, "longitude": -56.85062936985317}, "107951618RR0533": {"name": "THE SALVATION ARMY BULKLEY VALLEY SOCIAL SERVICES", "designationCode": "C", "categoryCode": "09", "address": "PO BOX 4293", "city": "SMITHERS", "province": "BC", "country": "CA", "postalCode": "V0J2N0", "twitter": "None", "instagram": "None", "facebook": "None", "youtube": "None", "website": "None", "summary": "None", "logo": "None", "latitude": 54.78312000000005, "longitude": -127.16847999999999}, "107951618RR0582": {"name": "THE SALVATION ARMY BUNTON LODGE ADULT RESOURCE CENTRE", "designationCode": "C", "categoryCode": "09", "address": "422 SHERBOURNE STREET", "city": "TORONTO", "province": "ON", "country": "CA", "postalCode": "M4X1K2", "twitter": "None", "instagram": "None", "facebook": "None", "youtube": "None", "website": "None", "summary": "None", "logo": "None", "latitude": 43.66529226810552, "longitude": -79.37396598531348}, "107951618RR0244": {"name": "THE SALVATION ARMY BURLINGTON COMMUNITY CHURCH", "designationCode": "C", "categoryCode": "40", "address": "2090 PROSPECT ST.", "city": "BURLINGTON", "province": "ON", "country": "CA", "postalCode": "L7R1Y9", "twitter": "None", "instagram": "None", "facebook": "None", "youtube": "None", "website": "None", "summary": "None", "logo": "None", "latitude": 43.335982258381996, "longitude": -79.80673601260905}, "107951618RR0395": {"name": "THE SALVATION ARMY CALGARY AGAPE HOSPICE", "designationCode": "C", "categoryCode": "01", "address": "1302 8 AVE NW", "city": "CALGARY", "province": "AB", "country": "CA", "postalCode": "T2N1B8", "twitter": "None", "instagram": "None", "facebook": "None", "youtube": "None", "website": "None", "summary": "None", "logo": "None", "latitude": 51.05965553318128, "longitude": -114.0914607485429}, "107951618RR0266": {"name": "THE SALVATION ARMY CAMBRIDGE CITADEL", "designationCode": "C", "categoryCode": "40", "address": "2 OVERLEA BLVD", "city": "EAST YORK", "province": "ON", "country": "CA", "postalCode": "M4H1P4", "twitter": "None", "instagram": "None", "facebook": "None", "youtube": "None", "website": "None", "summary": "None", "logo": "None", "latitude": 43.70240076493152, "longitude": -79.35266780353714}, "107951618RR0398": {"name": "THE SALVATION ARMY CAMP SUNRISE", "designationCode": "C", "categoryCode": "01", "address": "1377 BURNS RD", "city": "GIBSONS", "province": "BC", "country": "CA", "postalCode": "V0N1V1", "twitter": "None", "instagram": "None", "facebook": "None", "youtube": "None", "website": "None", "summary": "None", "logo": "None", "latitude": 49.43167338972211, "longitude": -123.47616354945431}, "107951618RR0074": {"name": "THE SALVATION ARMY CAMPBELLTON CORPS", "designationCode": "C", "categoryCode": "40", "address": "PO BOX 69", "city": "CAMPBELLTON", "province": "NL", "country": "CA", "postalCode": "A0G1L0", "twitter": "None", "instagram": "None", "facebook": "None", "youtube": "None", "website": "None", "summary": "None", "logo": "None", "latitude": 49.28323000000006, "longitude": -54.931449999999984}, "107951618RR0448": {"name": "THE SALVATION ARMY CARBONEAR CORPS", "designationCode": "C", "categoryCode": "40", "address": "P.O. BOX 137", "city": "CARBONEAR", "province": "NL", "country": "CA", "postalCode": "A1Y1B6", "twitter": "None", "instagram": "None", "facebook": "None", "youtube": "None", "website": "None", "summary": "None", "logo": "None", "latitude": 47.73637500000005, "longitude": -53.22950449999993}, "107951618RR0185": {"name": "THE SALVATION ARMY CARIBOO HILL TEMPLE", "designationCode": "C", "categoryCode": "40", "address": "7195 CARIBOO RD", "city": "BURNABY", "province": "BC", "country": "CA", "postalCode": "V3N4A6", "twitter": "None", "instagram": "None", "facebook": "None", "youtube": "None", "website": "None", "summary": "None", "logo": "None", "latitude": 49.24357878791326, "longitude": -122.90976236207413}, "107951618RR0436": {"name": "THE SALVATION ARMY CARMANVILLE CORPS", "designationCode": "C", "categoryCode": "40", "address": "P.O. BOX 119", "city": "CARMANVILLE", "province": "NL", "country": "CA", "postalCode": "A0G1N0", "twitter": "None", "instagram": "None", "facebook": "None", "youtube": "None", "website": "None", "summary": "None", "logo": "None", "latitude": 49.40203000000008, "longitude": -54.28760999999997}, "107951618RR0487": {"name": "THE SALVATION ARMY CASCADE COMMUNITY CHURCH", "designationCode": "C", "categoryCode": "40", "address": "34081 GLADYS AVE", "city": "ABBOTSFORD", "province": "BC", "country": "CA", "postalCode": "V2S2E8", "twitter": "None", "instagram": "None", "facebook": "None", "youtube": "None", "website": "None", "summary": "None", "logo": "None", "latitude": 49.043339881527814, "longitude": -122.27888508517535}, "107951618RR0142": {"name": "THE SALVATION ARMY CASTLEDOWNS CHURCH (EDMONTON)", "designationCode": "C", "categoryCode": "40", "address": "12404 140 AVE NW", "city": "EDMONTON", "province": "AB", "country": "CA", "postalCode": "T5X5Z1", "twitter": "None", "instagram": "None", "facebook": "None", "youtube": "None", "website": "None", "summary": "None", "logo": "None", "latitude": 53.602122491631874, "longitude": -113.53693232806278}, "107951618RR0403": {"name": "THE SALVATION ARMY CEDARBRAE COMMUNITY CHURCH", "designationCode": "C", "categoryCode": "40", "address": "2085 ELLESMERE ROAD", "city": "SCARBOROUGH", "province": "ON", "country": "CA", "postalCode": "M1H2W6", "twitter": "None", "instagram": "None", "facebook": "None", "youtube": "None", "website": "None", "summary": "None", "logo": "None", "latitude": 43.77614681204953, "longitude": -79.23304509934226}, "107951618RR0292": {"name": "THE SALVATION ARMY CENTRE (SUDBURY)", "designationCode": "C", "categoryCode": "01", "address": "146 LARCH ST", "city": "SUDBURY", "province": "ON", "country": "CA", "postalCode": "P3E1C2", "twitter": "None", "instagram": "None", "facebook": "None", "youtube": "None", "website": "None", "summary": "None", "logo": "None", "latitude": 46.491410512884606, "longitude": -80.99136492420912}, "107951618RR0456": {"name": "THE SALVATION ARMY CHANCE COVE CORPS", "designationCode": "C", "categoryCode": "40", "address": "BOX 130", "city": "CHANCE COVE", "province": "NL", "country": "CA", "postalCode": "A0B1K0", "twitter": "None", "instagram": "None", "facebook": "None", "youtube": "None", "website": "None", "summary": "None", "logo": "None", "latitude": 47.65081200000006, "longitude": -53.80064449999993}, "107951618RR0073": {"name": "THE SALVATION ARMY CHANGE ISLANDS CORPS", "designationCode": "C", "categoryCode": "40", "address": "PO BOX 70", "city": "CHANGE ISLANDS", "province": "NL", "country": "CA", "postalCode": "A0G1R0", "twitter": "None", "instagram": "None", "facebook": "None", "youtube": "None", "website": "None", "summary": "None", "logo": "None", "latitude": 49.57127000000003, "longitude": -54.40464999999995}, "107951618RR0078": {"name": "THE SALVATION ARMY CHANNEL-PORT AUX BASQUES CORPS", "designationCode": "C", "categoryCode": "40", "address": "P.O. BOX 620", "city": "GRAND BAY EAST", "province": "NL", "country": "CA", "postalCode": "A0N1K0", "twitter": "None", "instagram": "None", "facebook": "None", "youtube": "None", "website": "None", "summary": "None", "logo": "None", "latitude": 47.586372000000054, "longitude": -59.17068349999994}, "107951618RR0330": {"name": "THE SALVATION ARMY CHARLOTTETOWN COMMUNITY CHURCH", "designationCode": "C", "categoryCode": "40", "address": "158 FITZROY STREET", "city": "CHARLOTTETOWN", "province": "PE", "country": "CA", "postalCode": "C1A1S1", "twitter": "None", "instagram": "None", "facebook": "None", "youtube": "None", "website": "None", "summary": "None", "logo": "None", "latitude": 46.2382309597496, "longitude": -63.12672715139367}, "107951618RR0040": {"name": "THE SALVATION ARMY CHARLOTTETOWN CORPS", "designationCode": "C", "categoryCode": "40", "address": "P.O. BOX 14", "city": "CHARLOTTETOWN", "province": "NL", "country": "CA", "postalCode": "A0C1L0", "twitter": "None", "instagram": "None", "facebook": "None", "youtube": "None", "website": "None", "summary": "None", "logo": "None", "latitude": 52.771570000000054, "longitude": -56.116619999999955}, "107951618RR0238": {"name": "THE SALVATION ARMY CHATHAM-KENT MINISTRIES", "designationCode": "C", "categoryCode": "40", "address": "46 ORANGEWOOD BLVD", "city": "CHATHAM", "province": "ON", "country": "CA", "postalCode": "N7L5H1", "twitter": "None", "instagram": "None", "facebook": "None", "youtube": "None", "website": "None", "summary": "None", "logo": "None", "latitude": 42.41598938271125, "longitude": -82.21143422569072}, "107951618RR0366": {"name": "THE SALVATION ARMY CHILLIWACK COMMUNITY CHURCH", "designationCode": "C", "categoryCode": "40", "address": "46420 BROOKS AVE", "city": "CHILLIWACK", "province": "BC", "country": "CA", "postalCode": "V2P1C5", "twitter": "None", "instagram": "None", "facebook": "None", "youtube": "None", "website": "None", "summary": "None", "logo": "None", "latitude": 49.15888051673533, "longitude": -121.93952238634657}, "107951618RR0054": {"name": "THE SALVATION ARMY CLARENCE WISEMAN CENTRAL CORPS", "designationCode": "C", "categoryCode": "40", "address": "PO BOX 40", "city": "MORETON'S HARBOUR", "province": "NL", "country": "CA", "postalCode": "A0G3H0", "twitter": "None", "instagram": "None", "facebook": "None", "youtube": "None", "website": "None", "summary": "None", "logo": "None", "latitude": 49.55675100000006, "longitude": -54.86719399999993}, "107951618RR0072": {"name": "THE SALVATION ARMY CLARENVILLE CORPS", "designationCode": "C", "categoryCode": "40", "address": "277 MARINE DRIVE", "city": "CLARENVILLE", "province": "NL", "country": "CA", "postalCode": "A5A1N1", "twitter": "None", "instagram": "None", "facebook": "None", "youtube": "None", "website": "None", "summary": "None", "logo": "None", "latitude": 48.153413248710386, "longitude": -53.962799303676235}, "107951618RR0273": {"name": "THE SALVATION ARMY COLLINGWOOD COMMUNITY CHURCH", "designationCode": "C", "categoryCode": "40", "address": "162 STE-MARIE ST", "city": "COLLINGWOOD", "province": "ON", "country": "CA", "postalCode": "L9Y3K2", "twitter": "None", "instagram": "None", "facebook": "None", "youtube": "None", "website": "None", "summary": "None", "logo": "None", "latitude": 44.4991233291432, "longitude": -80.2151421667268}, "107951618RR0071": {"name": "THE SALVATION ARMY COMFORT COVE/NEWSTEAD CORPS", "designationCode": "C", "categoryCode": "40", "address": "P.O. BOX 40", "city": "COMFORT COVE-NEWSTEAD", "province": "NL", "country": "CA", "postalCode": "A0G3K0", "twitter": "None", "instagram": "None", "facebook": "None", "youtube": "None", "website": "None", "summary": "None", "logo": "None", "latitude": 49.403904000000054, "longitude": -54.859912999999935}, "107951618RR0526": {"name": "THE SALVATION ARMY COMMUNITY & FAMILY SERVICES -CAMBRIDGE", "designationCode": "C", "categoryCode": "09", "address": "12 SHADE ST", "city": "CAMBRIDGE", "province": "ON", "country": "CA", "postalCode": "N1R4J5", "twitter": "None", "instagram": "None", "facebook": "None", "youtube": "None", "website": "None", "summary": "None", "logo": "None", "latitude": 43.35918545129549, "longitude": -80.3091310288821}, "107951618RR0558": {"name": "THE SALVATION ARMY COMMUNITY AND FAMILY SERVICES - BURLINGTON", "designationCode": "C", "categoryCode": "09", "address": "5040 MAINWAY UNIT #9", "city": "BURLINGTON", "province": "ON", "country": "CA", "postalCode": "L7L7G5", "twitter": "None", "instagram": "None", "facebook": "None", "youtube": "None", "website": "None", "summary": "None", "logo": "None", "latitude": 43.38948719675132, "longitude": -79.7786998470198}, "107951618RR0179": {"name": "THE SALVATION ARMY COMMUNITY AND FAMILY SERVICES - COWICHAN VALLEY", "designationCode": "C", "categoryCode": "09", "address": "280 TRANS CANADA HWY", "city": "DUNCAN", "province": "BC", "country": "CA", "postalCode": "V9L3P9", "twitter": "None", "instagram": "None", "facebook": "None", "youtube": "None", "website": "None", "summary": "None", "logo": "None", "latitude": 48.776599298262695, "longitude": -123.69880277849273}, "107951618RR0412": {"name": "THE SALVATION ARMY COMMUNITY AND FAMILY SERVICES - DUNDAS", "designationCode": "C", "categoryCode": "09", "address": "2 OVERLEA BLVD", "city": "EAST YORK", "province": "ON", "country": "CA", "postalCode": "M4H1P4", "twitter": "None", "instagram": "None", "facebook": "None", "youtube": "None", "website": "None", "summary": "None", "logo": "None", "latitude": 43.70240076493152, "longitude": -79.35266780353714}, "107951618RR0572": {"name": "THE SALVATION ARMY COMMUNITY AND FAMILY SERVICES - EDMONTON", "designationCode": "C", "categoryCode": "09", "address": "9620 101A AVE NW", "city": "EDMONTON", "province": "AB", "country": "CA", "postalCode": "T5H0C7", "twitter": "None", "instagram": "None", "facebook": "None", "youtube": "None", "website": "None", "summary": "None", "logo": "None", "latitude": 53.54363234722135, "longitude": -113.48321556578563}, "107951618RR0550": {"name": "THE SALVATION ARMY COMMUNITY AND FAMILY SERVICES - HAMILTON/WENTWORTH", "designationCode": "C", "categoryCode": "09", "address": "80 BAY ST N", "city": "HAMILTON", "province": "ON", "country": "CA", "postalCode": "L8R3N3", "twitter": "None", "instagram": "None", "facebook": "None", "youtube": "None", "website": "None", "summary": "None", "logo": "None", "latitude": 43.26008073227276, "longitude": -79.87288425183631}, "107951618RR0274": {"name": "THE SALVATION ARMY COMMUNITY AND FAMILY SERVICES - KEMPTVILLE", "designationCode": "C", "categoryCode": "09", "address": "P.O. BOX 295", "city": "KEMPTVILLE", "province": "ON", "country": "CA", "postalCode": "K0G1J0", "twitter": "None", "instagram": "None", "facebook": "None", "youtube": "None", "website": "None", "summary": "None", "logo": "None", "latitude": 44.98774800000005, "longitude": -75.69332899999993}, "107951618RR0527": {"name": "THE SALVATION ARMY COMMUNITY AND FAMILY SERVICES - KITCHENER", "designationCode": "C", "categoryCode": "09", "address": "300 GAGE STREET               UNIT 1", "city": "KITCHENER", "province": "ON", "country": "CA", "postalCode": "N2M2C8", "twitter": "None", "instagram": "None", "facebook": "None", "youtube": "None", "website": "None", "summary": "None", "logo": "None", "latitude": 43.44617736992929, "longitude": -80.51740090740974}, "107951618RR0151": {"name": "THE SALVATION ARMY COMMUNITY AND FAMILY SERVICES - NEEPAWA", "designationCode": "C", "categoryCode": "09", "address": "203-290 VAUGHAN ST.", "city": "WINNIPEG", "province": "MB", "country": "CA", "postalCode": "R3B2N8", "twitter": "None", "instagram": "None", "facebook": "None", "youtube": "None", "website": "None", "summary": "None", "logo": "None", "latitude": 49.892284315248084, "longitude": -97.15005359617908}, "107951618RR0580": {"name": "THE SALVATION ARMY COMMUNITY AND FAMILY SERVICES - ST. JOHN'S", "designationCode": "C", "categoryCode": "09", "address": "21 ADAM'S AVENUE", "city": "ST. JOHN'S", "province": "NL", "country": "CA", "postalCode": "A1C4Z1", "twitter": "None", "instagram": "None", "facebook": "None", "youtube": "None", "website": "None", "summary": "None", "logo": "None", "latitude": 47.56165289229053, "longitude": -52.72371247991778}, "107951618RR0338": {"name": "THE SALVATION ARMY COMMUNITY AND FAMILY SERVICES - TORONTO", "designationCode": "C", "categoryCode": "09", "address": "150 RAILSIDE ROAD", "city": "TORONTO", "province": "ON", "country": "CA", "postalCode": "M3A1A3", "twitter": "None", "instagram": "None", "facebook": "None", "youtube": "None", "website": "None", "summary": "None", "logo": "None", "latitude": 43.73777319842474, "longitude": -79.3266441703507}, "107951618RR0005": {"name": "THE SALVATION ARMY COMMUNITY AND FAMILY SERVICES - VANCOUVER", "designationCode": "C", "categoryCode": "09", "address": "3213 FRASER ST", "city": "VANCOUVER", "province": "BC", "country": "CA", "postalCode": "V5V4B8", "twitter": "None", "instagram": "None", "facebook": "None", "youtube": "None", "website": "None", "summary": "None", "logo": "None", "latitude": 49.25609679620285, "longitude": -123.08995436524559}}