{"119123750RR0001": {"name": "ROSETOWN & DISTRICT WHEELS FOR WHEELS INC.", "designationCode": "C", "categoryCode": "09", "address": "PO BOX 2193", "city": "ROSETOWN", "province": "SK", "country": "CA", "postalCode": "S0L2V0", "twitter": "None", "instagram": "None", "facebook": "None", "youtube": "None", "website": "None", "summary": "None", "logo": "None", "latitude": 51.16386860615565, "longitude": -106.82425899521579}, "119123701RR0001": {"name": "ROSETOWN AND DISTRICT ARTS COUNCIL", "designationCode": "C", "categoryCode": "22", "address": "BOX 1571", "city": "ROSETOWN", "province": "SK", "country": "CA", "postalCode": "S0L2V0", "twitter": "None", "instagram": "None", "facebook": "None", "youtube": "None", "website": "None", "summary": "None", "logo": "None", "latitude": 51.16386860615565, "longitude": -106.82425899521579}, "845407345RR0001": {"name": "ROSETOWN AND DISTRICT FOOD BANK", "designationCode": "C", "categoryCode": "09", "address": "#118-2ND AVE W                BOX 2172", "city": "ROSETOWN", "province": "SK", "country": "CA", "postalCode": "S0L2V0", "twitter": "None", "instagram": "None", "facebook": "None", "youtube": "None", "website": "None", "summary": "None", "logo": "None", "latitude": 51.55079865721486, "longitude": -107.99182533416646}, "140944588RR0001": {"name": "ROSETOWN AND DISTRICT HEALTH CENTRE FOUNDATION INC.", "designationCode": "A", "categoryCode": "13", "address": "BOX 653", "city": "ROSETOWN", "province": "SK", "country": "CA", "postalCode": "S0L2V0", "twitter": "None", "instagram": "None", "facebook": "None", "youtube": "None", "website": "None", "summary": "None", "logo": "None", "latitude": 51.16386860615565, "longitude": -106.82425899521579}, "119123719RR0001": {"name": "ROSETOWN AND DISTRICT MUSIC FESTIVAL ASSOCIATION", "designationCode": "C", "categoryCode": "22", "address": "BOX 521", "city": "ROSETOWN", "province": "SK", "country": "CA", "postalCode": "S0L2V0", "twitter": "None", "instagram": "None", "facebook": "None", "youtube": "None", "website": "None", "summary": "None", "logo": "None", "latitude": 51.16386860615565, "longitude": -106.82425899521579}, "119123727RR0001": {"name": "ROSETOWN CALVARY TABERNACLE", "designationCode": "C", "categoryCode": "39", "address": "BOX 1148", "city": "ROSETOWN", "province": "SK", "country": "CA", "postalCode": "S0L2V0", "twitter": "None", "instagram": "None", "facebook": "None", "youtube": "None", "website": "None", "summary": "None", "logo": "None", "latitude": 51.16386860615565, "longitude": -106.82425899521579}, "893292367RR0001": {"name": "ROSETOWN CHARITABLE TRUST", "designationCode": "B", "categoryCode": "39", "address": "3425 2 AVENUE SOUTH", "city": "LETHBRIDGE", "province": "AB", "country": "CA", "postalCode": "T1J4V1", "twitter": "None", "instagram": "None", "facebook": "None", "youtube": "None", "website": "None", "summary": "None", "logo": "None", "latitude": 49.696839530439966, "longitude": -112.78914308381903}, "887460798RR0001": {"name": "ROSETOWN COMMUNITY CHURCH", "designationCode": "C", "categoryCode": "36", "address": "BOX 2018-615 HIGHWAY 4 NORTH", "city": "ROSETOWN", "province": "SK", "country": "CA", "postalCode": "S0L2V0", "twitter": "None", "instagram": "None", "facebook": "None", "youtube": "None", "website": "None", "summary": "None", "logo": "None", "latitude": 51.554930955562476, "longitude": -107.99620976284262}, "119288918RR0527": {"name": "ROSETOWN CONGREGATION OF JEHOVAH'S WITNESSES", "designationCode": "C", "categoryCode": "61", "address": "P.O. BOX 864", "city": "ROSETOWN", "province": "SK", "country": "CA", "postalCode": "S0L2V0", "twitter": "None", "instagram": "None", "facebook": "None", "youtube": "None", "website": "None", "summary": "None", "logo": "None", "latitude": 51.16386860615565, "longitude": -106.82425899521579}, "869931618RR0001": {"name": "ROSETOWN KID KARE INC.", "designationCode": "C", "categoryCode": "01", "address": "1005 MAIN STREET              BOX 1475", "city": "ROSETOWN", "province": "SK", "country": "CA", "postalCode": "S0L2V0", "twitter": "None", "instagram": "None", "facebook": "None", "youtube": "None", "website": "None", "summary": "None", "logo": "None", "latitude": 51.55946273689034, "longitude": -107.99458647550172}, "119123776RR0001": {"name": "ROSETOWN SENIOR CITIZENS PROGRAM", "designationCode": "C", "categoryCode": "09", "address": "BOX 67", "city": "ROSETOWN", "province": "SK", "country": "CA", "postalCode": "S0L2V0", "twitter": "None", "instagram": "None", "facebook": "None", "youtube": "None", "website": "None", "summary": "None", "logo": "None", "latitude": 51.16386860615565, "longitude": -106.82425899521579}, "119123792RR0001": {"name": "ROSETOWN UNITED CHURCH", "designationCode": "C", "categoryCode": "44", "address": "BOX 506", "city": "ROSETOWN", "province": "SK", "country": "CA", "postalCode": "S0L2V0", "twitter": "None", "instagram": "None", "facebook": "None", "youtube": "None", "website": "None", "summary": "None", "logo": "None", "latitude": 51.16386860615565, "longitude": -106.82425899521579}, "823666326RR0001": {"name": "ROSEVALE CEMETARY SOCIETY", "designationCode": "C", "categoryCode": "59", "address": "PO BOX 84", "city": "STROME", "province": "AB", "country": "CA", "postalCode": "T0B4H0", "twitter": "None", "instagram": "None", "facebook": "None", "youtube": "None", "website": "None", "summary": "None", "logo": "None", "latitude": 52.808710000000076, "longitude": -112.06817999999998}, "134631910RR0001": {"name": "ROSEVILLE UNITED BRETHREN IN CHRIST CHURCH", "designationCode": "C", "categoryCode": "39", "address": "1122 BETHEL ROAD              RR 1", "city": "NEW DUNDEE", "province": "ON", "country": "CA", "postalCode": "N0B2E0", "twitter": "None", "instagram": "None", "facebook": "None", "youtube": "None", "website": "None", "summary": "None", "logo": "None", "latitude": 43.36456188919438, "longitude": -80.51812391376573}, "832828164RR0001": {"name": "ROSEWARNE FOUNDATION INC.", "designationCode": "B", "categoryCode": "03", "address": "AIKINS & CO LLP               30TH FLOOR-360 MAIN ST", "city": "WINNIPEG", "province": "MB", "country": "CA", "postalCode": "R3C4G1", "twitter": "None", "instagram": "None", "facebook": "None", "youtube": "None", "website": "None", "summary": "None", "logo": "None", "latitude": 49.89459781320337, "longitude": -97.1381563866637}, "887939460RR0001": {"name": "ROSEWAY COMMUNITY ASSOCIATION", "designationCode": "C", "categoryCode": "09", "address": "RR#3 ROSEWAY", "city": "SHELBURNE COUNTY", "province": "NS", "country": "CA", "postalCode": "B0T1W0", "twitter": "None", "instagram": "None", "facebook": "None", "youtube": "None", "website": "None", "summary": "None", "logo": "None", "latitude": 43.988259173563414, "longitude": -65.42893535338277}, "119123883RR0001": {"name": "ROSEWAY HOSPITAL AUXILIARY", "designationCode": "C", "categoryCode": "19", "address": "63 REIDS HILL", "city": "SHELBURNE", "province": "NS", "country": "CA", "postalCode": "B0T1W0", "twitter": "None", "instagram": "None", "facebook": "None", "youtube": "None", "website": "None", "summary": "None", "logo": "None", "latitude": 43.76554718978191, "longitude": -65.3574655892249}, "892974767RR0001": {"name": "ROSEWAY HOSPITAL CHARITABLE FOUNDATION", "designationCode": "A", "categoryCode": "13", "address": "POST OFFICE BOX 610", "city": "SHELBURNE", "province": "NS", "country": "CA", "postalCode": "B0T1W0", "twitter": "None", "instagram": "None", "facebook": "None", "youtube": "None", "website": "None", "summary": "None", "logo": "None", "latitude": 43.57026600000006, "longitude": -65.35813399999994}, "119123909RR0001": {"name": "ROSEWAY MANOR INCORPORATED", "designationCode": "C", "categoryCode": "59", "address": "BOX 518", "city": "SHELBURNE", "province": "NS", "country": "CA", "postalCode": "B0T1W0", "twitter": "None", "instagram": "None", "facebook": "None", "youtube": "None", "website": "None", "summary": "None", "logo": "None", "latitude": 43.57026600000006, "longitude": -65.35813399999994}, "107959553RR0001": {"name": "ROSEWOOD BAPTIST CHURCH", "designationCode": "C", "categoryCode": "31", "address": "2601 MCNICOLL AVENUE", "city": "SCARBOROUGH", "province": "ON", "country": "CA", "postalCode": "M1V5N8", "twitter": "None", "instagram": "None", "facebook": "None", "youtube": "None", "website": "None", "summary": "None", "logo": "None", "latitude": 43.815531867592014, "longitude": -79.28230692838598}, "888707668RR0001": {"name": "ROSEWOOD CHINESSE CHURCH OF THE NAZARENE", "designationCode": "C", "categoryCode": "39", "address": "3-1220 ELLESMERE RD", "city": "SCARBOROUGH", "province": "ON", "country": "CA", "postalCode": "M1P2X5", "twitter": "None", "instagram": "None", "facebook": "None", "youtube": "None", "website": "None", "summary": "None", "logo": "None", "latitude": 43.7686691741007, "longitude": -79.2678684994804}, "132531047RR0001": {"name": "ROSEWOOD CHURCH OF THE NAZARENE", "designationCode": "C", "categoryCode": "39", "address": "657 MILNER AVE", "city": "SCARBOROUGH", "province": "ON", "country": "CA", "postalCode": "M1B2K4", "twitter": "None", "instagram": "None", "facebook": "None", "youtube": "None", "website": "None", "summary": "None", "logo": "None", "latitude": 43.79509593972563, "longitude": -79.21830446153861}, "129916557RR0001": {"name": "ROSEWOOD CO-OPERATIVE PRESCHOOL", "designationCode": "C", "categoryCode": "20", "address": "203 ROSEDALE RD", "city": "SASKATOON", "province": "SK", "country": "CA", "postalCode": "S7H5H1", "twitter": "None", "instagram": "None", "facebook": "None", "youtube": "None", "website": "None", "summary": "None", "logo": "None", "latitude": 52.108767, "longitude": -106.59089569285523}, "860375716RR0001": {"name": "ROSEWOOD CONGREGATION OF THE CHURCH OF GOD IN CHRIST, MENNONITE", "designationCode": "C", "categoryCode": "34", "address": "BOX 95  R.R.1", "city": "STE ANNE", "province": "MB", "country": "CA", "postalCode": "R5H1R1", "twitter": "None", "instagram": "None", "facebook": "None", "youtube": "None", "website": "None", "summary": "None", "logo": "None", "latitude": 49.67120400000006, "longitude": -96.65241199999993}, "894542315RR0001": {"name": "ROSEWOOD HOUSE", "designationCode": "C", "categoryCode": "09", "address": "42 NELSON ST.", "city": "BRANTFORD", "province": "ON", "country": "CA", "postalCode": "N3T2M8", "twitter": "None", "instagram": "None", "facebook": "None", "youtube": "None", "website": "None", "summary": "None", "logo": "None", "latitude": 43.142106434935535, "longitude": -80.26485578143571}, "862788197RR0001": {"name": "ROSEWOOD MANOR CARE FOUNDATION", "designationCode": "A", "categoryCode": "13", "address": "6260 BLUNDELL RD", "city": "RICHMOND", "province": "BC", "country": "CA", "postalCode": "V7C5C4", "twitter": "None", "instagram": "None", "facebook": "None", "youtube": "None", "website": "None", "summary": "None", "logo": "None", "latitude": 49.15555754616571, "longitude": -123.1553025}, "132441973RR0001": {"name": "ROSEWOOD PARK ALLIANCE CHURCH INC.", "designationCode": "C", "categoryCode": "39", "address": "1300 N COURTNEY ST", "city": "REGINA", "province": "SK", "country": "CA", "postalCode": "S4Y0C5", "twitter": "None", "instagram": "None", "facebook": "None", "youtube": "None", "website": "None", "summary": "None", "logo": "None", "latitude": 50.49852627325275, "longitude": -104.68695027325275}, "849352273RR0001": {"name": "ROSLYN SCHOOL FOUNDATION/FONDATION DE L'ECOLE ROSLYN", "designationCode": "C", "categoryCode": "21", "address": "4026 MARCIL", "city": "MONTREAL", "province": "QC", "country": "CA", "postalCode": "H4A2Z6", "twitter": "None", "instagram": "None", "facebook": "None", "youtube": "None", "website": "None", "summary": "None", "logo": "None", "latitude": 45.47397178960138, "longitude": -73.61901524245472}, "854795440RR0001": {"name": "ROSS FERRY STEWARDSHIP SOCIETY", "designationCode": "C", "categoryCode": "52", "address": "9685 KEMPT HEAD ROAD", "city": "ROSS FERRY", "province": "NS", "country": "CA", "postalCode": "B1X1N9", "twitter": "None", "instagram": "None", "facebook": "None", "youtube": "None", "website": "None", "summary": "None", "logo": "None", "latitude": 46.14397444876316, "longitude": -60.58376719966841}, "889840393RR0001": {"name": "ROSS FERRY VOLUNTEER FIRE DEPARTMENT", "designationCode": "C", "categoryCode": "59", "address": "9333 KEMPT HEAD ROAD", "city": "ROSS FERRY", "province": "NS", "country": "CA", "postalCode": "B1X1P4", "twitter": "None", "instagram": "None", "facebook": "None", "youtube": "None", "website": "None", "summary": "None", "logo": "None", "latitude": 46.13191239555103, "longitude": -60.59446248903575}, "107764573RR0020": {"name": "ROSS HAVEN BIBLE CAMP", "designationCode": "C", "categoryCode": "56", "address": "BOX 37", "city": "GUNN", "province": "AB", "country": "CA", "postalCode": "T0E1A0", "twitter": "None", "instagram": "None", "facebook": "None", "youtube": "None", "website": "None", "summary": "None", "logo": "None", "latitude": 53.730350000000044, "longitude": -114.34035999999998}, "107915779RR0001": {"name": "ROSS MEMORIAL HOSPITAL", "designationCode": "C", "categoryCode": "10", "address": "10 ANGELINE STREET NORTH", "city": "LINDSAY", "province": "ON", "country": "CA", "postalCode": "K9V4M8", "twitter": "None", "instagram": "None", "facebook": "None", "youtube": "None", "website": "None", "summary": "None", "logo": "None", "latitude": 44.35229352034866, "longitude": -78.7515457949539}, "119385631RR0001": {"name": "ROSS MEMORIAL HOSPITAL AUXILIARY", "designationCode": "A", "categoryCode": "15", "address": "10 ANGELINE STREET NORTH", "city": "LINDSAY", "province": "ON", "country": "CA", "postalCode": "K9V4M8", "twitter": "None", "instagram": "None", "facebook": "None", "youtube": "None", "website": "None", "summary": "None", "logo": "None", "latitude": 44.35229352034866, "longitude": -78.7515457949539}, "890858996RR0001": {"name": "ROSS MEMORIAL LIBRARY", "designationCode": "C", "categoryCode": "50", "address": "110 KING ST", "city": "ST ANDREW", "province": "NB", "country": "CA", "postalCode": "E5B1Y6", "twitter": "None", "instagram": "None", "facebook": "None", "youtube": "None", "website": "None", "summary": "None", "logo": "None", "latitude": 45.07580344714054, "longitude": -67.05133838859693}, "864476528RR0001": {"name": "ROSS ROAD COMMUNITY CHURCH", "designationCode": "C", "categoryCode": "34", "address": "3160 ROSS ROAD", "city": "ABBOTSFORD", "province": "BC", "country": "CA", "postalCode": "V4X1G4", "twitter": "None", "instagram": "None", "facebook": "None", "youtube": "None", "website": "None", "summary": "None", "logo": "None", "latitude": 49.06025096863641, "longitude": -122.40362961818373}, "119297331RR0001": {"name": "ROSS UNITED CHURCH", "designationCode": "C", "categoryCode": "44", "address": "BOX 252", "city": "WHITEMOUTH", "province": "MB", "country": "CA", "postalCode": "R0E2G0", "twitter": "None", "instagram": "None", "facebook": "None", "youtube": "None", "website": "None", "summary": "None", "logo": "None", "latitude": 49.95072450000001, "longitude": -95.9638005}, "119124113RR0001": {"name": "ROSS-LYNN CHARITABLE FOUNDATION", "designationCode": "B", "categoryCode": "03", "address": "1110-39 TH AVE. S.W.", "city": "CALGARY", "province": "AB", "country": "CA", "postalCode": "T2T2K5", "twitter": "None", "instagram": "None", "facebook": "None", "youtube": "None", "website": "None", "summary": "None", "logo": "None", "latitude": 51.01923051875455, "longitude": -114.08849108381904}, "887262475RR0001": {"name": "ROSS-SHIRE FOUNDATION", "designationCode": "B", "categoryCode": "03", "address": "PO BOX 726 STN GALT", "city": "CAMBRIDGE", "province": "ON", "country": "CA", "postalCode": "N1R5W6", "twitter": "None", "instagram": "None", "facebook": "None", "youtube": "None", "website": "None", "summary": "None", "logo": "None", "latitude": 43.37412947066547, "longitude": -80.30553925358247}, "807614078RR0001": {"name": "ROSSBROOK HOUSE FOUNDATION INC.", "designationCode": "A", "categoryCode": "03", "address": "658 ROSS AVENUE", "city": "WINNIPEG", "province": "MB", "country": "CA", "postalCode": "R3A0M1", "twitter": "None", "instagram": "None", "facebook": "None", "youtube": "None", "website": "None", "summary": "None", "logo": "None", "latitude": 49.905733035230085, "longitude": -97.15434003900965}, "104631825RR0001": {"name": "ROSSBROOK HOUSE INC.", "designationCode": "C", "categoryCode": "01", "address": "658 ROSS AVENUE", "city": "WINNIPEG", "province": "MB", "country": "CA", "postalCode": "R3A0M1", "twitter": "None", "instagram": "None", "facebook": "None", "youtube": "None", "website": "None", "summary": "None", "logo": "None", "latitude": 49.905733035230085, "longitude": -97.15434003900965}, "890646094RR0001": {"name": "ROSSBURN & DISTRICT HEALTH FOUNDATION INC.", "designationCode": "A", "categoryCode": "13", "address": "BOX 26", "city": "ROSSBURN", "province": "MB", "country": "CA", "postalCode": "R0J1V0", "twitter": "None", "instagram": "None", "facebook": "None", "youtube": "None", "website": "None", "summary": "None", "logo": "None", "latitude": 50.66896200000005, "longitude": -100.81081249999994}, "107915373RR0001": {"name": "ROSSBURN ALLIANCE CHURCH OF THE CHRISTIAN AND MISSIONARY ALLIANCE IN CANADA", "designationCode": "C", "categoryCode": "39", "address": "PO BOX 249", "city": "ROSSBURN", "province": "MB", "country": "CA", "postalCode": "R0J1V0", "twitter": "None", "instagram": "None", "facebook": "None", "youtube": "None", "website": "None", "summary": "None", "logo": "None", "latitude": 50.66896200000005, "longitude": -100.81081249999994}, "124936386RR0001": {"name": "ROSSBURN DISTRICT HEALTH CENTRE AUXILIARY", "designationCode": "A", "categoryCode": "15", "address": "BOX 576", "city": "ROSSBURN", "province": "MB", "country": "CA", "postalCode": "R0J1V0", "twitter": "None", "instagram": "None", "facebook": "None", "youtube": "None", "website": "None", "summary": "None", "logo": "None", "latitude": 50.66896200000005, "longitude": -100.81081249999994}, "128259983RR0001": {"name": "ROSSBURN EARLY LEARNERS INC.", "designationCode": "C", "categoryCode": "01", "address": "BOX 637", "city": "ROSSBURN", "province": "MB", "country": "CA", "postalCode": "R0J1V0", "twitter": "None", "instagram": "None", "facebook": "None", "youtube": "None", "website": "None", "summary": "None", "logo": "None", "latitude": 50.66896200000005, "longitude": -100.81081249999994}, "107915456RR0001": {"name": "ROSSCARROCK CHURCH OF CHRIST", "designationCode": "C", "categoryCode": "39", "address": "1140-40TH STREET SW", "city": "CALGARY", "province": "AB", "country": "CA", "postalCode": "T3C1W5", "twitter": "None", "instagram": "None", "facebook": "None", "youtube": "None", "website": "None", "summary": "None", "logo": "None"}, "889572772RR0001": {"name": "ROSSDALE-VITRETZ UKRAINIAN DANCE INCORPORATED", "designationCode": "C", "categoryCode": "22", "address": "6 RIVERVIEW ST", "city": "ST ANDREWS", "province": "MB", "country": "CA", "postalCode": "R1A2X6", "twitter": "None", "instagram": "None", "facebook": "None", "youtube": "None", "website": "None", "summary": "None", "logo": "None", "latitude": 50.070080495736086, "longitude": -96.97630783370761}, "119124022RR0001": {"name": "ROSSEAU AGRICULTURAL SOCIETY", "designationCode": "C", "categoryCode": "56", "address": "274 STAR LAKE ROAD", "city": "SEGUIN", "province": "ON", "country": "CA", "postalCode": "P2A0B6", "twitter": "None", "instagram": "None", "facebook": "None", "youtube": "None", "website": "None", "summary": "None", "logo": "None", "latitude": 45.34788445824905, "longitude": -79.76573807086419}, "868411224RR0001": {"name": "ROSSEAU HISTORICAL SOCIETY", "designationCode": "C", "categoryCode": "50", "address": "PO BOX 268", "city": "ROSSEAU", "province": "ON", "country": "CA", "postalCode": "P0C1J0", "twitter": "None", "instagram": "None", "facebook": "None", "youtube": "None", "website": "None", "summary": "None", "logo": "None", "latitude": 45.257070000000056, "longitude": -79.64000999999996}, "119124030RR0001": {"name": "ROSSEAU LAKE SCHOOL", "designationCode": "C", "categoryCode": "20", "address": "1967 BRIGHT STREET", "city": "ROSSEAU", "province": "ON", "country": "CA", "postalCode": "P0C1J0", "twitter": "None", "instagram": "None", "facebook": "None", "youtube": "None", "website": "None", "summary": "None", "logo": "None", "latitude": 45.251097324095795, "longitude": -79.63682226153351}, "119124048RR0001": {"name": "ROSSENDALE CEMETERY IMPROVEMENT ASSOCIATION", "designationCode": "C", "categoryCode": "59", "address": "BOX 112", "city": "ROSSENDALE", "province": "MB", "country": "CA", "postalCode": "R0H1C0", "twitter": "None", "instagram": "None", "facebook": "None", "youtube": "None", "website": "None", "summary": "None", "logo": "None", "latitude": 49.82749000000007, "longitude": -98.62058999999994}, "892454562RR0001": {"name": "ROSSENDALE UNITED CHURCH", "designationCode": "C", "categoryCode": "44", "address": "P.O. BOX 79", "city": "EDWIN", "province": "MB", "country": "CA", "postalCode": "R0H0G0", "twitter": "None", "instagram": "None", "facebook": "None", "youtube": "None", "website": "None", "summary": "None", "logo": "None", "latitude": 49.89390000000003, "longitude": -98.51456999999999}, "119124063RR0001": {"name": "ROSSER GROSSE ISLE UNITED CHURCH", "designationCode": "C", "categoryCode": "44", "address": "PO BOX 16", "city": "ROSSER", "province": "MB", "country": "CA", "postalCode": "R0H1E0", "twitter": "None", "instagram": "None", "facebook": "None", "youtube": "None", "website": "None", "summary": "None", "logo": "None", "latitude": 49.99022000000008, "longitude": -97.43981999999994}, "883940827RR0001": {"name": "ROSSLAND CHILDCARE SOCIETY", "designationCode": "C", "categoryCode": "01", "address": "2058 SPOKANE ST               PO BOX 805", "city": "ROSSLAND", "province": "BC", "country": "CA", "postalCode": "V0G1Y0", "twitter": "None", "instagram": "None", "facebook": "None", "youtube": "None", "website": "None", "summary": "None", "logo": "None", "latitude": 49.07710409923006, "longitude": -117.80194839453358}, "879884419RR0001": {"name": "ROSSLAND FOOD BANK", "designationCode": "C", "categoryCode": "09", "address": "P.O.BOX 167                   (1807 COLUMBIA AVENUE)", "city": "ROSSLAND", "province": "BC", "country": "CA", "postalCode": "V0G1Y0", "twitter": "None", "instagram": "None", "facebook": "None", "youtube": "None", "website": "None", "summary": "None", "logo": "None", "latitude": 49.07699520245956, "longitude": -117.80400843679948}, "107915654RR0001": {"name": "ROSSLAND HISTORICAL MUSEUM ASSOCIATION", "designationCode": "C", "categoryCode": "50", "address": "PO BOX 26", "city": "ROSSLAND", "province": "BC", "country": "CA", "postalCode": "V0G1Y0", "twitter": "None", "instagram": "None", "facebook": "None", "youtube": "None", "website": "None", "summary": "None", "logo": "None", "latitude": 49.07693000000006, "longitude": -117.79933999999997}, "107915670RR0001": {"name": "ROSSLAND PUBLIC LIBRARY ASSOCIATION", "designationCode": "C", "categoryCode": "50", "address": "2180 COLUMBIA AVE BOX 190", "city": "ROSSLAND", "province": "BC", "country": "CA", "postalCode": "V0G1Y0", "twitter": "None", "instagram": "None", "facebook": "None", "youtube": "None", "website": "None", "summary": "None", "logo": "None", "latitude": 49.07692830488407, "longitude": -117.79727737643925}, "896351434RR0001": {"name": "ROSSLAND RIDGE BIBLE CHAPEL", "designationCode": "C", "categoryCode": "39", "address": "4 CEDAR POINTE DRIVE, SUITE R", "city": "BARRIE", "province": "ON", "country": "CA", "postalCode": "L4N5R7", "twitter": "None", "instagram": "None", "facebook": "None", "youtube": "None", "website": "None", "summary": "None", "logo": "None", "latitude": 44.37900296985677, "longitude": -79.71389244684802}, "119124105RR0001": {"name": "ROSSLAND-TRAIL RIGHT TO LIFE SOCIETY", "designationCode": "C", "categoryCode": "23", "address": "BOX 1006", "city": "ROSSLAND", "province": "BC", "country": "CA", "postalCode": "V0G1Y0", "twitter": "None", "instagram": "None", "facebook": "None", "youtube": "None", "website": "None", "summary": "None", "logo": "None", "latitude": 49.07693000000006, "longitude": -117.79933999999997}, "119124147RR0001": {"name": "ROSSPORT HISTORICAL SOCIETY", "designationCode": "C", "categoryCode": "50", "address": "BOX 9", "city": "ROSSPORT", "province": "ON", "country": "CA", "postalCode": "P0T2R0", "twitter": "None", "instagram": "None", "facebook": "None", "youtube": "None", "website": "None", "summary": "None", "logo": "None", "latitude": 48.83340000000004, "longitude": -87.51668999999998}, "119124154RR0001": {"name": "ROSSPORT UNION CHURCH LADIES AID", "designationCode": "C", "categoryCode": "49", "address": "#405 20 WALKOVER ST", "city": "THUNDER BAY", "province": "ON", "country": "CA", "postalCode": "P7B5K1", "twitter": "None", "instagram": "None", "facebook": "None", "youtube": "None", "website": "None", "summary": "None", "logo": "None", "latitude": 48.444257356656415, "longitude": -89.24897918093961}, "119124196RR0001": {"name": "ROSSWAY UNITED BAPTIST CHURCH", "designationCode": "C", "categoryCode": "31", "address": "RR#4", "city": "DIGBY", "province": "NS", "country": "CA", "postalCode": "B0V1A0", "twitter": "None", "instagram": "None", "facebook": "None", "youtube": "None", "website": "None", "summary": "None", "logo": "None", "latitude": 44.39616000000005, "longitude": -66.20374249999993}, "119124220RR0001": {"name": "ROSSWOOD COMMUNITY ASSOCIATION", "designationCode": "C", "categoryCode": "56", "address": "4145 KALUM LAKE RD", "city": "TERRACE", "province": "BC", "country": "CA", "postalCode": "V8G0G8", "twitter": "None", "instagram": "None", "facebook": "None", "youtube": "None", "website": "None", "summary": "None", "logo": "None", "latitude": 54.5212765295583, "longitude": -128.63495263243175}, "702104498RR0001": {"name": "ROSTHERN ALLIANCE CHURCH INC.", "designationCode": "C", "categoryCode": "39", "address": "PO BOX 340", "city": "ROSTHERN", "province": "SK", "country": "CA", "postalCode": "S0K3R0", "twitter": "None", "instagram": "None", "facebook": "None", "youtube": "None", "website": "None", "summary": "None", "logo": "None", "latitude": 52.663230000000055, "longitude": -106.32952999999998}, "862097086RR0001": {"name": "ROSTHERN HOSPITAL FOUNDATION INC.", "designationCode": "C", "categoryCode": "11", "address": "PO BOX 88", "city": "ROSTHERN", "province": "SK", "country": "CA", "postalCode": "S0K3R0", "twitter": "None", "instagram": "None", "facebook": "None", "youtube": "None", "website": "None", "summary": "None", "logo": "None", "latitude": 52.663230000000055, "longitude": -106.32952999999998}, "107915977RR0001": {"name": "ROSTHERN JUNIOR COLLEGE", "designationCode": "C", "categoryCode": "20", "address": "BOX 5020", "city": "ROSTHERN", "province": "SK", "country": "CA", "postalCode": "S0K3R0", "twitter": "None", "instagram": "None", "facebook": "None", "youtube": "None", "website": "None", "summary": "None", "logo": "None", "latitude": 52.663230000000055, "longitude": -106.32952999999998}, "107915993RR0001": {"name": "ROSTHERN MENNONITE CHURCH INC.", "designationCode": "C", "categoryCode": "34", "address": "BOX 519", "city": "ROSTHERN", "province": "SK", "country": "CA", "postalCode": "S0K3R0", "twitter": "None", "instagram": "None", "facebook": "None", "youtube": "None", "website": "None", "summary": "None", "logo": "None", "latitude": 52.663230000000055, "longitude": -106.32952999999998}, "870280112RR0001": {"name": "ROSTHERN MINISTERIAL ASSOCIATION", "designationCode": "C", "categoryCode": "09", "address": "BOX 1108", "city": "ROSTHERN", "province": "SK", "country": "CA", "postalCode": "S0K3R0", "twitter": "None", "instagram": "None", "facebook": "None", "youtube": "None", "website": "None", "summary": "None", "logo": "None", "latitude": 52.663230000000055, "longitude": -106.32952999999998}, "119124287RR0001": {"name": "ROSTHERN SENIOR CITIZENS CLUB", "designationCode": "C", "categoryCode": "56", "address": "BOX 277", "city": "ROSTHERN", "province": "SK", "country": "CA", "postalCode": "S0K3R0", "twitter": "None", "instagram": "None", "facebook": "None", "youtube": "None", "website": "None", "summary": "None", "logo": "None", "latitude": 52.663230000000055, "longitude": -106.32952999999998}, "119030666RR0025": {"name": "ROSTHERN SEVENTH-DAY ADVENTIST CHURCH", "designationCode": "C", "categoryCode": "41", "address": "1004 VICTORIA AVE", "city": "SASKATOON", "province": "SK", "country": "CA", "postalCode": "S7N0Z8", "twitter": "None", "instagram": "None", "facebook": "None", "youtube": "None", "website": "None", "summary": "None", "logo": "None", "latitude": 52.115409, "longitude": -106.66240826773014}, "119124329RR0001": {"name": "ROSTOCK UNITED CHURCH", "designationCode": "C", "categoryCode": "44", "address": "4949 RD 135 PERTH EAST", "city": "ROSTOCK", "province": "ON", "country": "CA", "postalCode": "N0K1T0", "twitter": "None", "instagram": "None", "facebook": "None", "youtube": "None", "website": "None", "summary": "None", "logo": "None", "latitude": 43.486047243119394, "longitude": -81.00734451551874}, "790785513RR0001": {"name": "ROTARACT CLUB OF VICTORIA FOUNDATION", "designationCode": "A", "categoryCode": "03", "address": "181 HOMER RD", "city": "VICTORIA", "province": "BC", "country": "CA", "postalCode": "V8Z1V7", "twitter": "None", "instagram": "None", "facebook": "None", "youtube": "None", "website": "None", "summary": "None", "logo": "None", "latitude": 48.459208758237786, "longitude": -123.38470731294355}, "119124337RR0001": {"name": "ROTAREL INC.", "designationCode": "C", "categoryCode": "03", "address": "BOX 833", "city": "THE PAS", "province": "MB", "country": "CA", "postalCode": "R9A1K8", "twitter": "None", "instagram": "None", "facebook": "None", "youtube": "None", "website": "None", "summary": "None", "logo": "None", "latitude": 53.81342700000006, "longitude": -101.25038149999993}, "886367390RR0001": {"name": "ROTARY ATHABASCA YOUTH DEVELOPMENT ASSOCIATION", "designationCode": "C", "categoryCode": "63", "address": "P.O. BOX 2021", "city": "ATHABASCA", "province": "AB", "country": "CA", "postalCode": "T9S2B6", "twitter": "None", "instagram": "None", "facebook": "None", "youtube": "None", "website": "None", "summary": "None", "logo": "None", "latitude": 54.721284000000054, "longitude": -113.28321049999994}, "897042529RR0001": {"name": "ROTARY BURLINGTON FALL MUSIC FESTIVAL", "designationCode": "C", "categoryCode": "22", "address": "P O BOX 91524                 ROSELAND PLAZA P O", "city": "BURLINGTON", "province": "ON", "country": "CA", "postalCode": "L7R4L6", "twitter": "None", "instagram": "None", "facebook": "None", "youtube": "None", "website": "None", "summary": "None", "logo": "None", "latitude": 43.326195000000055, "longitude": -79.79863399999994}, "803543545RR0001": {"name": "ROTARY CLUB OF ABBOTSFORD FOUNDATION", "designationCode": "A", "categoryCode": "03", "address": "PO BOX 71", "city": "ABBOTSFORD", "province": "BC", "country": "CA", "postalCode": "V2S6Z4", "twitter": "None", "instagram": "None", "facebook": "None", "youtube": "None", "website": "None", "summary": "None", "logo": "None", "latitude": 49.047225000000054, "longitude": -122.30725399999994}, "880377965RR0001": {"name": "ROTARY CLUB OF ALLISTON CHARITABLE FUND", "designationCode": "C", "categoryCode": "65", "address": "PO BOX 519", "city": "ALLISTON", "province": "ON", "country": "CA", "postalCode": "L9R1V7", "twitter": "None", "instagram": "None", "facebook": "None", "youtube": "None", "website": "None", "summary": "None", "logo": "None", "latitude": 44.15432100000005, "longitude": -79.86752449999993}, "119124378RR0001": {"name": "ROTARY CLUB OF AMHERST - REGISTERED CHARITIES TRUST", "designationCode": "A", "categoryCode": "05", "address": "P.O. BOX 322", "city": "AMHERST", "province": "NS", "country": "CA", "postalCode": "B4H3Z5", "twitter": "None", "instagram": "None", "facebook": "None", "youtube": "None", "website": "None", "summary": "None", "logo": "None", "latitude": 45.83198400000006, "longitude": -64.20979249999993}, "119124352RR0001": {"name": "ROTARY CLUB OF AMHERST, CAMP TIDNISH CHARITABLE TRUST", "designationCode": "C", "categoryCode": "09", "address": "PO BOX 322", "city": "AMHERST", "province": "NS", "country": "CA", "postalCode": "B4H3Z5", "twitter": "None", "instagram": "None", "facebook": "None", "youtube": "None", "website": "None", "summary": "None", "logo": "None", "latitude": 45.83198400000006, "longitude": -64.20979249999993}, "888811197RR0001": {"name": "ROTARY CLUB OF AMHERSTBURG FOUNDATION FUND", "designationCode": "C", "categoryCode": "65", "address": "P.O BOX 183", "city": "AMHERSTBURG", "province": "ON", "country": "CA", "postalCode": "N9V2Z4", "twitter": "None", "instagram": "None", "facebook": "None", "youtube": "None", "website": "None", "summary": "None", "logo": "None", "latitude": 42.101862000000054, "longitude": -83.10890149999993}, "119124386RR0001": {"name": "ROTARY CLUB OF AYLMER ONTARIO CHARITABLE TRUST", "designationCode": "C", "categoryCode": "65", "address": "P. O. BOX 131", "city": "AYLMER", "province": "ON", "country": "CA", "postalCode": "N5H2R9", "twitter": "None", "instagram": "None", "facebook": "None", "youtube": "None", "website": "None", "summary": "None", "logo": "None", "latitude": 42.773010000000056, "longitude": -80.98362349999994}, "134883842RR0001": {"name": "ROTARY CLUB OF BELLEVILLE CHARITABLE TRUST", "designationCode": "C", "categoryCode": "65", "address": "PO BOX 22082", "city": "BELLEVILLE", "province": "ON", "country": "CA", "postalCode": "K8N5V7", "twitter": "None", "instagram": "None", "facebook": "None", "youtube": "None", "website": "None", "summary": "None", "logo": "None", "latitude": 44.16104400000006, "longitude": -77.38183249999993}, "888980448RR0001": {"name": "ROTARY CLUB OF BLENHEIM CHARITABLE TRUST FUND", "designationCode": "C", "categoryCode": "65", "address": "PO BOX 826", "city": "BLENHEIM", "province": "ON", "country": "CA", "postalCode": "N0P1A0", "twitter": "None", "instagram": "None", "facebook": "None", "youtube": "None", "website": "None", "summary": "None", "logo": "None", "latitude": 42.34040003332553, "longitude": -82.00492995224775}, "888838398RR0001": {"name": "ROTARY CLUB OF BOLTON CHARITABLE TRUST", "designationCode": "C", "categoryCode": "65", "address": "PO BOX 405", "city": "BOLTON", "province": "ON", "country": "CA", "postalCode": "L7E5T3", "twitter": "None", "instagram": "None", "facebook": "None", "youtube": "None", "website": "None", "summary": "None", "logo": "None", "latitude": 43.880838000000054, "longitude": -79.73942299999993}, "896872249RR0001": {"name": "ROTARY CLUB OF BOWMANVILLE, CHARITABLE TRUST", "designationCode": "C", "categoryCode": "65", "address": "1748 BASELINE RD WEST         SUITE 200", "city": "COURTICE", "province": "ON", "country": "CA", "postalCode": "L1E2T1", "twitter": "None", "instagram": "None", "facebook": "None", "youtube": "None", "website": "None", "summary": "None", "logo": "None", "latitude": 46.52047414775628, "longitude": -84.4685889444131}, "130404114RR0001": {"name": "ROTARY CLUB OF BRACEBRIDGE CHARITABLE TRUST", "designationCode": "A", "categoryCode": "05", "address": "PO BOX 1140  STN MAIN", "city": "BRACEBRIDGE", "province": "ON", "country": "CA", "postalCode": "P1L1V3", "twitter": "None", "instagram": "None", "facebook": "None", "youtube": "None", "website": "None", "summary": "None", "logo": "None", "latitude": 45.055572000000055, "longitude": -79.28863099999994}, "131289951RR0001": {"name": "ROTARY CLUB OF BRANTFORD CHARITABLE FOUNDATION", "designationCode": "C", "categoryCode": "03", "address": "2 EDGE STREET", "city": "BRANTFORD", "province": "ON", "country": "CA", "postalCode": "N3T6H1", "twitter": "None", "instagram": "None", "facebook": "None", "youtube": "None", "website": "None", "summary": "None", "logo": "None", "latitude": 43.12124160248762, "longitude": -80.27160234834653}, "132725342RR0001": {"name": "ROTARY CLUB OF BROCKVILLE ONTARIO INCORPORATED CHARITABLE TRUST", "designationCode": "A", "categoryCode": "65", "address": "BOX 255", "city": "BROCKVILLE", "province": "ON", "country": "CA", "postalCode": "K6V5V5", "twitter": "None", "instagram": "None", "facebook": "None", "youtube": "None", "website": "None", "summary": "None", "logo": "None", "latitude": 44.59037100000006, "longitude": -75.68301049999994}, "850795998RR0001": {"name": "ROTARY CLUB OF BURLINGTON NORTH FOUNDATION INC", "designationCode": "A", "categoryCode": "63", "address": "P.O. BOX 93112", "city": "BURLINGTON", "province": "ON", "country": "CA", "postalCode": "L7M4A3", "twitter": "None", "instagram": "None", "facebook": "None", "youtube": "None", "website": "None", "summary": "None", "logo": "None", "latitude": 43.326195000000055, "longitude": -79.79863399999994}, "119124485RR0001": {"name": "ROTARY CLUB OF BURLINGTON ONTARIO FOUR WAY FUND", "designationCode": "C", "categoryCode": "65", "address": "3063 SOUTH SERVICE ROAD", "city": "BURLINGTON", "province": "ON", "country": "CA", "postalCode": "L7N3E9", "twitter": "None", "instagram": "None", "facebook": "None", "youtube": "None", "website": "None", "summary": "None", "logo": "None", "latitude": 43.35272947763876, "longitude": -79.79934564089075}, "119124493RR0001": {"name": "ROTARY CLUB OF BURNABY FOUNDATION", "designationCode": "C", "categoryCode": "03", "address": "PO 80001                      STN S", "city": "BURNABY", "province": "BC", "country": "CA", "postalCode": "V5H3X1", "twitter": "None", "instagram": "None", "facebook": "None", "youtube": "None", "website": "None", "summary": "None", "logo": "None", "latitude": 49.23084300000005, "longitude": -123.00196399999993}, "895363125RR0001": {"name": "ROTARY CLUB OF CALGARY SARCEE", "designationCode": "A", "categoryCode": "63", "address": "BOX 34273", "city": "CALGARY", "province": "AB", "country": "CA", "postalCode": "T3C3W2", "twitter": "None", "instagram": "None", "facebook": "None", "youtube": "None", "website": "None", "summary": "None", "logo": "None", "latitude": 51.04910400000006, "longitude": -114.14071249999994}, "890562945RR0001": {"name": "ROTARY CLUB OF CAMBRIDGE PRESTON HESPELER CHARITABLE FOUNDATION", "designationCode": "C", "categoryCode": "63", "address": "304 - 485 PINEBUSH RD", "city": "CAMBRIDGE", "province": "ON", "country": "CA", "postalCode": "N1T0A6", "twitter": "None", "instagram": "None", "facebook": "None", "youtube": "None", "website": "None", "summary": "None", "logo": "None", "latitude": 43.41513487091026, "longitude": -80.2875780010965}, "889133799RR0001": {"name": "ROTARY CLUB OF CAMPBELLFORD CHARITABLE TRUST,", "designationCode": "C", "categoryCode": "65", "address": "BOX 1396", "city": "CAMPBELLFORD", "province": "ON", "country": "CA", "postalCode": "K0L1L0", "twitter": "None", "instagram": "None", "facebook": "None", "youtube": "None", "website": "None", "summary": "None", "logo": "None", "latitude": 44.287060000000054, "longitude": -77.80936999999994}, "119124519RR0001": {"name": "ROTARY CLUB OF CHARLOTTETOWN CHARITABLE TRUST", "designationCode": "A", "categoryCode": "65", "address": "PO BOX 608", "city": "CHARLOTTETOWN", "province": "PE", "country": "CA", "postalCode": "C1A7L3", "twitter": "None", "instagram": "None", "facebook": "None", "youtube": "None", "website": "None", "summary": "None", "logo": "None", "latitude": 46.23659700000006, "longitude": -63.12815449999994}, "854175361RR0001": {"name": "ROTARY CLUB OF CHARLOTTETOWN LITERACY FOUNDATION INC", "designationCode": "A", "categoryCode": "23", "address": "PO BOX 608", "city": "CHARLOTTETOWN", "province": "PE", "country": "CA", "postalCode": "C1A7L3", "twitter": "None", "instagram": "None", "facebook": "None", "youtube": "None", "website": "None", "summary": "None", "logo": "None", "latitude": 46.23659700000006, "longitude": -63.12815449999994}, "119124527RR0001": {"name": "ROTARY CLUB OF CHATHAM SERVICE FUND", "designationCode": "A", "categoryCode": "63", "address": "PO BOX 836 STN MAIN", "city": "CHATHAM", "province": "ON", "country": "CA", "postalCode": "N7M5L1", "twitter": "None", "instagram": "None", "facebook": "None", "youtube": "None", "website": "None", "summary": "None", "logo": "None", "latitude": 42.404613000000055, "longitude": -82.18960099999994}, "884415514RR0001": {"name": "ROTARY CLUB OF CHATHAM SUNRISE SERVICE FUND", "designationCode": "A", "categoryCode": "63", "address": "48 CHRISTINA PL", "city": "CHATHAM", "province": "ON", "country": "CA", "postalCode": "N7L5K4", "twitter": "None", "instagram": "None", "facebook": "None", "youtube": "None", "website": "None", "summary": "None", "logo": "None", "latitude": 42.42612719413208, "longitude": -82.20622639361576}, "890570146RR0001": {"name": "ROTARY CLUB OF COQUITLAM CENTRE FOUNDATION", "designationCode": "A", "categoryCode": "63", "address": "3750 BEDWELL BAY RD", "city": "BELCARRA", "province": "BC", "country": "CA", "postalCode": "V3H4R6", "twitter": "None", "instagram": "None", "facebook": "None", "youtube": "None", "website": "None", "summary": "None", "logo": "None", "latitude": 49.31927939179853, "longitude": -122.90780981961069}, "878035302RR0001": {"name": "ROTARY CLUB OF CORNWALL SUNRISE FOUNDATION INC.", "designationCode": "A", "categoryCode": "63", "address": "P.O. BOX 562", "city": "CORNWALL", "province": "ON", "country": "CA", "postalCode": "K6H5T3", "twitter": "None", "instagram": "None", "facebook": "None", "youtube": "None", "website": "None", "summary": "None", "logo": "None", "latitude": 45.028419000000056, "longitude": -74.73569299999993}, "894013465RR0001": {"name": "ROTARY CLUB OF DON MILLS ONTARIO CHARITABLE FUND", "designationCode": "C", "categoryCode": "63", "address": "2 - 8953 WOODBINE AVE", "city": "MARKHAM", "province": "ON", "country": "CA", "postalCode": "L3R0J9", "twitter": "None", "instagram": "None", "facebook": "None", "youtube": "None", "website": "None", "summary": "None", "logo": "None", "latitude": 43.860642296699176, "longitude": -79.36082761766414}}