{"890096977RR0001": {"name": "BIRDTAIL RIVER FINE ARTS FESTIVAL", "designationCode": "C", "categoryCode": "22", "address": "PO BOX 31", "city": "ISABELLA", "province": "MB", "country": "CA", "postalCode": "R0M0Y0", "twitter": "None", "instagram": "None", "facebook": "None", "youtube": "None", "website": "None", "summary": "None", "logo": "None", "latitude": 50.26742000000007, "longitude": -100.87662999999998}, "825427545RR0001": {"name": "BIRDTON COMMUNITY ASSOCIATION AND TRUST INC.", "designationCode": "C", "categoryCode": "59", "address": "1327 KINGSLEY RD", "city": "BIRDTON", "province": "NB", "country": "CA", "postalCode": "E3G6E1", "twitter": "None", "instagram": "None", "facebook": "None", "youtube": "None", "website": "None", "summary": "None", "logo": "None", "latitude": 46.1015242303366, "longitude": -66.8141878018637}, "119288918RR0235": {"name": "BIRKDALE CONGREGATION OF JEHOVAH'S WITNESSES", "designationCode": "C", "categoryCode": "61", "address": "701 ELLESMERE RD", "city": "SCARBOROUGH", "province": "ON", "country": "CA", "postalCode": "M1R3Y1", "twitter": "None", "instagram": "None", "facebook": "None", "youtube": "None", "website": "None", "summary": "None", "logo": "None", "latitude": 43.76331614468093, "longitude": -79.29140331557602}, "865226690RR0001": {"name": "BIRKEN FIRE PROTECTION SOCIETY", "designationCode": "C", "categoryCode": "59", "address": "P O BOX 1409", "city": "D'ARCY", "province": "BC", "country": "CA", "postalCode": "V0N1L0", "twitter": "None", "instagram": "None", "facebook": "None", "youtube": "None", "website": "None", "summary": "None", "logo": "None", "latitude": 50.55359000000004, "longitude": -122.47971999999999}, "892635483RR0001": {"name": "BIRKEN FOREST BUDDHIST MONASTERY", "designationCode": "C", "categoryCode": "35", "address": "PO BOX 5", "city": "KNUTSFORD", "province": "BC", "country": "CA", "postalCode": "V0E2A0", "twitter": "None", "instagram": "None", "facebook": "None", "youtube": "None", "website": "None", "summary": "None", "logo": "None", "latitude": 50.61254000000008, "longitude": -120.32844999999998}, "131432122RR0001": {"name": "BIRNIE NURSERY SCHOOL INC", "designationCode": "C", "categoryCode": "01", "address": "PO BOX 29", "city": "BIRNIE", "province": "MB", "country": "CA", "postalCode": "R0J0J0", "twitter": "None", "instagram": "None", "facebook": "None", "youtube": "None", "website": "None", "summary": "None", "logo": "None", "latitude": 50.447910000000036, "longitude": -99.44145999999995}, "118810084RR0001": {"name": "BIRR ANGLICAN CEMETERY", "designationCode": "C", "categoryCode": "59", "address": "22898 RICHMOND ST             RR #42", "city": "LONDON", "province": "ON", "country": "CA", "postalCode": "N5X4B2", "twitter": "None", "instagram": "None", "facebook": "None", "youtube": "None", "website": "None", "summary": "None", "logo": "None", "latitude": 43.10690792209532, "longitude": -81.32394839488946}, "892372046RR0001": {"name": "BIRR UNITED CEMETERY", "designationCode": "C", "categoryCode": "59", "address": "15073 FOURTEEN MILE RD        RR 4", "city": "DENFIELD", "province": "ON", "country": "CA", "postalCode": "N0M1P0", "twitter": "None", "instagram": "None", "facebook": "None", "youtube": "None", "website": "None", "summary": "None", "logo": "None", "latitude": 43.14621906105564, "longitude": -81.29226298889243}, "118810100RR0001": {"name": "BIRTH CONTROL AND VENEREAL DISEASE INFORMATION CENTRE", "designationCode": "C", "categoryCode": "11", "address": "960 LAWRENCE AVE              SUITE 403", "city": "TORONTO", "province": "ON", "country": "CA", "postalCode": "M6A3B5", "twitter": "None", "instagram": "None", "facebook": "None", "youtube": "None", "website": "None", "summary": "None", "logo": "None", "latitude": 43.7135651218764, "longitude": -79.45735630864438}, "878356963RR0001": {"name": "BIRTH TO SIX PARENTAL SUPPORT GROUP OF WINDSOR", "designationCode": "C", "categoryCode": "09", "address": "647 OUELLETTE AVE #106", "city": "WINDSOR", "province": "ON", "country": "CA", "postalCode": "N9A4J4", "twitter": "None", "instagram": "None", "facebook": "None", "youtube": "None", "website": "None", "summary": "None", "logo": "None", "latitude": 42.31356382901505, "longitude": -83.03650048228371}, "857545776RR0001": {"name": "BIRTHDAY BUDDIES INC.", "designationCode": "C", "categoryCode": "09", "address": "206 WAVERLEY STREET", "city": "WINNIPEG", "province": "MB", "country": "CA", "postalCode": "R3M3L2", "twitter": "None", "instagram": "None", "facebook": "None", "youtube": "None", "website": "None", "summary": "None", "logo": "None", "latitude": 49.87221020260836, "longitude": -97.1769197906979}, "118810142RR0001": {"name": "BIRTHRIGHT", "designationCode": "C", "categoryCode": "09", "address": "STE 107 - 236 ST GEORGE", "city": "MONCTON", "province": "NB", "country": "CA", "postalCode": "E1C1W1", "twitter": "None", "instagram": "None", "facebook": "None", "youtube": "None", "website": "None", "summary": "None", "logo": "None", "latitude": 46.091121853165305, "longitude": -64.7828863956374}, "118810167RR0001": {"name": "BIRTHRIGHT", "designationCode": "C", "categoryCode": "09", "address": "777 COXWELL AVE.", "city": "TORONTO", "province": "ON", "country": "CA", "postalCode": "M4C3C6", "twitter": "None", "instagram": "None", "facebook": "None", "youtube": "None", "website": "None", "summary": "None", "logo": "None", "latitude": 43.686475648075444, "longitude": -79.3248574891513}, "131460487RR0001": {"name": "BIRTHRIGHT", "designationCode": "C", "categoryCode": "09", "address": "93 QUEEN ST", "city": "KINGSTON", "province": "ON", "country": "CA", "postalCode": "K7K1A5", "twitter": "None", "instagram": "None", "facebook": "None", "youtube": "None", "website": "None", "summary": "None", "logo": "None", "latitude": 44.232630296150894, "longitude": -76.48309876519133}, "118810126RR0001": {"name": "BIRTHRIGHT BELLEVILLE BRANCH", "designationCode": "C", "categoryCode": "09", "address": "PO BOX 22092", "city": "BELLEVILLE", "province": "ON", "country": "CA", "postalCode": "K8N5V7", "twitter": "None", "instagram": "None", "facebook": "None", "youtube": "None", "website": "None", "summary": "None", "logo": "None", "latitude": 44.16104400000006, "longitude": -77.38183249999993}, "118810175RR0001": {"name": "BIRTHRIGHT EDMONTON", "designationCode": "C", "categoryCode": "09", "address": "97-52312 RANGE ROAD 225", "city": "SHERWOOD PARK", "province": "AB", "country": "CA", "postalCode": "T8C1B3", "twitter": "None", "instagram": "None", "facebook": "None", "youtube": "None", "website": "None", "summary": "None", "logo": "None", "latitude": 53.4992615134171, "longitude": -113.22996308381903}, "118810316RR0001": {"name": "BIRTHRIGHT FREDERICTON INC.", "designationCode": "C", "categoryCode": "09", "address": "PO BOX 3035", "city": "FREDERICTON", "province": "NB", "country": "CA", "postalCode": "E3A5G8", "twitter": "None", "instagram": "None", "facebook": "None", "youtube": "None", "website": "None", "summary": "None", "logo": "None", "latitude": 45.96062100000006, "longitude": -66.63911299999994}, "879358612RR0001": {"name": "BIRTHRIGHT ISRAEL FOUNDATION OF CANADA / LA FONDATION BIRTHRIGHT ISRAEL DU CANADA", "designationCode": "C", "categoryCode": "03", "address": "4600 BATHURST STREET          SUITE 220", "city": "TORONTO", "province": "ON", "country": "CA", "postalCode": "M2R3V3", "twitter": "None", "instagram": "None", "facebook": "None", "youtube": "None", "website": "None", "summary": "None", "logo": "None", "latitude": 43.764549213428396, "longitude": -79.4407190577642}, "118810209RR0001": {"name": "BIRTHRIGHT KITCHENER-WATERLOO", "designationCode": "C", "categoryCode": "09", "address": "100 - 96 HIGHLAND RD W", "city": "KITCHENER", "province": "ON", "country": "CA", "postalCode": "N2M3B5", "twitter": "None", "instagram": "None", "facebook": "None", "youtube": "None", "website": "None", "summary": "None", "logo": "None", "latitude": 43.44127941661365, "longitude": -80.50153408826243}, "118810217RR0001": {"name": "BIRTHRIGHT LONDON", "designationCode": "C", "categoryCode": "09", "address": "854 RICHMOND ST", "city": "LONDON", "province": "ON", "country": "CA", "postalCode": "N6A3H8", "twitter": "None", "instagram": "None", "facebook": "None", "youtube": "None", "website": "None", "summary": "None", "logo": "None", "latitude": 42.99881084569214, "longitude": -81.25484129944047}, "133493957RR0001": {"name": "BIRTHRIGHT MISSISSAUGA", "designationCode": "C", "categoryCode": "09", "address": "307-2600 EDENHURST DRIVE", "city": "MISSISSAUGA", "province": "ON", "country": "CA", "postalCode": "L5A3Z8", "twitter": "None", "instagram": "None", "facebook": "None", "youtube": "None", "website": "None", "summary": "None", "logo": "None", "latitude": 43.58434904550186, "longitude": -79.61062112672383}, "118810233RR0001": {"name": "BIRTHRIGHT OF BARRIE", "designationCode": "C", "categoryCode": "09", "address": "109 BAYFIELD ST", "city": "BARRIE", "province": "ON", "country": "CA", "postalCode": "L4M3A9", "twitter": "None", "instagram": "None", "facebook": "None", "youtube": "None", "website": "None", "summary": "None", "logo": "None", "latitude": 44.39183904968546, "longitude": -79.69230619288483}, "118810258RR0001": {"name": "BIRTHRIGHT OF BRANTFORD", "designationCode": "C", "categoryCode": "09", "address": "P.O. BOX 25082", "city": "BRANTFORD", "province": "ON", "country": "CA", "postalCode": "N3T6K5", "twitter": "None", "instagram": "None", "facebook": "None", "youtube": "None", "website": "None", "summary": "None", "logo": "None", "latitude": 43.14136200000006, "longitude": -80.26173349999993}, "892991969RR0001": {"name": "BIRTHRIGHT OF CHARLOTTETOWN, P.E.I., INC.", "designationCode": "C", "categoryCode": "09", "address": "301 - 200 RICHMOND ST", "city": "CHARLOTTETOWN", "province": "PE", "country": "CA", "postalCode": "C1A1J2", "twitter": "None", "instagram": "None", "facebook": "None", "youtube": "None", "website": "None", "summary": "None", "logo": "None", "latitude": 46.235061901465784, "longitude": -63.124835286283144}, "118810324RR0001": {"name": "BIRTHRIGHT OF GREATER WINDSOR", "designationCode": "C", "categoryCode": "09", "address": "1168 DROUILLARD RD            BOX 0", "city": "WINDSOR", "province": "ON", "country": "CA", "postalCode": "N8Y2R1", "twitter": "None", "instagram": "None", "facebook": "None", "youtube": "None", "website": "None", "summary": "None", "logo": "None", "latitude": 42.31887534583637, "longitude": -82.9984033058171}, "132146788RR0001": {"name": "BIRTHRIGHT OF HALIFAX-DARTMOUTH", "designationCode": "C", "categoryCode": "09", "address": "301 - 1531 GRAFTON ST", "city": "HALIFAX", "province": "NS", "country": "CA", "postalCode": "B3J2B9", "twitter": "None", "instagram": "None", "facebook": "None", "youtube": "None", "website": "None", "summary": "None", "logo": "None", "latitude": 44.64439061139251, "longitude": -63.57409284393179}, "890862998RR0001": {"name": "BIRTHRIGHT OF MILTON", "designationCode": "C", "categoryCode": "09", "address": "225 MAIN STREET EAST", "city": "MILTON", "province": "ON", "country": "CA", "postalCode": "L9T1N9", "twitter": "None", "instagram": "None", "facebook": "None", "youtube": "None", "website": "None", "summary": "None", "logo": "None", "latitude": 43.513321525679444, "longitude": -79.88303272413286}, "118810423RR0001": {"name": "BIRTHRIGHT OF ORANGEVILLE", "designationCode": "C", "categoryCode": "09", "address": "4 - 228 BROADWAY", "city": "ORANGEVILLE", "province": "ON", "country": "CA", "postalCode": "L9W1K5", "twitter": "None", "instagram": "None", "facebook": "None", "youtube": "None", "website": "None", "summary": "None", "logo": "None", "latitude": 43.91880206452183, "longitude": -80.09901281695973}, "890149396RR0001": {"name": "BIRTHRIGHT OF OTTAWA", "designationCode": "C", "categoryCode": "09", "address": "508 GLADSTONE AVE             SUITE 201A", "city": "OTTAWA", "province": "ON", "country": "CA", "postalCode": "K1R5P1", "twitter": "None", "instagram": "None", "facebook": "None", "youtube": "None", "website": "None", "summary": "None", "logo": "None", "latitude": 45.41013258921474, "longitude": -75.6984202816955}, "118810498RR0001": {"name": "BIRTHRIGHT OF SUDBURY", "designationCode": "C", "categoryCode": "09", "address": "112 - 66 ELM ST", "city": "SUDBURY", "province": "ON", "country": "CA", "postalCode": "P3C1R8", "twitter": "None", "instagram": "None", "facebook": "None", "youtube": "None", "website": "None", "summary": "None", "logo": "None", "latitude": 46.4931591510519, "longitude": -80.99553315480598}, "139538342RR0001": {"name": "BIRTHRIGHT OF SURREY DELTA", "designationCode": "C", "categoryCode": "09", "address": "202 - 15317 THRIFT AVE", "city": "WHITE ROCK", "province": "BC", "country": "CA", "postalCode": "V4B2L4", "twitter": "None", "instagram": "None", "facebook": "None", "youtube": "None", "website": "None", "summary": "None", "logo": "None", "latitude": 49.02756448600596, "longitude": -122.79805102553522}, "136327566RR0001": {"name": "BIRTHRIGHT OF THUNDER BAY", "designationCode": "C", "categoryCode": "09", "address": "3539 DAWSON RD", "city": "THUNDER BAY", "province": "ON", "country": "CA", "postalCode": "P7G2G7", "twitter": "None", "instagram": "None", "facebook": "None", "youtube": "None", "website": "None", "summary": "None", "logo": "None", "latitude": 48.493764946939, "longitude": -89.39646762479057}, "118810530RR0001": {"name": "BIRTHRIGHT OF VANCOUVER", "designationCode": "C", "categoryCode": "09", "address": "1107-207 WEST HASTINGS STREET", "city": "VANCOUVER", "province": "BC", "country": "CA", "postalCode": "V6B1H7", "twitter": "None", "instagram": "None", "facebook": "None", "youtube": "None", "website": "None", "summary": "None", "logo": "None", "latitude": 49.282745342777936, "longitude": -123.10981369856898}, "129932919RR0001": {"name": "BIRTHRIGHT ORGANIZATION OF HAMILTON", "designationCode": "C", "categoryCode": "09", "address": "M1 - 370 MAIN ST E", "city": "HAMILTON", "province": "ON", "country": "CA", "postalCode": "L8N1J6", "twitter": "None", "instagram": "None", "facebook": "None", "youtube": "None", "website": "None", "summary": "None", "logo": "None", "latitude": 43.251575984159636, "longitude": -79.85511040259095}, "118810555RR0001": {"name": "BIRTHRIGHT REGINA INC.", "designationCode": "C", "categoryCode": "09", "address": "PO BOX 3623", "city": "REGINA", "province": "SK", "country": "CA", "postalCode": "S4P3L7", "twitter": "None", "instagram": "None", "facebook": "None", "youtube": "None", "website": "None", "summary": "None", "logo": "None", "latitude": 50.448246000000054, "longitude": -104.59517299999993}, "888117660RR0001": {"name": "BIRTLE AGRICULTURAL SOCIETY", "designationCode": "C", "categoryCode": "56", "address": "BOX 12", "city": "BIRTLE", "province": "MB", "country": "CA", "postalCode": "R0M0C0", "twitter": "None", "instagram": "None", "facebook": "None", "youtube": "None", "website": "None", "summary": "None", "logo": "None", "latitude": 50.423476500000014, "longitude": -101.0397825}, "818691875RR0001": {"name": "BIRTLE AND DISTRICT FOUNDATION INC.", "designationCode": "A", "categoryCode": "03", "address": "684 MAIN ST. BOX 598", "city": "BIRTLE", "province": "MB", "country": "CA", "postalCode": "R0M0C0", "twitter": "None", "instagram": "None", "facebook": "None", "youtube": "None", "website": "None", "summary": "None", "logo": "None", "latitude": 50.422090547319534, "longitude": -101.04915133236193}, "131804213RR0001": {"name": "BIRTLE DROP-IN CENTRE INC.", "designationCode": "C", "categoryCode": "59", "address": "BOX 455", "city": "BIRTLE", "province": "MB", "country": "CA", "postalCode": "R0M0C0", "twitter": "None", "instagram": "None", "facebook": "None", "youtube": "None", "website": "None", "summary": "None", "logo": "None", "latitude": 50.422120000000064, "longitude": -101.04440999999997}, "118810621RR0001": {"name": "BIRTLE UNITED CHURCH", "designationCode": "C", "categoryCode": "44", "address": "PO BOX 451", "city": "BIRTLE", "province": "MB", "country": "CA", "postalCode": "R0M0C0", "twitter": "None", "instagram": "None", "facebook": "None", "youtube": "None", "website": "None", "summary": "None", "logo": "None", "latitude": 50.422120000000064, "longitude": -101.04440999999997}, "118810605RR0001": {"name": "BIRTLE-ISABELLA-MINIOTA PASTORAL CHARGE", "designationCode": "C", "categoryCode": "44", "address": "BOX 451", "city": "BIRTLE", "province": "MB", "country": "CA", "postalCode": "R0M0C0", "twitter": "None", "instagram": "None", "facebook": "None", "youtube": "None", "website": "None", "summary": "None", "logo": "None", "latitude": 50.422120000000064, "longitude": -101.04440999999997}, "862260049RR0001": {"name": "BISERICA ORTODOXA ROMANA SFANTUL ANDREI-SAINT ANDREW ROMANIAN ORTHODOX CHURCH", "designationCode": "C", "categoryCode": "39", "address": "PO BOX 21089                  RPO DOMINION DRUG'S", "city": "CALGARY", "province": "AB", "country": "CA", "postalCode": "T2P4H5", "twitter": "None", "instagram": "None", "facebook": "None", "youtube": "None", "website": "None", "summary": "None", "logo": "None", "latitude": 51.04531500000006, "longitude": -114.06301099999993}, "885835512RR0001": {"name": "BISHOP ALEXANDER CARTER FOUNDATION", "designationCode": "A", "categoryCode": "23", "address": "30 STE. ANNE RD.", "city": "SUDBURY", "province": "ON", "country": "CA", "postalCode": "P3C5E1", "twitter": "None", "instagram": "None", "facebook": "None", "youtube": "None", "website": "None", "summary": "None", "logo": "None", "latitude": 46.49512132849767, "longitude": -80.99615523166241}, "814362000RR0001": {"name": "BISHOP ANDREW ROBORECKI FOUNDATION INC.", "designationCode": "C", "categoryCode": "49", "address": "214 AVE M SOUTH", "city": "SASKATOON", "province": "SK", "country": "CA", "postalCode": "S7M2K4", "twitter": "None", "instagram": "None", "facebook": "None", "youtube": "None", "website": "None", "summary": "None", "logo": "None", "latitude": 52.127081245628716, "longitude": -106.68879926501845}, "865405500RR0001": {"name": "BISHOP DENIS CROTEAU DEVELOPMENT FOUNDATION", "designationCode": "B", "categoryCode": "47", "address": "5117 52 STREET", "city": "YELLOWKNIFE", "province": "NT", "country": "CA", "postalCode": "X1A1T7", "twitter": "None", "instagram": "None", "facebook": "None", "youtube": "None", "website": "None", "summary": "None", "logo": "None", "latitude": 62.45152717689483, "longitude": -114.37082072687275}, "866743834RR0001": {"name": "BISHOP GRANDIN GREENWAY INC.", "designationCode": "C", "categoryCode": "56", "address": "6 - 845 DAKOTA ST", "city": "WINNIPEG", "province": "MB", "country": "CA", "postalCode": "R2M5M3", "twitter": "None", "instagram": "None", "facebook": "None", "youtube": "None", "website": "None", "summary": "None", "logo": "None", "latitude": 49.83559975932847, "longitude": -97.11154877798536}, "119249225RR0001": {"name": "BISHOP HAMILTON MONTESSORI SCHOOL", "designationCode": "C", "categoryCode": "20", "address": "2199 REGENCY TERRACE", "city": "OTTAWA", "province": "ON", "country": "CA", "postalCode": "K2C1H2", "twitter": "None", "instagram": "None", "facebook": "None", "youtube": "None", "website": "None", "summary": "None", "logo": "None", "latitude": 45.3488281565869, "longitude": -75.77173299838388}, "858908767RR0001": {"name": "BISHOP O'BYRNE HIGH SCHOOL FUNDRAISING SOCIETY", "designationCode": "C", "categoryCode": "21", "address": "500-333 SHAWVILLE BLVD S.E.", "city": "CALGARY", "province": "AB", "country": "CA", "postalCode": "T2Y4H3", "twitter": "None", "instagram": "None", "facebook": "None", "youtube": "None", "website": "None", "summary": "None", "logo": "None", "latitude": 50.90936894075023, "longitude": -114.06910533560901}, "108152547RR0001": {"name": "BISHOP OXFORD PASTORAL CHARGE", "designationCode": "C", "categoryCode": "44", "address": "736 CRAIG RD. RR #1", "city": "OXFORD MILLS", "province": "ON", "country": "CA", "postalCode": "K0G1S0", "twitter": "None", "instagram": "None", "facebook": "None", "youtube": "None", "website": "None", "summary": "None", "logo": "None", "latitude": 44.941169139594564, "longitude": -75.738629643057}, "131158289RR0001": {"name": "BISHOP PINKHAM MUSIC PARENTS ASSOCIATION", "designationCode": "C", "categoryCode": "22", "address": "3304-63 AVENUE S.W.", "city": "CALGARY", "province": "AB", "country": "CA", "postalCode": "T3E5K1", "twitter": "None", "instagram": "None", "facebook": "None", "youtube": "None", "website": "None", "summary": "None", "logo": "None", "latitude": 50.996935234548886, "longitude": -114.12969864100631}, "118810738RR0001": {"name": "BISHOP RYAN CHARITABLE FUND", "designationCode": "C", "categoryCode": "09", "address": "P.O. BOX 7", "city": "PEMBROKE", "province": "ON", "country": "CA", "postalCode": "K8A6X1", "twitter": "None", "instagram": "None", "facebook": "None", "youtube": "None", "website": "None", "summary": "None", "logo": "None", "latitude": 45.826494000000054, "longitude": -77.11217449999994}, "118810779RR0002": {"name": "BISHOP STEWART MEMORIAL CHURCH", "designationCode": "C", "categoryCode": "30", "address": "14 RIDGE RD.", "city": "STANBRIDGE EAST", "province": "QC", "country": "CA", "postalCode": "J0J2H0", "twitter": "None", "instagram": "None", "facebook": "None", "youtube": "None", "website": "None", "summary": "None", "logo": "None", "latitude": 45.11575794754458, "longitude": -72.94958940429306}, "892050840RR0001": {"name": "BISHOP WILD BIRD FOUNDATION", "designationCode": "A", "categoryCode": "53", "address": "12408 COLDSTREAM CREEK ROAD", "city": "COLDSTREAM", "province": "BC", "country": "CA", "postalCode": "V1B1G1", "twitter": "None", "instagram": "None", "facebook": "None", "youtube": "None", "website": "None", "summary": "None", "logo": "None", "latitude": 50.22001952394871, "longitude": -119.26302221207206}, "870593613RR0001": {"name": "BISHOP WILLIAM E. POWER FAMILY CHARITABLE FOUNDATION", "designationCode": "B", "categoryCode": "03", "address": "P.O.BOX 5000", "city": "ANTIGONISH", "province": "NS", "country": "CA", "postalCode": "B2G2W5", "twitter": "None", "instagram": "None", "facebook": "None", "youtube": "None", "website": "None", "summary": "None", "logo": "None", "latitude": 45.62219400000005, "longitude": -61.99427149999994}, "106796535RR0001": {"name": "BISHOP'S UNIVERSITY", "designationCode": "C", "categoryCode": "20", "address": "2600 COLLEGE ST", "city": "SHERBROOKE", "province": "QC", "country": "CA", "postalCode": "J1M1Z7", "twitter": "None", "instagram": "None", "facebook": "None", "youtube": "None", "website": "None", "summary": "None", "logo": "None", "latitude": 45.36616943331562, "longitude": -71.84309857452959}, "118810787RR0001": {"name": "BISHOP'S UNIVERSITY FOUNDATION", "designationCode": "A", "categoryCode": "23", "address": "2600 COLLEGE ST", "city": "SHERBROOKE", "province": "QC", "country": "CA", "postalCode": "J1M1Z7", "twitter": "None", "instagram": "None", "facebook": "None", "youtube": "None", "website": "None", "summary": "None", "logo": "None", "latitude": 45.36616943331562, "longitude": -71.84309857452959}, "887684553RR0001": {"name": "BISHOPRIC OF PUBLIC, ECUMENICAL AND SOCIAL SERVICES (Bless Canada)", "designationCode": "C", "categoryCode": "39", "address": "P.O. BOX 92240                2900 WARDEN AVENUE", "city": "TORONTO", "province": "ON", "country": "CA", "postalCode": "M1W3Y9", "twitter": "None", "instagram": "None", "facebook": "None", "youtube": "None", "website": "None", "summary": "None", "logo": "None"}, "891840647RR0001": {"name": "BISHOPS COLLEGE SCHOOL FOUNDATION", "designationCode": "A", "categoryCode": "23", "address": "80 CH MOULTON HILL            PO BOX 5001", "city": "SHERBROOKE", "province": "QC", "country": "CA", "postalCode": "J1M1Z8", "twitter": "None", "instagram": "None", "facebook": "None", "youtube": "None", "website": "None", "summary": "None", "logo": "None", "latitude": 45.3722631135092, "longitude": -71.8435007247967}, "884427220RR0001": {"name": "BISHOPS FALLS PASTORAL CHARGE", "designationCode": "C", "categoryCode": "44", "address": "P.O. BOX 51", "city": "NORRIS ARM NORTH", "province": "NL", "country": "CA", "postalCode": "A0G3N0", "twitter": "None", "instagram": "None", "facebook": "None", "youtube": "None", "website": "None", "summary": "None", "logo": "None", "latitude": 49.18741800000005, "longitude": -54.38943799999993}, "118810803RR0001": {"name": "BISHOPTON UNITED CHURCH", "designationCode": "C", "categoryCode": "44", "address": "54 MAIN", "city": "BISHOPTON", "province": "QC", "country": "CA", "postalCode": "J0B1G0", "twitter": "None", "instagram": "None", "facebook": "None", "youtube": "None", "website": "None", "summary": "None", "logo": "None", "latitude": 45.5825200979573, "longitude": -71.57394884098893}, "873759203RR0001": {"name": "BISHOPVILLE UNITED BAPTIST CHURCH", "designationCode": "C", "categoryCode": "39", "address": "1287 BISHOPVILLE RD.          RR 1", "city": "HANTSPORT", "province": "NS", "country": "CA", "postalCode": "B0P1P0", "twitter": "None", "instagram": "None", "facebook": "None", "youtube": "None", "website": "None", "summary": "None", "logo": "None", "latitude": 45.012893671792206, "longitude": -64.26484982820779}, "118810811RR0001": {"name": "BISMARCK UNITED CHURCH", "designationCode": "C", "categoryCode": "44", "address": "BOX 105                       LOIS LEPPERT TREASURER", "city": "SMITHVILLE", "province": "ON", "country": "CA", "postalCode": "L0R2A0", "twitter": "None", "instagram": "None", "facebook": "None", "youtube": "None", "website": "None", "summary": "None", "logo": "None", "latitude": 43.09114347619214, "longitude": -79.56149144437846}, "118810829RR0001": {"name": "BISSELL CENTRE", "designationCode": "C", "categoryCode": "49", "address": "10527 96 ST NW", "city": "EDMONTON", "province": "AB", "country": "CA", "postalCode": "T5H2H6", "twitter": "None", "instagram": "None", "facebook": "None", "youtube": "None", "website": "None", "summary": "None", "logo": "None", "latitude": 53.54945573495292, "longitude": -113.48475581828193}, "118810837RR0001": {"name": "BISSELL MEMORIAL UNITED CHURCH", "designationCode": "C", "categoryCode": "44", "address": "PO BOX 393", "city": "GLASLYN", "province": "SK", "country": "CA", "postalCode": "S0M0Y0", "twitter": "None", "instagram": "None", "facebook": "None", "youtube": "None", "website": "None", "summary": "None", "logo": "None", "latitude": 53.36687000000006, "longitude": -108.35134999999997}, "118810878RR0001": {"name": "BISSETT UNITED CHURCH", "designationCode": "C", "categoryCode": "44", "address": "GENERAL DELIVERY", "city": "BISSETT", "province": "MB", "country": "CA", "postalCode": "R0E0J0", "twitter": "None", "instagram": "None", "facebook": "None", "youtube": "None", "website": "None", "summary": "None", "logo": "None", "latitude": 51.02648700000006, "longitude": -95.65167049999994}, "887322790RR0001": {"name": "BKS IYENGAR YOGA ASSOCIATION", "designationCode": "C", "categoryCode": "19", "address": "PO BOX 60639                  GRANVILLE PARK PO", "city": "VANCOUVER", "province": "BC", "country": "CA", "postalCode": "V6H4B9", "twitter": "None", "instagram": "None", "facebook": "None", "youtube": "None", "website": "None", "summary": "None", "logo": "None", "latitude": 49.2574107949392, "longitude": -123.1388109520393}, "894406396RR0001": {"name": "BLACK ACADEMIC SCHOLARSHIP FUND/FONDS D'\u00c9TUDES ACAD\u00c9MIQUES POUR LES NOIRS", "designationCode": "C", "categoryCode": "21", "address": "3270 PRINCE CHARLES STREET", "city": "ST-HUBERT", "province": "QC", "country": "CA", "postalCode": "J3Y4X4", "twitter": "None", "instagram": "None", "facebook": "None", "youtube": "None", "website": "None", "summary": "None", "logo": "None", "latitude": 45.495680185959934, "longitude": -73.4186300856367}, "131891954RR0001": {"name": "BLACK CREEK COMMUNITY ASSOCIATION", "designationCode": "C", "categoryCode": "56", "address": "2001 BLACK CREEK RD.", "city": "BLACK CREEK", "province": "BC", "country": "CA", "postalCode": "V9J1G5", "twitter": "None", "instagram": "None", "facebook": "None", "youtube": "None", "website": "None", "summary": "None", "logo": "None", "latitude": 49.81427413156682, "longitude": -125.11494281561018}, "869066621RR0001": {"name": "BLACK CREEK COMMUNITY ASSOCIATION", "designationCode": "C", "categoryCode": "55", "address": "2959 BAKER RD.", "city": "STEVENSVILLE", "province": "ON", "country": "CA", "postalCode": "L0S1S0", "twitter": "None", "instagram": "None", "facebook": "None", "youtube": "None", "website": "None", "summary": "None", "logo": "None", "latitude": 42.97468747677338, "longitude": -79.02663057951986}, "869041723RR0001": {"name": "BLACK CREEK COMMUNITY CHURCH", "designationCode": "C", "categoryCode": "34", "address": "7898 ISLAND HIGHWAY", "city": "BLACK CREEK", "province": "BC", "country": "CA", "postalCode": "V9J1G5", "twitter": "None", "instagram": "None", "facebook": "None", "youtube": "None", "website": "None", "summary": "None", "logo": "None", "latitude": 49.81508511764102, "longitude": -125.1188286126066}, "129633731RR0001": {"name": "BLACK CREEK COMMUNITY HEALTH CENTRE", "designationCode": "C", "categoryCode": "11", "address": "2202 JANE STREET, UNIT 5", "city": "TORONTO", "province": "ON", "country": "CA", "postalCode": "M3M1A4", "twitter": "None", "instagram": "None", "facebook": "None", "youtube": "None", "website": "None", "summary": "None", "logo": "None", "latitude": 43.72187783261339, "longitude": -79.50891218968358}, "133533000RR0001": {"name": "BLACK CULTURAL ARTS PROJECT OF ONTARIO", "designationCode": "C", "categoryCode": "22", "address": "340 ROYAL YORK ROAD           SUITE 405", "city": "TORONTO", "province": "ON", "country": "CA", "postalCode": "M8Y2P9", "twitter": "None", "instagram": "None", "facebook": "None", "youtube": "None", "website": "None", "summary": "None", "logo": "None", "latitude": 43.61678239246342, "longitude": -79.4998730103587}, "118810969RR0001": {"name": "BLACK DIAMOND GOSPEL CHAPEL", "designationCode": "C", "categoryCode": "39", "address": "BOX 364", "city": "BLACK DIAMOND", "province": "AB", "country": "CA", "postalCode": "T0L0H0", "twitter": "None", "instagram": "None", "facebook": "None", "youtube": "None", "website": "None", "summary": "None", "logo": "None", "latitude": 50.70011000000005, "longitude": -114.23529999999994}, "118810985RR0001": {"name": "BLACK EDUCATORS' ASSOCIATION", "designationCode": "C", "categoryCode": "21", "address": "2136 GOTTINGEN ST", "city": "HALIFAX", "province": "NS", "country": "CA", "postalCode": "B3K3B3", "twitter": "None", "instagram": "None", "facebook": "None", "youtube": "None", "website": "None", "summary": "None", "logo": "None", "latitude": 44.65225932056096, "longitude": -63.58380896087477}, "139907851RR0003": {"name": "BLACK GOLD REGIONAL DIVISION NO 18", "designationCode": "C", "categoryCode": "21", "address": "301-1101 5 ST", "city": "NISKU", "province": "AB", "country": "CA", "postalCode": "T9E7N3", "twitter": "None", "instagram": "None", "facebook": "None", "youtube": "None", "website": "None", "summary": "None", "logo": "None", "latitude": 53.310202826533555, "longitude": -113.53297502821921}, "888168994RR0001": {"name": "BLACK LOYALIST HERITAGE SOCIETY", "designationCode": "C", "categoryCode": "50", "address": "SITE 10 MOD 3 COMP 14", "city": "SHELBURNE", "province": "NS", "country": "CA", "postalCode": "B0T1W0", "twitter": "None", "instagram": "None", "facebook": "None", "youtube": "None", "website": "None", "summary": "None", "logo": "None", "latitude": 43.57026600000006, "longitude": -65.35813399999994}, "119288918RR1157": {"name": "BLACK MOUNTAIN CONGREGATION OF JEHOVAH'S WITNESSES, KELOWNA, BRISTISH COLUMBIA", "designationCode": "C", "categoryCode": "61", "address": "1482 LONGLEY CRES.", "city": "KELWONA", "province": "BC", "country": "CA", "postalCode": "V1P1N1", "twitter": "None", "instagram": "None", "facebook": "None", "youtube": "None", "website": "None", "summary": "None", "logo": "None", "latitude": 49.87237137468983, "longitude": -119.3572531494891}, "119287126RR0001": {"name": "BLACK POINT AND DISTRICT VOLUNTEER FIRE DEPT OF HALIFAX REGIONAL MUNICIPALITY", "designationCode": "C", "categoryCode": "59", "address": "8579 ST. MARGARETS BAY RD", "city": "BLACK POINT", "province": "NS", "country": "CA", "postalCode": "B0J1B0", "twitter": "None", "instagram": "None", "facebook": "None", "youtube": "None", "website": "None", "summary": "None", "logo": "None", "latitude": 44.65460033337154, "longitude": -63.98643564472857}, "880394911RR0001": {"name": "BLACK RIVER UNITED CHURCH CEMETERY", "designationCode": "C", "categoryCode": "59", "address": "1260 ROUTE 825", "city": "GARDNER CREEK", "province": "NB", "country": "CA", "postalCode": "E2S2B2", "twitter": "None", "instagram": "None", "facebook": "None", "youtube": "None", "website": "None", "summary": "None", "logo": "None", "latitude": 45.267909798620565, "longitude": -65.73361729391067}, "118811066RR0001": {"name": "BLACK ROCK UNITED BAPTIST CHURCH", "designationCode": "C", "categoryCode": "31", "address": "924 WEST BLACK ROCK ROAD", "city": "BLACK ROCK", "province": "NS", "country": "CA", "postalCode": "B0P1V0", "twitter": "None", "instagram": "None", "facebook": "None", "youtube": "None", "website": "None", "summary": "None", "logo": "None"}, "878672807RR0001": {"name": "BLACK YOUTH HELPLINE", "designationCode": "C", "categoryCode": "09", "address": "SUITE 2320                    700 HUMBERWOOD", "city": "TORONTO", "province": "ON", "country": "CA", "postalCode": "M9W7J4", "twitter": "None", "instagram": "None", "facebook": "None", "youtube": "None", "website": "None", "summary": "None", "logo": "None", "latitude": 43.723869398868715, "longitude": -79.61608504982969}, "893281162RR0001": {"name": "BLACK'S HARBOUR WESLEYAN CHURCH", "designationCode": "C", "categoryCode": "39", "address": "676 MAIN STREET", "city": "BLACKS HARBOUR", "province": "NB", "country": "CA", "postalCode": "E5H1C1", "twitter": "None", "instagram": "None", "facebook": "None", "youtube": "None", "website": "None", "summary": "None", "logo": "None", "latitude": 45.061024009203926, "longitude": -66.7853074205088}, "863853834RR0001": {"name": "BLACKBIRD THEATRICAL SOCIETY", "designationCode": "C", "categoryCode": "22", "address": "5115 KEITH ROAD", "city": "WEST VANCOUVER", "province": "BC", "country": "CA", "postalCode": "V7W2M9", "twitter": "None", "instagram": "None", "facebook": "None", "youtube": "None", "website": "None", "summary": "None", "logo": "None", "latitude": 49.34231873134621, "longitude": -123.26423616094431}, "836757740RR0001": {"name": "BLACKFALDS & AREA HISTORICAL SOCIETY", "designationCode": "C", "categoryCode": "50", "address": "PO BOX 248", "city": "BLACKFALDS", "province": "AB", "country": "CA", "postalCode": "T0M0J0", "twitter": "None", "instagram": "None", "facebook": "None", "youtube": "None", "website": "None", "summary": "None", "logo": "None", "latitude": 52.37008281578276, "longitude": -113.79281997964283}, "119032308RR0001": {"name": "BLACKFALDS COMMUNITY FELLOWSHIP", "designationCode": "C", "categoryCode": "36", "address": "BOX 969", "city": "BLACKFALDS", "province": "AB", "country": "CA", "postalCode": "T0M0J0", "twitter": "None", "instagram": "None", "facebook": "None", "youtube": "None", "website": "None", "summary": "None", "logo": "None", "latitude": 52.37008281578276, "longitude": -113.79281997964283}, "135549343RR0001": {"name": "BLACKFALDS PUBLIC LIBRARY", "designationCode": "C", "categoryCode": "50", "address": "BOX 70", "city": "BLACKFALDS", "province": "AB", "country": "CA", "postalCode": "T0M0J0", "twitter": "None", "instagram": "None", "facebook": "None", "youtube": "None", "website": "None", "summary": "None", "logo": "None", "latitude": 52.37008281578276, "longitude": -113.79281997964283}, "118810993RR0001": {"name": "BLACKFOOT & DISTRICT GOLDEN SLIPPERS ASSOCIATION", "designationCode": "C", "categoryCode": "56", "address": "BOX 76", "city": "BLACKFOOT", "province": "AB", "country": "CA", "postalCode": "T0B0L0", "twitter": "None", "instagram": "None", "facebook": "None", "youtube": "None", "website": "None", "summary": "None", "logo": "None", "latitude": 53.28890337040446, "longitude": -110.22951732215061}, "869882159RR0001": {"name": "BLACKFOOT CANADIAN CULTURAL SOCIETY", "designationCode": "C", "categoryCode": "56", "address": "1910 CEDAR ROAD S", "city": "LETHBRIDGE", "province": "AB", "country": "CA", "postalCode": "T1K4H2", "twitter": "None", "instagram": "None", "facebook": "None", "youtube": "None", "website": "None", "summary": "None", "logo": "None", "latitude": 49.67335800000001, "longitude": -112.78413348629442}, "106797129RR0001": {"name": "BLACKHEAD WESTERN BAY PASTORAL CHARGE", "designationCode": "C", "categoryCode": "44", "address": "P.O. BOX 15", "city": "BROAD COVE", "province": "NL", "country": "CA", "postalCode": "A0A1L0", "twitter": "None", "instagram": "None", "facebook": "None", "youtube": "None", "website": "None", "summary": "None", "logo": "None", "latitude": 47.43261307307449, "longitude": -53.154600376826856}, "888962792RR0001": {"name": "BLACKHEATH UNITED CHURCH,", "designationCode": "C", "categoryCode": "44", "address": "1346 HALDIMAND HWY 56", "city": "CALEDONIA", "province": "ON", "country": "CA", "postalCode": "N3W1T2", "twitter": "None", "instagram": "None", "facebook": "None", "youtube": "None", "website": "None", "summary": "None", "logo": "None", "latitude": 43.06501500000006, "longitude": -79.80954199999994}, "118811017RR0001": {"name": "BLACKIE AND DISTRICT AGRICULTURAL SOCIETY", "designationCode": "C", "categoryCode": "56", "address": "P O BOX 194", "city": "BLACKIE", "province": "AB", "country": "CA", "postalCode": "T0L0J0", "twitter": "None", "instagram": "None", "facebook": "None", "youtube": "None", "website": "None", "summary": "None", "logo": "None", "latitude": 50.51606892521704, "longitude": -113.51446758222522}, "888442845RR0001": {"name": "BLACKIE PARENTS ADVISORY AND FUNDING ASSOCIATION", "designationCode": "C", "categoryCode": "21", "address": "BOX 310", "city": "BLACKIE", "province": "AB", "country": "CA", "postalCode": "T0L0J0", "twitter": "None", "instagram": "None", "facebook": "None", "youtube": "None", "website": "None", "summary": "None", "logo": "None", "latitude": 50.51606892521704, "longitude": -113.51446758222522}, "118811025RR0001": {"name": "BLACKIE UNITED CHURCH", "designationCode": "C", "categoryCode": "44", "address": "BOX 154", "city": "BLACKIE", "province": "AB", "country": "CA", "postalCode": "T0L0J0", "twitter": "None", "instagram": "None", "facebook": "None", "youtube": "None", "website": "None", "summary": "None", "logo": "None", "latitude": 50.51606892521704, "longitude": -113.51446758222522}, "888730660RR0001": {"name": "BLACKIE'S SPIT PRESERVATION SOCIETY", "designationCode": "C", "categoryCode": "56", "address": "12752 28TH AVENUE", "city": "SURREY", "province": "BC", "country": "CA", "postalCode": "V4A2P4", "twitter": "None", "instagram": "None", "facebook": "None", "youtube": "None", "website": "None", "summary": "None", "logo": "None", "latitude": 49.05299248514061, "longitude": -122.86864316472386}, "867721086RR0001": {"name": "BLACKSTOCK AGRICULTURAL SOCIETY", "designationCode": "C", "categoryCode": "56", "address": "BOX 54                        92 GREENSBORO DRIVE", "city": "BLACKSTOCK", "province": "ON", "country": "CA", "postalCode": "L0B1B0", "twitter": "None", "instagram": "None", "facebook": "None", "youtube": "None", "website": "None", "summary": "None", "logo": "None", "latitude": 44.11230457201803, "longitude": -78.82664564282398}, "133889295RR0001": {"name": "BLACKSTOCK-NESTLETON PASTORAL CHARGE", "designationCode": "C", "categoryCode": "44", "address": "P.O. BOX 111                  10 MASON ST", "city": "BLACKSTOCK", "province": "ON", "country": "CA", "postalCode": "L0B1B0", "twitter": "None", "instagram": "None", "facebook": "None", "youtube": "None", "website": "None", "summary": "None", "logo": "None", "latitude": 44.111063587021675, "longitude": -78.8213869617115}, "856982509RR0001": {"name": "BLACKSTRAP COVENANT CHURCH INC.", "designationCode": "C", "categoryCode": "39", "address": "160 SUMMERFELDT DR", "city": "THODE", "province": "SK", "country": "CA", "postalCode": "S7C0A4", "twitter": "None", "instagram": "None", "facebook": "None", "youtube": "None", "website": "None", "summary": "None", "logo": "None", "latitude": 51.788480621961455, "longitude": -106.44165908453874}, "871511432RR0001": {"name": "BLACKVILLE PASTORAL CHARGE", "designationCode": "C", "categoryCode": "44", "address": "152 MAIN ST", "city": "BLACKVILLE", "province": "NB", "country": "CA", "postalCode": "E9B1N9", "twitter": "None", "instagram": "None", "facebook": "None", "youtube": "None", "website": "None", "summary": "None", "logo": "None", "latitude": 46.73675215280813, "longitude": -65.82961046032459}, "118811116RR0001": {"name": "BLAINE LAKE CONGREGATION OF JEHOVAH'S WITNESSES", "designationCode": "C", "categoryCode": "61", "address": "BOX 36", "city": "LEASK", "province": "SK", "country": "CA", "postalCode": "S0J1M0", "twitter": "None", "instagram": "None", "facebook": "None", "youtube": "None", "website": "None", "summary": "None", "logo": "None", "latitude": 53.01679000000007, "longitude": -106.75113999999996}, "141070946RR0001": {"name": "BLAINE LAKE DOUKHOBOR SOCIETY", "designationCode": "C", "categoryCode": "39", "address": "PO BOX 281", "city": "BLAINE LAKE", "province": "SK", "country": "CA", "postalCode": "S0J0J0", "twitter": "None", "instagram": "None", "facebook": "None", "youtube": "None", "website": "None", "summary": "None", "logo": "None", "latitude": 54.27596858551914, "longitude": -107.4281867350292}, "118811124RR0001": {"name": "BLAINE LAKE GOSPEL CHAPEL", "designationCode": "C", "categoryCode": "34", "address": "POSTAL OFFICE BOX 15", "city": "BLAINE LAKE", "province": "SK", "country": "CA", "postalCode": "S0J0J0", "twitter": "None", "instagram": "None", "facebook": "None", "youtube": "None", "website": "None", "summary": "None", "logo": "None", "latitude": 52.827720000000056, "longitude": -106.87830199999993}}