{"119235513RR0001": {"name": "THE GORDON SINCLAIR FOUNDATION", "designationCode": "C", "categoryCode": "21", "address": "239 ROSELAND CRES", "city": "BURLINGTON", "province": "ON", "country": "CA", "postalCode": "L7N1S4", "twitter": "None", "instagram": "None", "facebook": "None", "youtube": "None", "website": "None", "summary": "None", "logo": "None", "latitude": 43.33726791727751, "longitude": -79.77431113376429}, "119235521RR0001": {"name": "THE GORDON STREET CHILDREN'S COTTAGE CHILD CARE CENTRE", "designationCode": "C", "categoryCode": "01", "address": "1200 PHILLIP MURRAY AVE       UNIT 1", "city": "OSHAWA", "province": "ON", "country": "CA", "postalCode": "L1J6Z8", "twitter": "None", "instagram": "None", "facebook": "None", "youtube": "None", "website": "None", "summary": "None", "logo": "None", "latitude": 43.85525214351647, "longitude": -78.87264600611684}, "892577198RR0001": {"name": "THE GORDON WILLIAMS EVANGELISTIC ASSOCIATION, INC", "designationCode": "C", "categoryCode": "47", "address": "11 BAYBERRY RD.", "city": "MONO", "province": "ON", "country": "CA", "postalCode": "L9W6G5", "twitter": "None", "instagram": "None", "facebook": "None", "youtube": "None", "website": "None", "summary": "None", "logo": "None", "latitude": 43.94832128198397, "longitude": -80.11295984448005}, "105215768RR0001": {"name": "THE GORGE VIEW SOCIETY", "designationCode": "C", "categoryCode": "01", "address": "11 CHOWN PL", "city": "VICTORIA", "province": "BC", "country": "CA", "postalCode": "V9A1H5", "twitter": "None", "instagram": "None", "facebook": "None", "youtube": "None", "website": "None", "summary": "None", "logo": "None", "latitude": 48.44558892838599, "longitude": -123.3868161051993}, "119235562RR0001": {"name": "THE GOSLINE CEMETERY INC", "designationCode": "C", "categoryCode": "59", "address": "36 AITON RD", "city": "SUSSEX EAST", "province": "NB", "country": "CA", "postalCode": "E4E3R7", "twitter": "None", "instagram": "None", "facebook": "None", "youtube": "None", "website": "None", "summary": "None", "logo": "None", "latitude": 45.730370159299525, "longitude": -65.4962581071039}, "119074391RR0001": {"name": "THE GOSLING FOUNDATION", "designationCode": "A", "categoryCode": "20", "address": "375 EDINBURGH ROAD SOUTH", "city": "GUELPH", "province": "ON", "country": "CA", "postalCode": "N1G2K7", "twitter": "None", "instagram": "None", "facebook": "None", "youtube": "None", "website": "None", "summary": "None", "logo": "None", "latitude": 43.52458157807756, "longitude": -80.24044944719786}, "853829539RR0001": {"name": "THE GOSPEL CHAPEL EVANGELICAL FREE CHURCH", "designationCode": "C", "categoryCode": "39", "address": "BOX 1339", "city": "VANDERHOOF", "province": "BC", "country": "CA", "postalCode": "V0J3A0", "twitter": "None", "instagram": "None", "facebook": "None", "youtube": "None", "website": "None", "summary": "None", "logo": "None", "latitude": 54.01397400000006, "longitude": -124.01297449999993}, "883057622RR0001": {"name": "THE GOSPEL HALL, (PARADISE VALLEY)", "designationCode": "B", "categoryCode": "39", "address": "P.O. BOX 35", "city": "PARADISE VALLEY", "province": "AB", "country": "CA", "postalCode": "T0B3R0", "twitter": "None", "instagram": "None", "facebook": "None", "youtube": "None", "website": "None", "summary": "None", "logo": "None", "latitude": 52.88554319679522, "longitude": -112.76808325302243}, "119235620RR0001": {"name": "THE GOSPEL MESSAGE", "designationCode": "C", "categoryCode": "34", "address": "BOX 1760", "city": "WARMAN", "province": "SK", "country": "CA", "postalCode": "S0K4S0", "twitter": "None", "instagram": "None", "facebook": "None", "youtube": "None", "website": "None", "summary": "None", "logo": "None", "latitude": 52.31985000000006, "longitude": -106.58322349999993}, "865360838RR0001": {"name": "THE GOSPEL MUSIC FOUNDATION", "designationCode": "C", "categoryCode": "47", "address": "SUITE 6 - 64 RIEL DRIVE", "city": "ST ALBERT", "province": "AB", "country": "CA", "postalCode": "T8N5B3", "twitter": "None", "instagram": "None", "facebook": "None", "youtube": "None", "website": "None", "summary": "None", "logo": "None", "latitude": 53.61685380293159, "longitude": -113.64774858834933}, "860867332RR0001": {"name": "THE GOSPEL OF CHRIST - CANADA", "designationCode": "C", "categoryCode": "39", "address": "966 MARYGRACE COURT", "city": "MISSISSAUGA", "province": "ON", "country": "CA", "postalCode": "L5V2V7", "twitter": "None", "instagram": "None", "facebook": "None", "youtube": "None", "website": "None", "summary": "None", "logo": "None", "latitude": 43.60101309518734, "longitude": -79.6912209025623}, "848488748RR0001": {"name": "THE GOSPEL OF CHRIST CHURCH INTERNATION", "designationCode": "B", "categoryCode": "39", "address": "580 THE EAST MALL             APT. 1001", "city": "ETOBICOKE", "province": "ON", "country": "CA", "postalCode": "M9B4A1", "twitter": "None", "instagram": "None", "facebook": "None", "youtube": "None", "website": "None", "summary": "None", "logo": "None", "latitude": 43.65383495446949, "longitude": -79.56375667283127}, "888703063RR0001": {"name": "THE GOSPEL TIDE BROADCASTING ASSOCIATION", "designationCode": "C", "categoryCode": "47", "address": "RR#2                          763 RIDGE ROAD NORTH", "city": "RIDGEWAY", "province": "ON", "country": "CA", "postalCode": "L0S1N0", "twitter": "None", "instagram": "None", "facebook": "None", "youtube": "None", "website": "None", "summary": "None", "logo": "None", "latitude": 42.895756037192, "longitude": -79.04962165084541}, "107876476RR0086": {"name": "THE GOULAIS AREA ROMAN CATHOLIC MISSION GROUP", "designationCode": "C", "categoryCode": "38", "address": "RR #1                         303 OLD HWY 17", "city": "GOULAIS RIVER", "province": "ON", "country": "CA", "postalCode": "P0S1E0", "twitter": "None", "instagram": "None", "facebook": "None", "youtube": "None", "website": "None", "summary": "None", "logo": "None", "latitude": 46.77737925420314, "longitude": -84.35695922618278}, "108162330RR0001": {"name": "THE GOVERNING COUNCIL OF THE UNIVERSITY OF TORONTO", "designationCode": "C", "categoryCode": "20", "address": "215 HURON STREET", "city": "TORONTO", "province": "ON", "country": "CA", "postalCode": "M5S1A7", "twitter": "None", "instagram": "None", "facebook": "None", "youtube": "None", "website": "None", "summary": "None", "logo": "None", "latitude": 43.65914961532688, "longitude": -79.39852947804279}, "851995878RR0001": {"name": "THE GOVERNOR GENERAL'S CANADIAN LEADERSHIP CONFERENCE / LA CONFERENCE CANADIENNE DU GOUVERNEUR GENERAL SUR LE LEADERSHIP", "designationCode": "C", "categoryCode": "21", "address": "95 KING STREET EAST           4TH FLOOR", "city": "TORONTO", "province": "ON", "country": "CA", "postalCode": "M5C1G4", "twitter": "None", "instagram": "None", "facebook": "None", "youtube": "None", "website": "None", "summary": "None", "logo": "None", "latitude": 43.64980480930821, "longitude": -79.37473628919734}, "888636867RR0001": {"name": "THE GOVERNOR GENERAL'S HORSE GUARDS FOUNDATION", "designationCode": "A", "categoryCode": "55", "address": "1048 GLENHARE ST", "city": "COBURG", "province": "ON", "country": "CA", "postalCode": "K9A5B8", "twitter": "None", "instagram": "None", "facebook": "None", "youtube": "None", "website": "None", "summary": "None", "logo": "None", "latitude": 43.97830751041602, "longitude": -78.18631144682342}, "108102831RR0001": {"name": "THE GOVERNORS OF THE UNIVERSITY OF ALBERTA", "designationCode": "C", "categoryCode": "20", "address": "114 STREET & 89 AVENUE        3RD FL ADMINISTRATION BUILDING", "city": "EDMONTON", "province": "AB", "country": "CA", "postalCode": "T6G2M7", "twitter": "None", "instagram": "None", "facebook": "None", "youtube": "None", "website": "None", "summary": "None", "logo": "None", "latitude": 53.52053100000006, "longitude": -113.52709699999994}, "890914591RR0001": {"name": "THE GRACE FOUNDATION", "designationCode": "B", "categoryCode": "03", "address": "20 RIDDLE COURT", "city": "NORTH BAY", "province": "ON", "country": "CA", "postalCode": "P1B8S6", "twitter": "None", "instagram": "None", "facebook": "None", "youtube": "None", "website": "None", "summary": "None", "logo": "None", "latitude": 46.3351576816321, "longitude": -79.44432831141434}, "852761725RR0001": {"name": "THE GRAD FAMILY FOUNDATION", "designationCode": "B", "categoryCode": "05", "address": "8500 WARDEN AVE", "city": "MARKHAM", "province": "ON", "country": "CA", "postalCode": "L6G1A5", "twitter": "None", "instagram": "None", "facebook": "None", "youtube": "None", "website": "None", "summary": "None", "logo": "None", "latitude": 43.854275107392354, "longitude": -79.33359853900872}, "894736883RR0001": {"name": "THE GRAHAM BOECKH FOUNDATION - FONDATION GRAHAM BOECKH", "designationCode": "B", "categoryCode": "13", "address": "1725-1002, RUE SHERBROOKE O.", "city": "MONTR\u00c9AL", "province": "QC", "country": "CA", "postalCode": "H3A3L6", "twitter": "None", "instagram": "None", "facebook": "None", "youtube": "None", "website": "None", "summary": "None", "logo": "None", "latitude": 45.50420051526984, "longitude": -73.57425178965626}, "870391349RR0001": {"name": "THE GRAHAMDALE COMMUNITY CEMETARY 1999", "designationCode": "C", "categoryCode": "59", "address": "P. O. BOX 95", "city": "MOOSEHORN", "province": "MB", "country": "CA", "postalCode": "R0C2E0", "twitter": "None", "instagram": "None", "facebook": "None", "youtube": "None", "website": "None", "summary": "None", "logo": "None", "latitude": 51.29192000000006, "longitude": -98.42536999999999}, "119235695RR0001": {"name": "THE GRAIL (CANADA)", "designationCode": "C", "categoryCode": "49", "address": "721 - 550 ONTARIO ST", "city": "TORONTO", "province": "ON", "country": "CA", "postalCode": "M4X1X3", "twitter": "None", "instagram": "None", "facebook": "None", "youtube": "None", "website": "None", "summary": "None", "logo": "None", "latitude": 43.666694393271484, "longitude": -79.37183365880858}, "860988575RR0001": {"name": "THE GRANARY FOUNDATION", "designationCode": "B", "categoryCode": "03", "address": "465 MORDEN ROAD               2ND FLOOR", "city": "OAKVILLE", "province": "ON", "country": "CA", "postalCode": "L6K3W6", "twitter": "None", "instagram": "None", "facebook": "None", "youtube": "None", "website": "None", "summary": "None", "logo": "None", "latitude": 43.44214177653097, "longitude": -79.69353700865565}, "886835198RR0001": {"name": "THE GRAND CHAPTER ROYAL ARCH MASONS OF CANADA IN THE PROVINCE OF ONTARIO MEDICAL RESEARCH FUND", "designationCode": "C", "categoryCode": "15", "address": "361 KING STREET WEST", "city": "HAMILTON", "province": "ON", "country": "CA", "postalCode": "L8P1B4", "twitter": "None", "instagram": "None", "facebook": "None", "youtube": "None", "website": "None", "summary": "None", "logo": "None", "latitude": 43.259700908816164, "longitude": -79.88007661419223}, "898878574RR0001": {"name": "THE GRAND CONCOURSE AUTHORITY", "designationCode": "C", "categoryCode": "56", "address": "439 ALLANDALE ROAD", "city": "ST. JOHN'S", "province": "NL", "country": "CA", "postalCode": "A1B4E8", "twitter": "None", "instagram": "None", "facebook": "None", "youtube": "None", "website": "None", "summary": "None", "logo": "None", "latitude": 47.5836054026779, "longitude": -52.74880301849475}, "118983568RR0001": {"name": "THE GRAND PHILHARMONIC CHOIR", "designationCode": "C", "categoryCode": "22", "address": "101 QUEEN ST N", "city": "KITCHENER", "province": "ON", "country": "CA", "postalCode": "N2H6P7", "twitter": "None", "instagram": "None", "facebook": "None", "youtube": "None", "website": "None", "summary": "None", "logo": "None", "latitude": 43.45484758696438, "longitude": -80.48513659994877}, "888846037RR0001": {"name": "THE GRAND PRAIRIE SCHOOL DISTRICT #2357 EDUCATION FOUNDATION", "designationCode": "A", "categoryCode": "23", "address": "10127 120 AVE", "city": "GRANDE PRAIRIE", "province": "AB", "country": "CA", "postalCode": "T8V8H8", "twitter": "None", "instagram": "None", "facebook": "None", "youtube": "None", "website": "None", "summary": "None", "logo": "None", "latitude": 55.18807153173897, "longitude": -118.80000377699233}, "869448639RR0001": {"name": "THE GRAND RIVER CHORUS ASSOCIATION", "designationCode": "C", "categoryCode": "22", "address": "245 KING GEORGE RD            SUITE #201", "city": "BRANTFORD", "province": "ON", "country": "CA", "postalCode": "N3R7N7", "twitter": "None", "instagram": "None", "facebook": "None", "youtube": "None", "website": "None", "summary": "None", "logo": "None", "latitude": 43.1767682912116, "longitude": -80.27933338354065}, "870786738RR0001": {"name": "THE GRAND VIEW MANOR SENIORS FOUNDATION", "designationCode": "A", "categoryCode": "03", "address": "110 COMMERCIAL STREET", "city": "BERWICK", "province": "NS", "country": "CA", "postalCode": "B0P1E0", "twitter": "None", "instagram": "None", "facebook": "None", "youtube": "None", "website": "None", "summary": "None", "logo": "None", "latitude": 45.03531100755914, "longitude": -64.73250536595005}, "892763988RR0001": {"name": "THE GRANDE PRAIRIE AND AREA COUNCIL ON AGING", "designationCode": "C", "categoryCode": "09", "address": "101 - 10127 121 AVE", "city": "GRANDE PRAIRIE", "province": "AB", "country": "CA", "postalCode": "T8V7V3", "twitter": "None", "instagram": "None", "facebook": "None", "youtube": "None", "website": "None", "summary": "None", "logo": "None", "latitude": 55.18937597206801, "longitude": -118.800082027932}, "118945484RR0001": {"name": "THE GRANDE PRAIRIE REGIONAL COLLEGE ALUMNI/FOUNDATION", "designationCode": "C", "categoryCode": "23", "address": "10726-106 AVENUE", "city": "GRANDE PRAIRIE", "province": "AB", "country": "CA", "postalCode": "T8V4C4", "twitter": "None", "instagram": "None", "facebook": "None", "youtube": "None", "website": "None", "summary": "None", "logo": "None", "latitude": 55.175526823441956, "longitude": -118.82005659537387}, "107446841RR0001": {"name": "THE GRANDE PRAIRIE SCHOOL DISTRICT NO. 2357", "designationCode": "C", "categoryCode": "20", "address": "10127 120 AVE", "city": "GRANDE PRAIRIE", "province": "AB", "country": "CA", "postalCode": "T8V8H8", "twitter": "None", "instagram": "None", "facebook": "None", "youtube": "None", "website": "None", "summary": "None", "logo": "None", "latitude": 55.18807153173897, "longitude": -118.80000377699233}, "813656345RR0001": {"name": "THE GRANDEY FAMILY FOUNDATION INC.", "designationCode": "B", "categoryCode": "03", "address": "320 SASKATCHEWAN CRESCENT", "city": "SASKATOON", "province": "SK", "country": "CA", "postalCode": "S7M0A4", "twitter": "None", "instagram": "None", "facebook": "None", "youtube": "None", "website": "None", "summary": "None", "logo": "None", "latitude": 52.11547310046747, "longitude": -106.67461485105916}, "119288918RR1440": {"name": "THE GRANDVIEW CONGREGATION OF JEHOVAH'S WITNESSES, VANCOUVER, BC", "designationCode": "C", "categoryCode": "61", "address": "301 - 2182 39TH AVE W", "city": "VANCOUVER", "province": "BC", "country": "CA", "postalCode": "V6M1T5", "twitter": "None", "instagram": "None", "facebook": "None", "youtube": "None", "website": "None", "summary": "None", "logo": "None", "latitude": 49.23642451399405, "longitude": -123.15768155398465}, "892140914RR0001": {"name": "THE GRANT MACEWAN CHARITABLE FOUNDATION", "designationCode": "B", "categoryCode": "53", "address": "250-1319 EDMONTON TRAIL NE", "city": "CALGARY", "province": "AB", "country": "CA", "postalCode": "T2E4Y8", "twitter": "None", "instagram": "None", "facebook": "None", "youtube": "None", "website": "None", "summary": "None", "logo": "None", "latitude": 51.06406307216227, "longitude": -114.05635558257829}, "119235786RR0001": {"name": "THE GRANT MACEWAN UNIVERSITY FOUNDATION", "designationCode": "A", "categoryCode": "23", "address": "P.O. BOX 1796                 STN MAIN", "city": "EDMONTON", "province": "AB", "country": "CA", "postalCode": "T5J2P2", "twitter": "None", "instagram": "None", "facebook": "None", "youtube": "None", "website": "None", "summary": "None", "logo": "None", "latitude": 53.54623500000005, "longitude": -113.49037249999994}, "119235794RR0001": {"name": "THE GRANT NOTLEY MEMORIAL SCHOLARSHIP TRUST FUND", "designationCode": "C", "categoryCode": "21", "address": "10018-101 STREET", "city": "PEACE RIVER", "province": "AB", "country": "CA", "postalCode": "T8S2A5", "twitter": "None", "instagram": "None", "facebook": "None", "youtube": "None", "website": "None", "summary": "None", "logo": "None", "latitude": 56.233106245628704, "longitude": -117.28879340273518}, "119235836RR0001": {"name": "THE GREAT CANADIAN THEATRE CORPORATION - LA CORPORATION DU GRAND THEATRE CANADIEN", "designationCode": "C", "categoryCode": "22", "address": "300-1227 WELLINGTON ST WEST", "city": "OTTAWA", "province": "ON", "country": "CA", "postalCode": "K1Y0G7", "twitter": "None", "instagram": "None", "facebook": "None", "youtube": "None", "website": "None", "summary": "None", "logo": "None", "latitude": 45.40058711009113, "longitude": -75.72963949041048}, "890853799RR0001": {"name": "THE GREAT COMMISSION CENTER OFCANADA", "designationCode": "C", "categoryCode": "47", "address": "9670 BAYVIEW AVENUE", "city": "RICHMOND HILL", "province": "ON", "country": "CA", "postalCode": "L4C9X9", "twitter": "None", "instagram": "None", "facebook": "None", "youtube": "None", "website": "None", "summary": "None", "logo": "None", "latitude": 43.86787806743042, "longitude": -79.41353753785488}, "859928483RR0001": {"name": "THE GREAT COMMISSION FOUNDATION", "designationCode": "A", "categoryCode": "45", "address": "200 - 2121 CLEARBROOK RD", "city": "ABBOTSFORD", "province": "BC", "country": "CA", "postalCode": "V2T4H6", "twitter": "None", "instagram": "None", "facebook": "None", "youtube": "None", "website": "None", "summary": "None", "logo": "None", "latitude": 49.04064936663974, "longitude": -122.33725234574946}, "834715369RR0001": {"name": "THE GREAT DOCTOR MINISTRIES", "designationCode": "C", "categoryCode": "39", "address": "209 - 5 MCINTOSH DR", "city": "MARKHAM", "province": "ON", "country": "CA", "postalCode": "L3R8C7", "twitter": "None", "instagram": "None", "facebook": "None", "youtube": "None", "website": "None", "summary": "None", "logo": "None", "latitude": 43.854106969156, "longitude": -79.35844436759201}, "123813800RR0001": {"name": "THE GREAT GULF HOMES CHARITABLE FOUNDATION", "designationCode": "B", "categoryCode": "03", "address": "3751 VICTORIA PARK AVE", "city": "TORONTO", "province": "ON", "country": "CA", "postalCode": "M1W3Z4", "twitter": "None", "instagram": "None", "facebook": "None", "youtube": "None", "website": "None", "summary": "None", "logo": "None", "latitude": 43.807254412978324, "longitude": -79.3376986141157}, "890972177RR0001": {"name": "THE GREAT NANAIMO TOY DRIVE", "designationCode": "C", "categoryCode": "09", "address": "813 STIRLING DR", "city": "LADYSMITH", "province": "BC", "country": "CA", "postalCode": "V9G0B5", "twitter": "None", "instagram": "None", "facebook": "None", "youtube": "None", "website": "None", "summary": "None", "logo": "None", "latitude": 48.96450811352953, "longitude": -123.79001180080094}, "853232940RR0001": {"name": "THE GREAT VISION MINISTRIES INC.", "designationCode": "C", "categoryCode": "49", "address": "11 ANGELA CRES", "city": "ST DAVIDS", "province": "ON", "country": "CA", "postalCode": "L0S1J1", "twitter": "None", "instagram": "None", "facebook": "None", "youtube": "None", "website": "None", "summary": "None", "logo": "None", "latitude": 43.1651256842696, "longitude": -79.0977691751912}, "119236016RR0001": {"name": "THE GREAT WAR MEMORIAL HOSPITAL OF PERTH DISTRICT FOUNDATION", "designationCode": "A", "categoryCode": "13", "address": "33 DRUMMOND STREET WEST", "city": "PERTH", "province": "ON", "country": "CA", "postalCode": "K7H2K1", "twitter": "None", "instagram": "None", "facebook": "None", "youtube": "None", "website": "None", "summary": "None", "logo": "None", "latitude": 44.905028621587554, "longitude": -76.25303835550673}, "855308839RR0001": {"name": "THE GREATER BRAGG CREEK TRAILS ASSOCIATION", "designationCode": "C", "categoryCode": "56", "address": "PO BOX 1379", "city": "BRAGG CREEK", "province": "AB", "country": "CA", "postalCode": "T0L0K0", "twitter": "None", "instagram": "None", "facebook": "None", "youtube": "None", "website": "None", "summary": "None", "logo": "None", "latitude": 50.951040000000035, "longitude": -114.56075999999996}, "860819085RR0001": {"name": "THE GREATER MONCTON CHORALE INC.", "designationCode": "C", "categoryCode": "22", "address": "88 EAST ST", "city": "MONCTON", "province": "NB", "country": "CA", "postalCode": "E1A7A1", "twitter": "None", "instagram": "None", "facebook": "None", "youtube": "None", "website": "None", "summary": "None", "logo": "None", "latitude": 46.121303775751564, "longitude": -64.71764201774494}, "878356112RR0001": {"name": "THE GREATER MONCTON MUSEUM SOCIETY/L'ASSOCIATION DU MUSEE DE LA REGION METROPOLITAINE DE MONCTON INC.", "designationCode": "A", "categoryCode": "53", "address": "20 MOUNTAIN ROAD", "city": "MONCTON", "province": "NB", "country": "CA", "postalCode": "E1C2J8", "twitter": "None", "instagram": "None", "facebook": "None", "youtube": "None", "website": "None", "summary": "None", "logo": "None", "latitude": 46.09428657559607, "longitude": -64.77460677713654}, "119235877RR0001": {"name": "THE GREATER MONCTON YMCA", "designationCode": "C", "categoryCode": "49", "address": "30 WAR VETERANS AVE", "city": "MONCTON", "province": "NB", "country": "CA", "postalCode": "E1C0B3", "twitter": "None", "instagram": "None", "facebook": "None", "youtube": "None", "website": "None", "summary": "None", "logo": "None", "latitude": 46.09319887287214, "longitude": -64.79979985302013}, "864815659RR0001": {"name": "THE GREATER NAPANEE & DISTRICT CHRISTIAN MINISTERIAL ASSOCIATION", "designationCode": "C", "categoryCode": "49", "address": "POST OFFICE BOX 74", "city": "ROBLIN", "province": "ON", "country": "CA", "postalCode": "K0K2W0", "twitter": "None", "instagram": "None", "facebook": "None", "youtube": "None", "website": "None", "summary": "None", "logo": "None", "latitude": 44.35928737901394, "longitude": -77.06338016733477}, "141450486RR0001": {"name": "THE GREATER PARISH OF GASPE", "designationCode": "C", "categoryCode": "30", "address": "423 YORK BLVD WEST", "city": "GASPE", "province": "QC", "country": "CA", "postalCode": "G4X2M5", "twitter": "None", "instagram": "None", "facebook": "None", "youtube": "None", "website": "None", "summary": "None", "logo": "None", "latitude": 48.81463549451834, "longitude": -64.52794939924408}, "119235901RR0001": {"name": "THE GREATER PARISH OF OXBOW", "designationCode": "C", "categoryCode": "30", "address": "BOX 103", "city": "ALAMEDA", "province": "SK", "country": "CA", "postalCode": "S0C0A0", "twitter": "None", "instagram": "None", "facebook": "None", "youtube": "None", "website": "None", "summary": "None", "logo": "None", "latitude": 49.266710000000046, "longitude": -102.28233999999998}, "119257756RR0001": {"name": "THE GREATER SAINT JOHN COMMUNITY FOUNDATION LA FONDATION COMMUNAUTAIRE DE GRAND SAINT JOHN", "designationCode": "A", "categoryCode": "03", "address": "P.O. BOX 20061                BRUNSWICK SQUARE", "city": "SAINT JOHN", "province": "NB", "country": "CA", "postalCode": "E2L5B2", "twitter": "None", "instagram": "None", "facebook": "None", "youtube": "None", "website": "None", "summary": "None", "logo": "None", "latitude": 45.27306008050087, "longitude": -66.06129006939226}, "873676522RR0001": {"name": "THE GREATER SOUTHERN PUBLIC FRANCOPHONE EDUCATION REGION NO 4", "designationCode": "C", "categoryCode": "20", "address": "230 - 6940 FISHER ROAD SE", "city": "CALGARY", "province": "AB", "country": "CA", "postalCode": "T2H0W3", "twitter": "None", "instagram": "None", "facebook": "None", "youtube": "None", "website": "None", "summary": "None", "logo": "None", "latitude": 50.99266487705575, "longitude": -114.06810348303446}, "887608263RR0001": {"name": "THE GREATER TORONTO COMMUNITY CLEARINGHOUSE", "designationCode": "C", "categoryCode": "09", "address": "53 MALLORY CRESCENT", "city": "TORONTO", "province": "ON", "country": "CA", "postalCode": "M4G3L6", "twitter": "None", "instagram": "None", "facebook": "None", "youtube": "None", "website": "None", "summary": "None", "logo": "None", "latitude": 43.69537215430787, "longitude": -79.36694808407883}, "890373467RR0001": {"name": "THE GREATER TRAIL AREA CREATIVE ACTIVITIES CENTRE SOCIETY FOR THE VISUAL ARTS", "designationCode": "C", "categoryCode": "20", "address": "1501 CEDAR AVE", "city": "TRAIL", "province": "BC", "country": "CA", "postalCode": "V1R4C7", "twitter": "None", "instagram": "None", "facebook": "None", "youtube": "None", "website": "None", "summary": "None", "logo": "None", "latitude": 49.094028491545885, "longitude": -117.70707077918537}, "887511038RR0001": {"name": "THE GREATER VANCOUVER (BRITISH COLUMBIA) CHAPTER OF THE SOCIETY FOR THE PRESERVATION AND ENCOURAGEMENT OF BARBER SHOP QUARTET SINGING IN AMERICA", "designationCode": "C", "categoryCode": "22", "address": "1109 7TH AVENUE", "city": "NEW WESTMINSTER", "province": "BC", "country": "CA", "postalCode": "V3M2J6", "twitter": "None", "instagram": "None", "facebook": "None", "youtube": "None", "website": "None", "summary": "None", "logo": "None", "latitude": 49.209853925574194, "longitude": -122.93049935095128}, "895460434RR0001": {"name": "THE GREATER VANCOUVER HISTORICAL PERFORMANCE SOCIETY OF B.C.", "designationCode": "C", "categoryCode": "22", "address": "2131 STIRLING AVENUE", "city": "RICHMOND", "province": "BC", "country": "CA", "postalCode": "V7B1J6", "twitter": "None", "instagram": "None", "facebook": "None", "youtube": "None", "website": "None", "summary": "None", "logo": "None", "latitude": 49.190530936147624, "longitude": -123.14673385807005}, "891829046RR0001": {"name": "THE GREATER VANCOUVER VIVALDI CHAMBER CHOIR SOCIETY", "designationCode": "C", "categoryCode": "22", "address": "500 FELIX JACK ROAD", "city": "MAYNE", "province": "BC", "country": "CA", "postalCode": "V0N2J2", "twitter": "None", "instagram": "None", "facebook": "None", "youtube": "None", "website": "None", "summary": "None", "logo": "None", "latitude": 48.8469570615542, "longitude": -123.28912169761233}, "119235943RR0001": {"name": "THE GREATER VICTORIA CARDIO-PULMONARY RESUSCITATION SOCIETY", "designationCode": "C", "categoryCode": "11", "address": "1821 SAN JUAN AVENUE", "city": "VICTORIA", "province": "BC", "country": "CA", "postalCode": "V8N2J1", "twitter": "None", "instagram": "None", "facebook": "None", "youtube": "None", "website": "None", "summary": "None", "logo": "None", "latitude": 48.48228596251957, "longitude": -123.31964985443472}, "129799458RR0001": {"name": "THE GREATER VICTORIA PERFORMING ARTS FESTIVAL ASSOCIATION", "designationCode": "C", "categoryCode": "22", "address": "21 - 21 DALLAS RD", "city": "VICTORIA", "province": "BC", "country": "CA", "postalCode": "V8V4Z9", "twitter": "None", "instagram": "None", "facebook": "None", "youtube": "None", "website": "None", "summary": "None", "logo": "None", "latitude": 48.42218663116724, "longitude": -123.38428148384159}, "872421813RR0001": {"name": "THE GREATER VICTORIA POLICE PIPE BAND", "designationCode": "C", "categoryCode": "59", "address": "1214 BURNSIDE RD W", "city": "VICTORIA", "province": "BC", "country": "CA", "postalCode": "V8Z1N8", "twitter": "None", "instagram": "None", "facebook": "None", "youtube": "None", "website": "None", "summary": "None", "logo": "None", "latitude": 48.46565147179567, "longitude": -123.4180062644144}, "898793393RR0001": {"name": "THE GREEK ORTHODOX CHURCH OF THE ASCENSION OF ELM SPRINGS", "designationCode": "C", "categoryCode": "39", "address": "PO BOX 2105", "city": "ASSINIBOIA", "province": "SK", "country": "CA", "postalCode": "S0H0B0", "twitter": "None", "instagram": "None", "facebook": "None", "youtube": "None", "website": "None", "summary": "None", "logo": "None", "latitude": 49.63287300000006, "longitude": -105.99348049999993}, "108083486RR0001": {"name": "THE GREEK ORTHODOX COMMUNITY OF SAINTS PETER AND PAUL CHURCH", "designationCode": "C", "categoryCode": "39", "address": "527 BRIDGEPORT RD E", "city": "KITCHENER", "province": "ON", "country": "CA", "postalCode": "N2K1N6", "twitter": "None", "instagram": "None", "facebook": "None", "youtube": "None", "website": "None", "summary": "None", "logo": "None", "latitude": 43.47573296055767, "longitude": -80.4865893600902}, "887745867RR0001": {"name": "THE GREEK ORTHODOX PARISH OF SAULT STE MARIE ONTARIO", "designationCode": "C", "categoryCode": "39", "address": "17 ELAINE COURT", "city": "SAULT STE MARIE", "province": "ON", "country": "CA", "postalCode": "P6A4S1", "twitter": "None", "instagram": "None", "facebook": "None", "youtube": "None", "website": "None", "summary": "None", "logo": "None", "latitude": 46.5123789755613, "longitude": -84.26891530656691}, "119236024RR0001": {"name": "THE GREEK-CANADIAN ORTHODOX COMMUNITY OF BELLEVILLE AND DISTRICT INCORPORATED", "designationCode": "C", "categoryCode": "39", "address": "70 HARDER DR", "city": "BELLEVILLE", "province": "ON", "country": "CA", "postalCode": "K8P5J7", "twitter": "None", "instagram": "None", "facebook": "None", "youtube": "None", "website": "None", "summary": "None", "logo": "None"}, "131482366RR0001": {"name": "THE GREELY PLAYERS", "designationCode": "C", "categoryCode": "22", "address": "PO BOX 254", "city": "GREELY", "province": "ON", "country": "CA", "postalCode": "K4P1N5", "twitter": "None", "instagram": "None", "facebook": "None", "youtube": "None", "website": "None", "summary": "None", "logo": "None", "latitude": 45.25973700000006, "longitude": -75.56772049999994}, "886586791RR0001": {"name": "THE GREEN CIRCLE PRESCHOOL ASSOCIATION", "designationCode": "C", "categoryCode": "01", "address": "6703 112 STREET", "city": "EDMONTON", "province": "AB", "country": "CA", "postalCode": "T6H3J9", "twitter": "None", "instagram": "None", "facebook": "None", "youtube": "None", "website": "None", "summary": "None", "logo": "None", "latitude": 53.50396627474116, "longitude": -113.52000275612093}, "118947662RR0001": {"name": "THE GREEN THUMB PLAYERS SOCIETY", "designationCode": "C", "categoryCode": "22", "address": "5522 MCKINNON ST", "city": "VANCOUVER", "province": "BC", "country": "CA", "postalCode": "V5R0B6", "twitter": "None", "instagram": "None", "facebook": "None", "youtube": "None", "website": "None", "summary": "None", "logo": "None", "latitude": 49.23382720802365, "longitude": -123.0389455549831}, "140388216RR0001": {"name": "THE GREEN TIMBERS HERITAGE SOCIETY", "designationCode": "C", "categoryCode": "52", "address": "14225 GREEN TIMBERS WAY", "city": "SURREY", "province": "BC", "country": "CA", "postalCode": "V3T0J2", "twitter": "None", "instagram": "None", "facebook": "None", "youtube": "None", "website": "None", "summary": "None", "logo": "None", "latitude": 49.17911289790402, "longitude": -122.82907846206713}, "877892323RR0001": {"name": "THE GREENBRIAR FOUNDATION", "designationCode": "B", "categoryCode": "03", "address": "705 SIMCOE ST NORTH", "city": "OSHAWA", "province": "ON", "country": "CA", "postalCode": "L1G4V6", "twitter": "None", "instagram": "None", "facebook": "None", "youtube": "None", "website": "None", "summary": "None", "logo": "None", "latitude": 43.91625499307511, "longitude": -78.87161047218575}, "892117565RR0001": {"name": "THE GREENE FAMILY CHARITABLE FOUNDATION", "designationCode": "B", "categoryCode": "03", "address": "800, 840-6TH AVENUE SW", "city": "CALGARY", "province": "AB", "country": "CA", "postalCode": "T2P3E5", "twitter": "None", "instagram": "None", "facebook": "None", "youtube": "None", "website": "None", "summary": "None", "logo": "None", "latitude": 51.0478195947294, "longitude": -114.07564953611224}, "107450983RR0001": {"name": "THE GREENFIELD PARK BAPTIST CHURCH/L'EGLISE BAPTISTE DE GREENFIELD PARK", "designationCode": "C", "categoryCode": "31", "address": "598 BELLEVUE NORTH", "city": "GREENFIELD PARK", "province": "QC", "country": "CA", "postalCode": "J4V1C8", "twitter": "None", "instagram": "None", "facebook": "None", "youtube": "None", "website": "None", "summary": "None", "logo": "None", "latitude": 45.487972382739905, "longitude": -73.45697043412746}, "860707652RR0001": {"name": "THE GREENSVILLE COMMUNITY AND YOUTH FOUNDATION", "designationCode": "C", "categoryCode": "52", "address": "315 BROCK ROAD", "city": "GREENSVILLE", "province": "ON", "country": "CA", "postalCode": "L9H5H7", "twitter": "None", "instagram": "None", "facebook": "None", "youtube": "None", "website": "None", "summary": "None", "logo": "None", "latitude": 43.2799864582204, "longitude": -79.99007416489675}, "119236099RR0001": {"name": "THE GREENWOOD CEMETARY CORPORATION", "designationCode": "C", "categoryCode": "59", "address": "BOX 609                       1 MAIN STREET W", "city": "RIDGETOWN", "province": "ON", "country": "CA", "postalCode": "N0P2C0", "twitter": "None", "instagram": "None", "facebook": "None", "youtube": "None", "website": "None", "summary": "None", "logo": "None", "latitude": 42.43896240691879, "longitude": -81.8874890801837}, "864579297RR0001": {"name": "THE GREENWOOD CENTRE FOR LIVING HISTORY", "designationCode": "C", "categoryCode": "50", "address": "254 MAIN ROAD", "city": "HUDSON", "province": "QC", "country": "CA", "postalCode": "J0P1H0", "twitter": "None", "instagram": "None", "facebook": "None", "youtube": "None", "website": "None", "summary": "None", "logo": "None", "latitude": 45.45174004768707, "longitude": -74.11273458882809}, "107451569RR0001": {"name": "THE GREENWOOD HERITAGE SOCIETY", "designationCode": "C", "categoryCode": "50", "address": "BOX 399", "city": "GREENWOOD", "province": "BC", "country": "CA", "postalCode": "V0H1J0", "twitter": "None", "instagram": "None", "facebook": "None", "youtube": "None", "website": "None", "summary": "None", "logo": "None", "latitude": 49.09533000000005, "longitude": -118.67747999999995}, "140621046RR0001": {"name": "THE GREENWOOD IMPROVEMENT SOCIETY", "designationCode": "C", "categoryCode": "52", "address": "BOX 610", "city": "GREENWOOD", "province": "BC", "country": "CA", "postalCode": "V0H1J0", "twitter": "None", "instagram": "None", "facebook": "None", "youtube": "None", "website": "None", "summary": "None", "logo": "None", "latitude": 49.09533000000005, "longitude": -118.67747999999995}, "119236115RR0001": {"name": "THE GREEY-LENNOX CHARITABLE FOUNDATION", "designationCode": "B", "categoryCode": "43", "address": "133 SIMPSON AVE", "city": "TORONTO", "province": "ON", "country": "CA", "postalCode": "M4K1A4", "twitter": "None", "instagram": "None", "facebook": "None", "youtube": "None", "website": "None", "summary": "None", "logo": "None"}, "856498233RR0001": {"name": "THE GREGORIAN INSTITUTE OF CANADA - L'INSTITUT GREGORIEN DU CANADA", "designationCode": "C", "categoryCode": "22", "address": "45 MERCER ST.", "city": "DUNDAS", "province": "ON", "country": "CA", "postalCode": "L9H2N8", "twitter": "None", "instagram": "None", "facebook": "None", "youtube": "None", "website": "None", "summary": "None", "logo": "None", "latitude": 43.26519959285005, "longitude": -79.96955427309717}, "866665433RR0001": {"name": "THE GRENDEL GROUP (FAMILY ADVOCATES)", "designationCode": "C", "categoryCode": "09", "address": "PO BOX 969", "city": "SMITHERS", "province": "BC", "country": "CA", "postalCode": "V0J2N0", "twitter": "None", "instagram": "None", "facebook": "None", "youtube": "None", "website": "None", "summary": "None", "logo": "None", "latitude": 54.78190002943043, "longitude": -127.16272999999995}, "119236149RR0001": {"name": "THE GREY AND SIMCOE FORESTERS FOUNDATION", "designationCode": "A", "categoryCode": "51", "address": "51 DAVIES CRESCENT", "city": "BARRIE", "province": "ON", "country": "CA", "postalCode": "L4M2M4", "twitter": "None", "instagram": "None", "facebook": "None", "youtube": "None", "website": "None", "summary": "None", "logo": "None", "latitude": 44.40647316541637, "longitude": -79.67093593407013}, "890435043RR0001": {"name": "THE GREY OX SOCIETY", "designationCode": "C", "categoryCode": "52", "address": "RR # 5                        1160 GREY OX AVE", "city": "LUCKNOW", "province": "ON", "country": "CA", "postalCode": "N0G2H0", "twitter": "None", "instagram": "None", "facebook": "None", "youtube": "None", "website": "None", "summary": "None", "logo": "None", "latitude": 43.99798634066902, "longitude": -81.50159064983767}, "119236172RR0001": {"name": "THE GREY-WELLINGTON THEATRE GUILD", "designationCode": "C", "categoryCode": "22", "address": "BOX 994", "city": "HARRISTON", "province": "ON", "country": "CA", "postalCode": "N0G1Z0", "twitter": "None", "instagram": "None", "facebook": "None", "youtube": "None", "website": "None", "summary": "None", "logo": "None", "latitude": 43.89520950000001, "longitude": -80.970777}, "866434293RR0001": {"name": "THE GRIFFIN TRUST FOR EXCELLENCE IN POETRY", "designationCode": "B", "categoryCode": "03", "address": "363 PARKRIDGE CRES", "city": "OAKVILLE", "province": "ON", "country": "CA", "postalCode": "L6M1A8", "twitter": "None", "instagram": "None", "facebook": "None", "youtube": "None", "website": "None", "summary": "None", "logo": "None", "latitude": 43.444959043597294, "longitude": -79.70809318166076}, "889255774RR0001": {"name": "THE GRIFFITH LABORATORIES FOUNDATION", "designationCode": "B", "categoryCode": "03", "address": "757 PHARMACY AVENUE", "city": "SCARBOROUGH", "province": "ON", "country": "CA", "postalCode": "M1L3J8", "twitter": "None", "instagram": "None", "facebook": "None", "youtube": "None", "website": "None", "summary": "None", "logo": "None", "latitude": 43.718808812395295, "longitude": -79.29466809345656}, "893315366RR0001": {"name": "THE GRIFFITH LABORATORIES LIMITED EMPLOYEES WELFARE SERVICE FUND", "designationCode": "B", "categoryCode": "75", "address": "757 PHARMACY AVENUE", "city": "SCARBOROUGH", "province": "ON", "country": "CA", "postalCode": "M1L3J8", "twitter": "None", "instagram": "None", "facebook": "None", "youtube": "None", "website": "None", "summary": "None", "logo": "None", "latitude": 43.718808812395295, "longitude": -79.29466809345656}, "862396975RR0001": {"name": "THE GRIFFITHS MEMORIAL CENTRE ASSOCIATION", "designationCode": "C", "categoryCode": "59", "address": "P.O. BOX 1024", "city": "BLACK DIAMOND", "province": "AB", "country": "CA", "postalCode": "T0L0H0", "twitter": "None", "instagram": "None", "facebook": "None", "youtube": "None", "website": "None", "summary": "None", "logo": "None", "latitude": 50.70011000000005, "longitude": -114.23529999999994}, "834184566RR0001": {"name": "THE GRIGSBY FAMILY FOUNDATION", "designationCode": "B", "categoryCode": "05", "address": "4142 ARBOURFIELD DR", "city": "BURLINGTON", "province": "ON", "country": "CA", "postalCode": "L7M4B1", "twitter": "None", "instagram": "None", "facebook": "None", "youtube": "None", "website": "None", "summary": "None", "logo": "None", "latitude": 43.38941837050622, "longitude": -79.80950151930281}, "890504319RR0001": {"name": "THE GROSS FAMILY FOUNDATION", "designationCode": "B", "categoryCode": "05", "address": "22 ST. CLAIR AVE. EAST        SUITE 1501", "city": "TORONTO", "province": "ON", "country": "CA", "postalCode": "M4T2S3", "twitter": "None", "instagram": "None", "facebook": "None", "youtube": "None", "website": "None", "summary": "None", "logo": "None", "latitude": 43.688336132408, "longitude": -79.39301839967676}, "119236222RR0001": {"name": "THE GROUP HEALTH CENTRE TRUST FUND", "designationCode": "C", "categoryCode": "59", "address": "240 MCNABB STREET", "city": "SAULT STE. MARIE", "province": "ON", "country": "CA", "postalCode": "P6B1Y5", "twitter": "None", "instagram": "None", "facebook": "None", "youtube": "None", "website": "None", "summary": "None", "logo": "None", "latitude": 46.521814533758196, "longitude": -84.31591147446477}, "130562085RR0001": {"name": "THE GROUP OF 78/LE GROUPE DES 78", "designationCode": "C", "categoryCode": "29", "address": "608 - 63 SPARKS ST", "city": "OTTAWA", "province": "ON", "country": "CA", "postalCode": "K1P5A6", "twitter": "None", "instagram": "None", "facebook": "None", "youtube": "None", "website": "None", "summary": "None", "logo": "None", "latitude": 45.4231892287205, "longitude": -75.69675584459561}, "131988362RR0001": {"name": "THE GROVE CEMETERY INCORPORATED", "designationCode": "C", "categoryCode": "59", "address": "1511 CLARKE RD", "city": "LONDON", "province": "ON", "country": "CA", "postalCode": "N5V5B4", "twitter": "None", "instagram": "None", "facebook": "None", "youtube": "None", "website": "None", "summary": "None", "logo": "None", "latitude": 43.03853078100303, "longitude": -81.19307485336684}, "889428207RR0001": {"name": "THE GROVE CHILDCARE SOCIETY", "designationCode": "C", "categoryCode": "01", "address": "RM 11-8525 FOREST GROVE DR", "city": "BURNABY", "province": "BC", "country": "CA", "postalCode": "V5A4H5", "twitter": "None", "instagram": "None", "facebook": "None", "youtube": "None", "website": "None", "summary": "None", "logo": "None", "latitude": 49.26463039445642, "longitude": -122.91893589052057}, "119236263RR0001": {"name": "THE GRUBNER FAMILY CHARITABLE TRUST", "designationCode": "B", "categoryCode": "05", "address": "235 HADDINGTON AVE", "city": "TORONTO", "province": "ON", "country": "CA", "postalCode": "M5M2R1", "twitter": "None", "instagram": "None", "facebook": "None", "youtube": "None", "website": "None", "summary": "None", "logo": "None", "latitude": 43.73284181652158, "longitude": -79.42948490285076}, "839804291RR0001": {"name": "THE GUARDIAN PROJECT", "designationCode": "B", "categoryCode": "05", "address": "40 HILLCREST DRIVE", "city": "TORONTO", "province": "ON", "country": "CA", "postalCode": "M6G2E3", "twitter": "None", "instagram": "None", "facebook": "None", "youtube": "None", "website": "None", "summary": "None", "logo": "None", "latitude": 43.675681157943195, "longitude": -79.42640781294355}, "119236271RR0001": {"name": "THE GUELPH CEMETARY COMMISSION", "designationCode": "C", "categoryCode": "59", "address": "762 WOOLWICH ST", "city": "GUELPH", "province": "ON", "country": "CA", "postalCode": "N1H3Z1", "twitter": "None", "instagram": "None", "facebook": "None", "youtube": "None", "website": "None", "summary": "None", "logo": "None", "latitude": 43.563880026998675, "longitude": -80.27592957052474}, "867278350RR0001": {"name": "THE GUELPH COMMUNITY FOUNDATION", "designationCode": "A", "categoryCode": "03", "address": "PO BOX 1311", "city": "GUELPH", "province": "ON", "country": "CA", "postalCode": "N1H6N6", "twitter": "None", "instagram": "None", "facebook": "None", "youtube": "None", "website": "None", "summary": "None", "logo": "None", "latitude": 43.54455300000005, "longitude": -80.24788249999993}, "898023528RR0001": {"name": "THE GUELPH CONCERT BAND", "designationCode": "C", "categoryCode": "22", "address": "75 CARDIGAN STREET", "city": "GUELPH", "province": "ON", "country": "CA", "postalCode": "N1H3Z7", "twitter": "None", "instagram": "None", "facebook": "None", "youtube": "None", "website": "None", "summary": "None", "logo": "None", "latitude": 43.550450306711156, "longitude": -80.25452706852693}}