{"893206979RR0001": {"name": "BREAD OF LIFE CHRISTIAN MINISTRIES (ETOBICOKE)", "designationCode": "C", "categoryCode": "39", "address": "175 BONNEVILLE RD", "city": "PORT SEVERN", "province": "ON", "country": "CA", "postalCode": "L0K1S0", "twitter": "None", "instagram": "None", "facebook": "None", "youtube": "None", "website": "None", "summary": "None", "logo": "None", "latitude": 44.814828834583636, "longitude": -79.72533135247281}, "899737316RR0001": {"name": "BREAD OF LIFE COMMUNITY CHURCH", "designationCode": "C", "categoryCode": "39", "address": "13020 - 114 STREET", "city": "EDMONTON", "province": "AB", "country": "CA", "postalCode": "T5E5C9", "twitter": "None", "instagram": "None", "facebook": "None", "youtube": "None", "website": "None", "summary": "None", "logo": "None", "latitude": 53.59058999999999, "longitude": -113.51829724372412}, "819646670RR0001": {"name": "BREAD OF LIFE HUMANITARIAN MINISTRY INC.", "designationCode": "C", "categoryCode": "47", "address": "40 LADY SARAH CRES", "city": "TORONTO", "province": "ON", "country": "CA", "postalCode": "M1V1P5", "twitter": "None", "instagram": "None", "facebook": "None", "youtube": "None", "website": "None", "summary": "None", "logo": "None", "latitude": 43.81668011408612, "longitude": -79.26697012559863}, "118817220RR0001": {"name": "BREAD OF LIFE LUTHERAN CHURCH INC.", "designationCode": "C", "categoryCode": "32", "address": "3018 DOAN DR", "city": "REGINA", "province": "SK", "country": "CA", "postalCode": "S4V1M1", "twitter": "None", "instagram": "None", "facebook": "None", "youtube": "None", "website": "None", "summary": "None", "logo": "None", "latitude": 50.43040362173217, "longitude": -104.54718113411006}, "140998881RR0001": {"name": "BREAD OF LIFE MINISTRIES ASSOCIATION", "designationCode": "C", "categoryCode": "39", "address": "2 FOX HOLLOW DR", "city": "UPPER TANTALLON", "province": "NS", "country": "CA", "postalCode": "B3Z1E5", "twitter": "None", "instagram": "None", "facebook": "None", "youtube": "None", "website": "None", "summary": "None", "logo": "None", "latitude": 44.69023946655894, "longitude": -63.874563101535315}, "132264656RR0001": {"name": "BREAD OF LIFE MINISTRY INC.", "designationCode": "C", "categoryCode": "39", "address": "1338 MAIN STREET", "city": "WINNIPEG", "province": "MB", "country": "CA", "postalCode": "R2W3T6", "twitter": "None", "instagram": "None", "facebook": "None", "youtube": "None", "website": "None", "summary": "None", "logo": "None", "latitude": 49.923550309192635, "longitude": -97.12647335570412}, "854382124RR0001": {"name": "BREAD OF LIFE WORSHIP CENTRE", "designationCode": "C", "categoryCode": "39", "address": "4 BRADWORTHY COURT", "city": "SCARBOROUGH", "province": "ON", "country": "CA", "postalCode": "M1B2S7", "twitter": "None", "instagram": "None", "facebook": "None", "youtube": "None", "website": "None", "summary": "None", "logo": "None", "latitude": 43.80293278960137, "longitude": -79.20259338164337}, "118817204RR0001": {"name": "BREADALBANE BAPTIST CHURCH", "designationCode": "C", "categoryCode": "31", "address": "22155 BRODIE RD", "city": "DALKEITH", "province": "ON", "country": "CA", "postalCode": "K0B1E0", "twitter": "None", "instagram": "None", "facebook": "None", "youtube": "None", "website": "None", "summary": "None", "logo": "None", "latitude": 45.42705523578681, "longitude": -74.53431328501094}, "107769598RR0001": {"name": "BREAK FORTH MINISTRIES SOCIETY", "designationCode": "C", "categoryCode": "22", "address": "128-150 CHIPPEWA ROAD", "city": "SHERWOOD PARK", "province": "AB", "country": "CA", "postalCode": "T8A6A2", "twitter": "None", "instagram": "None", "facebook": "None", "youtube": "None", "website": "None", "summary": "None", "logo": "None", "latitude": 53.53818336609147, "longitude": -113.32436496110499}, "862927373RR0001": {"name": "BREAK FREE FAMILY CENTRE", "designationCode": "C", "categoryCode": "09", "address": "2001 ALBION ROAD              UNIT 8", "city": "TORONTO", "province": "ON", "country": "CA", "postalCode": "M9W6V6", "twitter": "None", "instagram": "None", "facebook": "None", "youtube": "None", "website": "None", "summary": "None", "logo": "None", "latitude": 43.74795777540578, "longitude": -79.62798602971881}, "882901168RR0001": {"name": "BREAK FREE MINISTRIES SOCIETY", "designationCode": "C", "categoryCode": "09", "address": "11902 105A ST", "city": "GRANDE PRAIRIE", "province": "AB", "country": "CA", "postalCode": "T8V7N3", "twitter": "None", "instagram": "None", "facebook": "None", "youtube": "None", "website": "None", "summary": "None", "logo": "None", "latitude": 55.18796497446479, "longitude": -118.81241216045336}, "863774329RR0001": {"name": "BREAK-OUT MINISTRIES INTERNATIONAL", "designationCode": "C", "categoryCode": "49", "address": "181 DESERT SAND DRIVE", "city": "BRAMPTON", "province": "ON", "country": "CA", "postalCode": "L6R1P7", "twitter": "None", "instagram": "None", "facebook": "None", "youtube": "None", "website": "None", "summary": "None", "logo": "None", "latitude": 43.75443897420497, "longitude": -79.76143292648142}, "891536344RR0001": {"name": "BREAKAWAY ADDICTION SERVICES", "designationCode": "C", "categoryCode": "11", "address": "21 STRICKLAND AVE", "city": "TORONTO", "province": "ON", "country": "CA", "postalCode": "M6K3E6", "twitter": "None", "instagram": "None", "facebook": "None", "youtube": "None", "website": "None", "summary": "None", "logo": "None", "latitude": 43.64325717652487, "longitude": -79.43126040824646}, "887630556RR0001": {"name": "BREAKFAST FOR LEARNING/DEJEUNER POUR APPRENDRE", "designationCode": "A", "categoryCode": "03", "address": "1 PRESIDENTS CHOICE CIR", "city": "BRAMPTON", "province": "ON", "country": "CA", "postalCode": "L6Y5S5", "twitter": "None", "instagram": "None", "facebook": "None", "youtube": "None", "website": "None", "summary": "None", "logo": "None", "latitude": 43.618767520630485, "longitude": -79.7688504276935}, "878867126RR0001": {"name": "BREAKFAST WITH SANTA FOUNDATION", "designationCode": "C", "categoryCode": "09", "address": "5506 COSMIC CRESCENT", "city": "MISSISSAUGA", "province": "ON", "country": "CA", "postalCode": "L4Z3R9", "twitter": "None", "instagram": "None", "facebook": "None", "youtube": "None", "website": "None", "summary": "None", "logo": "None", "latitude": 43.62012775408283, "longitude": -79.6622794817068}, "854053634RR0001": {"name": "BREAKING AWAY - SUPPORTING INDEPENDENCE FOR ADULTS WITH A DEVELOPMENTAL DISABILITY", "designationCode": "C", "categoryCode": "09", "address": "52 CENTENNIAL AVENUE", "city": "SAULT STE MARIE", "province": "ON", "country": "CA", "postalCode": "P6A5B3", "twitter": "None", "instagram": "None", "facebook": "None", "youtube": "None", "website": "None", "summary": "None", "logo": "None", "latitude": 46.50134783458364, "longitude": -84.26877151967818}, "118817246RR0001": {"name": "BREAKING DOWN BARRIERS AN INDEPENDENT LIVING CENTRE INC.", "designationCode": "C", "categoryCode": "59", "address": "203-115 HURONTARIO STREET", "city": "COLLINGWOOD", "province": "ON", "country": "CA", "postalCode": "L9Y2L9", "twitter": "None", "instagram": "None", "facebook": "None", "youtube": "None", "website": "None", "summary": "None", "logo": "None", "latitude": 44.49992406385724, "longitude": -80.21678270994283}, "899160931RR0001": {"name": "BREAKOUT EDUCATIONAL NETWORK", "designationCode": "C", "categoryCode": "21", "address": "303 - 1200 BAY ST", "city": "TORONTO", "province": "ON", "country": "CA", "postalCode": "M5R2A5", "twitter": "None", "instagram": "None", "facebook": "None", "youtube": "None", "website": "None", "summary": "None", "logo": "None", "latitude": 43.67001713183107, "longitude": -79.38965755372485}, "856277751RR0001": {"name": "BREAKTHROUGH CHURCH OF GOD INTERNATIONAL", "designationCode": "C", "categoryCode": "39", "address": "11931 NO 2 RD", "city": "RICHMOND", "province": "BC", "country": "CA", "postalCode": "V7E2E9", "twitter": "None", "instagram": "None", "facebook": "None", "youtube": "None", "website": "None", "summary": "None", "logo": "None", "latitude": 49.12693200000001, "longitude": -123.15896601612882}, "136103918RR0001": {"name": "BREAKTHROUGH OVERSEAS MISSIONS, INC", "designationCode": "C", "categoryCode": "47", "address": "232 HOOD ROAD", "city": "MARKHAM", "province": "ON", "country": "CA", "postalCode": "L3R3K8", "twitter": "None", "instagram": "None", "facebook": "None", "youtube": "None", "website": "None", "summary": "None", "logo": "None", "latitude": 43.82463504717531, "longitude": -79.3275370626403}, "890567241RR0001": {"name": "BREAST CANCER ACTION KINGSTON", "designationCode": "C", "categoryCode": "09", "address": "110 - 650 DALTON AVE", "city": "KINGSTON", "province": "ON", "country": "CA", "postalCode": "K7M8N7", "twitter": "None", "instagram": "None", "facebook": "None", "youtube": "None", "website": "None", "summary": "None", "logo": "None", "latitude": 44.26906573602076, "longitude": -76.52186571899698}, "870363462RR0001": {"name": "BREAST CANCER ACTION MANITOBA INC", "designationCode": "C", "categoryCode": "11", "address": "PO BOX 1866", "city": "WINNIPEG", "province": "MB", "country": "CA", "postalCode": "R3C3R1", "twitter": "None", "instagram": "None", "facebook": "None", "youtube": "None", "website": "None", "summary": "None", "logo": "None", "latitude": 49.899525000000054, "longitude": -97.14112999999993}, "890806193RR0001": {"name": "BREAST CANCER ACTION NOVA SCOTIA", "designationCode": "C", "categoryCode": "11", "address": "PO BOX 48119 RPO MILL COVE", "city": "BEDFORD", "province": "NS", "country": "CA", "postalCode": "B4A3Z2", "twitter": "None", "instagram": "None", "facebook": "None", "youtube": "None", "website": "None", "summary": "None", "logo": "None", "latitude": 44.71544029811935, "longitude": -63.682447637483826}, "899999585RR0001": {"name": "BREAST CANCER ACTION SASKATCHEWAN CORPORATION", "designationCode": "C", "categoryCode": "29", "address": "58 FAIRVIEW RD", "city": "REGINA", "province": "SK", "country": "CA", "postalCode": "S4R0A4", "twitter": "None", "instagram": "None", "facebook": "None", "youtube": "None", "website": "None", "summary": "None", "logo": "None", "latitude": 50.4915474532574, "longitude": -104.61473983236193}, "140776980RR0001": {"name": "BREAST CANCER ACTION SENSIBILISATION AU CANCER DU SEIN", "designationCode": "C", "categoryCode": "19", "address": "301 - 1390 PRINCE OF WALES DR.", "city": "OTTAWA", "province": "ON", "country": "CA", "postalCode": "K2C3N6", "twitter": "None", "instagram": "None", "facebook": "None", "youtube": "None", "website": "None", "summary": "None", "logo": "None", "latitude": 45.373239364125354, "longitude": -75.70846722239797}, "137969861RR0001": {"name": "BREAST CANCER SOCIETY OF CANADA/LA SOCIETE DU CANCER DU SEIN DU CANADA", "designationCode": "A", "categoryCode": "13", "address": "420 EAST STREET", "city": "SARNIA", "province": "ON", "country": "CA", "postalCode": "N7T6Y5", "twitter": "None", "instagram": "None", "facebook": "None", "youtube": "None", "website": "None", "summary": "None", "logo": "None", "latitude": 42.98260143694946, "longitude": -82.38619883831706}, "816176945RR0001": {"name": "BREAST CANCER SUPPORTIVE CARE FOUNDATION", "designationCode": "C", "categoryCode": "19", "address": "414-301 14 STREET NW", "city": "CALGARY", "province": "AB", "country": "CA", "postalCode": "T2N2A1", "twitter": "None", "instagram": "None", "facebook": "None", "youtube": "None", "website": "None", "summary": "None", "logo": "None", "latitude": 51.054849167638054, "longitude": -114.09477471472646}, "868249756RR0001": {"name": "BREAST FRIENDS SOCIETY OF EDMONTON", "designationCode": "C", "categoryCode": "11", "address": "6128 6 AVE SW", "city": "EDMONTON", "province": "AB", "country": "CA", "postalCode": "T6X0G1", "twitter": "None", "instagram": "None", "facebook": "None", "youtube": "None", "website": "None", "summary": "None", "logo": "None", "latitude": 53.42752446768411, "longitude": -113.43571102553523}, "848168720RR0001": {"name": "BREAST QUEST DRAGON BOAT SOCIETY", "designationCode": "C", "categoryCode": "11", "address": "552 FALMOUTH BACK ROAD        RR#2", "city": "FALMOUTH", "province": "NS", "country": "CA", "postalCode": "B0P1L0", "twitter": "None", "instagram": "None", "facebook": "None", "youtube": "None", "website": "None", "summary": "None", "logo": "None", "latitude": 44.99209444604403, "longitude": -64.19033152400601}, "857948731RR0001": {"name": "BREASTFEEDING MATTERS, SOUTH VANCOUVER ISLAND", "designationCode": "C", "categoryCode": "23", "address": "975 FORT ST", "city": "VICTORIA", "province": "BC", "country": "CA", "postalCode": "V8V3K3", "twitter": "None", "instagram": "None", "facebook": "None", "youtube": "None", "website": "None", "summary": "None", "logo": "None", "latitude": 48.423774616134935, "longitude": -123.35772414516126}, "886814201RR0001": {"name": "BREASTSTROKES", "designationCode": "C", "categoryCode": "11", "address": "370 STONE ROAD WEST           P.O. BOX 25116", "city": "GUELPH", "province": "ON", "country": "CA", "postalCode": "N1G4T4", "twitter": "None", "instagram": "None", "facebook": "None", "youtube": "None", "website": "None", "summary": "None", "logo": "None", "latitude": 43.51781273071199, "longitude": -80.23655620194545}, "881556674RR0001": {"name": "BREBEUF EDUCATIONAL SOCIETY", "designationCode": "C", "categoryCode": "21", "address": "5030 NORTHLAND DR NW", "city": "CALGARY", "province": "AB", "country": "CA", "postalCode": "T2L2J6", "twitter": "None", "instagram": "None", "facebook": "None", "youtube": "None", "website": "None", "summary": "None", "logo": "None", "latitude": 51.097797000000014, "longitude": -114.14115776031524}, "118817303RR0001": {"name": "BRECHIN UNITED CHURCH", "designationCode": "C", "categoryCode": "44", "address": "BOX 227", "city": "BRECHIN", "province": "ON", "country": "CA", "postalCode": "L0K1B0", "twitter": "None", "instagram": "None", "facebook": "None", "youtube": "None", "website": "None", "summary": "None", "logo": "None", "latitude": 44.61056390491339, "longitude": -79.11780209458949}, "864706585RR0001": {"name": "BRECHIN UNITED CHURCH,", "designationCode": "C", "categoryCode": "44", "address": "1998 ESTEVAN ROAD", "city": "NANAIMO", "province": "BC", "country": "CA", "postalCode": "V9S3Z2", "twitter": "None", "instagram": "None", "facebook": "None", "youtube": "None", "website": "None", "summary": "None", "logo": "None", "latitude": 49.18971065353964, "longitude": -123.9623765215434}, "118817329RR0001": {"name": "BREDENBURY AND DISTRICT COMBINED APPEAL DONORS CHOICE", "designationCode": "C", "categoryCode": "05", "address": "PO BOX 11", "city": "BREDENBURY", "province": "SK", "country": "CA", "postalCode": "S0A0H0", "twitter": "None", "instagram": "None", "facebook": "None", "youtube": "None", "website": "None", "summary": "None", "logo": "None", "latitude": 50.93959000000007, "longitude": -102.05053999999996}, "106808058RR0001": {"name": "BREN DEL WIN CENTENNIAL LIBRARY", "designationCode": "C", "categoryCode": "50", "address": "BOX 584", "city": "DELORAINE", "province": "MB", "country": "CA", "postalCode": "R0M0M0", "twitter": "None", "instagram": "None", "facebook": "None", "youtube": "None", "website": "None", "summary": "None", "logo": "None", "latitude": 49.19157000000007, "longitude": -100.49399999999997}, "118817378RR0001": {"name": "BRENTON HILLTOP SOCIETY", "designationCode": "C", "categoryCode": "59", "address": "1386 LAKE GEORGE RD.          BOX 92", "city": "SOUTH OHIO", "province": "NS", "country": "CA", "postalCode": "B5A5L6", "twitter": "None", "instagram": "None", "facebook": "None", "youtube": "None", "website": "None", "summary": "None", "logo": "None", "latitude": 43.98075661088347, "longitude": -66.06167633830589}, "106808207RR0001": {"name": "BRENTVIEW BAPTIST CHURCH", "designationCode": "C", "categoryCode": "31", "address": "3512 CHARLESWOOD DR NW", "city": "CALGARY", "province": "AB", "country": "CA", "postalCode": "T2L2C3", "twitter": "None", "instagram": "None", "facebook": "None", "youtube": "None", "website": "None", "summary": "None", "logo": "None", "latitude": 51.08441687203541, "longitude": -114.12354330971225}, "896907409RR0001": {"name": "BRENTWOOD BAY OLD SCHOOL HALL SOCIETY", "designationCode": "C", "categoryCode": "55", "address": "21-2654 LANCELOT PL", "city": "SAANICHTON", "province": "BC", "country": "CA", "postalCode": "V8M1V3", "twitter": "None", "instagram": "None", "facebook": "None", "youtube": "None", "website": "None", "summary": "None", "logo": "None", "latitude": 48.59827245168153, "longitude": -123.39157491893813}, "118817402RR0001": {"name": "BRENTWOOD COLLEGE ASSOCIATION", "designationCode": "C", "categoryCode": "20", "address": "2735 MT BAKER ROAD", "city": "MILL BAY", "province": "BC", "country": "CA", "postalCode": "V0R2P1", "twitter": "None", "instagram": "None", "facebook": "None", "youtube": "None", "website": "None", "summary": "None", "logo": "None", "latitude": 48.65249607799066, "longitude": -123.55528890902586}, "866657430RR0001": {"name": "BRENTWOOD COLLEGE FOUNDATION", "designationCode": "A", "categoryCode": "23", "address": "2735 MOUNT BAKER RD.", "city": "MILL BAY", "province": "BC", "country": "CA", "postalCode": "V0R2P1", "twitter": "None", "instagram": "None", "facebook": "None", "youtube": "None", "website": "None", "summary": "None", "logo": "None", "latitude": 48.65249607799066, "longitude": -123.55528890902586}, "106808314RR0001": {"name": "BRENTWOOD NURSERY SCHOOL SOCIETY", "designationCode": "C", "categoryCode": "20", "address": "1455 SOUTH DELTA AVENUE", "city": "BURNABY", "province": "BC", "country": "CA", "postalCode": "V5B3G4", "twitter": "None", "instagram": "None", "facebook": "None", "youtube": "None", "website": "None", "summary": "None", "logo": "None", "latitude": 49.271562301162795, "longitude": -122.99225367465668}, "118817436RR0001": {"name": "BRENTWOOD PARK ALLIANCE CHURCH", "designationCode": "C", "categoryCode": "39", "address": "1410 DELTA AVE", "city": "BURNABY", "province": "BC", "country": "CA", "postalCode": "V5B3G2", "twitter": "None", "instagram": "None", "facebook": "None", "youtube": "None", "website": "None", "summary": "None", "logo": "None", "latitude": 49.27189531325306, "longitude": -122.99212536148961}, "106808363RR0001": {"name": "BRENTWOOD PRESBYTERIAN CHURCH", "designationCode": "C", "categoryCode": "37", "address": "1600 DELTA AVE", "city": "BURNABY", "province": "BC", "country": "CA", "postalCode": "V5B3G2", "twitter": "None", "instagram": "None", "facebook": "None", "youtube": "None", "website": "None", "summary": "None", "logo": "None", "latitude": 49.27006471454321, "longitude": -122.9921652145432}, "889893392RR0001": {"name": "BRERETON FIELD NATURALISTS CLUB", "designationCode": "C", "categoryCode": "59", "address": "P.O. BOX 1084", "city": "BARRIE", "province": "ON", "country": "CA", "postalCode": "L4M5E1", "twitter": "None", "instagram": "None", "facebook": "None", "youtube": "None", "website": "None", "summary": "None", "logo": "None", "latitude": 44.38929300000005, "longitude": -79.68626449999994}, "106808454RR0001": {"name": "BRESAYLOR HERITAGE MUSEUM ASSOCIATION INCORPORATED", "designationCode": "C", "categoryCode": "50", "address": "BOX 33", "city": "PAYNTON", "province": "SK", "country": "CA", "postalCode": "S0M2J0", "twitter": "None", "instagram": "None", "facebook": "None", "youtube": "None", "website": "None", "summary": "None", "logo": "None", "latitude": 53.016860000000065, "longitude": -108.93472999999994}, "106808462RR0001": {"name": "BRESCIA UNIVERSITY COLLEGE", "designationCode": "C", "categoryCode": "20", "address": "1285 WESTERN RD", "city": "LONDON", "province": "ON", "country": "CA", "postalCode": "N6G1H2", "twitter": "None", "instagram": "None", "facebook": "None", "youtube": "None", "website": "None", "summary": "None", "logo": "None", "latitude": 43.00529665434729, "longitude": -81.27686056300331}, "118817485RR0001": {"name": "BRESLAU AND DISTRICT RECREATION CENTRE", "designationCode": "C", "categoryCode": "56", "address": "51 ANDOVER DR", "city": "BRESLAU", "province": "ON", "country": "CA", "postalCode": "N0B1M0", "twitter": "None", "instagram": "None", "facebook": "None", "youtube": "None", "website": "None", "summary": "None", "logo": "None", "latitude": 43.471908988221095, "longitude": -80.41525374505858}, "818687949RR0001": {"name": "BRESLAU MENNONITE CHURCH", "designationCode": "C", "categoryCode": "39", "address": "226 WOOLWICH ST S", "city": "BRESLAU", "province": "ON", "country": "CA", "postalCode": "N0B1M0", "twitter": "None", "instagram": "None", "facebook": "None", "youtube": "None", "website": "None", "summary": "None", "logo": "None", "latitude": 43.47111184271831, "longitude": -80.41138351539286}, "118817501RR0001": {"name": "BRESLAU MISSIONARY CHURCH", "designationCode": "C", "categoryCode": "39", "address": "PO BOX 25", "city": "BRESLAU", "province": "ON", "country": "CA", "postalCode": "N0B1M0", "twitter": "None", "instagram": "None", "facebook": "None", "youtube": "None", "website": "None", "summary": "None", "logo": "None", "latitude": 43.47569000000004, "longitude": -80.41396999999995}, "118817519RR0001": {"name": "BRETHREN ASSEMBLY", "designationCode": "C", "categoryCode": "39", "address": "14308B HIGHWAY 60", "city": "GOLDEN LAKE", "province": "ON", "country": "CA", "postalCode": "K0J1X0", "twitter": "None", "instagram": "None", "facebook": "None", "youtube": "None", "website": "None", "summary": "None", "logo": "None", "latitude": 45.58764285205855, "longitude": -77.40390350516378}, "106808587RR0001": {"name": "BRETHREN IN CHRIST CHURCH CHEAPSIDE CONGREGATION", "designationCode": "C", "categoryCode": "39", "address": "431 THOMPSON ROAD WEST", "city": "WATERFORD", "province": "ON", "country": "CA", "postalCode": "N0E1Y0", "twitter": "None", "instagram": "None", "facebook": "None", "youtube": "None", "website": "None", "summary": "None", "logo": "None", "latitude": 42.92105032168613, "longitude": -80.31560765098963}, "108187725RR0001": {"name": "BRETHREN IN CHRIST CHURCH WAINFLEET ONTARIO", "designationCode": "C", "categoryCode": "39", "address": "53007 PERRY RD.", "city": "WAINFLEET", "province": "ON", "country": "CA", "postalCode": "L0S1V0", "twitter": "None", "instagram": "None", "facebook": "None", "youtube": "None", "website": "None", "summary": "None", "logo": "None", "latitude": 42.94446572384441, "longitude": -79.42953711806817}, "124908765RR0001": {"name": "BRETON AND DISTRICT HISTORICAL SOCIETY", "designationCode": "C", "categoryCode": "50", "address": "P.O. BOX 696", "city": "BRETON", "province": "AB", "country": "CA", "postalCode": "T0C0P0", "twitter": "None", "instagram": "None", "facebook": "None", "youtube": "None", "website": "None", "summary": "None", "logo": "None", "latitude": 53.11236000000008, "longitude": -114.46609999999998}, "899572861RR0001": {"name": "BRETON CHRISTMAS WISHES FUND RAISING FOUNDATION", "designationCode": "C", "categoryCode": "09", "address": "BOX 448", "city": "BRETON", "province": "AB", "country": "CA", "postalCode": "T0C0P0", "twitter": "None", "instagram": "None", "facebook": "None", "youtube": "None", "website": "None", "summary": "None", "logo": "None", "latitude": 53.11236000000008, "longitude": -114.46609999999998}, "889211595RR0001": {"name": "BRETON EDUCATION CENTRE SCHOLASTIC AWARDS FUND", "designationCode": "C", "categoryCode": "21", "address": "667 EIGHTH STREET", "city": "NEW WATERFORD", "province": "NS", "country": "CA", "postalCode": "B1H3T4", "twitter": "None", "instagram": "None", "facebook": "None", "youtube": "None", "website": "None", "summary": "None", "logo": "None", "latitude": 46.24216966577859, "longitude": -60.08908381659631}, "118858158RR0001": {"name": "BRETON WORD OF FAITH CHURCH", "designationCode": "C", "categoryCode": "39", "address": "BOX 389", "city": "BRETON", "province": "AB", "country": "CA", "postalCode": "T0C0P0", "twitter": "None", "instagram": "None", "facebook": "None", "youtube": "None", "website": "None", "summary": "None", "logo": "None", "latitude": 53.11236000000008, "longitude": -114.46609999999998}, "892959644RR0001": {"name": "BREVOORT PARK COMMUNITY ASSOCIATION INC", "designationCode": "C", "categoryCode": "56", "address": "41 MCLELLAN AVENUE", "city": "SASKATOON", "province": "SK", "country": "CA", "postalCode": "S7H3K7", "twitter": "None", "instagram": "None", "facebook": "None", "youtube": "None", "website": "None", "summary": "None", "logo": "None", "latitude": 52.11161088481737, "longitude": -106.61725577612692}, "140642893RR0001": {"name": "BRI-MA-DEL BIBLE CAMP INC", "designationCode": "C", "categoryCode": "56", "address": "PO BOX 611", "city": "WHITEWOOD", "province": "SK", "country": "CA", "postalCode": "S0G5C0", "twitter": "None", "instagram": "None", "facebook": "None", "youtube": "None", "website": "None", "summary": "None", "logo": "None", "latitude": 50.332580000000064, "longitude": -102.25940999999995}, "834017147RR0001": {"name": "BRIAN AND ALIDA ROSSY FAMILY FOUNDATION FONDATION FAMILIALE BRIAN ER ALIDA ROSSY", "designationCode": "B", "categoryCode": "03", "address": "5690 ROYALMOUNT AVENUE", "city": "MOUNT ROYAL", "province": "QC", "country": "CA", "postalCode": "H4P1K4", "twitter": "None", "instagram": "None", "facebook": "None", "youtube": "None", "website": "None", "summary": "None", "logo": "None", "latitude": 45.49195374686948, "longitude": -73.66939301206078}, "134112614RR0001": {"name": "BRIAN BRONFMAN FAMILY FOUNDATION/ FONDATION DE LA FAMILLE BRIAN BRONFMAN", "designationCode": "B", "categoryCode": "53", "address": "1000,RUE DE LA GAUCHETI\u00c8RE,   SUITE 900", "city": "MONTR\u00c9AL", "province": "QC", "country": "CA", "postalCode": "H3B5H4", "twitter": "None", "instagram": "None", "facebook": "None", "youtube": "None", "website": "None", "summary": "None", "logo": "None", "latitude": 45.49850304466516, "longitude": -73.56695768160344}, "893627430RR0001": {"name": "BRIAN D. SCOTT MINISTRIES INC.", "designationCode": "C", "categoryCode": "47", "address": "5 SUFFIELD CRT", "city": "LONDON", "province": "ON", "country": "CA", "postalCode": "N6P1E3", "twitter": "None", "instagram": "None", "facebook": "None", "youtube": "None", "website": "None", "summary": "None", "logo": "None", "latitude": 42.9009398198398, "longitude": -81.28982539716661}, "882769904RR0001": {"name": "BRIAN DICKIE SCHOLARSHIP FUND", "designationCode": "B", "categoryCode": "25", "address": "PO BOX 10085                  LCD PACIFIC CENTRE", "city": "VANCOUVER", "province": "BC", "country": "CA", "postalCode": "V7Y1B6", "twitter": "None", "instagram": "None", "facebook": "None", "youtube": "None", "website": "None", "summary": "None", "logo": "None", "latitude": 49.28299000000004, "longitude": -123.11890999999997}, "869222398RR0001": {"name": "BRIAN FINDLAY MEMORIAL FUND", "designationCode": "C", "categoryCode": "21", "address": "2114 E LAURIER CRES", "city": "REGINA", "province": "SK", "country": "CA", "postalCode": "S4V0P6", "twitter": "None", "instagram": "None", "facebook": "None", "youtube": "None", "website": "None", "summary": "None", "logo": "None", "latitude": 50.44318640940029, "longitude": -104.5534488008541}, "889383261RR0001": {"name": "BRIAN KLIEWER FAMILY MEMORIAL FOUNDATION INC", "designationCode": "C", "categoryCode": "03", "address": "BOX 3223", "city": "STEINBACH", "province": "MB", "country": "CA", "postalCode": "R5G1P5", "twitter": "None", "instagram": "None", "facebook": "None", "youtube": "None", "website": "None", "summary": "None", "logo": "None", "latitude": 49.52572800000006, "longitude": -96.68393449999994}, "889783825RR0001": {"name": "BRIAN MAHOOD MINISTRIES", "designationCode": "C", "categoryCode": "39", "address": "2686 LAKEFIELD ROAD", "city": "PETERBOROUGH", "province": "ON", "country": "CA", "postalCode": "K9J6X5", "twitter": "None", "instagram": "None", "facebook": "None", "youtube": "None", "website": "None", "summary": "None", "logo": "None", "latitude": 44.372123493025754, "longitude": -78.29293432590654}, "125868844RR0001": {"name": "BRIAN WEBB DANCE COMPANY", "designationCode": "C", "categoryCode": "22", "address": "GLENORA PO BOX 53092", "city": "EDMONTON", "province": "AB", "country": "CA", "postalCode": "T5N4A8", "twitter": "None", "instagram": "None", "facebook": "None", "youtube": "None", "website": "None", "summary": "None", "logo": "None", "latitude": 53.545796029622245, "longitude": -113.54789431536338}, "106810195RR0001": {"name": "BRIARWOOD PRESBYTERIAN CHURCH", "designationCode": "C", "categoryCode": "37", "address": "70 BOUL. BEACONSFIELD", "city": "BEACONSFIELD", "province": "QC", "country": "CA", "postalCode": "H9W3Z3", "twitter": "None", "instagram": "None", "facebook": "None", "youtube": "None", "website": "None", "summary": "None", "logo": "None", "latitude": 45.431038301113915, "longitude": -73.8411735631599}, "132081753RR0001": {"name": "BRIDE OF CHRIST MINISTRIES INC", "designationCode": "C", "categoryCode": "47", "address": "89 KINGS DRIVE", "city": "WINNIPEG", "province": "MB", "country": "CA", "postalCode": "R3T3E5", "twitter": "None", "instagram": "None", "facebook": "None", "youtube": "None", "website": "None", "summary": "None", "logo": "None", "latitude": 49.80210489702238, "longitude": -97.13207591219891}, "875550600RR0001": {"name": "BRIDESVILLE MUSEUM INC.", "designationCode": "C", "categoryCode": "50", "address": "KETTLE FARMS, RR 1            ROCK-CREEK - BRIDESVILLE RD", "city": "BRIDESVILLE", "province": "BC", "country": "CA", "postalCode": "V0H1B0", "twitter": "None", "instagram": "None", "facebook": "None", "youtube": "None", "website": "None", "summary": "None", "logo": "None", "latitude": 49.03507913324519, "longitude": -119.15634986741597}, "828159293RR0001": {"name": "BRIDGE BAPTIST CHURCH", "designationCode": "C", "categoryCode": "39", "address": "454 COLUMBIA ST", "city": "KAMLOOPS", "province": "BC", "country": "CA", "postalCode": "V2C2T5", "twitter": "None", "instagram": "None", "facebook": "None", "youtube": "None", "website": "None", "summary": "None", "logo": "None", "latitude": 50.67142050043269, "longitude": -120.3305206902591}, "895681047RR0001": {"name": "BRIDGE COMMUNITY CHURCH", "designationCode": "C", "categoryCode": "39", "address": "BOX 56112                     VALLEY CENTRE RPO", "city": "LANGLEY", "province": "BC", "country": "CA", "postalCode": "V3A8B3", "twitter": "None", "instagram": "None", "facebook": "None", "youtube": "None", "website": "None", "summary": "None", "logo": "None", "latitude": 49.10435700000005, "longitude": -122.65652149999994}, "898138797RR0001": {"name": "BRIDGE INTERNATIONAL CHURCH", "designationCode": "C", "categoryCode": "31", "address": "3545-32ND AVE NE              BOX 843", "city": "CALGARY", "province": "AB", "country": "CA", "postalCode": "T1Y6M6", "twitter": "None", "instagram": "None", "facebook": "None", "youtube": "None", "website": "None", "summary": "None", "logo": "None", "latitude": 51.081398510098886, "longitude": -113.98430255395505}, "865285241RR0001": {"name": "BRIDGE LAKE COMMUNITY SCHOOL SOCIETY", "designationCode": "C", "categoryCode": "56", "address": "BOX 35", "city": "BRIDGE LAKE", "province": "BC", "country": "CA", "postalCode": "V0K1E0", "twitter": "None", "instagram": "None", "facebook": "None", "youtube": "None", "website": "None", "summary": "None", "logo": "None", "latitude": 49.56372450000002, "longitude": -121.42956825}, "878961218RR0001": {"name": "BRIDGE MINISTRY INTERNATIONAL INC.", "designationCode": "C", "categoryCode": "49", "address": "2410 HAULTAIN AVE", "city": "SASKATOON", "province": "SK", "country": "CA", "postalCode": "S7J1R3", "twitter": "None", "instagram": "None", "facebook": "None", "youtube": "None", "website": "None", "summary": "None", "logo": "None", "latitude": 52.09951443435862, "longitude": -106.6430160396439}, "862406576RR0001": {"name": "BRIDGE OF HOPE MINISTRIES INTERNATIONAL", "designationCode": "C", "categoryCode": "01", "address": "3322 HAWKES BLVD", "city": "DUNCAN", "province": "BC", "country": "CA", "postalCode": "V9L4T2", "twitter": "None", "instagram": "None", "facebook": "None", "youtube": "None", "website": "None", "summary": "None", "logo": "None", "latitude": 48.79900149567218, "longitude": -123.73753049999999}, "118817725RR0001": {"name": "BRIDGE STREET UNITED CHURCH", "designationCode": "C", "categoryCode": "44", "address": "60 BRIDGE ST.E.", "city": "BELLEVILLE", "province": "ON", "country": "CA", "postalCode": "K8N1L7", "twitter": "None", "instagram": "None", "facebook": "None", "youtube": "None", "website": "None", "summary": "None", "logo": "None", "latitude": 44.16425918016021, "longitude": -77.3814770244387}, "118817733RR0001": {"name": "BRIDGE STREET UNITED CHURCH FOUNDATION", "designationCode": "B", "categoryCode": "43", "address": "60 BRIDGE STREET EAST", "city": "BELLEVILLE", "province": "ON", "country": "CA", "postalCode": "K8N1L7", "twitter": "None", "instagram": "None", "facebook": "None", "youtube": "None", "website": "None", "summary": "None", "logo": "None", "latitude": 44.16425918016021, "longitude": -77.3814770244387}, "895585222RR0001": {"name": "BRIDGE TO LIFE SOCIETY", "designationCode": "C", "categoryCode": "47", "address": "13180 BELL ST", "city": "MISSION", "province": "BC", "country": "CA", "postalCode": "V4S1C6", "twitter": "None", "instagram": "None", "facebook": "None", "youtube": "None", "website": "None", "summary": "None", "logo": "None", "latitude": 49.24097428574426, "longitude": -122.38005271425574}, "838593556RR0001": {"name": "BRIDGE TO SOMEWHERE", "designationCode": "C", "categoryCode": "21", "address": "1500 WEST GEORGIA STREET      SUITE 1250 BOX 62", "city": "VANCOUVER", "province": "BC", "country": "CA", "postalCode": "V6G2Z6", "twitter": "None", "instagram": "None", "facebook": "None", "youtube": "None", "website": "None", "summary": "None", "logo": "None", "latitude": 49.2900638104334, "longitude": -123.12989899362336}, "894717768RR0001": {"name": "BRIDGE'S EMPLOYMENT CORPORATION", "designationCode": "C", "categoryCode": "09", "address": "P.O. BOX 70", "city": "FORTUNE", "province": "NL", "country": "CA", "postalCode": "A0E1P0", "twitter": "None", "instagram": "None", "facebook": "None", "youtube": "None", "website": "None", "summary": "None", "logo": "None", "latitude": 47.074110000000076, "longitude": -55.82591999999994}, "899816052RR0001": {"name": "BRIDGELAND DAYCARE AND AFTER SCHOOL PROGRAM", "designationCode": "C", "categoryCode": "01", "address": "736 MCDOUGALL COURT NE", "city": "CALGARY", "province": "AB", "country": "CA", "postalCode": "T2E2W6", "twitter": "None", "instagram": "None", "facebook": "None", "youtube": "None", "website": "None", "summary": "None", "logo": "None", "latitude": 51.04993452844943, "longitude": -114.04642726421037}, "106693047RR0005": {"name": "BRIDGELAND SEVENTH-DAY ADVENTIST CHURCH", "designationCode": "C", "categoryCode": "41", "address": "5816 HIGHWAY 2A", "city": "LACOMBE", "province": "AB", "country": "CA", "postalCode": "T4L2G5", "twitter": "None", "instagram": "None", "facebook": "None", "youtube": "None", "website": "None", "summary": "None", "logo": "None", "latitude": 52.474063600197404, "longitude": -113.71692568401835}, "890572738RR0001": {"name": "BRIDGENORTH BEAUTIFICATION COMMITTEE", "designationCode": "C", "categoryCode": "59", "address": "P.O. BOX 261", "city": "BRIDGENORTH", "province": "ON", "country": "CA", "postalCode": "K0L1H0", "twitter": "None", "instagram": "None", "facebook": "None", "youtube": "None", "website": "None", "summary": "None", "logo": "None", "latitude": 44.385020000000054, "longitude": -78.38415999999995}, "106810591RR0001": {"name": "BRIDGENORTH UNITED CHURCH", "designationCode": "C", "categoryCode": "44", "address": "832 CHARLES ST", "city": "BRIDGENORTH", "province": "ON", "country": "CA", "postalCode": "K0L1H0", "twitter": "None", "instagram": "None", "facebook": "None", "youtube": "None", "website": "None", "summary": "None", "logo": "None", "latitude": 44.37880197726341, "longitude": -78.38289562450213}, "883784589RR0001": {"name": "BRIDGEPOINT CENTER INC.", "designationCode": "C", "categoryCode": "11", "address": "BOX 190", "city": "MILDEN", "province": "SK", "country": "CA", "postalCode": "S0L2L0", "twitter": "None", "instagram": "None", "facebook": "None", "youtube": "None", "website": "None", "summary": "None", "logo": "None", "latitude": 51.53024013692807, "longitude": -107.24442881127682}, "874782014RR0001": {"name": "BRIDGEPOINT HEALTH", "designationCode": "A", "categoryCode": "59", "address": "1 BRIDGEPOINT DR", "city": "TORONTO", "province": "ON", "country": "CA", "postalCode": "M4M2B5", "twitter": "None", "instagram": "None", "facebook": "None", "youtube": "None", "website": "None", "summary": "None", "logo": "None", "latitude": 43.666738405043226, "longitude": -79.35325395267145}, "119288918RR0448": {"name": "BRIDGEPORT CONGREGATION OF JEHOVAH'S WITNESSES", "designationCode": "C", "categoryCode": "61", "address": "175 GENERAL DR", "city": "KITCHENER", "province": "ON", "country": "CA", "postalCode": "N2K3S7", "twitter": "None", "instagram": "None", "facebook": "None", "youtube": "None", "website": "None", "summary": "None", "logo": "None", "latitude": 43.47841447489747, "longitude": -80.48779030252754}, "106810609RR0001": {"name": "BRIDGEPORT UNITED CHURCH", "designationCode": "C", "categoryCode": "44", "address": "40 BRIDGE ST W", "city": "KITCHENER", "province": "ON", "country": "CA", "postalCode": "N2K1K7", "twitter": "None", "instagram": "None", "facebook": "None", "youtube": "None", "website": "None", "summary": "None", "logo": "None", "latitude": 43.483041135177956, "longitude": -80.48509470439735}, "853843324RR0001": {"name": "BRIDGES COMMUNITY HEALTH CENTRE CORPORATION", "designationCode": "C", "categoryCode": "11", "address": "1485 GARRISON ROAD", "city": "FORT ERIE", "province": "ON", "country": "CA", "postalCode": "L2A1P8", "twitter": "None", "instagram": "None", "facebook": "None", "youtube": "None", "website": "None", "summary": "None", "logo": "None", "latitude": 42.90456051615842, "longitude": -78.97133203413357}, "119076602RR0001": {"name": "BRIDGES FAMILY PROGRAMS ASSOCIATION OF SOUTHEASTERN ALBERTA", "designationCode": "C", "categoryCode": "11", "address": "477 3RD STREET SE", "city": "MEDICINE HAT", "province": "AB", "country": "CA", "postalCode": "T1A0G8", "twitter": "None", "instagram": "None", "facebook": "None", "youtube": "None", "website": "None", "summary": "None", "logo": "None", "latitude": 50.0389111157309, "longitude": -110.6779840202551}, "136019148RR0001": {"name": "BRIDGES FOR WOMEN SOCIETY", "designationCode": "C", "categoryCode": "59", "address": "1809 DOUGLAS ST", "city": "VICTORIA", "province": "BC", "country": "CA", "postalCode": "V8T4K5", "twitter": "None", "instagram": "None", "facebook": "None", "youtube": "None", "website": "None", "summary": "None", "logo": "None", "latitude": 48.430494900917516, "longitude": -123.36446180705785}, "128557899RR0001": {"name": "BRIDGES HOME CHURCH CHRISTIAN COMMUNITY OF CENTRAL VANCOUVER ISLAND", "designationCode": "C", "categoryCode": "39", "address": "72 RIVER TERRACE", "city": "NANAIMO", "province": "BC", "country": "CA", "postalCode": "V9X1E1", "twitter": "None", "instagram": "None", "facebook": "None", "youtube": "None", "website": "None", "summary": "None", "logo": "None", "latitude": 49.07353230201787, "longitude": -123.91634499224394}, "118874908RR0001": {"name": "BRIDGES OF CANADA INC.", "designationCode": "C", "categoryCode": "47", "address": "440 YORK ST", "city": "FREDERICTON", "province": "NB", "country": "CA", "postalCode": "E3B3P7", "twitter": "None", "instagram": "None", "facebook": "None", "youtube": "None", "website": "None", "summary": "None", "logo": "None", "latitude": 45.95544238911655, "longitude": -66.64960561198}, "863616843RR0001": {"name": "BRIDGES OF HOPE INTERNATIONAL NETWORK OF DEVELOPMENT AGENCIES INC.", "designationCode": "C", "categoryCode": "09", "address": "2825F-2 AVE SOUTH", "city": "LETHBRIDGE", "province": "AB", "country": "CA", "postalCode": "T1J0G8", "twitter": "None", "instagram": "None", "facebook": "None", "youtube": "None", "website": "None", "summary": "None", "logo": "None", "latitude": 49.69723998871715, "longitude": -112.8006695164001}, "847414471RR0001": {"name": "BRIDGES OF LOVE MINISTRY SOCIETY", "designationCode": "C", "categoryCode": "01", "address": "119 - 728 COUNTRY HILLS RD NW", "city": "CALGARY", "province": "AB", "country": "CA", "postalCode": "T3K5K8", "twitter": "None", "instagram": "None", "facebook": "None", "youtube": "None", "website": "None", "summary": "None", "logo": "None", "latitude": 51.14246359946657, "longitude": -114.06939968138019}, "883401507RR0001": {"name": "BRIDGES SOCIAL DEVELOPMENT", "designationCode": "C", "categoryCode": "29", "address": "2211 20 AVE SW", "city": "CALGARY", "province": "AB", "country": "CA", "postalCode": "T2T0M4", "twitter": "None", "instagram": "None", "facebook": "None", "youtube": "None", "website": "None", "summary": "None", "logo": "None", "latitude": 51.035182513994044, "longitude": -114.11194786066712}, "809339674RR0001": {"name": "BRIDGES TO COMMUNITY CANADA INC.", "designationCode": "C", "categoryCode": "09", "address": "37 MEAGHAN STREET", "city": "WATERDOWN", "province": "ON", "country": "CA", "postalCode": "L0R2H5", "twitter": "None", "instagram": "None", "facebook": "None", "youtube": "None", "website": "None", "summary": "None", "logo": "None", "latitude": 43.32865570301237, "longitude": -79.90550124467643}, "859148009RR0001": {"name": "BRIDGES TO HOPE, INC.", "designationCode": "C", "categoryCode": "09", "address": "39 COOKSTOWN ROAD", "city": "ST. JOHN'S", "province": "NL", "country": "CA", "postalCode": "A1C4G7", "twitter": "None", "instagram": "None", "facebook": "None", "youtube": "None", "website": "None", "summary": "None", "logo": "None", "latitude": 47.56350672971835, "longitude": -52.71566566586767}, "889637823RR0001": {"name": "BRIDGES TO NEW LIFE SOCIETY", "designationCode": "C", "categoryCode": "59", "address": "1197 SUTHERLAND AVENUE", "city": "KELOWNA", "province": "BC", "country": "CA", "postalCode": "V1Y5Y2", "twitter": "None", "instagram": "None", "facebook": "None", "youtube": "None", "website": "None", "summary": "None", "logo": "None", "latitude": 49.88011635845396, "longitude": -119.47415237439726}}