{"107390122RR0001": {"name": "Land O'Lakes Emmanuel Pastoral Charge", "designationCode": "C", "categoryCode": "44", "address": "108 ADDINGTON RD. 2           P.O. BOX 377", "city": "NORTHBROOK", "province": "ON", "country": "CA", "postalCode": "K0H2G0", "twitter": "None", "instagram": "None", "facebook": "None", "youtube": "None", "website": "None", "summary": "None", "logo": "None", "latitude": 44.74402911166449, "longitude": -77.1688717557614}, "830613444RR0001": {"name": "Langar Seva Meal & Support Services", "designationCode": "C", "categoryCode": "09", "address": "204 FAYWOOD BOULEVARD", "city": "NORTH YORK", "province": "ON", "country": "CA", "postalCode": "M3H6A9", "twitter": "None", "instagram": "None", "facebook": "None", "youtube": "None", "website": "None", "summary": "None", "logo": "None", "latitude": 43.74705179877663, "longitude": -79.44933673163467}, "829255132RR0001": {"name": "Langara College Foundation", "designationCode": "A", "categoryCode": "23", "address": "100 WEST 49TH AVENUE", "city": "VANCOUVER", "province": "BC", "country": "CA", "postalCode": "V5Y2Z6", "twitter": "None", "instagram": "None", "facebook": "None", "youtube": "None", "website": "None", "summary": "None", "logo": "None", "latitude": 49.225720971118605, "longitude": -123.10847975270815}, "119288918RR1658": {"name": "Langara Congregation of Jehovah's Witnesses", "designationCode": "C", "categoryCode": "61", "address": "7725 CAMBIE ST", "city": "VANCOUVER", "province": "BC", "country": "CA", "postalCode": "V6P3H9", "twitter": "None", "instagram": "None", "facebook": "None", "youtube": "None", "website": "None", "summary": "None", "logo": "None", "latitude": 49.21479936663974, "longitude": -123.11710249448873}, "119288918RR1604": {"name": "Langara Tagalog Congregation of Jehovah's Witnesses, Vancouver, British Columbia", "designationCode": "C", "categoryCode": "61", "address": "7725 CAMBIE STREET", "city": "VANCOUVER", "province": "BC", "country": "CA", "postalCode": "V6P3H9", "twitter": "None", "instagram": "None", "facebook": "None", "youtube": "None", "website": "None", "summary": "None", "logo": "None", "latitude": 49.21479936663974, "longitude": -123.11710249448873}, "832496590RR0001": {"name": "Langdon Recreation Centre", "designationCode": "C", "categoryCode": "56", "address": "711 BOULDER CREEK DRIVE", "city": "LANGDON", "province": "AB", "country": "CA", "postalCode": "T0J1X3", "twitter": "None", "instagram": "None", "facebook": "None", "youtube": "None", "website": "None", "summary": "None", "logo": "None", "latitude": 50.961098409111834, "longitude": -113.6613882332508}, "821866993RR0001": {"name": "Langenburg and District School Project Inc.", "designationCode": "A", "categoryCode": "23", "address": "PO BOX 1014", "city": "LANGENBURG", "province": "SK", "country": "CA", "postalCode": "S0A2A0", "twitter": "None", "instagram": "None", "facebook": "None", "youtube": "None", "website": "None", "summary": "None", "logo": "None", "latitude": 50.84159000000005, "longitude": -101.69833999999997}, "810711366RR0001": {"name": "Langham Care Home, Inc.", "designationCode": "C", "categoryCode": "09", "address": "140 MAIN STREET", "city": "LANGHAM", "province": "SK", "country": "CA", "postalCode": "S0K2L0", "twitter": "None", "instagram": "None", "facebook": "None", "youtube": "None", "website": "None", "summary": "None", "logo": "None", "latitude": 52.36079947986681, "longitude": -106.96670715463418}, "834429243RR0001": {"name": "Langley Community Support Groups Society", "designationCode": "C", "categoryCode": "11", "address": "9355 206A STREET", "city": "LANGLEY", "province": "BC", "country": "CA", "postalCode": "V1M2W6", "twitter": "None", "instagram": "None", "facebook": "None", "youtube": "None", "website": "None", "summary": "None", "logo": "None", "latitude": 49.17286709908249, "longitude": -122.65011426524865}, "139752414RR0001": {"name": "Langley Memorial Hospital Auxiliary", "designationCode": "C", "categoryCode": "15", "address": "22051 FRASER HWY", "city": "LANGLEY", "province": "BC", "country": "CA", "postalCode": "V3A4H4", "twitter": "None", "instagram": "None", "facebook": "None", "youtube": "None", "website": "None", "summary": "None", "logo": "None", "latitude": 49.09307611422942, "longitude": -122.61340581810903}, "119005395RR0001": {"name": "Langley Parks and Recreation Foundation", "designationCode": "A", "categoryCode": "53", "address": "20338-65 AVENUE", "city": "LANGLEY", "province": "BC", "country": "CA", "postalCode": "V2Y3J1", "twitter": "None", "instagram": "None", "facebook": "None", "youtube": "None", "website": "None", "summary": "None", "logo": "None", "latitude": 49.120646481245466, "longitude": -122.65880374854291}, "805893468RR0001": {"name": "Langley Pos-Abilities Society", "designationCode": "C", "categoryCode": "11", "address": "80-2270 196 STREET", "city": "LANGLEY", "province": "BC", "country": "CA", "postalCode": "V2Z1N6", "twitter": "None", "instagram": "None", "facebook": "None", "youtube": "None", "website": "None", "summary": "None", "logo": "None", "latitude": 49.043105999999995, "longitude": -122.68026854879143}, "842567133RR0001": {"name": "Langley Rotary Clubs Charitable Foundation", "designationCode": "A", "categoryCode": "63", "address": "315 - 20465 DOUGLAS CRES", "city": "LANGLEY", "province": "BC", "country": "CA", "postalCode": "V3A4B6", "twitter": "None", "instagram": "None", "facebook": "None", "youtube": "None", "website": "None", "summary": "None", "logo": "None", "latitude": 49.103436247074846, "longitude": -122.65502406527872}, "130565963RR0028": {"name": "Langley Vietnamese Alliance Church", "designationCode": "C", "categoryCode": "39", "address": "7640 200TH STREET", "city": "LANGLEY", "province": "BC", "country": "CA", "postalCode": "V2Y1S4", "twitter": "None", "instagram": "None", "facebook": "None", "youtube": "None", "website": "None", "summary": "None", "logo": "None", "latitude": 49.140945000000016, "longitude": -122.66823050608818}, "844311597RR0001": {"name": "Langs Community Development Corporation", "designationCode": "C", "categoryCode": "59", "address": "1145 CONCESSION RD", "city": "CAMBRIDGE", "province": "ON", "country": "CA", "postalCode": "N3H4L5", "twitter": "None", "instagram": "None", "facebook": "None", "youtube": "None", "website": "None", "summary": "None", "logo": "None", "latitude": 43.396713145997985, "longitude": -80.34480731259777}, "863449963RR0001": {"name": "Lao Buddhist Temple Of Toronto", "designationCode": "C", "categoryCode": "36", "address": "428-1200 MARKHAM ROAD", "city": "SCARBOROUGH", "province": "ON", "country": "CA", "postalCode": "M1H3C3", "twitter": "None", "instagram": "None", "facebook": "None", "youtube": "None", "website": "None", "summary": "None", "logo": "None", "latitude": 43.77665010629583, "longitude": -79.23186416307908}, "898256177RR0001": {"name": "Lao Ministries for Christ-Canada", "designationCode": "A", "categoryCode": "43", "address": "84 CHARTWELL CIR", "city": "HAMILTON", "province": "ON", "country": "CA", "postalCode": "L9A0C4", "twitter": "None", "instagram": "None", "facebook": "None", "youtube": "None", "website": "None", "summary": "None", "logo": "None", "latitude": 43.21639529216052, "longitude": -79.88421062303297}, "829599505RR0001": {"name": "Larkspur Foundation", "designationCode": "B", "categoryCode": "03", "address": "6574 MAPLE STREET", "city": "VANCOUVER", "province": "BC", "country": "CA", "postalCode": "V6P5P2", "twitter": "None", "instagram": "None", "facebook": "None", "youtube": "None", "website": "None", "summary": "None", "logo": "None", "latitude": 49.2262726275319, "longitude": -123.15232810765215}, "820229466RR0001": {"name": "Laronde Elementary Parent Advisory Council", "designationCode": "C", "categoryCode": "21", "address": "1880 LARONDE DRIVE", "city": "SURREY", "province": "BC", "country": "CA", "postalCode": "V4A9S4", "twitter": "None", "instagram": "None", "facebook": "None", "youtube": "None", "website": "None", "summary": "None", "logo": "None", "latitude": 49.03613484595194, "longitude": -122.85889669954993}, "820689594RR0001": {"name": "Larry Telling Foundation", "designationCode": "B", "categoryCode": "03", "address": "905 32 S AVE", "city": "CRESTON", "province": "BC", "country": "CA", "postalCode": "V0B1G1", "twitter": "None", "instagram": "None", "facebook": "None", "youtube": "None", "website": "None", "summary": "None", "logo": "None", "latitude": 49.084649026625925, "longitude": -116.47750398159909}, "835493669RR0001": {"name": "Lasalette Area Rural Roots Community Hall", "designationCode": "C", "categoryCode": "56", "address": "94 LASALETTE RD", "city": "LASALETTE", "province": "ON", "country": "CA", "postalCode": "N0E1H0", "twitter": "None", "instagram": "None", "facebook": "None", "youtube": "None", "website": "None", "summary": "None", "logo": "None", "latitude": 42.9021317176989, "longitude": -80.50356661197999}, "848485595RR0001": {"name": "Lasqueti Island Nature Conservancy", "designationCode": "C", "categoryCode": "52", "address": "11 MAIN ROAD                  GENERAL DELIVERY", "city": "LASQUETI ISLAND", "province": "BC", "country": "CA", "postalCode": "V0R2J0", "twitter": "None", "instagram": "None", "facebook": "None", "youtube": "None", "website": "None", "summary": "None", "logo": "None", "latitude": 49.491924000000054, "longitude": -124.34609149999994}, "866209711RR0001": {"name": "Last Chance Horse and Pony Rescue and Sanctuary", "designationCode": "C", "categoryCode": "54", "address": "4269 MICHENER ROAD", "city": "RIDGEWAY", "province": "ON", "country": "CA", "postalCode": "L0S1N0", "twitter": "None", "instagram": "None", "facebook": "None", "youtube": "None", "website": "None", "summary": "None", "logo": "None", "latitude": 42.874539504472985, "longitude": -79.07383061365341}, "841481013RR0001": {"name": "Last Days Pentecostal Ministries", "designationCode": "C", "categoryCode": "39", "address": "20 - 1181 FINCH AVE W", "city": "NORTH YORK", "province": "ON", "country": "CA", "postalCode": "M3J2V8", "twitter": "None", "instagram": "None", "facebook": "None", "youtube": "None", "website": "None", "summary": "None", "logo": "None", "latitude": 43.764423902088836, "longitude": -79.48682251720832}, "814054102RR0001": {"name": "Last Harvest Evangelistic Association", "designationCode": "C", "categoryCode": "39", "address": "316, 9945-167 STREET NORTH WES", "city": "EDMONTON", "province": "AB", "country": "CA", "postalCode": "T5P0K5", "twitter": "None", "instagram": "None", "facebook": "None", "youtube": "None", "website": "None", "summary": "None", "logo": "None", "latitude": 53.53861200000006, "longitude": -113.60957299999993}, "701614927RR0001": {"name": "Last Prophet Charitable Foundation", "designationCode": "C", "categoryCode": "60", "address": "7085 CH DE LA COTE-DES-NEIGES", "city": "MONTREAL", "province": "QC", "country": "CA", "postalCode": "H3R2M1", "twitter": "None", "instagram": "None", "facebook": "None", "youtube": "None", "website": "None", "summary": "None", "logo": "None", "latitude": 45.50478521818891, "longitude": -73.64051119147118}, "842137812RR0001": {"name": "Lasting M.A.G.I.C (Memories are Gifts in Children) Society", "designationCode": "C", "categoryCode": "09", "address": "12433 BARNES DRIVE", "city": "RICHMOND", "province": "BC", "country": "CA", "postalCode": "V6V1H7", "twitter": "None", "instagram": "None", "facebook": "None", "youtube": "None", "website": "None", "summary": "None", "logo": "None", "latitude": 49.18966151543635, "longitude": -123.08598123434733}, "804717130RR0001": {"name": "Latino Canadian Scholarship Fund", "designationCode": "B", "categoryCode": "21", "address": "1408-1455 LAWRENCE AVENUE WEST", "city": "TORONTO", "province": "ON", "country": "CA", "postalCode": "M6L1B1", "twitter": "None", "instagram": "None", "facebook": "None", "youtube": "None", "website": "None", "summary": "None", "logo": "None", "latitude": 43.70807081204951, "longitude": -79.47979464495971}, "824337091RR0001": {"name": "Latitudes Storytelling Festival", "designationCode": "C", "categoryCode": "22", "address": "200 RITTENHOUSE ROAD", "city": "KITCHENER", "province": "ON", "country": "CA", "postalCode": "N2E2R7", "twitter": "None", "instagram": "None", "facebook": "None", "youtube": "None", "website": "None", "summary": "None", "logo": "None", "latitude": 43.409515493219324, "longitude": -80.48558105398465}, "802868372RR0001": {"name": "Laubach literacy Pictou County Council", "designationCode": "C", "categoryCode": "21", "address": "PO BOX 1600", "city": "STELLARTON", "province": "NS", "country": "CA", "postalCode": "B0K1S0", "twitter": "None", "instagram": "None", "facebook": "None", "youtube": "None", "website": "None", "summary": "None", "logo": "None"}, "834277980RR0001": {"name": "Laugh for Life Foundation of Canada", "designationCode": "A", "categoryCode": "03", "address": "PO BOX 38062 RPO CAPILANO", "city": "EDMONTON", "province": "AB", "country": "CA", "postalCode": "T6A3Y6", "twitter": "None", "instagram": "None", "facebook": "None", "youtube": "None", "website": "None", "summary": "None", "logo": "None", "latitude": 53.55443349205362, "longitude": -113.43801968520823}, "805891264RR0001": {"name": "Launch Community Development Foundation", "designationCode": "C", "categoryCode": "09", "address": "PO BOX 25017 RPO MISSION PARK", "city": "KELOWNA", "province": "BC", "country": "CA", "postalCode": "V1W3Y7", "twitter": "None", "instagram": "None", "facebook": "None", "youtube": "None", "website": "None", "summary": "None", "logo": "None", "latitude": 49.82063000000005, "longitude": -119.47531999999995}, "855662094RR0001": {"name": "Laura L\u00e9merveil", "designationCode": "C", "categoryCode": "11", "address": "CASIER POSTAL 8852            SUCCURSALE STE-FOY", "city": "QU\u00c9BEC", "province": "QC", "country": "CA", "postalCode": "G1V4N7", "twitter": "None", "instagram": "None", "facebook": "None", "youtube": "None", "website": "None", "summary": "None", "logo": "None", "latitude": 46.77846900000006, "longitude": -71.29340449999994}, "830600938RR0001": {"name": "Laurel Gospel Hall", "designationCode": "C", "categoryCode": "45", "address": "48 NEWBURY CRESCENT", "city": "BRAMPTON", "province": "ON", "country": "CA", "postalCode": "L6S5L6", "twitter": "None", "instagram": "None", "facebook": "None", "youtube": "None", "website": "None", "summary": "None", "logo": "None", "latitude": 43.73260958479998, "longitude": -79.75473378279204}, "119288918RR0983": {"name": "Laurier Heights Congregation of Jehovah's Witnesses, Edmonton, Alberta", "designationCode": "C", "categoryCode": "61", "address": "9225 155 STREET SW", "city": "EDMONTON", "province": "AB", "country": "CA", "postalCode": "T6C3W6", "twitter": "None", "instagram": "None", "facebook": "None", "youtube": "None", "website": "None", "summary": "None", "logo": "None", "latitude": 53.51021661753293, "longitude": -113.58891}, "807445960RR0001": {"name": "Law Cranberry Christian Foundation", "designationCode": "B", "categoryCode": "03", "address": "85 SCARSDALE ROAD, SUITE 306", "city": "NORTH YORK", "province": "ON", "country": "CA", "postalCode": "M3B2R2", "twitter": "None", "instagram": "None", "facebook": "None", "youtube": "None", "website": "None", "summary": "None", "logo": "None", "latitude": 43.750398089387616, "longitude": -79.35509030105658}, "847957834RR0001": {"name": "Lawton Partners Charitable Giving Foundation Inc.", "designationCode": "B", "categoryCode": "03", "address": "305 BROADWAY                  10TH FLOOR", "city": "WINNIPEG", "province": "MB", "country": "CA", "postalCode": "R3C3J7", "twitter": "None", "instagram": "None", "facebook": "None", "youtube": "None", "website": "None", "summary": "None", "logo": "None", "latitude": 49.887785209013664, "longitude": -97.14005744783303}, "777096124RR0001": {"name": "Lay-Up Youth Basketball", "designationCode": "C", "categoryCode": "09", "address": "720 BATHURST ST", "city": "TORONTO", "province": "ON", "country": "CA", "postalCode": "M5S2R4", "twitter": "None", "instagram": "None", "facebook": "None", "youtube": "None", "website": "None", "summary": "None", "logo": "None", "latitude": 43.66323143574358, "longitude": -79.41047606191914}, "132537598RR0001": {"name": "Le centre de formation du Nipissing", "designationCode": "C", "categoryCode": "21", "address": "630 RUE CASSELLS", "city": "NORTH BAY", "province": "ON", "country": "CA", "postalCode": "P1B4A2", "twitter": "None", "instagram": "None", "facebook": "None", "youtube": "None", "website": "None", "summary": "None", "logo": "None", "latitude": 46.315102378036684, "longitude": -79.46271113018628}, "131936130RR0001": {"name": "Le centre de la petite enfance Fleurimont inc.", "designationCode": "C", "categoryCode": "01", "address": "55 RUE BRUNO-DANDENAULT", "city": "SHERBROOKE", "province": "QC", "country": "CA", "postalCode": "J1G2J2", "twitter": "None", "instagram": "None", "facebook": "None", "youtube": "None", "website": "None", "summary": "None", "logo": "None", "latitude": 45.40519869219235, "longitude": -71.8827179489582}, "894956762RR0002": {"name": "Le centre de sant\u00e9 communautaire du T\u00e9miskaming", "designationCode": "C", "categoryCode": "11", "address": "20, RUE MAY SUD", "city": "NEW LISKEARD", "province": "ON", "country": "CA", "postalCode": "P0J1P0", "twitter": "None", "instagram": "None", "facebook": "None", "youtube": "None", "website": "None", "summary": "None", "logo": "None", "latitude": 47.50806784002885, "longitude": -79.67016720800883}, "810124495RR0001": {"name": "Le centre Chabad ville St-Laurent", "designationCode": "B", "categoryCode": "42", "address": "6247, AV. DE VIMY", "city": "MONTREAL", "province": "QC", "country": "CA", "postalCode": "H3S2R4", "twitter": "None", "instagram": "None", "facebook": "None", "youtube": "None", "website": "None", "summary": "None", "logo": "None", "latitude": 45.514003042760564, "longitude": -73.62197022618166}, "827574351RR0001": {"name": "Le club de l'\u00e2ge d'or d'Entrelacs inc.", "designationCode": "C", "categoryCode": "09", "address": "2680 CH D'ENTRELACS", "city": "ENTRELACS", "province": "QC", "country": "CA", "postalCode": "J0T2E0", "twitter": "None", "instagram": "None", "facebook": "None", "youtube": "None", "website": "None", "summary": "None", "logo": "None", "latitude": 46.114457587252815, "longitude": -73.99913633481478}, "820645844RR0001": {"name": "Le comit\u00e9 du monument Georges-Forest Inc.", "designationCode": "C", "categoryCode": "59", "address": "PO BOX 596", "city": "LA SALLE", "province": "MB", "country": "CA", "postalCode": "R0G1B0", "twitter": "None", "instagram": "None", "facebook": "None", "youtube": "None", "website": "None", "summary": "None", "logo": "None", "latitude": 49.69362000000007, "longitude": -97.26464999999996}, "836022145RR0001": {"name": "Le concours de musique du Qu\u00e9bec inc.", "designationCode": "C", "categoryCode": "22", "address": "69 RUE SHERBROOKE O", "city": "MONTREAL", "province": "QC", "country": "CA", "postalCode": "H2X1X2", "twitter": "None", "instagram": "None", "facebook": "None", "youtube": "None", "website": "None", "summary": "None", "logo": "None", "latitude": 45.511618336949574, "longitude": -73.5698855032313}, "859447419RR0001": {"name": "Le grenier des collines", "designationCode": "C", "categoryCode": "09", "address": "401-34 CHEMIN DE L'\u00c9GLISE", "city": "VAL DES MONTS", "province": "QC", "country": "CA", "postalCode": "J8N2A1", "twitter": "None", "instagram": "None", "facebook": "None", "youtube": "None", "website": "None", "summary": "None", "logo": "None", "latitude": 45.684906527064435, "longitude": -75.72082581415565}, "843819731RR0001": {"name": "Le march\u00e9 boursier des \u00e9tudiants / Student Stock Exchange", "designationCode": "C", "categoryCode": "21", "address": "207 BANK STREET               SUITE 245", "city": "OTTAWA", "province": "ON", "country": "CA", "postalCode": "K2P2N2", "twitter": "None", "instagram": "None", "facebook": "None", "youtube": "None", "website": "None", "summary": "None", "logo": "None", "latitude": 45.41747337053488, "longitude": -75.69814690380306}, "816690093RR0001": {"name": "Le monde \u00e0 venir (MAV)", "designationCode": "C", "categoryCode": "47", "address": "3844, RUE MARQUETTE", "city": "LAVAL", "province": "QC", "country": "CA", "postalCode": "H7P1S4", "twitter": "None", "instagram": "None", "facebook": "None", "youtube": "None", "website": "None", "summary": "None", "logo": "None", "latitude": 45.57297193559935, "longitude": -73.81986784664443}, "892255241RR0001": {"name": "Le mus\u00e9e de St. Isidore inc.", "designationCode": "C", "categoryCode": "50", "address": "3942, BOULEVARD DES FONDATEURS", "city": "ST ISIDORE", "province": "NB", "country": "CA", "postalCode": "E8M1C2", "twitter": "None", "instagram": "None", "facebook": "None", "youtube": "None", "website": "None", "summary": "None", "logo": "None", "latitude": 47.553375845951926, "longitude": -65.05381747654225}, "860414804RR0001": {"name": "Le mus\u00e9e de Vanier-Vanier Museum", "designationCode": "C", "categoryCode": "50", "address": "300,AVENUE DES P\u00c8RES-BLANCS", "city": "OTTAWA", "province": "ON", "country": "CA", "postalCode": "K1L7L5", "twitter": "None", "instagram": "None", "facebook": "None", "youtube": "None", "website": "None", "summary": "None", "logo": "None", "latitude": 45.44375966778229, "longitude": -75.6607163076921}, "751203290RR0001": {"name": "Le passage de l'aurore", "designationCode": "C", "categoryCode": "11", "address": "920 8E-ET-9E RANG E", "city": "PALMAROLLE", "province": "QC", "country": "CA", "postalCode": "J0Z3C0", "twitter": "None", "instagram": "None", "facebook": "None", "youtube": "None", "website": "None", "summary": "None", "logo": "None", "latitude": 48.69034854227055, "longitude": -79.17759080682671}, "897652921RR0001": {"name": "Le petit th\u00e9\u00e2tre du Nord", "designationCode": "C", "categoryCode": "22", "address": "757, RUE CHABANEL", "city": "BOISBRIAND", "province": "QC", "country": "CA", "postalCode": "J7G1V2", "twitter": "None", "instagram": "None", "facebook": "None", "youtube": "None", "website": "None", "summary": "None", "logo": "None", "latitude": 45.609429744247485, "longitude": -73.84037849900594}, "130199599RR0001": {"name": "Le pont de Rouyn-Noranda inc.", "designationCode": "C", "categoryCode": "11", "address": "70, RUE GAMBLE OUEST", "city": "ROUYN-NORANDA", "province": "QC", "country": "CA", "postalCode": "J9X2R4", "twitter": "None", "instagram": "None", "facebook": "None", "youtube": "None", "website": "None", "summary": "None", "logo": "None", "latitude": 48.23994352596792, "longitude": -79.0220517485429}, "802173401RR0001": {"name": "Le projet mercy / The Mercy Project", "designationCode": "C", "categoryCode": "13", "address": "H-711, 1455 MAISONNNEUVE OUEST", "city": "MONTREAL", "province": "QC", "country": "CA", "postalCode": "H3G1M8", "twitter": "None", "instagram": "None", "facebook": "None", "youtube": "None", "website": "None", "summary": "None", "logo": "None", "latitude": 45.496936779098455, "longitude": -73.57860649056494}, "807748934RR0001": {"name": "Le r\u00e9seau qu\u00e9b\u00e9cois en innovation sociale", "designationCode": "C", "categoryCode": "21", "address": "CP 8888 SUCC CENTRE VILLE", "city": "MONTREAL", "province": "QC", "country": "CA", "postalCode": "H3C3P8", "twitter": "None", "instagram": "None", "facebook": "None", "youtube": "None", "website": "None", "summary": "None", "logo": "None", "latitude": 45.50013000000007, "longitude": -73.57315999999997}, "856891221RR0001": {"name": "Le rocher spirituel", "designationCode": "C", "categoryCode": "09", "address": "216, RUE DE LA NORMANDIE", "city": "CHICOUTIMI", "province": "QC", "country": "CA", "postalCode": "G7H3G1", "twitter": "None", "instagram": "None", "facebook": "None", "youtube": "None", "website": "None", "summary": "None", "logo": "None", "latitude": 48.42684046018229, "longitude": -71.02234640010946}, "875389504RR0001": {"name": "Le temps d'une pause, r\u00e9pit et soutient aux ain\u00e9s", "designationCode": "C", "categoryCode": "01", "address": "7400, BOULEVARD ST-MICHEL", "city": "MONTREAL", "province": "QC", "country": "CA", "postalCode": "H2A2Z8", "twitter": "None", "instagram": "None", "facebook": "None", "youtube": "None", "website": "None", "summary": "None", "logo": "None", "latitude": 45.56000069741515, "longitude": -73.60120548104297}, "887802130RR0001": {"name": "Le vent dans les lettres inc.", "designationCode": "C", "categoryCode": "21", "address": "365 BOULEVARD GREBER          PIECE 107", "city": "GATINEAU", "province": "QC", "country": "CA", "postalCode": "J8T5R3", "twitter": "None", "instagram": "None", "facebook": "None", "youtube": "None", "website": "None", "summary": "None", "logo": "None", "latitude": 45.479854078827366, "longitude": -75.70117229900777}, "859123267RR0001": {"name": "Le versant, r\u00e9seau d'entraide pour les personnes souffrant de troubles anxieux", "designationCode": "C", "categoryCode": "11", "address": "60 RUE DE L'EGLISE", "city": "VAUDREUIL-DORION", "province": "QC", "country": "CA", "postalCode": "J7V1W4", "twitter": "None", "instagram": "None", "facebook": "None", "youtube": "None", "website": "None", "summary": "None", "logo": "None", "latitude": 45.386684245628715, "longitude": -74.00834689869582}, "848885463RR0001": {"name": "Le violon de grand-m\u00e8re", "designationCode": "C", "categoryCode": "22", "address": "36 - 10000 BOUL SAINT-LAURENT", "city": "MONTREAL", "province": "QC", "country": "CA", "postalCode": "H3L2N7", "twitter": "None", "instagram": "None", "facebook": "None", "youtube": "None", "website": "None", "summary": "None", "logo": "None", "latitude": 45.54739110794063, "longitude": -73.661331838623}, "830116299RR0001": {"name": "Le z\u00e8bre rouge", "designationCode": "C", "categoryCode": "09", "address": "410 AV SAINT-CHARLES", "city": "VAUDREUIL-DORION", "province": "QC", "country": "CA", "postalCode": "J7V2M6", "twitter": "None", "instagram": "None", "facebook": "None", "youtube": "None", "website": "None", "summary": "None", "logo": "None", "latitude": 45.39692784901037, "longitude": -74.02491353929811}, "872228119RR0001": {"name": "Le Ballet de Qu\u00e9bec", "designationCode": "C", "categoryCode": "22", "address": "108-1415 RUE FRANK-CARREL", "city": "QUEBEC", "province": "QC", "country": "CA", "postalCode": "G1N4N7", "twitter": "None", "instagram": "None", "facebook": "None", "youtube": "None", "website": "None", "summary": "None", "logo": "None", "latitude": 46.79725985452162, "longitude": -71.26072790766953}, "827547894RR0001": {"name": "Le Beaulieu Culturel du T\u00e9miscouata", "designationCode": "C", "categoryCode": "50", "address": "861 RUE COMMERCIALE   NORD", "city": "TEMISCOUATA-SUR -LE-LAC", "province": "QC", "country": "CA", "postalCode": "G0L1E0", "twitter": "None", "instagram": "None", "facebook": "None", "youtube": "None", "website": "None", "summary": "None", "logo": "None", "latitude": 47.68351650678067, "longitude": -68.88324163627445}, "842761371RR0001": {"name": "Le Book Humanitaire", "designationCode": "C", "categoryCode": "09", "address": "181 RUE BRIERE", "city": "SAINT-JEROME", "province": "QC", "country": "CA", "postalCode": "J7Y3A7", "twitter": "None", "instagram": "None", "facebook": "None", "youtube": "None", "website": "None", "summary": "None", "logo": "None", "latitude": 45.77214757311457, "longitude": -74.0113561247046}, "131248593RR0001": {"name": "Le Carrousel international du film de Rimouski inc.", "designationCode": "C", "categoryCode": "22", "address": "204 - 133 RUE JULIEN-REHEL", "city": "RIMOUSKI", "province": "QC", "country": "CA", "postalCode": "G5L9B1", "twitter": "None", "instagram": "None", "facebook": "None", "youtube": "None", "website": "None", "summary": "None", "logo": "None", "latitude": 48.45668670439736, "longitude": -68.52126869597191}, "122269756RR0001": {"name": "Le Centre chr\u00e9tien de Mont-Laurier", "designationCode": "C", "categoryCode": "36", "address": "CP 211  SUCC BUREAU CHEF", "city": "MONT LAURIER", "province": "QC", "country": "CA", "postalCode": "J9L3N7", "twitter": "None", "instagram": "None", "facebook": "None", "youtube": "None", "website": "None", "summary": "None", "logo": "None", "latitude": 46.55214600000005, "longitude": -75.49647199999994}, "100878784RR0001": {"name": "Le Centre d'action b\u00e9n\u00e9vole des sources", "designationCode": "C", "categoryCode": "09", "address": "312 BOUL. MORIN", "city": "ASBESTOS", "province": "QC", "country": "CA", "postalCode": "J1T3B9", "twitter": "None", "instagram": "None", "facebook": "None", "youtube": "None", "website": "None", "summary": "None", "logo": "None", "latitude": 45.77317053398934, "longitude": -71.9318724637603}, "826104358RR0001": {"name": "Le Centre d'artistes Voix Visuelle", "designationCode": "C", "categoryCode": "22", "address": "262 CHEMIN MONTREAL C.P.79023", "city": "OTTAWA", "province": "ON", "country": "CA", "postalCode": "K1L1A1", "twitter": "None", "instagram": "None", "facebook": "None", "youtube": "None", "website": "None", "summary": "None", "logo": "None", "latitude": 45.43652353424913, "longitude": -75.6604135547927}, "119011104RR0001": {"name": "Le Centre de l'Amour Inc.", "designationCode": "C", "categoryCode": "49", "address": "220, ROUTE 21", "city": "PLANTAGENET", "province": "ON", "country": "CA", "postalCode": "K0B1L0", "twitter": "None", "instagram": "None", "facebook": "None", "youtube": "None", "website": "None", "summary": "None", "logo": "None", "latitude": 45.559848488487475, "longitude": -75.05957567245684}, "890451263RR0001": {"name": "Le Centre de ressources et d'action communautaire de la Petite Patrie", "designationCode": "C", "categoryCode": "09", "address": "6839, RUE DROLET", "city": "MONTREAL", "province": "QC", "country": "CA", "postalCode": "H2S2T1", "twitter": "None", "instagram": "None", "facebook": "None", "youtube": "None", "website": "None", "summary": "None", "logo": "None", "latitude": 45.5360400827225, "longitude": -73.6117596891339}, "814763926RR0001": {"name": "Le Centre de Soutien et de Services Aidants-Ain\u00e9s", "designationCode": "C", "categoryCode": "09", "address": "959 RUE DES CASCADES", "city": "SAINT-HYACINTHE", "province": "QC", "country": "CA", "postalCode": "J2S3G5", "twitter": "None", "instagram": "None", "facebook": "None", "youtube": "None", "website": "None", "summary": "None", "logo": "None", "latitude": 45.62672102524677, "longitude": -72.94253561474994}, "131058356RR0001": {"name": "Le Centre psychosocial Richelieu-Yamaska", "designationCode": "C", "categoryCode": "09", "address": "CP 637 SUCC BUREAU-CHEF", "city": "SAINT-HYACINTHE", "province": "QC", "country": "CA", "postalCode": "J2S7P5", "twitter": "None", "instagram": "None", "facebook": "None", "youtube": "None", "website": "None", "summary": "None", "logo": "None", "latitude": 45.62664000000005, "longitude": -72.94719049999993}, "817292386RR0001": {"name": "Le Centre Multi-Fonctionnel pour les Personnes Handicap\u00e9es", "designationCode": "C", "categoryCode": "09", "address": "CP 66016 CSP CTR", "city": "CHATEAUGUAY", "province": "QC", "country": "CA", "postalCode": "J6K5B7", "twitter": "None", "instagram": "None", "facebook": "None", "youtube": "None", "website": "None", "summary": "None", "logo": "None", "latitude": 45.36151800000006, "longitude": -73.75070149999993}, "821179199RR0001": {"name": "Le Chemin - Maniwaki", "designationCode": "C", "categoryCode": "39", "address": "PO BOX 314", "city": "MANIWAKI", "province": "QC", "country": "CA", "postalCode": "J9E3C9", "twitter": "None", "instagram": "None", "facebook": "None", "youtube": "None", "website": "None", "summary": "None", "logo": "None", "latitude": 46.37495400000006, "longitude": -75.98156299999994}, "854745502RR0001": {"name": "Le Choeur du Mus\u00e9e d'Art de Joliette", "designationCode": "C", "categoryCode": "22", "address": "145 RUE PERE-WILFRID-CORBEIL", "city": "JOLIETTE", "province": "QC", "country": "CA", "postalCode": "J6E4T4", "twitter": "None", "instagram": "None", "facebook": "None", "youtube": "None", "website": "None", "summary": "None", "logo": "None", "latitude": 46.02447336522611, "longitude": -73.43591792134552}, "813840246RR0001": {"name": "Le Choeur All\u00e9luia", "designationCode": "C", "categoryCode": "22", "address": "4011 RUE GILLES-D'ANJOU", "city": "QUEBEC", "province": "QC", "country": "CA", "postalCode": "G1Y1Y1", "twitter": "None", "instagram": "None", "facebook": "None", "youtube": "None", "website": "None", "summary": "None", "logo": "None", "latitude": 46.7642194565756, "longitude": -71.3592540313636}, "814995759RR0001": {"name": "Le Choeur Louisbourg Inc.", "designationCode": "C", "categoryCode": "22", "address": "635, CHEMIN DES BOUDREAU", "city": "BERTRAND", "province": "NB", "country": "CA", "postalCode": "E1W1J7", "twitter": "None", "instagram": "None", "facebook": "None", "youtube": "None", "website": "None", "summary": "None", "logo": "None", "latitude": 47.76371023919476, "longitude": -65.09509256688308}, "857285704RR0001": {"name": "Le Cirque des \u00c9toiles Memphr\u00e9magog", "designationCode": "C", "categoryCode": "22", "address": "C.P. 44", "city": "MAGOG", "province": "QC", "country": "CA", "postalCode": "J1X2B1", "twitter": "None", "instagram": "None", "facebook": "None", "youtube": "None", "website": "None", "summary": "None", "logo": "None", "latitude": 45.277449823424924, "longitude": -72.1287221808537}, "106704125RR0001": {"name": "Le Coeur \u00e0 lire", "designationCode": "C", "categoryCode": "21", "address": "177 71E RUE E", "city": "QUEBEC", "province": "QC", "country": "CA", "postalCode": "G1H1L4", "twitter": "None", "instagram": "None", "facebook": "None", "youtube": "None", "website": "None", "summary": "None", "logo": "None", "latitude": 46.85749534139296, "longitude": -71.26295256370815}, "834450330RR0001": {"name": "Le Comit\u00e9 de partage de St-Cyrille de Wendover", "designationCode": "C", "categoryCode": "09", "address": "34 RUE ST-LOUIS", "city": "ST-CYRILLE DE WENDOVER", "province": "QC", "country": "CA", "postalCode": "J1Z1S1", "twitter": "None", "instagram": "None", "facebook": "None", "youtube": "None", "website": "None", "summary": "None", "logo": "None", "latitude": 45.93298978740834, "longitude": -72.42471719871321}, "825836018RR0001": {"name": "Le Complexe Rendez-vous Inc.", "designationCode": "C", "categoryCode": "19", "address": "403 RUE MAIN", "city": "SHEDIAC", "province": "NB", "country": "CA", "postalCode": "E4P2B9", "twitter": "None", "instagram": "None", "facebook": "None", "youtube": "None", "website": "None", "summary": "None", "logo": "None", "latitude": 46.219689040431696, "longitude": -64.53812234927874}, "833156136RR0001": {"name": "Le Comptoir Alimentaire Sainte-Lucie-des-Laurentides", "designationCode": "C", "categoryCode": "09", "address": "2121 CHEMIN DES HAUTEURS", "city": "STE-LUCIE-DES-LAURENTIDES", "province": "QC", "country": "CA", "postalCode": "J0T2J0", "twitter": "None", "instagram": "None", "facebook": "None", "youtube": "None", "website": "None", "summary": "None", "logo": "None", "latitude": 46.1309815320561, "longitude": -74.18221164876793}, "896405149RR0001": {"name": "Le Conseil de Lecture de la Rive Sud/South Shore Reading Concil", "designationCode": "C", "categoryCode": "21", "address": "4-279 RUE HUBERT", "city": "LONGUEUIL", "province": "QC", "country": "CA", "postalCode": "J4V1R9", "twitter": "None", "instagram": "None", "facebook": "None", "youtube": "None", "website": "None", "summary": "None", "logo": "None", "latitude": 45.48970739327149, "longitude": -73.48863157703836}, "106969637RR0001": {"name": "Le Conseil des \u00c9glises pour la Justice et la Criminologie (CEJCQ)", "designationCode": "C", "categoryCode": "59", "address": "2715,CHEMIN DE LA C\u00d4TE SAINTE CATHERINE", "city": "MONTR\u00c9AL", "province": "QC", "country": "CA", "postalCode": "H3T1B6", "twitter": "None", "instagram": "None", "facebook": "None", "youtube": "None", "website": "None", "summary": "None", "logo": "None", "latitude": 45.50668659703366, "longitude": -73.62023772932606}, "132410671RR0481": {"name": "Le Conseil Particulier de Chicoutimi, Chicoutimi Qu\u00e9bec de La Soci\u00e9t\u00e9 de Saint-Vincent de Paul", "designationCode": "C", "categoryCode": "09", "address": "216, RUE DES OBLATS OUEST", "city": "CHICOUTIMI", "province": "QC", "country": "CA", "postalCode": "G7J2B1", "twitter": "None", "instagram": "None", "facebook": "None", "youtube": "None", "website": "None", "summary": "None", "logo": "None", "latitude": 48.41747974963943, "longitude": -71.07630275258227}, "834249237RR0001": {"name": "Le Cube, Centre international de recherche et de cr\u00e9ation en th\u00e9\u00e2tre pour l'enfance et la jeunesse", "designationCode": "C", "categoryCode": "59", "address": "2017 RUE PARTHENAIS", "city": "MONTR\u00c9AL", "province": "QC", "country": "CA", "postalCode": "H2K3T1", "twitter": "None", "instagram": "None", "facebook": "None", "youtube": "None", "website": "None", "summary": "None", "logo": "None", "latitude": 45.52993011936625, "longitude": -73.55707809420639}, "837667823RR0001": {"name": "Le Fenil du p\u00e8re", "designationCode": "C", "categoryCode": "09", "address": "2295, RUE ST-DAVID            APP. 5", "city": "JONQUI\u00c8RE", "province": "QC", "country": "CA", "postalCode": "G7X5K8", "twitter": "None", "instagram": "None", "facebook": "None", "youtube": "None", "website": "None", "summary": "None", "logo": "None", "latitude": 48.412353290582324, "longitude": -71.24574707239341}, "897992541RR0001": {"name": "Le Fonds communautaire de Trois-Rivi\u00e8res", "designationCode": "C", "categoryCode": "09", "address": "274 BUREAU", "city": "TROIS-RIVIERES", "province": "QC", "country": "CA", "postalCode": "G9A2M7", "twitter": "None", "instagram": "None", "facebook": "None", "youtube": "None", "website": "None", "summary": "None", "logo": "None", "latitude": 46.339106855415665, "longitude": -72.54450534442272}, "844360289RR0001": {"name": "Le Fonds communautaires du Clerg\u00e9 (Montr\u00e9al)", "designationCode": "C", "categoryCode": "09", "address": "1071 RUE DE LA CATHEDRALE     TRESORIER", "city": "MONTREAL", "province": "QC", "country": "CA", "postalCode": "H3B2V4", "twitter": "None", "instagram": "None", "facebook": "None", "youtube": "None", "website": "None", "summary": "None", "logo": "None", "latitude": 45.49842495504641, "longitude": -73.56775853690353}, "100877828RR0001": {"name": "Le G\u00eete de Saint-Isidore", "designationCode": "C", "categoryCode": "09", "address": "115, RUE DES MERLES", "city": "SAINT-ISIDORE", "province": "QC", "country": "CA", "postalCode": "G0S2S0", "twitter": "None", "instagram": "None", "facebook": "None", "youtube": "None", "website": "None", "summary": "None", "logo": "None", "latitude": 46.58244967635197, "longitude": -71.09495158892626}, "119012953RR0001": {"name": "Le Groupe d'entraide de la scl\u00e9rose en plaques de la banlieue ouest / West Island Multiple Sclerosis Self-Help Group", "designationCode": "C", "categoryCode": "11", "address": "3869, BOUL. DES SOURCES,      BUREAU 204", "city": "DOLLARD-DES-ORMEAUX", "province": "QC", "country": "CA", "postalCode": "H9B2A2", "twitter": "None", "instagram": "None", "facebook": "None", "youtube": "None", "website": "None", "summary": "None", "logo": "None", "latitude": 45.490733139073086, "longitude": -73.80346521201474}, "889657201RR0001": {"name": "Le Groupe Ambioterra", "designationCode": "C", "categoryCode": "52", "address": "624 RUE NOTRE-DAME            LOCAL 31", "city": "SAINT-CHRYSOSTOME", "province": "QC", "country": "CA", "postalCode": "J0S1R0", "twitter": "None", "instagram": "None", "facebook": "None", "youtube": "None", "website": "None", "summary": "None", "logo": "None", "latitude": 45.10586021120669, "longitude": -73.75624601359}, "868084666RR0001": {"name": "Le Groupe B\u00e9n\u00e9vole Sauvetage Canada Rescue (S.C.R.)/ The Volunteer Group Sauvetage Canada Rescue (S.C.R.)", "designationCode": "C", "categoryCode": "59", "address": "1178 CHEMIN PRINCIPALE", "city": "ST JOSEPH DU LAC", "province": "QC", "country": "CA", "postalCode": "J0N1M0", "twitter": "None", "instagram": "None", "facebook": "None", "youtube": "None", "website": "None", "summary": "None", "logo": "None", "latitude": 45.53555057533627, "longitude": -74.00901100002865}, "140794637RR0001": {"name": "Le Havre, groupe d'aide et d'entraide pour la personne vivant avec un probl\u00e8me de sant\u00e9 mentale", "designationCode": "C", "categoryCode": "09", "address": "184 RUE NOTRE-DAME E", "city": "THETFORD MINES", "province": "QC", "country": "CA", "postalCode": "G6G2S2", "twitter": "None", "instagram": "None", "facebook": "None", "youtube": "None", "website": "None", "summary": "None", "logo": "None", "latitude": 46.093690897570646, "longitude": -71.29745429681473}, "811988534RR0001": {"name": "Le Mimosa du Quartier", "designationCode": "C", "categoryCode": "09", "address": "100 - 260 RUE SAINT-REDEMPTEUR", "city": "GATINEAU", "province": "QC", "country": "CA", "postalCode": "J8X2T1", "twitter": "None", "instagram": "None", "facebook": "None", "youtube": "None", "website": "None", "summary": "None", "logo": "None", "latitude": 45.43523215237462, "longitude": -75.72201363624579}, "827931494RR0001": {"name": "Le Monast\u00e8re des Augustines: Lieu de m\u00e9moire habit\u00e9", "designationCode": "C", "categoryCode": "50", "address": "77 RUE DES REMPARTS", "city": "QUEBEC", "province": "QC", "country": "CA", "postalCode": "G1R0C3", "twitter": "None", "instagram": "None", "facebook": "None", "youtube": "None", "website": "None", "summary": "None", "logo": "None", "latitude": 46.81633154342441, "longitude": -71.20953425881468}, "131123325RR0001": {"name": "Le Mus\u00e9e d'Art Contemporain de Baie-Saint-Paul", "designationCode": "C", "categoryCode": "22", "address": "23 AMBROISE FAFARD", "city": "BAIE ST-PAUL", "province": "QC", "country": "CA", "postalCode": "G3Z2J3", "twitter": "None", "instagram": "None", "facebook": "None", "youtube": "None", "website": "None", "summary": "None", "logo": "None", "latitude": 47.44040029141904, "longitude": -70.50579561030654}, "828570432RR0001": {"name": "Le Mus\u00e9e des Lilas / The Lilac Museum", "designationCode": "C", "categoryCode": "50", "address": "CP 611 SUCC BUREAU-CHEF", "city": "SAINT-GEORGES", "province": "QC", "country": "CA", "postalCode": "G5Y6N1", "twitter": "None", "instagram": "None", "facebook": "None", "youtube": "None", "website": "None", "summary": "None", "logo": "None", "latitude": 46.12786800000005, "longitude": -70.64997199999993}, "829788983RR0001": {"name": "Le Mus\u00e9e des Sports de Gatineau Inc.", "designationCode": "C", "categoryCode": "50", "address": "401-230 RUE DE MORENCY", "city": "GATINEAU", "province": "QC", "country": "CA", "postalCode": "J8V2P7", "twitter": "None", "instagram": "None", "facebook": "None", "youtube": "None", "website": "None", "summary": "None", "logo": "None", "latitude": 45.49174124672525, "longitude": -75.69324272494092}, "865956981RR0001": {"name": "Le N\u00e9o", "designationCode": "C", "categoryCode": "09", "address": "950 BOUL. MOODY               BUREAU 200", "city": "TERREBONNE", "province": "QC", "country": "CA", "postalCode": "J6W3K8", "twitter": "None", "instagram": "None", "facebook": "None", "youtube": "None", "website": "None", "summary": "None", "logo": "None", "latitude": 45.69950588980903, "longitude": -73.64692180601865}}