{"890499742RR0001": {"name": "BIBLICAL MINISTRIES WORLDWIDE OF CANADA", "designationCode": "C", "categoryCode": "47", "address": "136 ACKLAM TERRACE", "city": "KANATA", "province": "ON", "country": "CA", "postalCode": "K2K2J5", "twitter": "None", "instagram": "None", "facebook": "None", "youtube": "None", "website": "None", "summary": "None", "logo": "None", "latitude": 45.34774212380964, "longitude": -75.9278915750478}, "107686388RR0001": {"name": "BIBLIOTH\u00c8QUE ET CENTRE D'INFORMATIQUE ATWATER / ATWATER LIBRARY AND COMPUTER CENTRE", "designationCode": "C", "categoryCode": "20", "address": "1200 ATWATER AVE", "city": "WESTMOUNT", "province": "QC", "country": "CA", "postalCode": "H3Z1X4", "twitter": "None", "instagram": "None", "facebook": "None", "youtube": "None", "website": "None", "summary": "None", "logo": "None", "latitude": 45.48882355952457, "longitude": -73.58404112727209}, "878987619RR0001": {"name": "BIBLIOTHEQUE BEAUDRY", "designationCode": "C", "categoryCode": "50", "address": "6884 BOUL-TEMISCAMINGUE", "city": "ROUYN-NORANDA", "province": "QC", "country": "CA", "postalCode": "J9Y1N1", "twitter": "None", "instagram": "None", "facebook": "None", "youtube": "None", "website": "None", "summary": "None", "logo": "None", "latitude": 48.11070641909515, "longitude": -79.15096361244133}, "118807916RR0001": {"name": "BIBLIOTHEQUE COMMUNAUTAIRE HEMMINGFORD-HEMMINGFORD COMMUNITY LIBRARY", "designationCode": "C", "categoryCode": "50", "address": "552 RUE GOYETTE", "city": "HEMMINGFORD", "province": "QC", "country": "CA", "postalCode": "J0L1H0", "twitter": "None", "instagram": "None", "facebook": "None", "youtube": "None", "website": "None", "summary": "None", "logo": "None", "latitude": 45.04658247071386, "longitude": -73.58143317816965}, "106792518RR0001": {"name": "BIBLIOTHEQUE DE MONTREAL-OUEST POUR LES JEUNES-MONTREAL WEST CHILDREN'S LIBRARY", "designationCode": "C", "categoryCode": "50", "address": "314 NORTHVIEW", "city": "MONTREAL WEST", "province": "QC", "country": "CA", "postalCode": "H4X1E2", "twitter": "None", "instagram": "None", "facebook": "None", "youtube": "None", "website": "None", "summary": "None", "logo": "None", "latitude": 45.45487758474267, "longitude": -73.65445306526603}, "107655409RR0001": {"name": "BIBLIOTHEQUE INTERMUNICIPALE JOLIETTE-SAINT-CHARLES BORROMEE", "designationCode": "C", "categoryCode": "50", "address": "57 ST PIERRE SUD", "city": "JOLIETTE", "province": "QC", "country": "CA", "postalCode": "J6E5Y5", "twitter": "None", "instagram": "None", "facebook": "None", "youtube": "None", "website": "None", "summary": "None", "logo": "None", "latitude": 46.019574432656505, "longitude": -73.4466317275084}, "106792575RR0001": {"name": "BIBLIOTHEQUE LENNOXVILLE LIBRARY", "designationCode": "C", "categoryCode": "50", "address": "101 RUE QUEEN", "city": "SHERBROOKE", "province": "QC", "country": "CA", "postalCode": "J1M1J7", "twitter": "None", "instagram": "None", "facebook": "None", "youtube": "None", "website": "None", "summary": "None", "logo": "None", "latitude": 45.36642504662706, "longitude": -71.85656248753517}, "867199747RR0001": {"name": "BIBLIOTHEQUE PUBLIQUE DE CLARENCE-ROCKLAND", "designationCode": "C", "categoryCode": "50", "address": "2-1525 AVENUE DU PARC", "city": "ROCKLAND", "province": "ON", "country": "CA", "postalCode": "K4K1C3", "twitter": "None", "instagram": "None", "facebook": "None", "youtube": "None", "website": "None", "summary": "None", "logo": "None", "latitude": 45.5495065290919, "longitude": -75.28740422127872}, "118945617RR0001": {"name": "BIBLIOTHEQUE PUBLIQUE DE GRAND-SAULT", "designationCode": "C", "categoryCode": "50", "address": "201-131 PLEASANT", "city": "GRAND FALLS", "province": "NB", "country": "CA", "postalCode": "E3Z1G6", "twitter": "None", "instagram": "None", "facebook": "None", "youtube": "None", "website": "None", "summary": "None", "logo": "None", "latitude": 47.04491538799137, "longitude": -67.741942627849}, "129885562RR0001": {"name": "BIBLIOTHEQUE PUBLIQUE DE MONTREAL OUEST-MONTREAL WEST PUBLIC LIBRARY", "designationCode": "C", "categoryCode": "50", "address": "45 WESTMINSTER AVE S", "city": "MONTREAL WEST", "province": "QC", "country": "CA", "postalCode": "H4X1Y6", "twitter": "None", "instagram": "None", "facebook": "None", "youtube": "None", "website": "None", "summary": "None", "logo": "None", "latitude": 45.45163250903104, "longitude": -73.64203266082873}, "108175191RR0001": {"name": "BIBLIOTHEQUE PUBLIQUE DE PETIT-ROCHER", "designationCode": "C", "categoryCode": "50", "address": "702 RUE PRINCIPALE            BUREAU 110", "city": "PETIT ROCHER", "province": "NB", "country": "CA", "postalCode": "E8J1V1", "twitter": "None", "instagram": "None", "facebook": "None", "youtube": "None", "website": "None", "summary": "None", "logo": "None", "latitude": 47.77393212261475, "longitude": -65.71558934337072}, "890672991RR0001": {"name": "BIBLIOTHEQUE PUBLIQUE LA MOISSON", "designationCode": "C", "categoryCode": "50", "address": "206 RUE CANADA", "city": "SAINT-QUENTIN", "province": "NB", "country": "CA", "postalCode": "E8A1H1", "twitter": "None", "instagram": "None", "facebook": "None", "youtube": "None", "website": "None", "summary": "None", "logo": "None", "latitude": 47.511661499999995, "longitude": -67.3921046969487}, "893142646RR0001": {"name": "BIBLIOTHEQUE PUBLIQUE MGR ROBICHAUD", "designationCode": "C", "categoryCode": "50", "address": "855 RUE PRINCIPALE            LOCAL 3", "city": "BERESFORD", "province": "NB", "country": "CA", "postalCode": "E8K1T3", "twitter": "None", "instagram": "None", "facebook": "None", "youtube": "None", "website": "None", "summary": "None", "logo": "None", "latitude": 47.700968714305404, "longitude": -65.70384848275457}, "892540568RR0001": {"name": "BIBLIOTHEQUE REGIONALE JOLYS REGIONAL LIBRARY", "designationCode": "C", "categoryCode": "50", "address": "CP 118", "city": "ST-PIERRE-JOLYS", "province": "MB", "country": "CA", "postalCode": "R0A1V0", "twitter": "None", "instagram": "None", "facebook": "None", "youtube": "None", "website": "None", "summary": "None", "logo": "None", "latitude": 49.44079000000005, "longitude": -96.98512999999997}, "131724254RR0001": {"name": "BIBLIOTHEQUE SAINT-CLAUDE LIBRARY", "designationCode": "C", "categoryCode": "50", "address": "CP/PO # 203 50 FIRST STREET", "city": "ST CLAUDE", "province": "MB", "country": "CA", "postalCode": "R0G1Z0", "twitter": "None", "instagram": "None", "facebook": "None", "youtube": "None", "website": "None", "summary": "None", "logo": "None", "latitude": 49.265581957002276, "longitude": -97.34417608842928}, "134082023RR0001": {"name": "BIBLIOTHEQUE STE ANNE LIBRARY INC", "designationCode": "C", "categoryCode": "50", "address": "16 RUE DE L'EGLISE", "city": "STE ANNE", "province": "MB", "country": "CA", "postalCode": "R5H1H8", "twitter": "None", "instagram": "None", "facebook": "None", "youtube": "None", "website": "None", "summary": "None", "logo": "None", "latitude": 49.66950316171594, "longitude": -96.64551837013155}, "118807973RR0001": {"name": "BIBLIOTHEQUE SUTTON INC./SUTTON LIBRARY INC.", "designationCode": "C", "categoryCode": "50", "address": "7 ACADEMY", "city": "SUTTON", "province": "QC", "country": "CA", "postalCode": "J0E2K0", "twitter": "None", "instagram": "None", "facebook": "None", "youtube": "None", "website": "None", "summary": "None", "logo": "None", "latitude": 45.108830632494886, "longitude": -72.61548128931291}, "132193483RR0001": {"name": "BIC Canada - Global", "designationCode": "C", "categoryCode": "47", "address": "2700 BRISTOL CIRCLE", "city": "OAKVILLE", "province": "ON", "country": "CA", "postalCode": "L6H6E1", "twitter": "None", "instagram": "None", "facebook": "None", "youtube": "None", "website": "None", "summary": "None", "logo": "None", "latitude": 43.51060032973621, "longitude": -79.68617233192924}, "118808013RR0001": {"name": "BICKELL INCORPORATED CAMP", "designationCode": "C", "categoryCode": "56", "address": "P.O. BOX 974", "city": "SCHUMACHER", "province": "ON", "country": "CA", "postalCode": "P0N1G0", "twitter": "None", "instagram": "None", "facebook": "None", "youtube": "None", "website": "None", "summary": "None", "logo": "None", "latitude": 48.477042665132416, "longitude": -81.29837988953307}, "132058884RR0001": {"name": "BICKERTON COMMUNITY CENTRE CLUB", "designationCode": "C", "categoryCode": "56", "address": "P.O. BOX 127", "city": "BICKERTON WEST", "province": "NS", "country": "CA", "postalCode": "B0J1A0", "twitter": "None", "instagram": "None", "facebook": "None", "youtube": "None", "website": "None", "summary": "None", "logo": "None", "latitude": 45.104910000000075, "longitude": -61.73281999999995}, "889459095RR0001": {"name": "BIDE AWHILE ANIMAL SHELTER SOCIETY", "designationCode": "C", "categoryCode": "54", "address": "P.O. BOX 50029 RPO SOUTHDALE", "city": "DARTMOUTH", "province": "NS", "country": "CA", "postalCode": "B2Y4S2", "twitter": "None", "instagram": "None", "facebook": "None", "youtube": "None", "website": "None", "summary": "None", "logo": "None", "latitude": 44.66135806766577, "longitude": -63.55227477867104}, "118808054RR0001": {"name": "BIDEFORD PASTORAL CHARGE", "designationCode": "C", "categoryCode": "44", "address": "497 CANADA ROAD", "city": "TYNE VALLEY", "province": "PE", "country": "CA", "postalCode": "C0B2C0", "twitter": "None", "instagram": "None", "facebook": "None", "youtube": "None", "website": "None", "summary": "None", "logo": "None", "latitude": 46.56242317513989, "longitude": -63.94799805718729}, "880443023RR0001": {"name": "BIENNALE INTERNATIONALE D'ESTAMPE CONTEMPORAINE DE TROIS-RIVIERES", "designationCode": "C", "categoryCode": "22", "address": "58 RUE RAYMOND-LASNIER", "city": "TROIS-RIVI\u00c8RES", "province": "QC", "country": "CA", "postalCode": "G9A2J6", "twitter": "None", "instagram": "None", "facebook": "None", "youtube": "None", "website": "None", "summary": "None", "logo": "None", "latitude": 46.340601935339556, "longitude": -72.54087571925677}, "786606319RR0001": {"name": "BIERBRIER FAMILY FOUNDATION", "designationCode": "B", "categoryCode": "05", "address": "277 STRATHALLAN WOOD", "city": "NORTH YORK", "province": "ON", "country": "CA", "postalCode": "M5N1T7", "twitter": "None", "instagram": "None", "facebook": "None", "youtube": "None", "website": "None", "summary": "None", "logo": "None", "latitude": 43.71172480930822, "longitude": -79.42684734748114}, "139024780RR0001": {"name": "BIG BEND CHARITABLE TRUST", "designationCode": "B", "categoryCode": "39", "address": "3425 2 AVE S", "city": "LETHBRIDGE", "province": "AB", "country": "CA", "postalCode": "T1J4V1", "twitter": "None", "instagram": "None", "facebook": "None", "youtube": "None", "website": "None", "summary": "None", "logo": "None", "latitude": 49.696839530439966, "longitude": -112.78914308381903}, "132351248RR0001": {"name": "BIG BROTHER ASSOCIATION OF KINGSTON AND DISTRICT", "designationCode": "C", "categoryCode": "09", "address": "817 DIVISION ST", "city": "KINGSTON", "province": "ON", "country": "CA", "postalCode": "K7K4C2", "twitter": "None", "instagram": "None", "facebook": "None", "youtube": "None", "website": "None", "summary": "None", "logo": "None", "latitude": 44.2542312603439, "longitude": -76.49679357931831}, "893079582RR0001": {"name": "BIG BROTHER BIG SISTER FOUNDATION OF HAMILTON AND BURLINGTON", "designationCode": "A", "categoryCode": "03", "address": "639 MAIN STREET EAST", "city": "HAMILTON", "province": "ON", "country": "CA", "postalCode": "L8M1J4", "twitter": "None", "instagram": "None", "facebook": "None", "youtube": "None", "website": "None", "summary": "None", "logo": "None", "latitude": 43.24907603416224, "longitude": -79.84510363015761}, "886595396RR0001": {"name": "BIG BROTHERS & BIG SISTERS ASSOCIATION OF LACOMBE AND DISTRICT", "designationCode": "C", "categoryCode": "09", "address": "5103 49 ST", "city": "LACOMBE", "province": "AB", "country": "CA", "postalCode": "T4L1J4", "twitter": "None", "instagram": "None", "facebook": "None", "youtube": "None", "website": "None", "summary": "None", "logo": "None", "latitude": 52.464788999999996, "longitude": -113.72914738978037}, "118809300RR0001": {"name": "BIG BROTHERS & BIG SISTERS ASSOCIATION OF LLOYDMINSTER CORP.", "designationCode": "C", "categoryCode": "09", "address": "3-4301 49 AVENUE", "city": "LLOYDMINSTER", "province": "SK", "country": "CA", "postalCode": "S9V0S5", "twitter": "None", "instagram": "None", "facebook": "None", "youtube": "None", "website": "None", "summary": "None", "logo": "None", "latitude": 53.27774094754457, "longitude": -110.00343660323742}, "118808096RR0001": {"name": "BIG BROTHERS & BIG SISTERS OF HASTINGS & PRINCE EDWARD COUNTIES", "designationCode": "C", "categoryCode": "09", "address": "2 - 48 DUNDAS ST W", "city": "BELLEVILLE", "province": "ON", "country": "CA", "postalCode": "K8P1A3", "twitter": "None", "instagram": "None", "facebook": "None", "youtube": "None", "website": "None", "summary": "None", "logo": "None", "latitude": 44.15885418281989, "longitude": -77.38905538983379}, "106793367RR0001": {"name": "BIG BROTHERS & BIG SISTERS OF KINCARDINE & DISTRICT", "designationCode": "C", "categoryCode": "09", "address": "910 QUEEN ST UNIT E", "city": "KINCARDINE", "province": "ON", "country": "CA", "postalCode": "N2Z2Y2", "twitter": "None", "instagram": "None", "facebook": "None", "youtube": "None", "website": "None", "summary": "None", "logo": "None", "latitude": 44.17977578500625, "longitude": -81.63325885675975}, "106793458RR0001": {"name": "BIG BROTHERS & BIG SISTERS OF PRINCE GEORGE", "designationCode": "C", "categoryCode": "09", "address": "777 KINSMEN PL", "city": "PRINCE GEORGE", "province": "BC", "country": "CA", "postalCode": "V2M6Y7", "twitter": "None", "instagram": "None", "facebook": "None", "youtube": "None", "website": "None", "summary": "None", "logo": "None", "latitude": 53.91988760560336, "longitude": -122.79192804235653}, "894428473RR0001": {"name": "BIG BROTHERS & BIG SISTERS OF YUKON", "designationCode": "C", "categoryCode": "09", "address": "305 WOOD STREET", "city": "WHITEHORSE", "province": "YT", "country": "CA", "postalCode": "Y1A2E7", "twitter": "None", "instagram": "None", "facebook": "None", "youtube": "None", "website": "None", "summary": "None", "logo": "None", "latitude": 60.72065160892158, "longitude": -135.05661542310585}, "106793904RR0001": {"name": "BIG BROTHERS & SISTERS OF BRANDON ASSOCIATION INC.", "designationCode": "C", "categoryCode": "09", "address": "153A - 8 ST", "city": "BRANDON", "province": "MB", "country": "CA", "postalCode": "R7A3W9", "twitter": "None", "instagram": "None", "facebook": "None", "youtube": "None", "website": "None", "summary": "None", "logo": "None", "latitude": 49.84710583900777, "longitude": -99.94865992660942}, "118808179RR0001": {"name": "BIG BROTHERS - BIG SISTERS ASSOCIATION OF COLCHESTER", "designationCode": "C", "categoryCode": "09", "address": "26 LOGAN STREET", "city": "TRURO", "province": "NS", "country": "CA", "postalCode": "B2N3Z3", "twitter": "None", "instagram": "None", "facebook": "None", "youtube": "None", "website": "None", "summary": "None", "logo": "None", "latitude": 45.366251290870785, "longitude": -63.27594928172417}, "106792922RR0001": {"name": "BIG BROTHERS AND BIG SISTERS ASSOCIATION OF PETERBOROUGH INCORPORATED", "designationCode": "C", "categoryCode": "09", "address": "483 GEORGE ST SOUTH", "city": "PETERBOROUGH", "province": "ON", "country": "CA", "postalCode": "K9J3E6", "twitter": "None", "instagram": "None", "facebook": "None", "youtube": "None", "website": "None", "summary": "None", "logo": "None", "latitude": 44.289865404379995, "longitude": -78.31801551514786}, "879200111RR0001": {"name": "BIG BROTHERS AND BIG SISTERS OF CENTRAL VANCOUVER ISLAND", "designationCode": "C", "categoryCode": "09", "address": "2030 NORTHFIELD RD", "city": "NANAIMO", "province": "BC", "country": "CA", "postalCode": "V9S3B8", "twitter": "None", "instagram": "None", "facebook": "None", "youtube": "None", "website": "None", "summary": "None", "logo": "None", "latitude": 49.19208403827703, "longitude": -123.98640680001618}, "131529448RR0001": {"name": "BIG BROTHERS AND BIG SISTERS OF CORNWALL AND DISTRICT INC.", "designationCode": "C", "categoryCode": "09", "address": "101 THIRD STREET WEST", "city": "CORNWALL", "province": "ON", "country": "CA", "postalCode": "K6J2N9", "twitter": "None", "instagram": "None", "facebook": "None", "youtube": "None", "website": "None", "summary": "None", "logo": "None", "latitude": 45.019160968088144, "longitude": -74.731790755208}, "118808237RR0001": {"name": "BIG BROTHERS AND BIG SISTERS OF LETHBRIDGE AND DISTRICT", "designationCode": "C", "categoryCode": "09", "address": "622 6 AVE S", "city": "LETHBRIDGE", "province": "AB", "country": "CA", "postalCode": "T1J0Z3", "twitter": "None", "instagram": "None", "facebook": "None", "youtube": "None", "website": "None", "summary": "None", "logo": "None", "latitude": 49.69180233612696, "longitude": -112.78416610580652}, "877421818RR0001": {"name": "BIG BROTHERS AND BIG SISTERS OF LISTOWEL AND DISTRICT", "designationCode": "C", "categoryCode": "09", "address": "P.O. BOX 11", "city": "LISTOWEL", "province": "ON", "country": "CA", "postalCode": "N4W3H2", "twitter": "None", "instagram": "None", "facebook": "None", "youtube": "None", "website": "None", "summary": "None", "logo": "None", "latitude": 43.73203200000006, "longitude": -80.95433299999993}, "118808914RR0001": {"name": "BIG BROTHERS AND BIG SISTERS OF PORTAGE LA PRAIRIE, INC.", "designationCode": "C", "categoryCode": "09", "address": "15 TUPPER ST S", "city": "PORTAGE LA PRAIRIE", "province": "MB", "country": "CA", "postalCode": "R1N1W7", "twitter": "None", "instagram": "None", "facebook": "None", "youtube": "None", "website": "None", "summary": "None", "logo": "None", "latitude": 49.97265344358996, "longitude": -98.29134242257821}, "132090929RR0001": {"name": "BIG BROTHERS AND BIG SISTERS OF RED DEER AND DISTRICT", "designationCode": "C", "categoryCode": "09", "address": "4633 49 ST", "city": "RED DEER", "province": "AB", "country": "CA", "postalCode": "T4N1T4", "twitter": "None", "instagram": "None", "facebook": "None", "youtube": "None", "website": "None", "summary": "None", "logo": "None", "latitude": 52.26799448845881, "longitude": -113.80406327699232}, "106793540RR0001": {"name": "BIG BROTHERS AND BIG SISTERS OF VICTORIA CAPITAL REGION", "designationCode": "C", "categoryCode": "09", "address": "230 BAY ST.", "city": "VICTORIA", "province": "BC", "country": "CA", "postalCode": "V9A3K5", "twitter": "None", "instagram": "None", "facebook": "None", "youtube": "None", "website": "None", "summary": "None", "logo": "None", "latitude": 48.433259680015986, "longitude": -123.38187067545701}, "118808369RR0001": {"name": "BIG BROTHERS AND BIG SISTERS OF WILLIAMS LAKE", "designationCode": "C", "categoryCode": "09", "address": "200-369 OLIVER ST", "city": "WILLIAMS LAKE", "province": "BC", "country": "CA", "postalCode": "V2G1M4", "twitter": "None", "instagram": "None", "facebook": "None", "youtube": "None", "website": "None", "summary": "None", "logo": "None", "latitude": 52.128596043020366, "longitude": -122.14101882361936}, "106793573RR0001": {"name": "BIG BROTHERS AND BIG SISTERS OF YARMOUTH ASSOCIATION", "designationCode": "C", "categoryCode": "09", "address": "PO BOX 698", "city": "YARMOUTH", "province": "NS", "country": "CA", "postalCode": "B5A4K3", "twitter": "None", "instagram": "None", "facebook": "None", "youtube": "None", "website": "None", "summary": "None", "logo": "None", "latitude": 43.841274000000055, "longitude": -66.11887249999994}, "134103332RR0001": {"name": "BIG BROTHERS AND BIG SISTERS UPPER FRASER VALLEY", "designationCode": "C", "categoryCode": "09", "address": "7112 VEDDER ROAD", "city": "CHILLIWACK", "province": "BC", "country": "CA", "postalCode": "V2R3T6", "twitter": "None", "instagram": "None", "facebook": "None", "youtube": "None", "website": "None", "summary": "None", "logo": "None", "latitude": 49.132225470106896, "longitude": -121.95993528803537}, "106793300RR0001": {"name": "BIG BROTHERS AND SISTERS OF CARLETON-YORK INC.", "designationCode": "C", "categoryCode": "09", "address": "109 REGENT ST UNIT 16", "city": "WOODSTOCK", "province": "NB", "country": "CA", "postalCode": "E7M2N6", "twitter": "None", "instagram": "None", "facebook": "None", "youtube": "None", "website": "None", "summary": "None", "logo": "None", "latitude": 46.150940953661404, "longitude": -67.57237430737497}, "106793110RR0001": {"name": "BIG BROTHERS AND SISTERS OF CLARINGTON", "designationCode": "C", "categoryCode": "09", "address": "23 SCUGOG STREET", "city": "BOWMANVILLE", "province": "ON", "country": "CA", "postalCode": "L1C3H7", "twitter": "None", "instagram": "None", "facebook": "None", "youtube": "None", "website": "None", "summary": "None", "logo": "None", "latitude": 43.91371035137629, "longitude": -78.69244897763876}, "106793938RR0001": {"name": "BIG BROTHERS AND SISTERS OF KINGS AND ANNAPOLIS COUNTIES ASSOCIATION", "designationCode": "C", "categoryCode": "09", "address": "136 EXHIBITION STREET", "city": "KENTVILLE", "province": "NS", "country": "CA", "postalCode": "B4N4E5", "twitter": "None", "instagram": "None", "facebook": "None", "youtube": "None", "website": "None", "summary": "None", "logo": "None", "latitude": 45.084000012026706, "longitude": -64.50010332643727}, "892676479RR0001": {"name": "BIG BROTHERS ASSOCIATION OF DUFFERIN AND DISTRICT", "designationCode": "C", "categoryCode": "09", "address": "PO BOX 2 STN A", "city": "ORANGEVILLE", "province": "ON", "country": "CA", "postalCode": "L9W2Z5", "twitter": "None", "instagram": "None", "facebook": "None", "youtube": "None", "website": "None", "summary": "None", "logo": "None", "latitude": 43.892658732251896, "longitude": -80.27525271500956}, "894819382RR0001": {"name": "BIG BROTHERS BIG SISTERS ASSOCIATION OF GRANDE PRAIRIE & AREA", "designationCode": "C", "categoryCode": "09", "address": "104 10001-100 AVE", "city": "GRANDE PRAIRIE", "province": "AB", "country": "CA", "postalCode": "T8V0V2", "twitter": "None", "instagram": "None", "facebook": "None", "youtube": "None", "website": "None", "summary": "None", "logo": "None", "latitude": 55.17059301909963, "longitude": -118.79501498090038}, "118808443RR0001": {"name": "BIG BROTHERS BIG SISTERS ASSOCIATION OF WOOD BUFFALO", "designationCode": "C", "categoryCode": "09", "address": "5B - 10019 MACDONALD AVE", "city": "FORT MCMURRAY", "province": "AB", "country": "CA", "postalCode": "T9H1S9", "twitter": "None", "instagram": "None", "facebook": "None", "youtube": "None", "website": "None", "summary": "None", "logo": "None", "latitude": 56.727039048518535, "longitude": -111.38321964261219}, "118808203RR0001": {"name": "BIG BROTHERS BIG SISTERS GRAND ERIE", "designationCode": "C", "categoryCode": "09", "address": "305 - 31 MECHANIC ST", "city": "PARIS", "province": "ON", "country": "CA", "postalCode": "N3L1K1", "twitter": "None", "instagram": "None", "facebook": "None", "youtube": "None", "website": "None", "summary": "None", "logo": "None", "latitude": 43.19201139604145, "longitude": -80.38536317387047}, "125340984RR0001": {"name": "BIG BROTHERS BIG SISTERS OF BARRIE AND DISTRICT", "designationCode": "C", "categoryCode": "09", "address": "168 BAYFIELD STREET           P.O. BOX 261", "city": "BARRIE", "province": "ON", "country": "CA", "postalCode": "L4M4T2", "twitter": "None", "instagram": "None", "facebook": "None", "youtube": "None", "website": "None", "summary": "None", "logo": "None", "latitude": 44.39449400859836, "longitude": -79.69463484375889}, "118808740RR0001": {"name": "BIG BROTHERS BIG SISTERS OF CANADA-LES GRANDS FRERES GRANDES SOEURS DU CANADA", "designationCode": "C", "categoryCode": "09", "address": "113E-3228 SOUTH SERVICE RD", "city": "BURLINGTON", "province": "ON", "country": "CA", "postalCode": "L7N3H8", "twitter": "None", "instagram": "None", "facebook": "None", "youtube": "None", "website": "None", "summary": "None", "logo": "None", "latitude": 43.35828006907519, "longitude": -79.79639314565219}, "133318493RR0001": {"name": "BIG BROTHERS BIG SISTERS OF CENTRE WELLINGTON", "designationCode": "C", "categoryCode": "09", "address": "195 ST DAVID ST S", "city": "FERGUS", "province": "ON", "country": "CA", "postalCode": "N1M2L4", "twitter": "None", "instagram": "None", "facebook": "None", "youtube": "None", "website": "None", "summary": "None", "logo": "None", "latitude": 43.70509571941672, "longitude": -80.37627903024284}, "106910490RR0001": {"name": "BIG BROTHERS BIG SISTERS OF CHATHAM-KENT", "designationCode": "C", "categoryCode": "09", "address": "137 QUEEN ST", "city": "CHATHAM", "province": "ON", "country": "CA", "postalCode": "N7M2G7", "twitter": "None", "instagram": "None", "facebook": "None", "youtube": "None", "website": "None", "summary": "None", "logo": "None", "latitude": 42.40281375742971, "longitude": -82.18491164403608}, "132516915RR0001": {"name": "BIG BROTHERS BIG SISTERS OF CHATHAM-KENT FOUNDATION", "designationCode": "A", "categoryCode": "09", "address": "137 QUEEN ST", "city": "CHATHAM", "province": "ON", "country": "CA", "postalCode": "N7M2G7", "twitter": "None", "instagram": "None", "facebook": "None", "youtube": "None", "website": "None", "summary": "None", "logo": "None", "latitude": 42.40281375742971, "longitude": -82.18491164403608}, "106793680RR0001": {"name": "BIG BROTHERS BIG SISTERS OF CRANBROOK", "designationCode": "C", "categoryCode": "09", "address": "PO BOX 207 STN MAIN", "city": "CRANBROOK", "province": "BC", "country": "CA", "postalCode": "V1C4H7", "twitter": "None", "instagram": "None", "facebook": "None", "youtube": "None", "website": "None", "summary": "None", "logo": "None", "latitude": 49.513515000000055, "longitude": -115.76875399999994}, "106793508RR0001": {"name": "BIG BROTHERS BIG SISTERS OF EASTERN NEWFOUNDLAND INC.", "designationCode": "C", "categoryCode": "09", "address": "THE VILLAGE SHOPPING CENTRE   430 TOPSAIL ROAD, BOX 10", "city": "ST. JOHN'S", "province": "NL", "country": "CA", "postalCode": "A1E4N1", "twitter": "None", "instagram": "None", "facebook": "None", "youtube": "None", "website": "None", "summary": "None", "logo": "None"}, "106793235RR0001": {"name": "BIG BROTHERS BIG SISTERS OF GREATER HALIFAX", "designationCode": "C", "categoryCode": "09", "address": "PO BOX 307", "city": "DARTMOUTH", "province": "NS", "country": "CA", "postalCode": "B2Y3Y5", "twitter": "None", "instagram": "None", "facebook": "None", "youtube": "None", "website": "None", "summary": "None", "logo": "None", "latitude": 44.67403500000006, "longitude": -63.57535099999993}, "118809227RR0001": {"name": "BIG BROTHERS BIG SISTERS OF GUELPH", "designationCode": "C", "categoryCode": "09", "address": "285 WOOLWICH ST", "city": "GUELPH", "province": "ON", "country": "CA", "postalCode": "N1H3V8", "twitter": "None", "instagram": "None", "facebook": "None", "youtube": "None", "website": "None", "summary": "None", "logo": "None", "latitude": 43.549991914536186, "longitude": -80.25666189823448}, "107790560RR0001": {"name": "BIG BROTHERS BIG SISTERS OF HALTON", "designationCode": "C", "categoryCode": "09", "address": "464 MORDEN ROAD", "city": "OAKVILLE", "province": "ON", "country": "CA", "postalCode": "L6K3W4", "twitter": "None", "instagram": "None", "facebook": "None", "youtube": "None", "website": "None", "summary": "None", "logo": "None", "latitude": 43.44101468858567, "longitude": -79.6947382080327}, "106792989RR0001": {"name": "BIG BROTHERS BIG SISTERS OF HAMILTON AND BURLINGTON INCORPORATED", "designationCode": "C", "categoryCode": "09", "address": "639 MAIN STREET EAST", "city": "HAMILTON", "province": "ON", "country": "CA", "postalCode": "L8M1J4", "twitter": "None", "instagram": "None", "facebook": "None", "youtube": "None", "website": "None", "summary": "None", "logo": "None", "latitude": 43.24907603416224, "longitude": -79.84510363015761}, "118808625RR0001": {"name": "BIG BROTHERS BIG SISTERS OF KAMLOOPS & REGION", "designationCode": "C", "categoryCode": "09", "address": "821 SEYMOUR STREET", "city": "KAMLOOPS", "province": "BC", "country": "CA", "postalCode": "V2C2H6", "twitter": "None", "instagram": "None", "facebook": "None", "youtube": "None", "website": "None", "summary": "None", "logo": "None", "latitude": 50.6748884995673, "longitude": -120.32073280252754}, "118808245RR0001": {"name": "BIG BROTHERS BIG SISTERS OF KAWARTHA LAKES-HALIBURTON INC.", "designationCode": "C", "categoryCode": "09", "address": "P.O.BOX 761                   117 KENT STREET WEST", "city": "LINDSAY", "province": "ON", "country": "CA", "postalCode": "K9V4W9", "twitter": "None", "instagram": "None", "facebook": "None", "youtube": "None", "website": "None", "summary": "None", "logo": "None", "latitude": 44.35470778131815, "longitude": -78.7379115698289}, "118808849RR0001": {"name": "BIG BROTHERS BIG SISTERS OF LANGLEY", "designationCode": "C", "categoryCode": "09", "address": "201-20538 FRASER HWY          PO BOX 3052", "city": "LANGLEY", "province": "BC", "country": "CA", "postalCode": "V3A4R3", "twitter": "None", "instagram": "None", "facebook": "None", "youtube": "None", "website": "None", "summary": "None", "logo": "None", "latitude": 49.10391735352046, "longitude": -122.6533173036347}, "129820874RR0001": {"name": "BIG BROTHERS BIG SISTERS OF LONDON AND AREA", "designationCode": "C", "categoryCode": "09", "address": "543 RIDOUT ST N", "city": "LONDON", "province": "ON", "country": "CA", "postalCode": "N6A2P8", "twitter": "None", "instagram": "None", "facebook": "None", "youtube": "None", "website": "None", "summary": "None", "logo": "None", "latitude": 42.98580678934158, "longitude": -81.25540730004604}, "892343468RR0001": {"name": "BIG BROTHERS BIG SISTERS OF MUSKOKA", "designationCode": "C", "categoryCode": "09", "address": "PO BOX 1252", "city": "BRACEBRIDGE", "province": "ON", "country": "CA", "postalCode": "P1L1V4", "twitter": "None", "instagram": "None", "facebook": "None", "youtube": "None", "website": "None", "summary": "None", "logo": "None", "latitude": 45.055572000000055, "longitude": -79.28863099999994}, "118809334RR0001": {"name": "BIG BROTHERS BIG SISTERS OF NORTH BAY AND DISTRICT INCORPORATED", "designationCode": "C", "categoryCode": "09", "address": "169 LAKESHORE DRIVE", "city": "NORTH BAY", "province": "ON", "country": "CA", "postalCode": "P1A2B3", "twitter": "None", "instagram": "None", "facebook": "None", "youtube": "None", "website": "None", "summary": "None", "logo": "None", "latitude": 46.2888057732414, "longitude": -79.45130196976157}, "140571365RR0001": {"name": "BIG BROTHERS BIG SISTERS OF ONTARIO/LES GRANDS FRERES GRANDES SOEURS D'ONTARIO", "designationCode": "A", "categoryCode": "09", "address": "3228 SOUTH SERVICE ROAD       SUITE 113E", "city": "BURLINGTON", "province": "ON", "country": "CA", "postalCode": "L7N3H8", "twitter": "None", "instagram": "None", "facebook": "None", "youtube": "None", "website": "None", "summary": "None", "logo": "None", "latitude": 43.35828006907519, "longitude": -79.79639314565219}, "107803546RR0001": {"name": "BIG BROTHERS BIG SISTERS OF ORILLIA & DISTRICT", "designationCode": "C", "categoryCode": "09", "address": "102 - 17 COLBORNE STREET EAST", "city": "ORILLIA", "province": "ON", "country": "CA", "postalCode": "L3V1T4", "twitter": "None", "instagram": "None", "facebook": "None", "youtube": "None", "website": "None", "summary": "None", "logo": "None", "latitude": 44.60738536013622, "longitude": -79.41798352357124}, "124008061RR0001": {"name": "BIG BROTHERS BIG SISTERS OF OSHAWA-WHITBY", "designationCode": "C", "categoryCode": "09", "address": "2-157C HARWOOD AVE. N.,       SUITE #414", "city": "AJAX", "province": "ON", "country": "CA", "postalCode": "L1Z0B6", "twitter": "None", "instagram": "None", "facebook": "None", "youtube": "None", "website": "None", "summary": "None", "logo": "None", "latitude": 43.878409704076404, "longitude": -79.02632130013264}, "118809482RR0001": {"name": "BIG BROTHERS BIG SISTERS OF PEEL INC.", "designationCode": "C", "categoryCode": "09", "address": "71 WEST DRIVE                 UNIT 23", "city": "BRAMPTON", "province": "ON", "country": "CA", "postalCode": "L6T5E2", "twitter": "None", "instagram": "None", "facebook": "None", "youtube": "None", "website": "None", "summary": "None", "logo": "None", "latitude": 43.70371916241526, "longitude": -79.72606535079936}, "106793433RR0001": {"name": "BIG BROTHERS BIG SISTERS OF PICTOU COUNTY", "designationCode": "C", "categoryCode": "09", "address": "PO BOX 781", "city": "NEW GLASGOW", "province": "NS", "country": "CA", "postalCode": "B2H5G2", "twitter": "None", "instagram": "None", "facebook": "None", "youtube": "None", "website": "None", "summary": "None", "logo": "None", "latitude": 45.591837000000055, "longitude": -62.643414499999935}, "106793144RR0001": {"name": "BIG BROTHERS BIG SISTERS OF SASKATOON AND AREA INC.", "designationCode": "C", "categoryCode": "09", "address": "182 WALL ST", "city": "SASKATOON", "province": "SK", "country": "CA", "postalCode": "S7K1N4", "twitter": "None", "instagram": "None", "facebook": "None", "youtube": "None", "website": "None", "summary": "None", "logo": "None", "latitude": 52.13075170552253, "longitude": -106.66923554922411}, "131161952RR0001": {"name": "BIG BROTHERS BIG SISTERS OF SOUTH HURON", "designationCode": "C", "categoryCode": "09", "address": "BOX 29", "city": "DASHWOOD", "province": "ON", "country": "CA", "postalCode": "N0M1N0", "twitter": "None", "instagram": "None", "facebook": "None", "youtube": "None", "website": "None", "summary": "None", "logo": "None", "latitude": 43.340203533866415, "longitude": -81.68983272666578}, "106793862RR0001": {"name": "BIG BROTHERS BIG SISTERS OF SOUTH NIAGARA INC.", "designationCode": "C", "categoryCode": "09", "address": "800 NIAGARA ST. UNIT JJ4", "city": "WELLAND", "province": "ON", "country": "CA", "postalCode": "L3C5Z4", "twitter": "None", "instagram": "None", "facebook": "None", "youtube": "None", "website": "None", "summary": "None", "logo": "None", "latitude": 43.01587465167412, "longitude": -79.2498161516741}, "136213873RR0001": {"name": "BIG BROTHERS BIG SISTERS OF THE COWICHAN VALLEY", "designationCode": "C", "categoryCode": "09", "address": "1-60 INGRAM ST", "city": "DUNCAN", "province": "BC", "country": "CA", "postalCode": "V9L1N7", "twitter": "None", "instagram": "None", "facebook": "None", "youtube": "None", "website": "None", "summary": "None", "logo": "None", "latitude": 48.77923550346246, "longitude": -123.70790275145708}, "118808773RR0001": {"name": "BIG BROTHERS BIG SISTERS OF THE GEORGIAN TRIANGLE", "designationCode": "C", "categoryCode": "09", "address": "74 HUME ST", "city": "COLLINGWOOD", "province": "ON", "country": "CA", "postalCode": "L9Y1V4", "twitter": "None", "instagram": "None", "facebook": "None", "youtube": "None", "website": "None", "summary": "None", "logo": "None", "latitude": 44.495757891931525, "longitude": -80.21383859531275}, "106793771RR0001": {"name": "BIG BROTHERS BIG SISTERS OF TORONTO", "designationCode": "C", "categoryCode": "09", "address": "501-2345 YONGE ST", "city": "TORONTO", "province": "ON", "country": "CA", "postalCode": "M4P2E5", "twitter": "None", "instagram": "None", "facebook": "None", "youtube": "None", "website": "None", "summary": "None", "logo": "None", "latitude": 43.70885846961736, "longitude": -79.39875583894106}, "131877177RR0001": {"name": "BIG BROTHERS BIG SISTERS OF WATERLOO REGION", "designationCode": "C", "categoryCode": "09", "address": "302 - 30 DUKE ST W", "city": "KITCHENER", "province": "ON", "country": "CA", "postalCode": "N2H3W5", "twitter": "None", "instagram": "None", "facebook": "None", "youtube": "None", "website": "None", "summary": "None", "logo": "None", "latitude": 43.45493890661377, "longitude": -80.49626406663361}, "106794548RR0001": {"name": "BIG BROTHERS BIG SISTERS OF WINNIPEG INC.", "designationCode": "C", "categoryCode": "09", "address": "532 ELLICE AVE", "city": "WINNIPEG", "province": "MB", "country": "CA", "postalCode": "R3B1Z2", "twitter": "None", "instagram": "None", "facebook": "None", "youtube": "None", "website": "None", "summary": "None", "logo": "None", "latitude": 49.8928225100989, "longitude": -97.15578261226844}, "126802230RR0001": {"name": "BIG BROTHERS BIG SISTERS OF WOODSTOCK AND DISTRICT ASSOCIATION INCORPORATED", "designationCode": "C", "categoryCode": "09", "address": "787A DUNDAS ST", "city": "WOODSTOCK", "province": "ON", "country": "CA", "postalCode": "N4S1G1", "twitter": "None", "instagram": "None", "facebook": "None", "youtube": "None", "website": "None", "summary": "None", "logo": "None", "latitude": 43.13216135660444, "longitude": -80.7430304747008}, "106793888RR0001": {"name": "BIG BROTHERS BIG SISTERS OF YORK", "designationCode": "C", "categoryCode": "09", "address": "350 INDUSTRIAL PARKWAY SOUTH", "city": "AURORA", "province": "ON", "country": "CA", "postalCode": "L4G3V7", "twitter": "None", "instagram": "None", "facebook": "None", "youtube": "None", "website": "None", "summary": "None", "logo": "None"}, "133232116RR0001": {"name": "BIG BROTHERS BIG SISTERS OF YORKTON AND AREA INC.", "designationCode": "C", "categoryCode": "09", "address": "345 BROADWAY STREET W.", "city": "YORKTON", "province": "SK", "country": "CA", "postalCode": "S3N0N8", "twitter": "None", "instagram": "None", "facebook": "None", "youtube": "None", "website": "None", "summary": "None", "logo": "None", "latitude": 51.21018646378898, "longitude": -102.48406216763806}, "106794431RR0001": {"name": "BIG BROTHERS BIG SISTERS OTTAWA/GRANDS FRERES GRANDES SOEURS D'OTTAWA", "designationCode": "C", "categoryCode": "09", "address": "12 - 1645 WOODROFFE AVE", "city": "NEPEAN", "province": "ON", "country": "CA", "postalCode": "K2G1W2", "twitter": "None", "instagram": "None", "facebook": "None", "youtube": "None", "website": "None", "summary": "None", "logo": "None", "latitude": 45.32844895023404, "longitude": -75.74858816191725}, "106793342RR0001": {"name": "BIG BROTHERS BIG SISTERS PRAIRIES TO PEAKS ASSOCIATION", "designationCode": "C", "categoryCode": "09", "address": "6 - 5215 49 AVE", "city": "INNISFAIL", "province": "AB", "country": "CA", "postalCode": "T4G1B3", "twitter": "None", "instagram": "None", "facebook": "None", "youtube": "None", "website": "None", "summary": "None", "logo": "None", "latitude": 52.02911252677597, "longitude": -113.94880723677058}, "140151259RR0001": {"name": "BIG BROTHERS BIG SISTERS SOCIETY OF CALGARY AND AREA (FORMERLY AUNTS AND UNCLES AT LARGE)", "designationCode": "C", "categoryCode": "09", "address": "5945 CENTRE STREET SW", "city": "CALGARY", "province": "AB", "country": "CA", "postalCode": "T2H0C2", "twitter": "None", "instagram": "None", "facebook": "None", "youtube": "None", "website": "None", "summary": "None", "logo": "None", "latitude": 51.00054829124775, "longitude": -114.06389121541953}, "106792971RR0001": {"name": "BIG BROTHERS BIG SISTERS WINDSOR ESSEX", "designationCode": "C", "categoryCode": "09", "address": "3050 JEFFERSON", "city": "WINDSOR", "province": "ON", "country": "CA", "postalCode": "N8T3G9", "twitter": "None", "instagram": "None", "facebook": "None", "youtube": "None", "website": "None", "summary": "None", "logo": "None", "latitude": 42.29782585403067, "longitude": -82.94386419297174}, "132931551RR0001": {"name": "BIG BROTHERS BIG SISTERS WINDSOR ESSEX FOUNDATION", "designationCode": "A", "categoryCode": "03", "address": "3050 JEFFERSON BLVD", "city": "WINDSOR", "province": "ON", "country": "CA", "postalCode": "N8T3G9", "twitter": "None", "instagram": "None", "facebook": "None", "youtube": "None", "website": "None", "summary": "None", "logo": "None"}, "106793722RR0001": {"name": "BIG BROTHERS OF GREATER VANCOUVER", "designationCode": "C", "categoryCode": "09", "address": "102-1193 KINGSWAY", "city": "VANCOUVER", "province": "BC", "country": "CA", "postalCode": "V5V3C9", "twitter": "None", "instagram": "None", "facebook": "None", "youtube": "None", "website": "None", "summary": "None", "logo": "None", "latitude": 49.25233337803671, "longitude": -123.08039195501773}, "890671324RR0001": {"name": "BIG BROTHERS OF GREATER VANCOUVER FOUNDATION", "designationCode": "A", "categoryCode": "03", "address": "102 - 1193 KINGSWAY", "city": "VANCOUVER", "province": "BC", "country": "CA", "postalCode": "V5V3C9", "twitter": "None", "instagram": "None", "facebook": "None", "youtube": "None", "website": "None", "summary": "None", "logo": "None", "latitude": 49.25233337803671, "longitude": -123.08039195501773}, "119040368RR0001": {"name": "BIG BROTHERS OF NORTH SIMCOE", "designationCode": "C", "categoryCode": "09", "address": "67 FOURTH STREET", "city": "MIDLAND", "province": "ON", "country": "CA", "postalCode": "L4R3S9", "twitter": "None", "instagram": "None", "facebook": "None", "youtube": "None", "website": "None", "summary": "None", "logo": "None", "latitude": 44.753959465462415, "longitude": -79.8960482423974}, "106793797RR0001": {"name": "BIG BROTHERS OF OWEN SOUND", "designationCode": "C", "categoryCode": "09", "address": "PO BOX 698", "city": "OWEN SOUND", "province": "ON", "country": "CA", "postalCode": "N4K5R4", "twitter": "None", "instagram": "None", "facebook": "None", "youtube": "None", "website": "None", "summary": "None", "logo": "None", "latitude": 44.56423500000005, "longitude": -80.94243049999993}, "118808930RR0001": {"name": "BIG BROTHERS OF SARNIA-LAMBTON", "designationCode": "C", "categoryCode": "09", "address": "10 LORNE CRES", "city": "SARNIA", "province": "ON", "country": "CA", "postalCode": "N7S1H8", "twitter": "None", "instagram": "None", "facebook": "None", "youtube": "None", "website": "None", "summary": "None", "logo": "None", "latitude": 42.968547732893654, "longitude": -82.37489512391184}, "106793409RR0001": {"name": "BIG BROTHERS-BIG SISTERS OF MONCTON INC. / GRANDS FRERES-GRANDES SOEURS DE MONCTON INC.", "designationCode": "C", "categoryCode": "09", "address": "20 BRANDON STREET", "city": "MONCTON", "province": "NB", "country": "CA", "postalCode": "E1C7E6", "twitter": "None", "instagram": "None", "facebook": "None", "youtube": "None", "website": "None", "summary": "None", "logo": "None", "latitude": 46.09661293144442, "longitude": -64.80598488372084}, "118808641RR0001": {"name": "BIG BROTHERS-BIG SISTERS OF P.E.I. INC.", "designationCode": "C", "categoryCode": "09", "address": "2 ST-PETER'S RD", "city": "CHARLOTTETOWN", "province": "PE", "country": "CA", "postalCode": "C1A5N2", "twitter": "None", "instagram": "None", "facebook": "None", "youtube": "None", "website": "None", "summary": "None", "logo": "None", "latitude": 46.246418214265105, "longitude": -63.12333457048883}, "129397584RR0001": {"name": "BIG BROTHERS-BIG SISTERS OF SAINT JOHN INC.", "designationCode": "C", "categoryCode": "09", "address": "3RD LEVEL, BRUNSWICK SQUARE   39 KING STREET", "city": "SAINT JOHN", "province": "NB", "country": "CA", "postalCode": "E2L4Y3", "twitter": "None", "instagram": "None", "facebook": "None", "youtube": "None", "website": "None", "summary": "None", "logo": "None", "latitude": 45.27306008050087, "longitude": -66.06129006939226}, "891045247RR0001": {"name": "BIG BROTHERS/ BIG SISTERS ASSOCIATION OF NORTH DURHAM REGION", "designationCode": "C", "categoryCode": "09", "address": "BOX 961", "city": "PORT PERRY", "province": "ON", "country": "CA", "postalCode": "L9L1A8", "twitter": "None", "instagram": "None", "facebook": "None", "youtube": "None", "website": "None", "summary": "None", "logo": "None", "latitude": 44.10681900000006, "longitude": -78.94273399999993}}