{"852581172RR0001": {"name": "TORONTO YOUTH THEATRE", "designationCode": "C", "categoryCode": "22", "address": "1045 SPADINA ROAD", "city": "TORONTO", "province": "ON", "country": "CA", "postalCode": "M5N2M7", "twitter": "None", "instagram": "None", "facebook": "None", "youtube": "None", "website": "None", "summary": "None", "logo": "None", "latitude": 43.70405806494892, "longitude": -79.4186236436034}, "140737966RR0001": {"name": "TORONTO YOUTH WIND ORCHESTRA", "designationCode": "C", "categoryCode": "22", "address": "48 RIDGEVALE DR", "city": "NORTH YORK", "province": "ON", "country": "CA", "postalCode": "M6A1L1", "twitter": "None", "instagram": "None", "facebook": "None", "youtube": "None", "website": "None", "summary": "None", "logo": "None", "latitude": 43.72502411408612, "longitude": -79.43634618096827}, "107797383RR0001": {"name": "TORONTO YUGOSLAVIAN SEVENTH-DAY ADVENTIST CHURCH", "designationCode": "C", "categoryCode": "41", "address": "511 HORNER AVE", "city": "ETOBICOKE", "province": "ON", "country": "CA", "postalCode": "M8W2B9", "twitter": "None", "instagram": "None", "facebook": "None", "youtube": "None", "website": "None", "summary": "None", "logo": "None", "latitude": 43.60139592587583, "longitude": -79.54629539993657}, "887473791RR0001": {"name": "TORONTO ZEN CENTRE", "designationCode": "C", "categoryCode": "39", "address": "33 HIGH PARK GARDENS", "city": "TORONTO", "province": "ON", "country": "CA", "postalCode": "M6R1S8", "twitter": "None", "instagram": "None", "facebook": "None", "youtube": "None", "website": "None", "summary": "None", "logo": "None", "latitude": 43.648904725489174, "longitude": -79.45701907201804}, "888045861RR0001": {"name": "TORONTO'S LIVING WORD TABERNACLE", "designationCode": "C", "categoryCode": "39", "address": "STE 8 - 22 FISHLEIGH DR", "city": "SCARBOROUGH", "province": "ON", "country": "CA", "postalCode": "M1N1G9", "twitter": "None", "instagram": "None", "facebook": "None", "youtube": "None", "website": "None", "summary": "None", "logo": "None", "latitude": 43.700311789918494, "longitude": -79.25108031600196}, "119267672RR0001": {"name": "TORQUAY 50 AND OVER CLUB INC", "designationCode": "C", "categoryCode": "56", "address": "BOX 271", "city": "TORQUAY", "province": "SK", "country": "CA", "postalCode": "S0C2L0", "twitter": "None", "instagram": "None", "facebook": "None", "youtube": "None", "website": "None", "summary": "None", "logo": "None", "latitude": 49.15007000000003, "longitude": -103.50095999999996}, "131509234RR0001": {"name": "TORY HILL PASTORAL CHARGE,", "designationCode": "C", "categoryCode": "44", "address": "P O BOX 380", "city": "WILBERFORCE", "province": "ON", "country": "CA", "postalCode": "K0L3C0", "twitter": "None", "instagram": "None", "facebook": "None", "youtube": "None", "website": "None", "summary": "None", "logo": "None", "latitude": 44.99796121193059, "longitude": -78.21053236882112}, "892372566RR0001": {"name": "TOTAL CHANGE CHRISTIAN MINISTRIES", "designationCode": "B", "categoryCode": "49", "address": "100 JONES RD", "city": "CAMPBELL RIVER", "province": "BC", "country": "CA", "postalCode": "V9W2V1", "twitter": "None", "instagram": "None", "facebook": "None", "youtube": "None", "website": "None", "summary": "None", "logo": "None", "latitude": 50.00567413627445, "longitude": -125.2461547566503}, "119267714RR0001": {"name": "TOTAL COMMUNICATION ENVIRONMENT", "designationCode": "C", "categoryCode": "01", "address": "100-190 COLONNADE ROAD", "city": "NEPEAN", "province": "ON", "country": "CA", "postalCode": "K2E7J5", "twitter": "None", "instagram": "None", "facebook": "None", "youtube": "None", "website": "None", "summary": "None", "logo": "None", "latitude": 45.34232838431932, "longitude": -75.72112393085615}, "849265475RR0001": {"name": "TOTAL HEALTH FOUNDATION", "designationCode": "C", "categoryCode": "11", "address": "P.O. BOX 17, SITE I, RR 1", "city": "CONDOR", "province": "AB", "country": "CA", "postalCode": "T0M0P0", "twitter": "None", "instagram": "None", "facebook": "None", "youtube": "None", "website": "None", "summary": "None", "logo": "None", "latitude": 52.31828337975508, "longitude": -114.54915473967482}, "886293190RR0001": {"name": "TOTAL LIFE CHRISTIAN CENTRE OF RYLEY INTERDENOMINATIONAL", "designationCode": "C", "categoryCode": "39", "address": "5712 56 STREET, BOX 328", "city": "RYLEY", "province": "AB", "country": "CA", "postalCode": "T0B4A0", "twitter": "None", "instagram": "None", "facebook": "None", "youtube": "None", "website": "None", "summary": "None", "logo": "None"}, "818431348RR0001": {"name": "TOTEM CHARITABLE FOUNDATION", "designationCode": "B", "categoryCode": "03", "address": "PO BOX 1480 STN MAIN", "city": "COCHRANE", "province": "AB", "country": "CA", "postalCode": "T4C1B4", "twitter": "None", "instagram": "None", "facebook": "None", "youtube": "None", "website": "None", "summary": "None", "logo": "None", "latitude": 51.19089900000006, "longitude": -114.46804249999994}, "119267797RR0001": {"name": "TOTTENHAM UNITED CHURCH", "designationCode": "C", "categoryCode": "44", "address": "BOX 448                       26 MILL ST. E.", "city": "TOTTENHAM", "province": "ON", "country": "CA", "postalCode": "L0G1W0", "twitter": "None", "instagram": "None", "facebook": "None", "youtube": "None", "website": "None", "summary": "None", "logo": "None", "latitude": 44.02299375582245, "longitude": -79.80345661366627}, "878991801RR0001": {"name": "TOTUS TUUS ROSARY MAKERS ASSOCIATION", "designationCode": "C", "categoryCode": "39", "address": "9408 PALLISER PL. S.W.", "city": "CALGARY", "province": "AB", "country": "CA", "postalCode": "T2V3T2", "twitter": "None", "instagram": "None", "facebook": "None", "youtube": "None", "website": "None", "summary": "None", "logo": "None", "latitude": 50.97059986262902, "longitude": -114.11636813555332}, "877957209RR0001": {"name": "TOUCH OF THE HEART MINISTRY", "designationCode": "C", "categoryCode": "09", "address": "7496 ROCKHILL RD", "city": "MISSISSAUGA", "province": "ON", "country": "CA", "postalCode": "L4T2Z7", "twitter": "None", "instagram": "None", "facebook": "None", "youtube": "None", "website": "None", "summary": "None", "logo": "None", "latitude": 43.72880211489419, "longitude": -79.63867280157524}, "890245772RR0001": {"name": "TOUCHING YOUR WORLD MINISTRIES", "designationCode": "C", "categoryCode": "39", "address": "PO BOX 42113 RPO CENTRE PLAZA", "city": "MISSISSAUGA", "province": "ON", "country": "CA", "postalCode": "L5M4Z4", "twitter": "None", "instagram": "None", "facebook": "None", "youtube": "None", "website": "None", "summary": "None", "logo": "None", "latitude": 43.56015000000005, "longitude": -79.72056799999993}, "871364121RR0001": {"name": "TOUCHMARK THEATRE", "designationCode": "C", "categoryCode": "22", "address": "86 ABRAHAM DR", "city": "STRATFORD", "province": "ON", "country": "CA", "postalCode": "N5A8B1", "twitter": "None", "instagram": "None", "facebook": "None", "youtube": "None", "website": "None", "summary": "None", "logo": "None", "latitude": 43.386336251457095, "longitude": -80.96386128463837}, "864203195RR0001": {"name": "TOUCHSTONE COMMUNITY SCHOOL INC.", "designationCode": "C", "categoryCode": "20", "address": "68A HAMPTON RD", "city": "ROTHESAY", "province": "NB", "country": "CA", "postalCode": "E2E5L5", "twitter": "None", "instagram": "None", "facebook": "None", "youtube": "None", "website": "None", "summary": "None", "logo": "None", "latitude": 45.393768470170954, "longitude": -65.98683192133156}, "891205148RR0001": {"name": "TOUCHSTONE COUNSELLING GROUP INC.", "designationCode": "C", "categoryCode": "09", "address": "23 HIGH ST", "city": "MONCTON", "province": "NB", "country": "CA", "postalCode": "E1C6B4", "twitter": "None", "instagram": "None", "facebook": "None", "youtube": "None", "website": "None", "summary": "None", "logo": "None", "latitude": 46.08588771801603, "longitude": -64.78931046321203}, "131290280RR0001": {"name": "TOUCHSTONE FAMILY ASSOCIATION", "designationCode": "C", "categoryCode": "09", "address": "120-6411 BUSWELL ST.", "city": "RICHMOND", "province": "BC", "country": "CA", "postalCode": "V6Y2G5", "twitter": "None", "instagram": "None", "facebook": "None", "youtube": "None", "website": "None", "summary": "None", "logo": "None", "latitude": 49.167468502914204, "longitude": -123.13371554166403}, "119267821RR0001": {"name": "TOUCHSTONE MINISTRIES", "designationCode": "C", "categoryCode": "47", "address": "P.O. BOX 332", "city": "ORANGEVILLE", "province": "ON", "country": "CA", "postalCode": "L9W2Z7", "twitter": "None", "instagram": "None", "facebook": "None", "youtube": "None", "website": "None", "summary": "None", "logo": "None", "latitude": 43.92016800000006, "longitude": -80.09314999999994}, "126991223RR0001": {"name": "TOUCHSTONE THEATRE SOCIETY", "designationCode": "C", "categoryCode": "22", "address": "110 - 750 HAMILTON ST", "city": "VANCOUVER", "province": "BC", "country": "CA", "postalCode": "V6B2R5", "twitter": "None", "instagram": "None", "facebook": "None", "youtube": "None", "website": "None", "summary": "None", "logo": "None", "latitude": 49.279332216453, "longitude": -123.11504688704757}, "105329957RR0001": {"name": "TOUCHSTONE: HERITAGE AND THEOLOGY IN A NEW AGE INC.", "designationCode": "C", "categoryCode": "47", "address": "350 DOE LAKE ROAD", "city": "KATRINE", "province": "ON", "country": "CA", "postalCode": "P0A1L0", "twitter": "None", "instagram": "None", "facebook": "None", "youtube": "None", "website": "None", "summary": "None", "logo": "None", "latitude": 45.567360542356546, "longitude": -79.3711821354664}, "119106318RR0001": {"name": "TOUCHWOOD HILLS COMMUNITY CHURCH, INC.", "designationCode": "C", "categoryCode": "39", "address": "PO BOX 123", "city": "PUNNICHY", "province": "SK", "country": "CA", "postalCode": "S0A3C0", "twitter": "None", "instagram": "None", "facebook": "None", "youtube": "None", "website": "None", "summary": "None", "logo": "None", "latitude": 51.38337000000007, "longitude": -104.30108999999999}, "828732321RR0001": {"name": "TOUCHWOOD HILLS MOBILITY BUS INC.", "designationCode": "C", "categoryCode": "09", "address": "P.O. BOX 216", "city": "RAYMORE", "province": "SK", "country": "CA", "postalCode": "S0A3J0", "twitter": "None", "instagram": "None", "facebook": "None", "youtube": "None", "website": "None", "summary": "None", "logo": "None", "latitude": 51.409260000000074, "longitude": -104.52537999999998}, "106731995RR0001": {"name": "TOUCHWOOD PARK ASSOCIATION INC.", "designationCode": "C", "categoryCode": "11", "address": "BOX 1149                      284 MOUNTAIN AVENUE", "city": "NEEPAWA", "province": "MB", "country": "CA", "postalCode": "R0J1H0", "twitter": "None", "instagram": "None", "facebook": "None", "youtube": "None", "website": "None", "summary": "None", "logo": "None", "latitude": 50.23173307338206, "longitude": -99.46634768559929}, "105330146RR0001": {"name": "TOUJOURS ENSEMBLE INC.", "designationCode": "C", "categoryCode": "22", "address": "4926 RUE VERDUN", "city": "VERDUN", "province": "QC", "country": "CA", "postalCode": "H4G1N3", "twitter": "None", "instagram": "None", "facebook": "None", "youtube": "None", "website": "None", "summary": "None", "logo": "None", "latitude": 45.45660504662706, "longitude": -73.57188495418102}, "856173240RR0001": {"name": "TOUR DES ENFANTS", "designationCode": "C", "categoryCode": "22", "address": "125, RUE SAINT-NORBERT", "city": "MONTREAL", "province": "QC", "country": "CA", "postalCode": "H2X1G5", "twitter": "None", "instagram": "None", "facebook": "None", "youtube": "None", "website": "None", "summary": "None", "logo": "None", "latitude": 45.51304187760402, "longitude": -73.56785763962134}, "893824623RR0001": {"name": "TOURETTE SYNDROME ASSOCIATION OF ONTARIO", "designationCode": "C", "categoryCode": "11", "address": "42 DAYFOOT DR", "city": "GEORGETOWN", "province": "ON", "country": "CA", "postalCode": "L7G2L1", "twitter": "None", "instagram": "None", "facebook": "None", "youtube": "None", "website": "None", "summary": "None", "logo": "None", "latitude": 43.65332922344037, "longitude": -79.9271175431646}, "119267870RR0001": {"name": "TOURISM INDUSTRY ASSOCIATION OF NOVA SCOTIA", "designationCode": "C", "categoryCode": "59", "address": "2089 MAITLAND ST.", "city": "HALIFAX", "province": "NS", "country": "CA", "postalCode": "B3K2Z8", "twitter": "None", "instagram": "None", "facebook": "None", "youtube": "None", "website": "None", "summary": "None", "logo": "None", "latitude": 44.6518427632581, "longitude": -63.581716341652765}, "869729525RR0001": {"name": "TOURNENVERT", "designationCode": "C", "categoryCode": "59", "address": "68, RUE AUGUSTA", "city": "MORIN-HEIGHTS", "province": "QC", "country": "CA", "postalCode": "J0R1H0", "twitter": "None", "instagram": "None", "facebook": "None", "youtube": "None", "website": "None", "summary": "None", "logo": "None", "latitude": 45.89310117958328, "longitude": -74.2209168985516}, "892601683RR0001": {"name": "TOVARISCH FOUNDATION", "designationCode": "B", "categoryCode": "03", "address": "201 - 2377 BEVAN AVE", "city": "SIDNEY", "province": "BC", "country": "CA", "postalCode": "V8L4M9", "twitter": "None", "instagram": "None", "facebook": "None", "youtube": "None", "website": "None", "summary": "None", "logo": "None", "latitude": 48.64763049567217, "longitude": -123.4008315}, "854062924RR0001": {"name": "TOWDAH GOSPEL MINISTRY", "designationCode": "C", "categoryCode": "39", "address": "1 DEAN PARK ROAD              SUITE #206", "city": "SCARBOROUGH", "province": "ON", "country": "CA", "postalCode": "M1B2W5", "twitter": "None", "instagram": "None", "facebook": "None", "youtube": "None", "website": "None", "summary": "None", "logo": "None", "latitude": 43.80460977517464, "longitude": -79.17082923336638}, "119267920RR0001": {"name": "TOWERS BAPTIST CHURCH,", "designationCode": "C", "categoryCode": "31", "address": "10311 ALBION ROAD", "city": "RICHMOND", "province": "BC", "country": "CA", "postalCode": "V7A3E5", "twitter": "None", "instagram": "None", "facebook": "None", "youtube": "None", "website": "None", "summary": "None", "logo": "None", "latitude": 49.14163552322661, "longitude": -123.10981272300768}, "108124496RR0001": {"name": "TOWN DAYCARE CENTRE", "designationCode": "C", "categoryCode": "01", "address": "15 SECOND ST", "city": "GLACE BAY", "province": "NS", "country": "CA", "postalCode": "B1A4E9", "twitter": "None", "instagram": "None", "facebook": "None", "youtube": "None", "website": "None", "summary": "None", "logo": "None", "latitude": 46.21127524372414, "longitude": -59.96321298727538}, "119267953RR0001": {"name": "TOWN HALL 1873", "designationCode": "C", "categoryCode": "22", "address": "302 QUEEN STREET", "city": "PORT PERRY", "province": "ON", "country": "CA", "postalCode": "L9L1J9", "twitter": "None", "instagram": "None", "facebook": "None", "youtube": "None", "website": "None", "summary": "None", "logo": "None", "latitude": 44.10342925255362, "longitude": -78.94749057395128}, "119267995RR0001": {"name": "TOWN OF LINCOLN CONCERT BAND", "designationCode": "C", "categoryCode": "22", "address": "4800 SOUTH SERVICE ROAD", "city": "BEAMSVILLE", "province": "ON", "country": "CA", "postalCode": "L0R1B1", "twitter": "None", "instagram": "None", "facebook": "None", "youtube": "None", "website": "None", "summary": "None", "logo": "None", "latitude": 43.18830554616571, "longitude": -79.46450235651217}, "848461521RR0001": {"name": "TOWN OF PICTOU VOLUNTEER FIRE FIGHTERS SOCIETY", "designationCode": "A", "categoryCode": "03", "address": "263 PRINCE STREET             PO BOX 2093", "city": "PICTOU", "province": "NS", "country": "CA", "postalCode": "B0K1W0", "twitter": "None", "instagram": "None", "facebook": "None", "youtube": "None", "website": "None", "summary": "None", "logo": "None", "latitude": 45.68413954841606, "longitude": -62.717264269864934}, "119268035RR0001": {"name": "TOWNSEND COMMUNITY CHURCH", "designationCode": "C", "categoryCode": "39", "address": "85 NANTICOKE CREEK PKWY       P.O. BOX 5164", "city": "TOWNSEND", "province": "ON", "country": "CA", "postalCode": "N0A1S0", "twitter": "None", "instagram": "None", "facebook": "None", "youtube": "None", "website": "None", "summary": "None", "logo": "None", "latitude": 42.89294959680007, "longitude": -80.14404380652647}, "129674453RR0001": {"name": "TOWNSHIP OF BROCK PUBLIC LIBRARY BOARD", "designationCode": "C", "categoryCode": "50", "address": "P.O.BOX 310                   401 SIMCOE ST", "city": "BEAVERTON", "province": "ON", "country": "CA", "postalCode": "L0K1A0", "twitter": "None", "instagram": "None", "facebook": "None", "youtube": "None", "website": "None", "summary": "None", "logo": "None", "latitude": 44.42915713737097, "longitude": -79.15250865987643}, "868427899RR0001": {"name": "TOWNSHIP OF FRONT OF YONGE PUBLIC LIBRARY BOARD", "designationCode": "C", "categoryCode": "50", "address": "BOX 250", "city": "MALLORYTOWN", "province": "ON", "country": "CA", "postalCode": "K0E1R0", "twitter": "None", "instagram": "None", "facebook": "None", "youtube": "None", "website": "None", "summary": "None", "logo": "None", "latitude": 44.46844056599778, "longitude": -75.8640105}, "138220884RR0001": {"name": "TOWNSHIP OF GEORGIAN BAY LIBRARY BOARD", "designationCode": "C", "categoryCode": "50", "address": "BOX 220                       2587 HONEY HARBOUR RD", "city": "HONEY HARBOUR", "province": "ON", "country": "CA", "postalCode": "P0E1E0", "twitter": "None", "instagram": "None", "facebook": "None", "youtube": "None", "website": "None", "summary": "None", "logo": "None", "latitude": 44.86741997362806, "longitude": -79.81996797530148}, "130294853RR0001": {"name": "TOWNSHIP OF OSGOODE HOME SUPPORT PROGRAM", "designationCode": "C", "categoryCode": "09", "address": "P.O. BOX 104", "city": "METCALFE", "province": "ON", "country": "CA", "postalCode": "K0A2P0", "twitter": "None", "instagram": "None", "facebook": "None", "youtube": "None", "website": "None", "summary": "None", "logo": "None", "latitude": 45.216193377378154, "longitude": -76.19296584601686}, "888287224RR0001": {"name": "TOWNSHIP OF RAMARA PUBLIC LIBRARY", "designationCode": "C", "categoryCode": "55", "address": "P.O. BOX 158", "city": "BRECHIN", "province": "ON", "country": "CA", "postalCode": "L0K1B0", "twitter": "None", "instagram": "None", "facebook": "None", "youtube": "None", "website": "None", "summary": "None", "logo": "None", "latitude": 44.61056390491339, "longitude": -79.11780209458949}, "138959549RR0001": {"name": "TOWNSITE HERITAGE SOCIETY OF POWELL RIVER", "designationCode": "C", "categoryCode": "52", "address": "6211 WALNUT ST", "city": "POWELL RIVER", "province": "BC", "country": "CA", "postalCode": "V8A4K2", "twitter": "None", "instagram": "None", "facebook": "None", "youtube": "None", "website": "None", "summary": "None", "logo": "None", "latitude": 49.8745223910036, "longitude": -124.55391123139178}, "875904674RR0001": {"name": "TOWNSITE OF REDWOOD MEADOWS ADMINISTRATION SOCIETY", "designationCode": "C", "categoryCode": "59", "address": "1 MANYHORSES DRIVE", "city": "REDWOOD MEADOWS", "province": "AB", "country": "CA", "postalCode": "T3Z1A4", "twitter": "None", "instagram": "None", "facebook": "None", "youtube": "None", "website": "None", "summary": "None", "logo": "None", "latitude": 50.98805565901167, "longitude": -114.50288457542159}, "870256138RR0001": {"name": "TOXIC FREE CANADA SOCIETY", "designationCode": "C", "categoryCode": "23", "address": "7798 STANLEY STREET", "city": "BURNABY", "province": "BC", "country": "CA", "postalCode": "V5E1V8", "twitter": "None", "instagram": "None", "facebook": "None", "youtube": "None", "website": "None", "summary": "None", "logo": "None", "latitude": 49.23373298998802, "longitude": -122.9496677675286}, "894859875RR0001": {"name": "TOXIC-ACTIONS", "designationCode": "C", "categoryCode": "09", "address": "141 - 1440 BOUL WALLBERG", "city": "DOLBEAU-MISTASSINI", "province": "QC", "country": "CA", "postalCode": "G8L1H4", "twitter": "None", "instagram": "None", "facebook": "None", "youtube": "None", "website": "None", "summary": "None", "logo": "None", "latitude": 48.87907346601066, "longitude": -72.229140771972}, "861413235RR0001": {"name": "TOXICO DU NORD INC.", "designationCode": "C", "categoryCode": "57", "address": "4450 RUE ST-JACQUE OUEST      SUITE 710", "city": "MONTR\u00c9AL", "province": "QC", "country": "CA", "postalCode": "H4C3L4", "twitter": "None", "instagram": "None", "facebook": "None", "youtube": "None", "website": "None", "summary": "None", "logo": "None", "latitude": 45.475649330544265, "longitude": -73.5908426411219}, "860057876RR0001": {"name": "TOYICH INTERNATIONAL PROJECTS", "designationCode": "C", "categoryCode": "22", "address": "20 PRINCE ARTHUR AVE.         SUITE 17-D", "city": "TORONTO", "province": "ON", "country": "CA", "postalCode": "M5R1B1", "twitter": "None", "instagram": "None", "facebook": "None", "youtube": "None", "website": "None", "summary": "None", "logo": "None", "latitude": 43.66957718737358, "longitude": -79.39638972191116}, "119268100RR0001": {"name": "TOYOTA CANADA FOUNDATION/FONDATION TOYOTA CANADA", "designationCode": "B", "categoryCode": "23", "address": "ONE TOYOTA PLACE", "city": "SCARBOROUGH", "province": "ON", "country": "CA", "postalCode": "M1H1H9", "twitter": "None", "instagram": "None", "facebook": "None", "youtube": "None", "website": "None", "summary": "None", "logo": "None", "latitude": 43.78127336440928, "longitude": -79.24436587527563}, "882034697RR0001": {"name": "TOZAN CULTURAL SOCIETY", "designationCode": "C", "categoryCode": "22", "address": "BOX 307, STATION A", "city": "NANAIMO", "province": "BC", "country": "CA", "postalCode": "V9R5L3", "twitter": "None", "instagram": "None", "facebook": "None", "youtube": "None", "website": "None", "summary": "None", "logo": "None", "latitude": 49.164243000000056, "longitude": -123.93616399999993}, "861460343RR0001": {"name": "TR CARES (TUMBLER RIDGE COMMUNITY ASSOCIATION RESPONDING TO EXTENDED SERVICES)", "designationCode": "C", "categoryCode": "59", "address": "BOX 576", "city": "TUMBLER RIDGE", "province": "BC", "country": "CA", "postalCode": "V0C2W0", "twitter": "None", "instagram": "None", "facebook": "None", "youtube": "None", "website": "None", "summary": "None", "logo": "None", "latitude": 55.12436000000008, "longitude": -120.99868999999995}, "872529375RR0001": {"name": "TRAC TENANT RESOURCE & ADVISORY CENTRE SOCIETY", "designationCode": "C", "categoryCode": "29", "address": "3-1070 WEST PENDER ST", "city": "VANCOUVER", "province": "BC", "country": "CA", "postalCode": "V6E2N7", "twitter": "None", "instagram": "None", "facebook": "None", "youtube": "None", "website": "None", "summary": "None", "logo": "None", "latitude": 49.28732990755398, "longitude": -123.1198691579432}, "141019539RR0001": {"name": "TRACADIE & DISTRICT VOLUNTEER FIRE DEPARTMENT", "designationCode": "C", "categoryCode": "59", "address": "RR 2", "city": "HAVRE BOUCHER", "province": "NS", "country": "CA", "postalCode": "B0H1P0", "twitter": "None", "instagram": "None", "facebook": "None", "youtube": "None", "website": "None", "summary": "None", "logo": "None", "latitude": 45.621447122845275, "longitude": -61.495352461841065}, "119268167RR0001": {"name": "TRACY STATION UNITED BAPTIST CHURCH,", "designationCode": "C", "categoryCode": "31", "address": "42 WILLOW AVE", "city": "TRACY", "province": "NB", "country": "CA", "postalCode": "E5L1A2", "twitter": "None", "instagram": "None", "facebook": "None", "youtube": "None", "website": "None", "summary": "None", "logo": "None", "latitude": 45.670624971983294, "longitude": -66.68390352198587}, "899190987RR0001": {"name": "TRADEWORKS TRAINING SOCIETY", "designationCode": "C", "categoryCode": "59", "address": "882 EAST CORDOVA ST.", "city": "VANCOUVER", "province": "BC", "country": "CA", "postalCode": "V6A1M4", "twitter": "None", "instagram": "None", "facebook": "None", "youtube": "None", "website": "None", "summary": "None", "logo": "None", "latitude": 49.28201252120741, "longitude": -123.08538077699231}, "863714499RR0001": {"name": "TRADITIONAL EXPLORERS ASSOCIATION COUNCIL OF ONTARIO", "designationCode": "C", "categoryCode": "29", "address": "11 CROSSWOOD LANE", "city": "BRAMPTON", "province": "ON", "country": "CA", "postalCode": "L6V3M1", "twitter": "None", "instagram": "None", "facebook": "None", "youtube": "None", "website": "None", "summary": "None", "logo": "None", "latitude": 43.71152727866576, "longitude": -79.77188507325879}, "119268209RR0001": {"name": "TRAFALGAR CASTLE SCHOOL", "designationCode": "C", "categoryCode": "20", "address": "401 REYNOLDS ST", "city": "WHITBY", "province": "ON", "country": "CA", "postalCode": "L1N3W9", "twitter": "None", "instagram": "None", "facebook": "None", "youtube": "None", "website": "None", "summary": "None", "logo": "None", "latitude": 43.87821176784492, "longitude": -78.93474116824882}, "119288918RR1268": {"name": "TRAFALGAR CONGREGATION OF JEHOVAH'S WITNESSES", "designationCode": "C", "categoryCode": "61", "address": "459 SECOND ST", "city": "LONDON", "province": "ON", "country": "CA", "postalCode": "N5V2B1", "twitter": "None", "instagram": "None", "facebook": "None", "youtube": "None", "website": "None", "summary": "None", "logo": "None", "latitude": 43.00353938152786, "longitude": -81.19123096023323}, "875020828RR0001": {"name": "TRAFALGAR DISTANCE LEARNING INSTITUTE", "designationCode": "C", "categoryCode": "11", "address": "4909B - 48TH STREET           SUITE 203", "city": "RED DEER", "province": "AB", "country": "CA", "postalCode": "T4N1S8", "twitter": "None", "instagram": "None", "facebook": "None", "youtube": "None", "website": "None", "summary": "None", "logo": "None", "latitude": 52.267011686072806, "longitude": -113.81184090058427}, "803037803RR0001": {"name": "TRAFALGAR OAKS CHILD CARE & LEARNING CENTRE", "designationCode": "C", "categoryCode": "01", "address": "300 RIVER OAKS BLVD E", "city": "OAKVILLE", "province": "ON", "country": "CA", "postalCode": "L6H5T1", "twitter": "None", "instagram": "None", "facebook": "None", "youtube": "None", "website": "None", "summary": "None", "logo": "None", "latitude": 43.47674959501444, "longitude": -79.70580071308261}, "108135609RR0001": {"name": "TRAFALGAR OUT-OF-SCHOOL CARE SOCIETY", "designationCode": "C", "categoryCode": "01", "address": "4020 TRAFALGAR ST", "city": "VANCOUVER", "province": "BC", "country": "CA", "postalCode": "V6L2M5", "twitter": "None", "instagram": "None", "facebook": "None", "youtube": "None", "website": "None", "summary": "None", "logo": "None", "latitude": 49.25013296863639, "longitude": -123.16525994939184}, "119268225RR0001": {"name": "TRAFALGAR PRESBYTERIAN CHURCH", "designationCode": "C", "categoryCode": "37", "address": "354 UPPER MIDDLE RD EAST", "city": "OAKVILLE", "province": "ON", "country": "CA", "postalCode": "L6H7H4", "twitter": "None", "instagram": "None", "facebook": "None", "youtube": "None", "website": "None", "summary": "None", "logo": "None", "latitude": 43.4758867657396, "longitude": -79.700840210774}, "119268233RR0001": {"name": "TRAFALGAR ROSS FOUNDATION/FONDATION TRAFALGAR ROSS", "designationCode": "A", "categoryCode": "23", "address": "3495 SIMPSON ST.", "city": "MONTREAL", "province": "QC", "country": "CA", "postalCode": "H3G2J7", "twitter": "None", "instagram": "None", "facebook": "None", "youtube": "None", "website": "None", "summary": "None", "logo": "None", "latitude": 45.49852410104437, "longitude": -73.58389050317399}, "108135625RR0001": {"name": "TRAFALGAR SCHOOL FOR GIRLS", "designationCode": "C", "categoryCode": "20", "address": "3495 SIMPSON ST", "city": "MONTREAL", "province": "QC", "country": "CA", "postalCode": "H3G2J7", "twitter": "None", "instagram": "None", "facebook": "None", "youtube": "None", "website": "None", "summary": "None", "logo": "None", "latitude": 45.49852410104437, "longitude": -73.58389050317399}, "108135641RR0001": {"name": "TRAFFIC INJURY RESEARCH FOUNDATION OF CANADA/FONDATION DE R ECHERCHES SUR LES BLESSURES DE LA ROUTE AU CANADA", "designationCode": "C", "categoryCode": "11", "address": "171 NEPEAN ST SUITE 200", "city": "OTTAWA", "province": "ON", "country": "CA", "postalCode": "K2P0B4", "twitter": "None", "instagram": "None", "facebook": "None", "youtube": "None", "website": "None", "summary": "None", "logo": "None", "latitude": 45.4176003341796, "longitude": -75.6974625863292}, "108135815RR0001": {"name": "TRAIL & DISTRICT PUBLIC LIBRARY", "designationCode": "C", "categoryCode": "50", "address": "1051 VICTORIA STREET", "city": "TRAIL", "province": "BC", "country": "CA", "postalCode": "V1R3T3", "twitter": "None", "instagram": "None", "facebook": "None", "youtube": "None", "website": "None", "summary": "None", "logo": "None", "latitude": 49.09787847375465, "longitude": -117.70921414302452}, "118987007RR0001": {"name": "TRAIL ASSOCIATION FOR COMMUNITY LIVING", "designationCode": "C", "categoryCode": "11", "address": "PO BOX 131", "city": "TRAIL", "province": "BC", "country": "CA", "postalCode": "V1R4L3", "twitter": "None", "instagram": "None", "facebook": "None", "youtube": "None", "website": "None", "summary": "None", "logo": "None", "latitude": 49.096419000000054, "longitude": -117.71217349999993}, "108135724RR0001": {"name": "TRAIL DISTRICT DAY CARE SOCIETY", "designationCode": "C", "categoryCode": "09", "address": "1583 5TH AVE", "city": "TRAIL", "province": "BC", "country": "CA", "postalCode": "V1R1T9", "twitter": "None", "instagram": "None", "facebook": "None", "youtube": "None", "website": "None", "summary": "None", "logo": "None", "latitude": 49.09917669770948, "longitude": -117.69864624592653}, "131326100RR0001": {"name": "TRAIL FAMILY & INDIVIDUAL RESOURCE CENTRE SOCIETY", "designationCode": "C", "categoryCode": "09", "address": "2079 COLUMBIA AVE", "city": "TRAIL", "province": "BC", "country": "CA", "postalCode": "V1R1K7", "twitter": "None", "instagram": "None", "facebook": "None", "youtube": "None", "website": "None", "summary": "None", "logo": "None", "latitude": 49.09566943493554, "longitude": -117.69314525160132}, "119268332RR0001": {"name": "TRAIL MAPLE LEAF BAND", "designationCode": "C", "categoryCode": "22", "address": "876 WATERLOO ROAD", "city": "CASTLEGAR", "province": "BC", "country": "CA", "postalCode": "V1N4K8", "twitter": "None", "instagram": "None", "facebook": "None", "youtube": "None", "website": "None", "summary": "None", "logo": "None", "latitude": 49.28006385269925, "longitude": -117.6368118033494}, "717038129RR0001": {"name": "TRAIL OF THE CARIBOU RESEARCH GROUP INC.", "designationCode": "C", "categoryCode": "50", "address": "14 BOCKER PL", "city": "PORTUGAL COVE-ST PHILIPS", "province": "NL", "country": "CA", "postalCode": "A1M2J9", "twitter": "None", "instagram": "None", "facebook": "None", "youtube": "None", "website": "None", "summary": "None", "logo": "None", "latitude": 47.630013592332595, "longitude": -52.84366919770365}, "119268357RR0001": {"name": "TRAIL PIPE BAND", "designationCode": "C", "categoryCode": "22", "address": "BOX 68", "city": "TRAIL", "province": "BC", "country": "CA", "postalCode": "V1R4L3", "twitter": "None", "instagram": "None", "facebook": "None", "youtube": "None", "website": "None", "summary": "None", "logo": "None", "latitude": 49.096419000000054, "longitude": -117.71217349999993}, "118818491RR0045": {"name": "TRAIL SEVENTH-DAY ADVENTIST CHURCH", "designationCode": "C", "categoryCode": "41", "address": "PO 1000", "city": "ABBOTSFORD", "province": "BC", "country": "CA", "postalCode": "V2S4P5", "twitter": "None", "instagram": "None", "facebook": "None", "youtube": "None", "website": "None", "summary": "None", "logo": "None", "latitude": 49.03851300000005, "longitude": -122.29441549999993}, "119288918RR0005": {"name": "TRAIL, B C CONGREGATION OF JEHOVAH'S WITNESSES,", "designationCode": "C", "categoryCode": "61", "address": "3670 COTTONWOOD DR", "city": "TRAIL", "province": "BC", "country": "CA", "postalCode": "V1R2S5", "twitter": "None", "instagram": "None", "facebook": "None", "youtube": "None", "website": "None", "summary": "None", "logo": "None", "latitude": 49.098193837901874, "longitude": -117.66108403217166}, "855250171RR0001": {"name": "TRAILBLAZERS LIFE CHOICES INC.", "designationCode": "C", "categoryCode": "59", "address": "5 - 1031 AUTUMNWOOD DR", "city": "WINNIPEG", "province": "MB", "country": "CA", "postalCode": "R2J1C6", "twitter": "None", "instagram": "None", "facebook": "None", "youtube": "None", "website": "None", "summary": "None", "logo": "None", "latitude": 49.863033, "longitude": -97.07820986323554}, "867864753RR0001": {"name": "TRAILBLAZERS TANDEM CYCLING CLUB", "designationCode": "C", "categoryCode": "56", "address": "578 CONCORD AVE", "city": "TORONTO", "province": "ON", "country": "CA", "postalCode": "M6H2R1", "twitter": "None", "instagram": "None", "facebook": "None", "youtube": "None", "website": "None", "summary": "None", "logo": "None", "latitude": 43.6692866544521, "longitude": -79.4300062511973}, "803675446RR0001": {"name": "TRAILS FOR CRESTON VALLEY SOCIETY", "designationCode": "C", "categoryCode": "50", "address": "413 7 AVE S", "city": "CRESTON", "province": "BC", "country": "CA", "postalCode": "V0B1G3", "twitter": "None", "instagram": "None", "facebook": "None", "youtube": "None", "website": "None", "summary": "None", "logo": "None", "latitude": 49.091336748542915, "longitude": -116.5174218440187}, "886334481RR0001": {"name": "TRAILS SOCIETY OF BRITISH COLUMBIA", "designationCode": "C", "categoryCode": "56", "address": "901 4TH ST. S.", "city": "CRANBROOK", "province": "BC", "country": "CA", "postalCode": "V1C1H6", "twitter": "None", "instagram": "None", "facebook": "None", "youtube": "None", "website": "None", "summary": "None", "logo": "None", "latitude": 49.50483953952925, "longitude": -115.76877202553523}, "135050755RR0001": {"name": "TRAILS YOUTH INITIATIVES INC.", "designationCode": "C", "categoryCode": "56", "address": "15599 WARDEN AVE", "city": "STOUFFVILLE", "province": "ON", "country": "CA", "postalCode": "L4A2M9", "twitter": "None", "instagram": "None", "facebook": "None", "youtube": "None", "website": "None", "summary": "None", "logo": "None", "latitude": 44.03020932518877, "longitude": -79.37191252299893}, "108135880RR0001": {"name": "TRAILVIEW ALLIANCE CHURCH OF SWIFT CURRENT", "designationCode": "C", "categoryCode": "39", "address": "298 BATTLEFORD TRAIL", "city": "SWIFT CURRENT", "province": "SK", "country": "CA", "postalCode": "S9H4L2", "twitter": "None", "instagram": "None", "facebook": "None", "youtube": "None", "website": "None", "summary": "None", "logo": "None", "latitude": 50.30195452784384, "longitude": -107.80658218318996}, "898754536RR0001": {"name": "TRAINING EVANGELISTIC LEADERSHIP SOCIETY OF CANADA", "designationCode": "C", "categoryCode": "49", "address": "13907-110 AVENUE", "city": "EDMONTON", "province": "AB", "country": "CA", "postalCode": "T5M2M4", "twitter": "None", "instagram": "None", "facebook": "None", "youtube": "None", "website": "None", "summary": "None", "logo": "None", "latitude": 53.55715853231591, "longitude": -113.56191}, "107623431RR0001": {"name": "TRAIT D'UNION DE VICTORIAVILLE", "designationCode": "C", "categoryCode": "29", "address": "288, NOTRE-DAME OUEST", "city": "VICTORIAVILLE", "province": "QC", "country": "CA", "postalCode": "G6P1S4", "twitter": "None", "instagram": "None", "facebook": "None", "youtube": "None", "website": "None", "summary": "None", "logo": "None", "latitude": 46.05836930004604, "longitude": -71.96556871412088}, "890344187RR0001": {"name": "TRAIT D'UNION LA SARRE", "designationCode": "C", "categoryCode": "09", "address": "C.P.25", "city": "LA SARRE", "province": "QC", "country": "CA", "postalCode": "J9Z2X4", "twitter": "None", "instagram": "None", "facebook": "None", "youtube": "None", "website": "None", "summary": "None", "logo": "None", "latitude": 48.811513415938514, "longitude": -79.20541136630311}, "125951327RR0001": {"name": "TRAIT D'UNION OUTAOUAIS INC", "designationCode": "C", "categoryCode": "09", "address": "109, RUE WRIGHT               BUREAU 104", "city": "GATINEAU", "province": "QC", "country": "CA", "postalCode": "J8X2G7", "twitter": "None", "instagram": "None", "facebook": "None", "youtube": "None", "website": "None", "summary": "None", "logo": "None", "latitude": 45.42702050432782, "longitude": -75.71872264071786}, "895411494RR0001": {"name": "TRAIT-D'UNION MONTERGIEN", "designationCode": "C", "categoryCode": "09", "address": "1195 RUE ST-ANTOINE           BUREAU 201", "city": "ST-HYACINTHE", "province": "QC", "country": "CA", "postalCode": "J2S3K6", "twitter": "None", "instagram": "None", "facebook": "None", "youtube": "None", "website": "None", "summary": "None", "logo": "None", "latitude": 45.625280134601034, "longitude": -72.94288513737098}, "134021641RR0001": {"name": "TRAJECTOIRES HOMMES DU K.R.T.B.", "designationCode": "C", "categoryCode": "09", "address": "48 TEMISCOUATA B.P.5", "city": "RIVI\u00c8RE-DU-LOUP", "province": "QC", "country": "CA", "postalCode": "G5R2X9", "twitter": "None", "instagram": "None", "facebook": "None", "youtube": "None", "website": "None", "summary": "None", "logo": "None", "latitude": 47.82627208520402, "longitude": -69.52698015113387}, "888030137RR0001": {"name": "TRAME (RESSOURCE ALTERNATIVE)", "designationCode": "C", "categoryCode": "09", "address": "4426 RUE ST-AND\u00c9", "city": "MONTREAL", "province": "QC", "country": "CA", "postalCode": "H2J2Z4", "twitter": "None", "instagram": "None", "facebook": "None", "youtube": "None", "website": "None", "summary": "None", "logo": "None", "latitude": 45.52577700000006, "longitude": -73.57924249999994}, "866226772RR0001": {"name": "TRAME D'ACTIONS ET D'INITIATIVES CONCERTEES (T.R.A.I.C.) JEUNESSE", "designationCode": "C", "categoryCode": "09", "address": "2120, RUE BOIVIN", "city": "STE-FOY", "province": "QC", "country": "CA", "postalCode": "G1V1N7", "twitter": "None", "instagram": "None", "facebook": "None", "youtube": "None", "website": "None", "summary": "None", "logo": "None", "latitude": 46.790467226787264, "longitude": -71.27086906165934}, "137496741RR0001": {"name": "TRANS CANADA TRAIL - SENTIER TRANSCANADIEN", "designationCode": "C", "categoryCode": "56", "address": "321, RUE DE LA COMMUNE O      PORTE 300", "city": "MONTREAL", "province": "QC", "country": "CA", "postalCode": "H2Y2E1", "twitter": "None", "instagram": "None", "facebook": "None", "youtube": "None", "website": "None", "summary": "None", "logo": "None", "latitude": 45.500656065497175, "longitude": -73.55352909342697}, "868057142RR0001": {"name": "TRANS COUNTY TRANSPORTATION SOCIETY (TCTS)", "designationCode": "C", "categoryCode": "09", "address": "P.O. BOX 193", "city": "BRIDGETOWN", "province": "NS", "country": "CA", "postalCode": "B0S1C0", "twitter": "None", "instagram": "None", "facebook": "None", "youtube": "None", "website": "None", "summary": "None", "logo": "None", "latitude": 44.85015000000004, "longitude": -65.29881999999998}, "891851446RR0001": {"name": "TRANS RUSSIAN INDIGENOUS MISSION", "designationCode": "C", "categoryCode": "47", "address": "17697 WYTON DR", "city": "THORNDALE", "province": "ON", "country": "CA", "postalCode": "N0M2P0", "twitter": "None", "instagram": "None", "facebook": "None", "youtube": "None", "website": "None", "summary": "None", "logo": "None", "latitude": 43.09028611270302, "longitude": -81.09048308811913}, "119129427RR0001": {"name": "TRANS WORLD RADIO CANADA", "designationCode": "C", "categoryCode": "47", "address": "PO BOX 25324", "city": "LONDON", "province": "ON", "country": "CA", "postalCode": "N6C6B1", "twitter": "None", "instagram": "None", "facebook": "None", "youtube": "None", "website": "None", "summary": "None", "logo": "None", "latitude": 42.98689500000006, "longitude": -81.24624349999993}, "865156632RR0001": {"name": "TRANS-ART 2000", "designationCode": "C", "categoryCode": "22", "address": "419, ST-ROCH BUR.SS35", "city": "MONTREAL", "province": "QC", "country": "CA", "postalCode": "H3N1K2", "twitter": "None", "instagram": "None", "facebook": "None", "youtube": "None", "website": "None", "summary": "None", "logo": "None", "latitude": 45.53121014293955, "longitude": -73.62847271830448}, "130620743RR0001": {"name": "TRANS-HIMALAYAN AID SOCIETY", "designationCode": "C", "categoryCode": "01", "address": "1183 MELVILLE ST", "city": "VANCOUVER", "province": "BC", "country": "CA", "postalCode": "V6E2X5", "twitter": "None", "instagram": "None", "facebook": "None", "youtube": "None", "website": "None", "summary": "None", "logo": "None", "latitude": 49.28771390857447, "longitude": -123.12380546579101}, "119268589RR0001": {"name": "TRANS-PROVINCIAL EDUCATION FOUNDATION", "designationCode": "A", "categoryCode": "23", "address": "202 - 2630 RUTHERFORD RD", "city": "CONCORD", "province": "ON", "country": "CA", "postalCode": "L4K0H2", "twitter": "None", "instagram": "None", "facebook": "None", "youtube": "None", "website": "None", "summary": "None", "logo": "None", "latitude": 43.834009622843816, "longitude": -79.52004716191439}, "119142412RR0001": {"name": "TRANSCARE COMMUNITY SUPPORT SERVICES", "designationCode": "C", "categoryCode": "09", "address": "1045 MCNICOLL AVE.", "city": "SCARBOROUGH", "province": "ON", "country": "CA", "postalCode": "M1W3W6", "twitter": "None", "instagram": "None", "facebook": "None", "youtube": "None", "website": "None", "summary": "None", "logo": "None", "latitude": 43.80416177655963, "longitude": -79.33388615251886}, "825416753RR0001": {"name": "TRANSCONA ALLIANCE CHURCH INC.", "designationCode": "C", "categoryCode": "39", "address": "751 KILDARE AVENUE EAST", "city": "WINNIPEG", "province": "MB", "country": "CA", "postalCode": "R2C0P9", "twitter": "None", "instagram": "None", "facebook": "None", "youtube": "None", "website": "None", "summary": "None", "logo": "None", "latitude": 49.900841453257385, "longitude": -96.98040955536962}, "108136342RR0001": {"name": "TRANSCONA CHRISTIAN REFORMED CHURCH INC.", "designationCode": "C", "categoryCode": "39", "address": "BOX 62058, TRANSCONA RPO", "city": "WINNIPEG", "province": "MB", "country": "CA", "postalCode": "R2C5G2", "twitter": "None", "instagram": "None", "facebook": "None", "youtube": "None", "website": "None", "summary": "None", "logo": "None", "latitude": 49.90015262318507, "longitude": -97.02950803629832}}