{"107649766RR0001": {"name": "LUTHERAN CHURCH OF OUR SAVIOUR", "designationCode": "C", "categoryCode": "32", "address": "8831 FAIRMOUNT DR S E", "city": "CALGARY 30", "province": "AB", "country": "CA", "postalCode": "T2H0Z4", "twitter": "None", "instagram": "None", "facebook": "None", "youtube": "None", "website": "None", "summary": "None", "logo": "None", "latitude": 50.97490423175026, "longitude": -114.05979138164336}, "129332011RR0001": {"name": "LUTHERAN CHURCH OF OUR SAVIOUR", "designationCode": "C", "categoryCode": "32", "address": "255 PORTLAND STREET", "city": "DARTMOUTH", "province": "NS", "country": "CA", "postalCode": "B2Y1J8", "twitter": "None", "instagram": "None", "facebook": "None", "youtube": "None", "website": "None", "summary": "None", "logo": "None", "latitude": 44.66892290787108, "longitude": -63.5590549997402}, "842448714RR0001": {"name": "LUTHERAN CHURCH OF OUR SAVIOUR", "designationCode": "C", "categoryCode": "32", "address": "1049 4TH AVE W", "city": "OWEN SOUND", "province": "ON", "country": "CA", "postalCode": "N4K4W1", "twitter": "None", "instagram": "None", "facebook": "None", "youtube": "None", "website": "None", "summary": "None", "logo": "None", "latitude": 44.56789686328259, "longitude": -80.94962961012695}, "107649782RR0001": {"name": "LUTHERAN CHURCH OF THE CROSS", "designationCode": "C", "categoryCode": "32", "address": "10620 ELBOW DR SW", "city": "CALGARY", "province": "AB", "country": "CA", "postalCode": "T2W1G4", "twitter": "None", "instagram": "None", "facebook": "None", "youtube": "None", "website": "None", "summary": "None", "logo": "None", "latitude": 50.958396534277796, "longitude": -114.08468340409152}, "131582470RR0001": {"name": "LUTHERAN CHURCH OF THE CROSS OF VICTORIA", "designationCode": "C", "categoryCode": "32", "address": "3787 CEDAR HILL RD", "city": "VICTORIA", "province": "BC", "country": "CA", "postalCode": "V8P3Z4", "twitter": "None", "instagram": "None", "facebook": "None", "youtube": "None", "website": "None", "summary": "None", "logo": "None", "latitude": 48.46228982708182, "longitude": -123.33726278362876}, "107649824RR0001": {"name": "LUTHERAN CHURCH OF THE GOOD SHEPHERD", "designationCode": "C", "categoryCode": "32", "address": "2406 11 AVE SOUTH", "city": "LETHBRIDGE", "province": "AB", "country": "CA", "postalCode": "T1K0K8", "twitter": "None", "instagram": "None", "facebook": "None", "youtube": "None", "website": "None", "summary": "None", "logo": "None", "latitude": 49.68181052120739, "longitude": -112.80686069455827}, "119026094RR0001": {"name": "LUTHERAN CHURCH OF THE GOOD SHEPHERD", "designationCode": "C", "categoryCode": "32", "address": "3900 DORCHESTER ROAD", "city": "NIAGARA FALLS", "province": "ON", "country": "CA", "postalCode": "L2J3A8", "twitter": "None", "instagram": "None", "facebook": "None", "youtube": "None", "website": "None", "summary": "None", "logo": "None", "latitude": 43.11641835137629, "longitude": -79.11189480151792}, "119026110RR0001": {"name": "LUTHERAN CHURCH OF THE GOOD SHEPHERD", "designationCode": "C", "categoryCode": "32", "address": "13811 DEER RIDGE DRIVE SE", "city": "CALGARY", "province": "AB", "country": "CA", "postalCode": "T2J6S7", "twitter": "None", "instagram": "None", "facebook": "None", "youtube": "None", "website": "None", "summary": "None", "logo": "None", "latitude": 50.92990802469851, "longitude": -114.01644836637993}, "133028308RR0001": {"name": "LUTHERAN CHURCH OF THE GOOD SHEPHERD", "designationCode": "C", "categoryCode": "32", "address": "220 STEEL STREET", "city": "BARRIE", "province": "ON", "country": "CA", "postalCode": "L4M2G9", "twitter": "None", "instagram": "None", "facebook": "None", "youtube": "None", "website": "None", "summary": "None", "logo": "None", "latitude": 44.40080939829181, "longitude": -79.65337090882336}, "119026128RR0001": {"name": "LUTHERAN CHURCH OF THE MASTER, AIRDRIE", "designationCode": "C", "categoryCode": "32", "address": "216 MAIN ST SE", "city": "AIRDRIE", "province": "AB", "country": "CA", "postalCode": "T4B3K3", "twitter": "None", "instagram": "None", "facebook": "None", "youtube": "None", "website": "None", "summary": "None", "logo": "None", "latitude": 51.28981200000001, "longitude": -114.01340804824318}, "131634719RR0001": {"name": "LUTHERAN CHURCH OF THE REDEEMER", "designationCode": "C", "categoryCode": "32", "address": "59 ACADEMY ROAD", "city": "WINNIPEG", "province": "MB", "country": "CA", "postalCode": "R3M0E2", "twitter": "None", "instagram": "None", "facebook": "None", "youtube": "None", "website": "None", "summary": "None", "logo": "None", "latitude": 49.876798881499155, "longitude": -97.16341251809071}, "889558441RR0001": {"name": "LUTHERAN CHURCH OF THE RESURRECTION", "designationCode": "C", "categoryCode": "32", "address": "2096 WINDSOR STREET", "city": "HALIFAX", "province": "NS", "country": "CA", "postalCode": "B3K5B1", "twitter": "None", "instagram": "None", "facebook": "None", "youtube": "None", "website": "None", "summary": "None", "logo": "None", "latitude": 44.6487137612962, "longitude": -63.593610740377244}, "119026144RR0001": {"name": "LUTHERAN CHURCH OF UNITY INC.", "designationCode": "C", "categoryCode": "32", "address": "PO BOX 1409", "city": "UNITY", "province": "SK", "country": "CA", "postalCode": "S0K4L0", "twitter": "None", "instagram": "None", "facebook": "None", "youtube": "None", "website": "None", "summary": "None", "logo": "None", "latitude": 52.437110000000075, "longitude": -109.14557999999994}, "133275479RR0001": {"name": "LUTHERAN CHURCH-CANADA", "designationCode": "C", "categoryCode": "32", "address": "3074 PORTAGE AVENUE", "city": "WINNIPEG", "province": "MB", "country": "CA", "postalCode": "R3K0Y2", "twitter": "None", "instagram": "None", "facebook": "None", "youtube": "None", "website": "None", "summary": "None", "logo": "None", "latitude": 49.880077681632116, "longitude": -97.28333436248478}, "853862746RR0001": {"name": "LUTHERAN CHURCH-CANADA, CENTRAL DISTRICT CHURCH EXTENSION FUND", "designationCode": "C", "categoryCode": "43", "address": "3074 PORTAGE AVENUE", "city": "WINNIPEG", "province": "MB", "country": "CA", "postalCode": "R3K0Y2", "twitter": "None", "instagram": "None", "facebook": "None", "youtube": "None", "website": "None", "summary": "None", "logo": "None", "latitude": 49.880077681632116, "longitude": -97.28333436248478}, "107649899RR0001": {"name": "LUTHERAN COLLEGIATE BIBLE INSTITUTE", "designationCode": "C", "categoryCode": "20", "address": "BOX 459", "city": "OUTLOOK", "province": "SK", "country": "CA", "postalCode": "S0L2N0", "twitter": "None", "instagram": "None", "facebook": "None", "youtube": "None", "website": "None", "summary": "None", "logo": "None", "latitude": 51.5306764246367, "longitude": -107.23731016398128}, "892627969RR0001": {"name": "LUTHERAN COLLEGIATE BIBLE INSTITUTE ALUMNI ASSOCIATION", "designationCode": "C", "categoryCode": "25", "address": "BOX 459", "city": "OUTLOOK", "province": "SK", "country": "CA", "postalCode": "S0L2N0", "twitter": "None", "instagram": "None", "facebook": "None", "youtube": "None", "website": "None", "summary": "None", "logo": "None", "latitude": 51.5306764246367, "longitude": -107.23731016398128}, "108087545RR0001": {"name": "LUTHERAN COMMUNITY CARE CENTRE OF THUNDER BAY", "designationCode": "C", "categoryCode": "09", "address": "245B BAY STREET,", "city": "THUNDER BAY", "province": "ON", "country": "CA", "postalCode": "P7B6P2", "twitter": "None", "instagram": "None", "facebook": "None", "youtube": "None", "website": "None", "summary": "None", "logo": "None", "latitude": 48.4304587267125, "longitude": -89.22667480433752}, "131830655RR0001": {"name": "LUTHERAN COUNCIL IN CANADA", "designationCode": "C", "categoryCode": "32", "address": "3074 PORTAGE AVE", "city": "WINNIPEG", "province": "MB", "country": "CA", "postalCode": "R3K0Y2", "twitter": "None", "instagram": "None", "facebook": "None", "youtube": "None", "website": "None", "summary": "None", "logo": "None", "latitude": 49.880077681632116, "longitude": -97.28333436248478}, "136781937RR0001": {"name": "LUTHERAN HOMES KITCHENER-WATERLOO", "designationCode": "C", "categoryCode": "09", "address": "TRINITY VILLAGE CARE CENTRE   2727 KINGSWAY DRIVE", "city": "KITCHENER", "province": "ON", "country": "CA", "postalCode": "N2C1A7", "twitter": "None", "instagram": "None", "facebook": "None", "youtube": "None", "website": "None", "summary": "None", "logo": "None", "latitude": 43.430257656505276, "longitude": -80.44072552773139}, "107649931RR0001": {"name": "LUTHERAN HOSPITAL MINISTRIES-SOUTHERN ALBERTA", "designationCode": "C", "categoryCode": "32", "address": "66 - 7 STREET N.E.", "city": "CALGARY", "province": "AB", "country": "CA", "postalCode": "T2E4B7", "twitter": "None", "instagram": "None", "facebook": "None", "youtube": "None", "website": "None", "summary": "None", "logo": "None", "latitude": 51.05192459353343, "longitude": -114.04562543052441}, "889009718RR0001": {"name": "LUTHERAN HOSPITAL MINISTRY OF NORTHERN ALBERTA", "designationCode": "C", "categoryCode": "43", "address": "303 CHURCH RD", "city": "SPRUCE GROVE", "province": "AB", "country": "CA", "postalCode": "T7X0G2", "twitter": "None", "instagram": "None", "facebook": "None", "youtube": "None", "website": "None", "summary": "None", "logo": "None", "latitude": 53.54359947879259, "longitude": -113.90231244186042}, "131513178RR0001": {"name": "LUTHERAN INDEPENDENT LIVING (LONDON)", "designationCode": "C", "categoryCode": "09", "address": "203 - 747 HYDE PARK ROAD", "city": "LONDON", "province": "ON", "country": "CA", "postalCode": "N6G4A3", "twitter": "None", "instagram": "None", "facebook": "None", "youtube": "None", "website": "None", "summary": "None", "logo": "None", "latitude": 43.00014300000005, "longitude": -81.30262399999994}, "119026185RR0001": {"name": "LUTHERAN INSTITUTIONAL MINISTRY-EDMONTON", "designationCode": "C", "categoryCode": "49", "address": "#406 10160-115 ST NW", "city": "EDMONTON", "province": "AB", "country": "CA", "postalCode": "T5K1T6", "twitter": "None", "instagram": "None", "facebook": "None", "youtube": "None", "website": "None", "summary": "None", "logo": "None", "latitude": 53.54227736081137, "longitude": -113.51948619654883}, "119026193RR0001": {"name": "LUTHERAN LAYMEN'S LEAGUE OF CANADA", "designationCode": "C", "categoryCode": "47", "address": "270 LAWRENCE AVENUE", "city": "KITCHENER", "province": "ON", "country": "CA", "postalCode": "N2M1Y4", "twitter": "None", "instagram": "None", "facebook": "None", "youtube": "None", "website": "None", "summary": "None", "logo": "None", "latitude": 43.44051289759931, "longitude": -80.51276253355665}, "864878178RR0001": {"name": "LUTHERAN OUTREACH MINISTRIES, OWEN SOUND", "designationCode": "C", "categoryCode": "32", "address": "368-10TH STREET EAST", "city": "OWEN SOUND", "province": "ON", "country": "CA", "postalCode": "N4K1S6", "twitter": "None", "instagram": "None", "facebook": "None", "youtube": "None", "website": "None", "summary": "None", "logo": "None", "latitude": 44.56810544214888, "longitude": -80.94022456134222}, "119026243RR0001": {"name": "LUTHERAN SENIOR CITIZENS HOUSING SOCIETY", "designationCode": "C", "categoryCode": "01", "address": "5939-180 ST", "city": "SURREY", "province": "BC", "country": "CA", "postalCode": "V3S4L2", "twitter": "None", "instagram": "None", "facebook": "None", "youtube": "None", "website": "None", "summary": "None", "logo": "None", "latitude": 49.11004034110451, "longitude": -122.72391190619764}, "886656552RR0001": {"name": "LUTHERAN SOCIAL SERVICES (LONDON)", "designationCode": "A", "categoryCode": "01", "address": "98 IROQUOIS AVE", "city": "LONDON", "province": "ON", "country": "CA", "postalCode": "N6C2K6", "twitter": "None", "instagram": "None", "facebook": "None", "youtube": "None", "website": "None", "summary": "None", "logo": "None", "latitude": 42.96175342382701, "longitude": -81.25507292353856}, "119026268RR0001": {"name": "LUTHERAN SOCIAL SERVICES (OWEN SOUND)", "designationCode": "C", "categoryCode": "01", "address": "368-10TH STREET EAST", "city": "OWEN SOUND", "province": "ON", "country": "CA", "postalCode": "N4K1S6", "twitter": "None", "instagram": "None", "facebook": "None", "youtube": "None", "website": "None", "summary": "None", "logo": "None", "latitude": 44.56810544214888, "longitude": -80.94022456134222}, "131048613RR0001": {"name": "LUTHERAN SUNSET HOME OF SASKATOON", "designationCode": "C", "categoryCode": "09", "address": "1212 OSLER ST", "city": "SASKATOON", "province": "SK", "country": "CA", "postalCode": "S7N0T9", "twitter": "None", "instagram": "None", "facebook": "None", "youtube": "None", "website": "None", "summary": "None", "logo": "None", "latitude": 52.12678948788189, "longitude": -106.64017199999999}, "119026292RR0001": {"name": "LUTHERAN THEOLOGICAL SEMINARY", "designationCode": "C", "categoryCode": "20", "address": "114 SEMINARY CRESCENT", "city": "SASKATOON", "province": "SK", "country": "CA", "postalCode": "S7N0X3", "twitter": "None", "instagram": "None", "facebook": "None", "youtube": "None", "website": "None", "summary": "None", "logo": "None", "latitude": 52.13737003188567, "longitude": -106.63470439257208}, "863913786RR0001": {"name": "LUTHERAN TRIUNE EDUCATIONAL AND BENEVOLENT SOCIETY OF CALGARY", "designationCode": "A", "categoryCode": "43", "address": "3136-1010 ARBOUR LAKE ROAD NW", "city": "CALGARY", "province": "AB", "country": "CA", "postalCode": "T3G4Y8", "twitter": "None", "instagram": "None", "facebook": "None", "youtube": "None", "website": "None", "summary": "None", "logo": "None", "latitude": 51.13287494122473, "longitude": -114.21259807315475}, "892916768RR0001": {"name": "LUTHERAN WOMEN'S MISSIONARY LEAGUE - CANADA INC.", "designationCode": "C", "categoryCode": "47", "address": "3074 PORTAGE AVE", "city": "WINNIPEG", "province": "MB", "country": "CA", "postalCode": "R3K0Y2", "twitter": "None", "instagram": "None", "facebook": "None", "youtube": "None", "website": "None", "summary": "None", "logo": "None", "latitude": 49.880077681632116, "longitude": -97.28333436248478}, "890745995RR0001": {"name": "LUTHERCARE FOUNDATION INC.", "designationCode": "A", "categoryCode": "03", "address": "1212 OSLER STREET", "city": "SASKATOON", "province": "SK", "country": "CA", "postalCode": "S7N0T9", "twitter": "None", "instagram": "None", "facebook": "None", "youtube": "None", "website": "None", "summary": "None", "logo": "None", "latitude": 52.12678948788189, "longitude": -106.64017199999999}, "846905560RR0001": {"name": "LUTHERLYN CAMP AND CONFERENCE CENTRE", "designationCode": "C", "categoryCode": "56", "address": "BOX 137", "city": "GOLDEN LAKE", "province": "ON", "country": "CA", "postalCode": "K0J1X0", "twitter": "None", "instagram": "None", "facebook": "None", "youtube": "None", "website": "None", "summary": "None", "logo": "None", "latitude": 45.18499074886261, "longitude": -77.10981060797708}, "107650178RR0001": {"name": "LUTHERWOOD", "designationCode": "C", "categoryCode": "01", "address": "165 KING ST E", "city": "KITCHENER", "province": "ON", "country": "CA", "postalCode": "N2G2K8", "twitter": "None", "instagram": "None", "facebook": "None", "youtube": "None", "website": "None", "summary": "None", "logo": "None", "latitude": 43.4486077241042, "longitude": -80.48637247697494}, "107650194RR0001": {"name": "LUTHERWOOD CHILD AND FAMILY FOUNDATION", "designationCode": "A", "categoryCode": "13", "address": "285 BENJAMIN ROAD", "city": "WATERLOO", "province": "ON", "country": "CA", "postalCode": "N2J3Z4", "twitter": "None", "instagram": "None", "facebook": "None", "youtube": "None", "website": "None", "summary": "None", "logo": "None", "latitude": 43.50055136935237, "longitude": -80.5675506111146}, "863495453RR0001": {"name": "LUTSKY FAMILY FOUNDATION", "designationCode": "B", "categoryCode": "03", "address": "PO BOX 73505                  1202 ROBSON ST", "city": "VANCOUVER", "province": "BC", "country": "CA", "postalCode": "V6E4L9", "twitter": "None", "instagram": "None", "facebook": "None", "youtube": "None", "website": "None", "summary": "None", "logo": "None", "latitude": 49.286012852815404, "longitude": -123.12712347976964}, "892857863RR0001": {"name": "LUTZ MOUNTAIN HERITAGE FOUNDATION INC", "designationCode": "C", "categoryCode": "50", "address": "3143 MOUNTAIN ROAD", "city": "MONCTON", "province": "NB", "country": "CA", "postalCode": "E1G2X1", "twitter": "None", "instagram": "None", "facebook": "None", "youtube": "None", "website": "None", "summary": "None", "logo": "None", "latitude": 46.13670268056425, "longitude": -64.90141251208945}, "874054448RR0001": {"name": "LUXOR TEMPLE SHRINE HOSPITAL PATIENT TRANSPORTATION FUND", "designationCode": "C", "categoryCode": "01", "address": "P.O. BOX 2084", "city": "SAINT JOHN", "province": "NB", "country": "CA", "postalCode": "E2L3T5", "twitter": "None", "instagram": "None", "facebook": "None", "youtube": "None", "website": "None", "summary": "None", "logo": "None", "latitude": 45.27342600000006, "longitude": -66.06407149999993}, "865085526RR0001": {"name": "LUXTON ADULT LITERACY WORKING GROUP", "designationCode": "C", "categoryCode": "21", "address": "346 - 20 FORT ST", "city": "WINNIPEG", "province": "MB", "country": "CA", "postalCode": "R3C4L3", "twitter": "None", "instagram": "None", "facebook": "None", "youtube": "None", "website": "None", "summary": "None", "logo": "None", "latitude": 49.88689841243005, "longitude": -97.13547676660497}, "883392029RR0001": {"name": "LUXTON ANTIQUE FARM EQUIPMENT", "designationCode": "C", "categoryCode": "56", "address": "1040 MARWOOD AVE.", "city": "VICTORIA", "province": "BC", "country": "CA", "postalCode": "V9C3L4", "twitter": "None", "instagram": "None", "facebook": "None", "youtube": "None", "website": "None", "summary": "None", "logo": "None", "latitude": 48.4293105291338, "longitude": -123.53247334132877}, "864146642RR0001": {"name": "LUZ A LAS NACIONES MINISTRIES INC.", "designationCode": "C", "categoryCode": "47", "address": "P.O. BOX 225", "city": "ESSEX", "province": "ON", "country": "CA", "postalCode": "N8M2Y3", "twitter": "None", "instagram": "None", "facebook": "None", "youtube": "None", "website": "None", "summary": "None", "logo": "None", "latitude": 42.17281800000005, "longitude": -82.81968199999993}, "898226972RR0001": {"name": "LYC\u00c9E FRAN\u00c7AIS DE TORONTO", "designationCode": "C", "categoryCode": "20", "address": "2327 DUFFERIN ST", "city": "TORONTO", "province": "ON", "country": "CA", "postalCode": "M6E3S5", "twitter": "None", "instagram": "None", "facebook": "None", "youtube": "None", "website": "None", "summary": "None", "logo": "None", "latitude": 43.69346570304105, "longitude": -79.44929947688895}, "106989643RR0001": {"name": "LYCEE CLAUDEL", "designationCode": "C", "categoryCode": "20", "address": "1635 RIVERSIDE DR", "city": "OTTAWA", "province": "ON", "country": "CA", "postalCode": "K1G0E5", "twitter": "None", "instagram": "None", "facebook": "None", "youtube": "None", "website": "None", "summary": "None", "logo": "None", "latitude": 45.40606265000871, "longitude": -75.66408560136243}, "132530338RR0001": {"name": "LYCEE LOUIS PASTEUR SOCIETY", "designationCode": "C", "categoryCode": "20", "address": "4099 GARRISON BLVD SW", "city": "CALGARY", "province": "AB", "country": "CA", "postalCode": "T2T6G2", "twitter": "None", "instagram": "None", "facebook": "None", "youtube": "None", "website": "None", "summary": "None", "logo": "None", "latitude": 51.01797798029315, "longitude": -114.11387229782434}, "119026425RR0001": {"name": "LYCEUM HERITAGE SOCIETY", "designationCode": "C", "categoryCode": "22", "address": "225 GEORGE STREET", "city": "SYDNEY", "province": "NS", "country": "CA", "postalCode": "B1P1J5", "twitter": "None", "instagram": "None", "facebook": "None", "youtube": "None", "website": "None", "summary": "None", "logo": "None", "latitude": 46.14221571025442, "longitude": -60.193983506636435}, "890490261RR0001": {"name": "LYDIA MAY RITCHIE TRUST", "designationCode": "B", "categoryCode": "15", "address": "1402 - 1 KING ST W", "city": "HAMILTON", "province": "ON", "country": "CA", "postalCode": "L8P1A4", "twitter": "None", "instagram": "None", "facebook": "None", "youtube": "None", "website": "None", "summary": "None", "logo": "None", "latitude": 43.26019321073324, "longitude": -79.88135629363086}, "889350997RR0001": {"name": "LYLETON UNITED CHURCH", "designationCode": "C", "categoryCode": "44", "address": "BOX 10", "city": "LYLETON", "province": "MB", "country": "CA", "postalCode": "R0M1G0", "twitter": "None", "instagram": "None", "facebook": "None", "youtube": "None", "website": "None", "summary": "None", "logo": "None", "latitude": 49.05783000000008, "longitude": -101.17632999999995}, "873461040RR0001": {"name": "LYMPHOMA FOUNDATION CANADA", "designationCode": "C", "categoryCode": "13", "address": "6860 CENTURY AVENUE, SUITE 202", "city": "MISSISSAUGA", "province": "ON", "country": "CA", "postalCode": "L5N2W5", "twitter": "None", "instagram": "None", "facebook": "None", "youtube": "None", "website": "None", "summary": "None", "logo": "None", "latitude": 43.602075549483914, "longitude": -79.7481725553696}, "877924928RR0001": {"name": "LYN & DISTRICT HERITAGE SOCIETY", "designationCode": "C", "categoryCode": "50", "address": "P.O. BOX 155", "city": "LYN", "province": "ON", "country": "CA", "postalCode": "K0E1M0", "twitter": "None", "instagram": "None", "facebook": "None", "youtube": "None", "website": "None", "summary": "None", "logo": "None", "latitude": 44.42297100000006, "longitude": -75.88780099999994}, "835115163RR0001": {"name": "LYNDA JONSON RESIDENT CARE FOUNDATION", "designationCode": "A", "categoryCode": "13", "address": "114 BRULE STREET", "city": "HINTON", "province": "AB", "country": "CA", "postalCode": "T7V1M9", "twitter": "None", "instagram": "None", "facebook": "None", "youtube": "None", "website": "None", "summary": "None", "logo": "None", "latitude": 53.38798248990111, "longitude": -117.60038983804608}, "119026441RR0001": {"name": "LYNDEN UNITED CHURCH", "designationCode": "C", "categoryCode": "44", "address": "PO BOX 59", "city": "LYNDEN", "province": "ON", "country": "CA", "postalCode": "L0R1T0", "twitter": "None", "instagram": "None", "facebook": "None", "youtube": "None", "website": "None", "summary": "None", "logo": "None", "latitude": 43.24631837115676, "longitude": -80.15007912703803}, "119026458RR0001": {"name": "LYNDHURST CEMETERY", "designationCode": "C", "categoryCode": "59", "address": "P.O. BOX 106                  204 BLACK RAPIDS RD", "city": "LYNDHURST", "province": "ON", "country": "CA", "postalCode": "K0E1N0", "twitter": "None", "instagram": "None", "facebook": "None", "youtube": "None", "website": "None", "summary": "None", "logo": "None", "latitude": 44.50064354954125, "longitude": -76.09004150236593}, "119026474RR0001": {"name": "LYNDOCK BAPTIST CHURCH", "designationCode": "C", "categoryCode": "31", "address": "2155 QUADEVILLE ROAD          RR #2", "city": "EGANVILLE", "province": "ON", "country": "CA", "postalCode": "K0J1T0", "twitter": "None", "instagram": "None", "facebook": "None", "youtube": "None", "website": "None", "summary": "None", "logo": "None", "latitude": 45.34516272049752, "longitude": -77.31589773226985}, "119288918RR0869": {"name": "LYNHURST CONGREGATION OF JEHOVAH'S WITNESSES, ST. THOMAS, ONTARIO", "designationCode": "C", "categoryCode": "61", "address": "134 \u0153 ST. GEORGE STREET", "city": "ST. THOMAS", "province": "ON", "country": "CA", "postalCode": "N5P2M1", "twitter": "None", "instagram": "None", "facebook": "None", "youtube": "None", "website": "None", "summary": "None", "logo": "None", "latitude": 42.78989700256357, "longitude": -81.20278341729349}, "119026508RR0001": {"name": "LYNN LAKE FRIENDSHIP CENTRE INC.", "designationCode": "C", "categoryCode": "01", "address": "BOX 460", "city": "LYNN LAKE", "province": "MB", "country": "CA", "postalCode": "R0B0W0", "twitter": "None", "instagram": "None", "facebook": "None", "youtube": "None", "website": "None", "summary": "None", "logo": "None", "latitude": 56.85254000000003, "longitude": -101.04571999999996}, "892881137RR0001": {"name": "LYNN LAKE HOSPITAL FOUNDATION INC.", "designationCode": "A", "categoryCode": "13", "address": "P O BOX 579", "city": "LYNN LAKE", "province": "MB", "country": "CA", "postalCode": "R0B0W0", "twitter": "None", "instagram": "None", "facebook": "None", "youtube": "None", "website": "None", "summary": "None", "logo": "None", "latitude": 56.85254000000003, "longitude": -101.04571999999996}, "119026557RR0001": {"name": "LYNN VALLEY FULL GOSPEL CHURCH", "designationCode": "C", "categoryCode": "39", "address": "1160 E 29TH ST", "city": "NORTH VANCOUVER", "province": "BC", "country": "CA", "postalCode": "V7K1C2", "twitter": "None", "instagram": "None", "facebook": "None", "youtube": "None", "website": "None", "summary": "None", "logo": "None", "latitude": 49.335549659286905, "longitude": -123.0425215947841}, "863291811RR0001": {"name": "LYNN VALLEY KOREAN METHODIST CHURCH", "designationCode": "C", "categoryCode": "39", "address": "3400 INSTITUTE RD", "city": "NORTH VANCOUVER", "province": "BC", "country": "CA", "postalCode": "V7K2K9", "twitter": "None", "instagram": "None", "facebook": "None", "youtube": "None", "website": "None", "summary": "None", "logo": "None", "latitude": 49.33985347544573, "longitude": -123.03672887062179}, "129694691RR0001": {"name": "LYNN VALLEY LIONS HOUSING SOCIETY", "designationCode": "C", "categoryCode": "01", "address": "1055 PREMIER ST", "city": "NORTH VANCOUVER", "province": "BC", "country": "CA", "postalCode": "V7J3T7", "twitter": "None", "instagram": "None", "facebook": "None", "youtube": "None", "website": "None", "summary": "None", "logo": "None", "latitude": 49.31703869608748, "longitude": -123.02773512937821}, "107651309RR0001": {"name": "LYNN VALLEY PARENT PARTICIPATION PRESCHOOL SOCIETY", "designationCode": "C", "categoryCode": "20", "address": "3220 MOUNTAIN HWY", "city": "NORTH VANCOUVER", "province": "BC", "country": "CA", "postalCode": "V7K2H5", "twitter": "None", "instagram": "None", "facebook": "None", "youtube": "None", "website": "None", "summary": "None", "logo": "None", "latitude": 49.33821407216229, "longitude": -123.03813042226915}, "830702676RR0001": {"name": "LYNN VALLEY SENIORS ASSOCIATION", "designationCode": "C", "categoryCode": "09", "address": "940 LYNN VALLEY RD", "city": "NORTH VANCOUVER", "province": "BC", "country": "CA", "postalCode": "V7J1Z7", "twitter": "None", "instagram": "None", "facebook": "None", "youtube": "None", "website": "None", "summary": "None", "logo": "None", "latitude": 49.331928980581615, "longitude": -123.0480371775058}, "887389997RR0001": {"name": "LYNN VALLEY TRAIL ASSOCIATION", "designationCode": "C", "categoryCode": "56", "address": "P.O. BOX 993", "city": "SIMCOE", "province": "ON", "country": "CA", "postalCode": "N3Y5B3", "twitter": "None", "instagram": "None", "facebook": "None", "youtube": "None", "website": "None", "summary": "None", "logo": "None", "latitude": 42.83590200000006, "longitude": -80.30531149999993}, "119026581RR0001": {"name": "LYNN VALLEY UNITED CHURCH", "designationCode": "C", "categoryCode": "44", "address": "3201 MOUNTAIN HWY", "city": "NORTH VANCOUVER", "province": "BC", "country": "CA", "postalCode": "V7K2H4", "twitter": "None", "instagram": "None", "facebook": "None", "youtube": "None", "website": "None", "summary": "None", "logo": "None", "latitude": 49.338076500000014, "longitude": -123.03823828477735}, "119026599RR0001": {"name": "LYNNVILLE UNITED CHURCH", "designationCode": "C", "categoryCode": "44", "address": "RR 1", "city": "WINDHAM CENTRE", "province": "ON", "country": "CA", "postalCode": "N0E2A0", "twitter": "None", "instagram": "None", "facebook": "None", "youtube": "None", "website": "None", "summary": "None", "logo": "None", "latitude": 42.91177090703342, "longitude": -80.44293345394881}, "119026607RR0001": {"name": "LYNNWOOD ARTS CENTRE", "designationCode": "C", "categoryCode": "22", "address": "21 LYNNWOOD AVE", "city": "SIMCOE", "province": "ON", "country": "CA", "postalCode": "N3Y2V7", "twitter": "None", "instagram": "None", "facebook": "None", "youtube": "None", "website": "None", "summary": "None", "logo": "None", "latitude": 42.83795781709849, "longitude": -80.30318825991121}, "130533375RR0001": {"name": "LYNWOOD CHARLTON CENTRE", "designationCode": "C", "categoryCode": "01", "address": "526 UPPER PARADISE RD", "city": "HAMILTON", "province": "ON", "country": "CA", "postalCode": "L9C5E3", "twitter": "None", "instagram": "None", "facebook": "None", "youtube": "None", "website": "None", "summary": "None", "logo": "None", "latitude": 43.23152037610346, "longitude": -79.91254429291867}, "886701259RR0001": {"name": "LYNWOOD HALL CHILDREN'S FOUNDATION", "designationCode": "A", "categoryCode": "03", "address": "526 UPPER PARADISE RD", "city": "HAMILTON", "province": "ON", "country": "CA", "postalCode": "L9C5E3", "twitter": "None", "instagram": "None", "facebook": "None", "youtube": "None", "website": "None", "summary": "None", "logo": "None", "latitude": 43.23152037610346, "longitude": -79.91254429291867}, "119026631RR0001": {"name": "LYONS BROOK UNITED CHURCH", "designationCode": "C", "categoryCode": "44", "address": "89 SCOTCH HILL RD", "city": "PICTOU", "province": "NS", "country": "CA", "postalCode": "B0K1H0", "twitter": "None", "instagram": "None", "facebook": "None", "youtube": "None", "website": "None", "summary": "None", "logo": "None", "latitude": 45.67490134993399, "longitude": -62.78209951679172}, "107651440RR0001": {"name": "LYONS MEMORIAL UNITED CHURCH", "designationCode": "C", "categoryCode": "44", "address": "PO BOX 465", "city": "GORE BAY", "province": "ON", "country": "CA", "postalCode": "P0P1H0", "twitter": "None", "instagram": "None", "facebook": "None", "youtube": "None", "website": "None", "summary": "None", "logo": "None", "latitude": 45.90865156608953, "longitude": -82.45968892721794}, "889635140RR0001": {"name": "LYRIC CHOIRS OF SURREY SOCIETY", "designationCode": "C", "categoryCode": "22", "address": "6392 KITCHENER ST", "city": "BURNABY", "province": "BC", "country": "CA", "postalCode": "V5B2J4", "twitter": "None", "instagram": "None", "facebook": "None", "youtube": "None", "website": "None", "summary": "None", "logo": "None", "latitude": 49.271561488458815, "longitude": -122.97173310935426}, "107651481RR0001": {"name": "LYTTLETON PENTECOSTAL TABERNACLE", "designationCode": "C", "categoryCode": "36", "address": "61 HALCOMB ROAD", "city": "LYTTLETON", "province": "NB", "country": "CA", "postalCode": "E9E1V5", "twitter": "None", "instagram": "None", "facebook": "None", "youtube": "None", "website": "None", "summary": "None", "logo": "None", "latitude": 46.93821985316529, "longitude": -65.91302675783373}, "106713753RR0019": {"name": "LYTTON ANGLICAN MISSION", "designationCode": "C", "categoryCode": "30", "address": "BOX 87", "city": "LYTTON", "province": "BC", "country": "CA", "postalCode": "V0K1Z0", "twitter": "None", "instagram": "None", "facebook": "None", "youtube": "None", "website": "None", "summary": "None", "logo": "None", "latitude": 51.53781143121373, "longitude": -120.98021143685018}, "118818491RR0062": {"name": "LYTTON SEVENTH-DAY ADVENTIST CHURCH", "designationCode": "C", "categoryCode": "41", "address": "PO 1000", "city": "ABBOTSFORD", "province": "BC", "country": "CA", "postalCode": "V2S4P5", "twitter": "None", "instagram": "None", "facebook": "None", "youtube": "None", "website": "None", "summary": "None", "logo": "None", "latitude": 49.03851300000005, "longitude": -122.29441549999993}, "800640062RR0001": {"name": "L3M Foundation Inc.", "designationCode": "B", "categoryCode": "03", "address": "758 SOUTH DRIVE", "city": "WINNIPEG", "province": "MB", "country": "CA", "postalCode": "R3T0C3", "twitter": "None", "instagram": "None", "facebook": "None", "youtube": "None", "website": "None", "summary": "None", "logo": "None", "latitude": 49.841163398551615, "longitude": -97.14062875191938}, "889454997RR0001": {"name": "M A R T A MEMORIAL SCHOLARSHIP FUND", "designationCode": "C", "categoryCode": "21", "address": "51 HOWARD ST", "city": "MIRAMICHI", "province": "NB", "country": "CA", "postalCode": "E1N1V6", "twitter": "None", "instagram": "None", "facebook": "None", "youtube": "None", "website": "None", "summary": "None", "logo": "None", "latitude": 47.028960469905805, "longitude": -65.46264143037655}, "840517692RR0001": {"name": "M C H A Junior Kindergarten Centre", "designationCode": "C", "categoryCode": "01", "address": "PO BOX 81", "city": "HUGHENDEN", "province": "AB", "country": "CA", "postalCode": "T0B2E0", "twitter": "None", "instagram": "None", "facebook": "None", "youtube": "None", "website": "None", "summary": "None", "logo": "None", "latitude": 52.51683000000003, "longitude": -110.98494999999997}, "886655562RR0001": {"name": "M D OF MINBURN FOUNDATION", "designationCode": "C", "categoryCode": "01", "address": "5253 - 46 AVENUE", "city": "VEGREVILLE", "province": "AB", "country": "CA", "postalCode": "T9C1P9", "twitter": "None", "instagram": "None", "facebook": "None", "youtube": "None", "website": "None", "summary": "None", "logo": "None", "latitude": 53.49385452452561, "longitude": -112.06433322300768}, "141052662RR0001": {"name": "M E VICTORIA ASSOCIATION", "designationCode": "C", "categoryCode": "11", "address": "BOX 50032 15-1594 FAIRFIELD RD", "city": "VICTORIA", "province": "BC", "country": "CA", "postalCode": "V8S5L8", "twitter": "None", "instagram": "None", "facebook": "None", "youtube": "None", "website": "None", "summary": "None", "logo": "None", "latitude": 48.41235038444201, "longitude": -123.33847692893424}, "892849647RR0001": {"name": "M K FAMILY FOUNDATION", "designationCode": "B", "categoryCode": "53", "address": "885 WEST GEORGIA STREET       19TH FLOOR", "city": "VANCOUVER", "province": "BC", "country": "CA", "postalCode": "V6C3H4", "twitter": "None", "instagram": "None", "facebook": "None", "youtube": "None", "website": "None", "summary": "None", "logo": "None"}, "892750142RR0001": {"name": "M. BONHAM CHARITABLE FOUNDATION", "designationCode": "B", "categoryCode": "23", "address": "2111 LAKE SHORE BLVD. W.      SUITE 208", "city": "TORONTO", "province": "ON", "country": "CA", "postalCode": "M8V4B2", "twitter": "None", "instagram": "None", "facebook": "None", "youtube": "None", "website": "None", "summary": "None", "logo": "None", "latitude": 43.62889619401001, "longitude": -79.47781478198398}, "879975019RR0001": {"name": "M.A.P. (MENTORSHIP-AFTERCARE-PRESENCE)", "designationCode": "C", "categoryCode": "59", "address": "BOX 3158, STATION 'C'", "city": "OTTAWA", "province": "ON", "country": "CA", "postalCode": "K1Y4J4", "twitter": "None", "instagram": "None", "facebook": "None", "youtube": "None", "website": "None", "summary": "None", "logo": "None", "latitude": 45.42177300000006, "longitude": -75.69115999999994}, "107680829RR0001": {"name": "M.B.C. DAY CARE CENTRE", "designationCode": "B", "categoryCode": "01", "address": "61 MARILYN ST", "city": "CALEDON EAST", "province": "ON", "country": "CA", "postalCode": "L7C1H5", "twitter": "None", "instagram": "None", "facebook": "None", "youtube": "None", "website": "None", "summary": "None", "logo": "None", "latitude": 43.87579396029784, "longitude": -79.86562480601864}, "119036051RR0001": {"name": "M.C.T.V. LIONS CHRISTMAS TELETHON", "designationCode": "C", "categoryCode": "09", "address": "1-669 FROOD RD", "city": "SUDBURY", "province": "ON", "country": "CA", "postalCode": "P3C5A3", "twitter": "None", "instagram": "None", "facebook": "None", "youtube": "None", "website": "None", "summary": "None", "logo": "None", "latitude": 46.50928821831283, "longitude": -81.00507426976712}, "757641295RR0001": {"name": "M.E. Family Foundation Inc.", "designationCode": "B", "categoryCode": "03", "address": "414 SHEPHERD BAY", "city": "SASKATOON", "province": "SK", "country": "CA", "postalCode": "S7W0B4", "twitter": "None", "instagram": "None", "facebook": "None", "youtube": "None", "website": "None", "summary": "None", "logo": "None", "latitude": 52.15141543516666, "longitude": -106.55554844630382}, "140614611RR0001": {"name": "M.E. Society of Edmonton (Chronic Fatigue Syndrome)", "designationCode": "C", "categoryCode": "11", "address": "#7 11630 KINGSWAY AVENUE", "city": "EDMONTON", "province": "AB", "country": "CA", "postalCode": "T5G0X5", "twitter": "None", "instagram": "None", "facebook": "None", "youtube": "None", "website": "None", "summary": "None", "logo": "None", "latitude": 53.56646262228043, "longitude": -113.5208209212882}, "848701355RR0001": {"name": "M.E.H. Foundation", "designationCode": "B", "categoryCode": "05", "address": "4211 YONGE STREET, SUITE 225", "city": "TORONTO", "province": "ON", "country": "CA", "postalCode": "M2P2A9", "twitter": "None", "instagram": "None", "facebook": "None", "youtube": "None", "website": "None", "summary": "None", "logo": "None", "latitude": 43.74807628948581, "longitude": -79.40760466426252}, "836103135RR0001": {"name": "M.H.H.S. Charitable Foundation", "designationCode": "A", "categoryCode": "03", "address": "4802 FRASER STREET", "city": "VANCOUVER", "province": "BC", "country": "CA", "postalCode": "V5V4H4", "twitter": "None", "instagram": "None", "facebook": "None", "youtube": "None", "website": "None", "summary": "None", "logo": "None", "latitude": 49.241626466727524, "longitude": -123.09028952610751}, "131596751RR0001": {"name": "M.I.L.E.S. FOR SENIORS INC.", "designationCode": "C", "categoryCode": "09", "address": "BOX 40", "city": "HOLLAND", "province": "MB", "country": "CA", "postalCode": "R0G0X0", "twitter": "None", "instagram": "None", "facebook": "None", "youtube": "None", "website": "None", "summary": "None", "logo": "None", "latitude": 49.7686281543147, "longitude": -97.632704369717}, "845346832RR0001": {"name": "M.I.N.D. Program Moving in New Directions Inc.", "designationCode": "C", "categoryCode": "09", "address": "99 WOODMOUNT AVE", "city": "TORONTO", "province": "ON", "country": "CA", "postalCode": "M4C3Y3", "twitter": "None", "instagram": "None", "facebook": "None", "youtube": "None", "website": "None", "summary": "None", "logo": "None", "latitude": 43.688489950603, "longitude": -79.31658974782175}, "863971701RR0001": {"name": "M.L.E. MOLE FOUNDATION INC.", "designationCode": "A", "categoryCode": "43", "address": "3723 - 40TH STREET S.W.", "city": "CALGARY", "province": "AB", "country": "CA", "postalCode": "T3E3K4", "twitter": "None", "instagram": "None", "facebook": "None", "youtube": "None", "website": "None", "summary": "None", "logo": "None", "latitude": 51.022008081610224, "longitude": -114.14546187656893}, "137480174RR0001": {"name": "M.L.E. TRAINING AND RESEARCH SOCIETY", "designationCode": "C", "categoryCode": "21", "address": "550 THOMPSON AVE", "city": "COQUITLAM", "province": "BC", "country": "CA", "postalCode": "V3J3Z8", "twitter": "None", "instagram": "None", "facebook": "None", "youtube": "None", "website": "None", "summary": "None", "logo": "None", "latitude": 49.26818848081442, "longitude": -122.88818921066367}, "119039949RR0001": {"name": "M.O.R.E. 2000 ORGANIZATION INC.", "designationCode": "C", "categoryCode": "56", "address": "BOX 449", "city": "MIDALE", "province": "SK", "country": "CA", "postalCode": "S0C1S0", "twitter": "None", "instagram": "None", "facebook": "None", "youtube": "None", "website": "None", "summary": "None", "logo": "None", "latitude": 49.40006000000005, "longitude": -103.40099999999995}, "130178130RR0001": {"name": "M.O.S.A.I.C. Multi-Lingual Orientation Service Association for Immigrant Communities", "designationCode": "C", "categoryCode": "09", "address": "5575 BOUNDARY RD", "city": "VANCOUVER", "province": "BC", "country": "CA", "postalCode": "V5R2P9", "twitter": "None", "instagram": "None", "facebook": "None", "youtube": "None", "website": "None", "summary": "None", "logo": "None", "latitude": 49.2336821235367, "longitude": -123.0236841551151}, "880170014RR0001": {"name": "M.P. CHARITABLE FOUNDATION", "designationCode": "B", "categoryCode": "43", "address": "1280 FINCH AVENUE WEST        SUITE 611", "city": "NORTH YORK", "province": "ON", "country": "CA", "postalCode": "M3J3K6", "twitter": "None", "instagram": "None", "facebook": "None", "youtube": "None", "website": "None", "summary": "None", "logo": "None", "latitude": 43.76409311408613, "longitude": -79.48842034860633}, "103792446RR0001": {"name": "M.S.H. FOUNDATION / FONDATION M.S.H.", "designationCode": "B", "categoryCode": "13", "address": "4150 STE. CATHERINE WEST      SUITE 600", "city": "MONTREAL", "province": "QC", "country": "CA", "postalCode": "H3Z2Y5", "twitter": "None", "instagram": "None", "facebook": "None", "youtube": "None", "website": "None", "summary": "None", "logo": "None", "latitude": 45.48662762225177, "longitude": -73.5873562472735}, "119048908RR0001": {"name": "M.S.I. FOUNDATION", "designationCode": "A", "categoryCode": "13", "address": "12230-106 AVE NW", "city": "EDMONTON", "province": "AB", "country": "CA", "postalCode": "T5N3Z1", "twitter": "None", "instagram": "None", "facebook": "None", "youtube": "None", "website": "None", "summary": "None", "logo": "None", "latitude": 53.549384467684106, "longitude": -113.53371308381902}, "133142265RR0001": {"name": "M\u00e9diath\u00e8que municipale Nelly-Arcan", "designationCode": "C", "categoryCode": "50", "address": "3700 RUE LEMIEUX", "city": "LAC-M\u00c9GANTIC", "province": "QC", "country": "CA", "postalCode": "G6B1S7", "twitter": "None", "instagram": "None", "facebook": "None", "youtube": "None", "website": "None", "summary": "None", "logo": "None", "latitude": 45.58303567361067, "longitude": -70.89032061324939}, "843653262RR0001": {"name": "M\u00e9diquad", "designationCode": "B", "categoryCode": "59", "address": "2290, RANG VERSAILLES", "city": "SAINT-C\u00d4ME", "province": "QC", "country": "CA", "postalCode": "J0K2B0", "twitter": "None", "instagram": "None", "facebook": "None", "youtube": "None", "website": "None", "summary": "None", "logo": "None", "latitude": 46.28088155955323, "longitude": -73.79357406546852}}