{"870090768RR0001": {"name": "CANADIAN IMPERIAL BANK OF COMMERCE EMPLOYEES' CHARITABLE TRU", "designationCode": "B", "categoryCode": "75", "address": "PROCESSING OUTSOURCING        2 SHEPPARD AVE EAST", "city": "TORONTO", "province": "ON", "country": "CA", "postalCode": "M2N7A4", "twitter": "None", "instagram": "None", "facebook": "None", "youtube": "None", "website": "None", "summary": "None", "logo": "None", "latitude": 43.761646172369915, "longitude": -79.41050845934556}, "889378048RR0001": {"name": "CANADIAN IMPERIAL BANK OF COMMERCE PERSONNEL CHARITABLE FUND REGIONAL OFFICE", "designationCode": "B", "categoryCode": "75", "address": "PROCESSING OUTSOURCING        2 SHEPPARD AVE EAST", "city": "TORONTO", "province": "ON", "country": "CA", "postalCode": "M2N7A4", "twitter": "None", "instagram": "None", "facebook": "None", "youtube": "None", "website": "None", "summary": "None", "logo": "None", "latitude": 43.761646172369915, "longitude": -79.41050845934556}, "118833391RR0001": {"name": "CANADIAN IMPROV GAMES", "designationCode": "C", "categoryCode": "22", "address": "135 S\u00c9RAPHIN-MARION", "city": "OTTAWA", "province": "ON", "country": "CA", "postalCode": "K1N6N5", "twitter": "None", "instagram": "None", "facebook": "None", "youtube": "None", "website": "None", "summary": "None", "logo": "None", "latitude": 45.425182524034675, "longitude": -75.68632350349111}, "861470623RR0001": {"name": "CANADIAN INDUSTRIAL HERITAGE CENTRE", "designationCode": "C", "categoryCode": "50", "address": "P.O. BOX 23055", "city": "BRANTFORD", "province": "ON", "country": "CA", "postalCode": "N3T6K4", "twitter": "None", "instagram": "None", "facebook": "None", "youtube": "None", "website": "None", "summary": "None", "logo": "None", "latitude": 43.14136200000006, "longitude": -80.26173349999993}, "140454216RR0001": {"name": "CANADIAN INLAND MISSION INC", "designationCode": "C", "categoryCode": "47", "address": "PO BOX 975 STN MAIN", "city": "ROCKY MOUNTAIN HOUSE", "province": "AB", "country": "CA", "postalCode": "T4T1A7", "twitter": "None", "instagram": "None", "facebook": "None", "youtube": "None", "website": "None", "summary": "None", "logo": "None", "latitude": 52.37758500000005, "longitude": -114.93030049999993}, "100766427RR0001": {"name": "CANADIAN INSTITUTE FOR ADVANCED LEGAL STUDIES-INSTITUT CANADIEN D'ETUDES JURIDIQUES SUPERIEURES", "designationCode": "A", "categoryCode": "23", "address": "1601 BAYVIEW AVE              PO BOX 43538", "city": "TORONTO", "province": "ON", "country": "CA", "postalCode": "M4G4G8", "twitter": "None", "instagram": "None", "facebook": "None", "youtube": "None", "website": "None", "summary": "None", "logo": "None", "latitude": 43.70630197752321, "longitude": -79.37533746791524}, "892355967RR0001": {"name": "CANADIAN INSTITUTE FOR APPLIED SOCIAL RESEARCH", "designationCode": "C", "categoryCode": "59", "address": "BOX 91489", "city": "WEST VANCOUVER", "province": "BC", "country": "CA", "postalCode": "V7V3P2", "twitter": "None", "instagram": "None", "facebook": "None", "youtube": "None", "website": "None", "summary": "None", "logo": "None", "latitude": 49.331148000000056, "longitude": -123.16023349999993}, "118833409RR0001": {"name": "CANADIAN INSTITUTE FOR CONFLICT RESOLUTION/INSTITUT CANDIEN POUR LA RESOLUTION DES CONFLITS", "designationCode": "C", "categoryCode": "59", "address": "ST PAUL UNIVERSTIY            223 MAIN STREET", "city": "OTTAWA", "province": "ON", "country": "CA", "postalCode": "K1S1C4", "twitter": "None", "instagram": "None", "facebook": "None", "youtube": "None", "website": "None", "summary": "None", "logo": "None", "latitude": 45.40836002611218, "longitude": -75.67755992498175}, "890612526RR0001": {"name": "CANADIAN INSTITUTE FOR EDUCATION ON THE FAMILY", "designationCode": "C", "categoryCode": "21", "address": "24 - 45085 WOLFE RD", "city": "CHILLIWACK", "province": "BC", "country": "CA", "postalCode": "V2P0C5", "twitter": "None", "instagram": "None", "facebook": "None", "youtube": "None", "website": "None", "summary": "None", "logo": "None", "latitude": 49.169753453257385, "longitude": -121.97787252844941}, "891979288RR0001": {"name": "CANADIAN INSTITUTE FOR GLOBAL ADVANCEMENT", "designationCode": "C", "categoryCode": "20", "address": "#2, 8444-45 STREET", "city": "EDMONTON", "province": "AB", "country": "CA", "postalCode": "T6B2N6", "twitter": "None", "instagram": "None", "facebook": "None", "youtube": "None", "website": "None", "summary": "None", "logo": "None", "latitude": 53.52005767164878, "longitude": -113.41051952556388}, "838483949RR0001": {"name": "CANADIAN INSTITUTE FOR INFORMATION AND PRIVACY STUDIES SOCIETY", "designationCode": "C", "categoryCode": "29", "address": "5383 GRANVILLE STREET", "city": "VANCOUVER", "province": "BC", "country": "CA", "postalCode": "V6M3C2", "twitter": "None", "instagram": "None", "facebook": "None", "youtube": "None", "website": "None", "summary": "None", "logo": "None", "latitude": 49.23725453427781, "longitude": -123.1395645239191}, "891041683RR0001": {"name": "CANADIAN INSTITUTE FOR JEWISH RESEARCH / INSTITUT CANADIEN DE RECHERCHES SUR LE JUDAISME", "designationCode": "C", "categoryCode": "21", "address": "218-1396 ST. CATHERINE WEST", "city": "MONTREAL", "province": "QC", "country": "CA", "postalCode": "H3G1P9", "twitter": "None", "instagram": "None", "facebook": "None", "youtube": "None", "website": "None", "summary": "None", "logo": "None", "latitude": 45.49682694718416, "longitude": -73.57606204951486}, "106863319RR0001": {"name": "CANADIAN INSTITUTE FOR MEDITERRANEAN STUDIES / INSTITUT CANADIEN D'\u00c9TUDES M\u00c9DITERRAN\u00c9ENNES", "designationCode": "C", "categoryCode": "22", "address": "100 ST.JOSEPH ST", "city": "TORONTO", "province": "ON", "country": "CA", "postalCode": "M5S1J4", "twitter": "None", "instagram": "None", "facebook": "None", "youtube": "None", "website": "None", "summary": "None", "logo": "None", "latitude": 43.664911081337536, "longitude": -79.3909367647873}, "106861529RR0001": {"name": "CANADIAN INSTITUTE FOR THE ADMINISTRATION OF JUSTICE - INSTITUT CANADIEN D'ADMINISTRATION DE LA JUSTICE", "designationCode": "C", "categoryCode": "21", "address": "3101 CH.DE LA TOUR,BUR A-3421 CP 6128,SUCC.CENTRE-VILLE", "city": "MONTR\u00c9AL", "province": "QC", "country": "CA", "postalCode": "H3C3J7", "twitter": "None", "instagram": "None", "facebook": "None", "youtube": "None", "website": "None", "summary": "None", "logo": "None", "latitude": 45.49833600000005, "longitude": -73.55148649999994}, "889024394RR0001": {"name": "CANADIAN INSTITUTE IN GREECE/L'INSTITUT CANADIEN EN GRECE", "designationCode": "C", "categoryCode": "21", "address": "330 ALBERT ST", "city": "WATERLOO", "province": "ON", "country": "CA", "postalCode": "N2L3T8", "twitter": "None", "instagram": "None", "facebook": "None", "youtube": "None", "website": "None", "summary": "None", "logo": "None", "latitude": 43.477668282272454, "longitude": -80.53454690755396}, "106861586RR0001": {"name": "CANADIAN INSTITUTE OF CHILD HEALTH/INSTITUT CANADIEN DE LA SANT\u00c9 INFANTILE", "designationCode": "C", "categoryCode": "11", "address": "704 - 60 MCLEOD ST", "city": "OTTAWA", "province": "ON", "country": "CA", "postalCode": "K2P2G1", "twitter": "None", "instagram": "None", "facebook": "None", "youtube": "None", "website": "None", "summary": "None", "logo": "None", "latitude": 45.41479681124145, "longitude": -75.68443172090154}, "889507067RR0001": {"name": "CANADIAN INSTITUTE OF DIVINE MERCY INC", "designationCode": "C", "categoryCode": "09", "address": "13234 DIXIE RD.", "city": "CALEDON", "province": "ON", "country": "CA", "postalCode": "L7C2L8", "twitter": "None", "instagram": "None", "facebook": "None", "youtube": "None", "website": "None", "summary": "None", "logo": "None", "latitude": 43.78665073186582, "longitude": -79.82527095285336}, "139744973RR0001": {"name": "CANADIAN INSTITUTE OF READING RECOVERY", "designationCode": "C", "categoryCode": "21", "address": "PO BOX 461 STN MAIN", "city": "GODERICH", "province": "ON", "country": "CA", "postalCode": "N7A4C7", "twitter": "None", "instagram": "None", "facebook": "None", "youtube": "None", "website": "None", "summary": "None", "logo": "None", "latitude": 43.71881028701384, "longitude": -81.62792840345546}, "118833508RR0001": {"name": "CANADIAN INSTITUTE OF RESOURCES LAW / INSTITUT CANADIEN DU DROIT DES RESSOURCES", "designationCode": "C", "categoryCode": "21", "address": "RM 3330 PFB 2500 UNIV DR NW", "city": "CALGARY", "province": "AB", "country": "CA", "postalCode": "T2N1N4", "twitter": "None", "instagram": "None", "facebook": "None", "youtube": "None", "website": "None", "summary": "None", "logo": "None", "latitude": 51.074918604189705, "longitude": -114.1284997045416}, "887033991RR0001": {"name": "CANADIAN INSTITUTE OF STRESS /L'INSTITUT CANADIEN DU STRESS", "designationCode": "C", "categoryCode": "11", "address": "BOX 665, STATION \"U\"", "city": "TORONTO", "province": "ON", "country": "CA", "postalCode": "M8Z5Y9", "twitter": "None", "instagram": "None", "facebook": "None", "youtube": "None", "website": "None", "summary": "None", "logo": "None", "latitude": 43.64439900000005, "longitude": -79.56714049999994}, "876942129RR0001": {"name": "CANADIAN INSURANCE CLAIMS EDUCATION BENEVOLENT FOUNDATION", "designationCode": "C", "categoryCode": "21", "address": "5401 EGLINTON AVE W SUITE 100", "city": "TORONTO", "province": "ON", "country": "CA", "postalCode": "M9C5K6", "twitter": "None", "instagram": "None", "facebook": "None", "youtube": "None", "website": "None", "summary": "None", "logo": "None", "latitude": 43.6627469780428, "longitude": -79.59084177332831}, "844138164RR0001": {"name": "CANADIAN INTEGRITY FOUNDATION", "designationCode": "B", "categoryCode": "05", "address": "2806-7 JACKES AVE", "city": "TORONTO", "province": "ON", "country": "CA", "postalCode": "M4T1E3", "twitter": "None", "instagram": "None", "facebook": "None", "youtube": "None", "website": "None", "summary": "None", "logo": "None", "latitude": 43.685274653603564, "longitude": -79.391582652828}, "891972663RR0001": {"name": "CANADIAN INTENSIVE CARE FOUNDATION/FONDATION CANADIENNE POURLES SOINS INTENSIFS", "designationCode": "A", "categoryCode": "13", "address": "2707 7 AVE NW", "city": "CALGARY", "province": "AB", "country": "CA", "postalCode": "T2N1A8", "twitter": "None", "instagram": "None", "facebook": "None", "youtube": "None", "website": "None", "summary": "None", "logo": "None", "latitude": 51.05870048845881, "longitude": -114.12343927837729}, "886428960RR0001": {"name": "CANADIAN INTERNATIONAL DEVELOPMENT ORGANIZATION", "designationCode": "C", "categoryCode": "09", "address": "173 ROGER STREET", "city": "WATERLOO", "province": "ON", "country": "CA", "postalCode": "N2J1B1", "twitter": "None", "instagram": "None", "facebook": "None", "youtube": "None", "website": "None", "summary": "None", "logo": "None", "latitude": 43.463630402677886, "longitude": -80.50453285633928}, "891043747RR0001": {"name": "CANADIAN INTERNATIONAL FREEDOM OF EXPRESSION TRUST", "designationCode": "C", "categoryCode": "09", "address": "555 RICHMOND ST.W             SUITE 1101, P.O BOX 407", "city": "TORONTO", "province": "ON", "country": "CA", "postalCode": "M5V3B1", "twitter": "None", "instagram": "None", "facebook": "None", "youtube": "None", "website": "None", "summary": "None", "logo": "None", "latitude": 43.646684838161676, "longitude": -79.40249732915929}, "118833573RR0001": {"name": "CANADIAN INTERNATIONAL HEARING SERVICES", "designationCode": "C", "categoryCode": "11", "address": "54 STRATHBURN BOULEVARD", "city": "WESTON", "province": "ON", "country": "CA", "postalCode": "M9M2K7", "twitter": "None", "instagram": "None", "facebook": "None", "youtube": "None", "website": "None", "summary": "None", "logo": "None", "latitude": 43.721838849010354, "longitude": -79.53346365003735}, "119169050RR0001": {"name": "CANADIAN INTERNATIONAL IMMIGRANT AND REFUGEE SUPPORT ASSOCIATION", "designationCode": "C", "categoryCode": "99", "address": "10584- 107 STREET", "city": "EDMONTON", "province": "AB", "country": "CA", "postalCode": "T5H2Y6", "twitter": "None", "instagram": "None", "facebook": "None", "youtube": "None", "website": "None", "summary": "None", "logo": "None", "latitude": 53.549676000000005, "longitude": -113.50479828036785}, "866120942RR0001": {"name": "CANADIAN INTERNATIONAL MOTORCYCLE HERITAGE MUSEUM FOUNDATION", "designationCode": "C", "categoryCode": "50", "address": "201 - 3000 STEELES AVE E", "city": "MARKHAM", "province": "ON", "country": "CA", "postalCode": "L3R4T9", "twitter": "None", "instagram": "None", "facebook": "None", "youtube": "None", "website": "None", "summary": "None", "logo": "None", "latitude": 43.81385063833762, "longitude": -79.34931800099876}, "118829050RR0001": {"name": "CANADIAN IRISH STUDIES FOUNDATION - FONDATION CANADIENNE D'ETUDES IRLANDAISES", "designationCode": "A", "categoryCode": "25", "address": "1455 DE MAISONNEUVE OUEST     H 1001.3", "city": "MONTREAL", "province": "QC", "country": "CA", "postalCode": "H3G1M8", "twitter": "None", "instagram": "None", "facebook": "None", "youtube": "None", "website": "None", "summary": "None", "logo": "None", "latitude": 45.496936779098455, "longitude": -73.57860649056494}, "869710996RR0001": {"name": "CANADIAN ISLAMIC CENTER OF THE OTTAWA-CARLETON REGION", "designationCode": "C", "categoryCode": "60", "address": "6246 FALLOWFIELD RD.", "city": "STITTSVILLE", "province": "ON", "country": "CA", "postalCode": "K2S1B8", "twitter": "None", "instagram": "None", "facebook": "None", "youtube": "None", "website": "None", "summary": "None", "logo": "None", "latitude": 45.22779076672335, "longitude": -75.88908456734724}, "118833599RR0001": {"name": "CANADIAN ITALIAN BUSINESS AND PROFESSIONAL ASSOCIATION LADIES AUXILIARY CHARITABLE TRUST", "designationCode": "C", "categoryCode": "55", "address": "50 YORK ROAD", "city": "ETOBICOKE", "province": "ON", "country": "CA", "postalCode": "M9R3E4", "twitter": "None", "instagram": "None", "facebook": "None", "youtube": "None", "website": "None", "summary": "None", "logo": "None", "latitude": 43.701804346096175, "longitude": -79.55365323815555}, "118833607RR0001": {"name": "CANADIAN ITALIAN DEVELOPMENT ASSOCIATION, ONTARIO REGION", "designationCode": "C", "categoryCode": "59", "address": "340 FALSTAFF AVENUE           STE 203", "city": "TORONTO", "province": "ON", "country": "CA", "postalCode": "M6L3E7", "twitter": "None", "instagram": "None", "facebook": "None", "youtube": "None", "website": "None", "summary": "None", "logo": "None", "latitude": 43.720213052484084, "longitude": -79.48207777880998}, "138235189RR0001": {"name": "CANADIAN JAMAICAN MEDICAL ASSISTANCE SOCIETY", "designationCode": "C", "categoryCode": "09", "address": "151-10090 152 STREET          STE 271", "city": "SURREY", "province": "BC", "country": "CA", "postalCode": "V3R8X8", "twitter": "None", "instagram": "None", "facebook": "None", "youtube": "None", "website": "None", "summary": "None", "logo": "None", "latitude": 49.1629776455881, "longitude": -122.80142957892734}, "130978885RR0001": {"name": "CANADIAN JAPANESE CULTURAL CENTRE OF HAMILTON", "designationCode": "C", "categoryCode": "59", "address": "45 HEMPSTEAD DRIVE", "city": "HAMILTON", "province": "ON", "country": "CA", "postalCode": "L8W2Y6", "twitter": "None", "instagram": "None", "facebook": "None", "youtube": "None", "website": "None", "summary": "None", "logo": "None", "latitude": 43.19520948433253, "longitude": -79.83944384436447}, "891114373RR0001": {"name": "CANADIAN JESUIT MISSIONS LAKEHEAD", "designationCode": "C", "categoryCode": "38", "address": "126 MISSION ROAD", "city": "THUNDER BAY 1ST NATION", "province": "ON", "country": "CA", "postalCode": "P7J1K6", "twitter": "None", "instagram": "None", "facebook": "None", "youtube": "None", "website": "None", "summary": "None", "logo": "None"}, "118833623RR0001": {"name": "CANADIAN JESUIT MISSIONS SUBSIDIARY OF JESUIT FATHERS OF UPPER CANADA", "designationCode": "C", "categoryCode": "47", "address": "70 ST. MARY STREET", "city": "TORONTO", "province": "ON", "country": "CA", "postalCode": "M5S1J3", "twitter": "None", "instagram": "None", "facebook": "None", "youtube": "None", "website": "None", "summary": "None", "logo": "None", "latitude": 43.66715620901366, "longitude": -79.38988539384839}, "118974138RR0001": {"name": "CANADIAN JEWISH CIVIL RIGHTS ASSOCIATION", "designationCode": "C", "categoryCode": "21", "address": "3600-22 ADELAIDE ST. WEST     EAST TOWER,BAY ADELAIDE CENTRE", "city": "TORONTO", "province": "ON", "country": "CA", "postalCode": "M5H4E3", "twitter": "None", "instagram": "None", "facebook": "None", "youtube": "None", "website": "None", "summary": "None", "logo": "None", "latitude": 43.650375000000054, "longitude": -79.37890999999993}, "118833631RR0001": {"name": "CANADIAN JEWISH COMMITTEE FOR THE RESETTLEMENT OF REFUGEES", "designationCode": "C", "categoryCode": "09", "address": "381 BLOOMFIELD", "city": "OUTREMONT", "province": "QC", "country": "CA", "postalCode": "H2V3R7", "twitter": "None", "instagram": "None", "facebook": "None", "youtube": "None", "website": "None", "summary": "None", "logo": "None", "latitude": 45.5188713197529, "longitude": -73.60446100900236}, "890905599RR0001": {"name": "CANADIAN JOURNAL OF COMMUNICATION", "designationCode": "C", "categoryCode": "21", "address": "515 HASTINGS ST W", "city": "VANCOUVER", "province": "BC", "country": "CA", "postalCode": "V6B5K3", "twitter": "None", "instagram": "None", "facebook": "None", "youtube": "None", "website": "None", "summary": "None", "logo": "None", "latitude": 49.284219709673835, "longitude": -123.11202146131271}, "125513176RR0001": {"name": "CANADIAN JOURNAL OF WOMEN AND THE LAW/REVUE CANADIENNE FEMMES ET DROIT", "designationCode": "C", "categoryCode": "21", "address": "UNIVERITY OF TORONTO PRESS    5201 DUFFERIN STREET", "city": "NORTH YORK", "province": "ON", "country": "CA", "postalCode": "M3H5T8", "twitter": "None", "instagram": "None", "facebook": "None", "youtube": "None", "website": "None", "summary": "None", "logo": "None", "latitude": 43.786380000000065, "longitude": -79.47003994388055}, "852707652RR0001": {"name": "CANADIAN JOURNALISM FORUM ON VIOLENCE AND TRAUMA", "designationCode": "C", "categoryCode": "20", "address": "33 WYCHWOOD PK", "city": "LONDON", "province": "ON", "country": "CA", "postalCode": "N6G1R4", "twitter": "None", "instagram": "None", "facebook": "None", "youtube": "None", "website": "None", "summary": "None", "logo": "None", "latitude": 43.00024476908648, "longitude": -81.29104271951657}, "877643569RR0001": {"name": "CANADIAN KERALA CULTURAL ASSOCIATION OF ALBERTA", "designationCode": "C", "categoryCode": "56", "address": "1150-5328 CALGARY TRAIL S", "city": "EDMONTON", "province": "AB", "country": "CA", "postalCode": "T6J5M8", "twitter": "None", "instagram": "None", "facebook": "None", "youtube": "None", "website": "None", "summary": "None", "logo": "None", "latitude": 53.453454278232186, "longitude": -113.49271842480987}, "118833680RR0001": {"name": "CANADIAN KOREAN PURE PRESBYTERIAN CHURCH", "designationCode": "C", "categoryCode": "39", "address": "109 - 18 TINDER CRES", "city": "NORTH YORK", "province": "ON", "country": "CA", "postalCode": "M4A1L4", "twitter": "None", "instagram": "None", "facebook": "None", "youtube": "None", "website": "None", "summary": "None", "logo": "None", "latitude": 43.72731000000002, "longitude": -79.30907347602358}, "888546470RR0001": {"name": "CANADIAN LACROSSE FOUNDATION /FONDATION CANADIENNE DE CROSSE", "designationCode": "A", "categoryCode": "23", "address": "18 LOUISA ST., SUITE 310", "city": "OTTAWA", "province": "ON", "country": "CA", "postalCode": "K1R6Y6", "twitter": "None", "instagram": "None", "facebook": "None", "youtube": "None", "website": "None", "summary": "None", "logo": "None", "latitude": 45.40570304965681, "longitude": -75.70594288299968}, "854475969RR0001": {"name": "CANADIAN LAND TRUST ALLIANCE - ALLIANCE DES ORGANISMES DE CONSERVATION DU CANADA", "designationCode": "C", "categoryCode": "52", "address": "226 MACLAREN ST", "city": "OTTAWA", "province": "ON", "country": "CA", "postalCode": "K2P0L6", "twitter": "None", "instagram": "None", "facebook": "None", "youtube": "None", "website": "None", "summary": "None", "logo": "None", "latitude": 45.416585673033765, "longitude": -75.69119006007281}, "866765423RR0001": {"name": "CANADIAN LANDMINE FOUNDATION/LA FONDATION DES MINES TERRESTRES DU CANADA", "designationCode": "A", "categoryCode": "99", "address": "75 UNIVERSITY AVE W", "city": "WATERLOO", "province": "ON", "country": "CA", "postalCode": "N2L3C5", "twitter": "None", "instagram": "None", "facebook": "None", "youtube": "None", "website": "None", "summary": "None", "logo": "None", "latitude": 43.474871381037815, "longitude": -80.52850186744779}, "138620257RR0001": {"name": "CANADIAN LAWYERS FOR INTERNATIONAL HUMAN RIGHTS / JURISTES CANADIENS POUR LE DROIT INTERNATIONAL DE LA PERSONNE", "designationCode": "C", "categoryCode": "59", "address": "66 WELLINGTON STREET W.       P.O. BOX 1074", "city": "TORONTO", "province": "ON", "country": "CA", "postalCode": "M5K1A2", "twitter": "None", "instagram": "None", "facebook": "None", "youtube": "None", "website": "None", "summary": "None", "logo": "None", "latitude": 43.647055248975605, "longitude": -79.38109901041601}, "890266596RR0001": {"name": "CANADIAN LEAGUE AGAINST EPILEPSY", "designationCode": "C", "categoryCode": "11", "address": "20 CROWN STEEL DRIVE          UNIT 6", "city": "MARKHAM", "province": "ON", "country": "CA", "postalCode": "L3R9X9", "twitter": "None", "instagram": "None", "facebook": "None", "youtube": "None", "website": "None", "summary": "None", "logo": "None", "latitude": 43.83918666443543, "longitude": -79.32514310482394}, "131432031RR0001": {"name": "CANADIAN LEAGUE OF COMPOSERS", "designationCode": "C", "categoryCode": "22", "address": "20 SAINT JOSEPH ST", "city": "TORONTO", "province": "ON", "country": "CA", "postalCode": "M4Y1J9", "twitter": "None", "instagram": "None", "facebook": "None", "youtube": "None", "website": "None", "summary": "None", "logo": "None", "latitude": 43.66585438386507, "longitude": -79.38641480988512}, "118832864RR0001": {"name": "CANADIAN LESBIAN AND GAY ARCHIVES", "designationCode": "C", "categoryCode": "50", "address": "P.O. BOX 699                  663 A YONGE STREET", "city": "TORONTO", "province": "ON", "country": "CA", "postalCode": "M4Y1Z9", "twitter": "None", "instagram": "None", "facebook": "None", "youtube": "None", "website": "None", "summary": "None", "logo": "None", "latitude": 43.66827333112119, "longitude": -79.38591873379906}, "118833763RR0001": {"name": "CANADIAN LIBRARY ASSOCIATION/ASSOCIATION CANADIENNE DES BIBLIOTH\u00c8QUES", "designationCode": "C", "categoryCode": "50", "address": "400-1150 MORRISON DR", "city": "OTTAWA", "province": "ON", "country": "CA", "postalCode": "K2H8S9", "twitter": "None", "instagram": "None", "facebook": "None", "youtube": "None", "website": "None", "summary": "None", "logo": "None", "latitude": 45.34484176441193, "longitude": -75.79708700256748}, "889998977RR0001": {"name": "CANADIAN LIFEBOAT INSTITUTION INC.", "designationCode": "C", "categoryCode": "59", "address": "505 - 1788 BROADWAY W", "city": "VANCOUVER", "province": "BC", "country": "CA", "postalCode": "V6J1Y1", "twitter": "None", "instagram": "None", "facebook": "None", "youtube": "None", "website": "None", "summary": "None", "logo": "None", "latitude": 49.263674502885536, "longitude": -123.1452929701656}, "867842395RR0001": {"name": "CANADIAN LIFECENTRES FOUNDATION", "designationCode": "C", "categoryCode": "11", "address": "1756-246 STEWART GREEN SW", "city": "CALGARY", "province": "AB", "country": "CA", "postalCode": "T3H3C8", "twitter": "None", "instagram": "None", "facebook": "None", "youtube": "None", "website": "None", "summary": "None", "logo": "None", "latitude": 51.01512416856595, "longitude": -114.1699139965962}, "882061021RR0001": {"name": "CANADIAN LIFELIGHT MINISTRIES INC", "designationCode": "C", "categoryCode": "47", "address": "330 - 1695 HENDERSON HWY", "city": "WINNIPEG", "province": "MB", "country": "CA", "postalCode": "R2G1P1", "twitter": "None", "instagram": "None", "facebook": "None", "youtube": "None", "website": "None", "summary": "None", "logo": "None", "latitude": 49.9520986258125, "longitude": -97.07849528432142}, "106862949RR0001": {"name": "CANADIAN LIVER FOUNDATION", "designationCode": "C", "categoryCode": "13", "address": "3100 STEELES AVENUE EAST      SUITE 801", "city": "MARKHAM", "province": "ON", "country": "CA", "postalCode": "L3R8T3", "twitter": "None", "instagram": "None", "facebook": "None", "youtube": "None", "website": "None", "summary": "None", "logo": "None", "latitude": 43.814403195163855, "longitude": -79.34666936790913}, "106862998RR0001": {"name": "CANADIAN LUNG ASSOCIATION- ASSOCIATION PULMONAIRE DU CANADA", "designationCode": "C", "categoryCode": "11", "address": "300-1750 COURTWOOD CRESCENT", "city": "OTTAWA", "province": "ON", "country": "CA", "postalCode": "K2C2B5", "twitter": "None", "instagram": "None", "facebook": "None", "youtube": "None", "website": "None", "summary": "None", "logo": "None", "latitude": 45.37142009908249, "longitude": -75.74966213566888}, "106863020RR0001": {"name": "CANADIAN LUTHERAN BIBLE INSTITUTE", "designationCode": "C", "categoryCode": "20", "address": "4837 52A ST", "city": "CAMROSE", "province": "AB", "country": "CA", "postalCode": "T4V1W5", "twitter": "None", "instagram": "None", "facebook": "None", "youtube": "None", "website": "None", "summary": "None", "logo": "None", "latitude": 53.02012306624965, "longitude": -112.8298905283397}, "106863038RR0001": {"name": "CANADIAN LUTHERAN WORLD RELIEF", "designationCode": "C", "categoryCode": "09", "address": "600-177 LOMBARD AVE", "city": "WINNIPEG", "province": "MB", "country": "CA", "postalCode": "R3B0W5", "twitter": "None", "instagram": "None", "facebook": "None", "youtube": "None", "website": "None", "summary": "None", "logo": "None", "latitude": 49.89626240218695, "longitude": -97.13760688758732}, "864437603RR0001": {"name": "CANADIAN LYME DISEASE FOUNDATION", "designationCode": "C", "categoryCode": "11", "address": "9131 118 ST NW", "city": "EDMONTON", "province": "AB", "country": "CA", "postalCode": "T6G1T6", "twitter": "None", "instagram": "None", "facebook": "None", "youtube": "None", "website": "None", "summary": "None", "logo": "None", "latitude": 53.52746436663975, "longitude": -113.5342948289864}, "141146001RR0001": {"name": "CANADIAN MACEDONIAN HISTORICAL SOCIETY", "designationCode": "C", "categoryCode": "29", "address": "850 O'CONNOR DRIVE", "city": "TORONTO", "province": "ON", "country": "CA", "postalCode": "M4B3L6", "twitter": "None", "instagram": "None", "facebook": "None", "youtube": "None", "website": "None", "summary": "None", "logo": "None", "latitude": 43.70689221539029, "longitude": -79.3117992591318}, "130558976RR0001": {"name": "CANADIAN MACEDONIAN PLACE FOUNDATION", "designationCode": "C", "categoryCode": "09", "address": "850 O'CONNOR DR", "city": "TORONTO", "province": "ON", "country": "CA", "postalCode": "M4B3L6", "twitter": "None", "instagram": "None", "facebook": "None", "youtube": "None", "website": "None", "summary": "None", "logo": "None", "latitude": 43.70689221539029, "longitude": -79.3117992591318}, "118833904RR0001": {"name": "CANADIAN MAR THOMA CHURCH, TORONTO", "designationCode": "C", "categoryCode": "39", "address": "313 MAIN STREET NORTH", "city": "MARKHAM", "province": "ON", "country": "CA", "postalCode": "L3P1Z2", "twitter": "None", "instagram": "None", "facebook": "None", "youtube": "None", "website": "None", "summary": "None", "logo": "None", "latitude": 43.88831256064974, "longitude": -79.2631852268455}, "883090664RR0001": {"name": "CANADIAN MARINE ENVIRONMENT PROTECTION SOCIETY", "designationCode": "C", "categoryCode": "54", "address": "P.O. BOX 467                  1755 ROBSON STREET", "city": "VANCOUVER", "province": "BC", "country": "CA", "postalCode": "V6G3B7", "twitter": "None", "instagram": "None", "facebook": "None", "youtube": "None", "website": "None", "summary": "None", "logo": "None", "latitude": 49.291092970739534, "longitude": -123.13472066935891}, "107909939RR0012": {"name": "CANADIAN MARTYRS CATHOLIC PARISH", "designationCode": "C", "categoryCode": "38", "address": "835 NORTHMOUNT DR N.W.", "city": "CALGARY", "province": "AB", "country": "CA", "postalCode": "T2L0A3", "twitter": "None", "instagram": "None", "facebook": "None", "youtube": "None", "website": "None", "summary": "None", "logo": "None", "latitude": 51.08432302663175, "longitude": -114.0994352498123}, "107307191RR0009": {"name": "CANADIAN MARTYRS PARISH", "designationCode": "C", "categoryCode": "38", "address": "1007, RUE WINDSOR", "city": "SASKATOON", "province": "SK", "country": "CA", "postalCode": "S7K0Z1", "twitter": "None", "instagram": "None", "facebook": "None", "youtube": "None", "website": "None", "summary": "None", "logo": "None", "latitude": 52.14889307412418, "longitude": -106.64778861270113}, "108094392RR0004": {"name": "CANADIAN MARTYRS PARISH", "designationCode": "C", "categoryCode": "38", "address": "BOX 128", "city": "INVERMERE", "province": "BC", "country": "CA", "postalCode": "V0A1K0", "twitter": "None", "instagram": "None", "facebook": "None", "youtube": "None", "website": "None", "summary": "None", "logo": "None", "latitude": 50.50916700000006, "longitude": -116.03037049999993}, "118849470RR0001": {"name": "CANADIAN MARTYRS PARISH", "designationCode": "C", "categoryCode": "38", "address": "5771 GRANVILLE AVE", "city": "RICHMOND", "province": "BC", "country": "CA", "postalCode": "V7C1E8", "twitter": "None", "instagram": "None", "facebook": "None", "youtube": "None", "website": "None", "summary": "None", "logo": "None"}, "119110450RR0054": {"name": "CANADIAN MARTYRS PARISH", "designationCode": "C", "categoryCode": "38", "address": "38 EMERSON STREET", "city": "HAMILTON", "province": "ON", "country": "CA", "postalCode": "L8S2X3", "twitter": "None", "instagram": "None", "facebook": "None", "youtube": "None", "website": "None", "summary": "None", "logo": "None", "latitude": 43.25690579462169, "longitude": -79.91991492258626}, "107585085RR0054": {"name": "CANADIAN MARTYRS PARISH, CARROT RIVER, SK", "designationCode": "C", "categoryCode": "38", "address": "BOX 36", "city": "CARROT RIVER", "province": "SK", "country": "CA", "postalCode": "S0E0L0", "twitter": "None", "instagram": "None", "facebook": "None", "youtube": "None", "website": "None", "summary": "None", "logo": "None", "latitude": 53.28401000000008, "longitude": -103.58754999999996}, "118833979RR0001": {"name": "CANADIAN MATHEMATICAL SOCIETY-SOCIETE MATHEMATIQUE DU CANADA", "designationCode": "C", "categoryCode": "21", "address": "209-1725 ST LAURENT BLVD", "city": "OTTAWA", "province": "ON", "country": "CA", "postalCode": "K1G3V4", "twitter": "None", "instagram": "None", "facebook": "None", "youtube": "None", "website": "None", "summary": "None", "logo": "None", "latitude": 45.40723881262643, "longitude": -75.62787108961781}, "806832614RR0001": {"name": "CANADIAN MATHEMATICS EDUCATION STUDY GROUP / GROUPE CANADIEN D'\u00c9TUDE EN DIDACTIQUE DES MATH\u00c9MATIQUES", "designationCode": "C", "categoryCode": "21", "address": "UNIVERSITE DE MONCTON", "city": "CAMPUS MONCTON", "province": "NB", "country": "CA", "postalCode": "E1A3E9", "twitter": "None", "instagram": "None", "facebook": "None", "youtube": "None", "website": "None", "summary": "None", "logo": "None", "latitude": 46.10445000000004, "longitude": -64.78059999999994}, "106863293RR0001": {"name": "CANADIAN MEDIC ALERT FOUNDATION INC.", "designationCode": "C", "categoryCode": "11", "address": "600 - 895 DON MILLS RD", "city": "NORTH YORK", "province": "ON", "country": "CA", "postalCode": "M3C1W3", "twitter": "None", "instagram": "None", "facebook": "None", "youtube": "None", "website": "None", "summary": "None", "logo": "None", "latitude": 43.708179055694835, "longitude": -79.33384518793717}, "119219327RR0001": {"name": "CANADIAN MEDICAL FOUNDATION / FONDATION M\u00c9DICALE CANADIENNE", "designationCode": "C", "categoryCode": "21", "address": "1870 ALTA VISTA DR", "city": "OTTAWA", "province": "ON", "country": "CA", "postalCode": "K1G6R7", "twitter": "None", "instagram": "None", "facebook": "None", "youtube": "None", "website": "None", "summary": "None", "logo": "None", "latitude": 45.39950230001739, "longitude": -75.66193704059617}, "891383242RR0001": {"name": "CANADIAN MELANOMA FOUNDATION", "designationCode": "A", "categoryCode": "13", "address": "835 10TH AVE W", "city": "VANCOUVER", "province": "BC", "country": "CA", "postalCode": "V5Z1L7", "twitter": "None", "instagram": "None", "facebook": "None", "youtube": "None", "website": "None", "summary": "None", "logo": "None", "latitude": 49.26242249321934, "longitude": -123.12293358090484}, "108075508RR0001": {"name": "CANADIAN MEMORIAL CHIROPRACTIC COLLEGE", "designationCode": "C", "categoryCode": "20", "address": "6100 LESLIE STREET", "city": "TORONTO", "province": "ON", "country": "CA", "postalCode": "M2H3J1", "twitter": "None", "instagram": "None", "facebook": "None", "youtube": "None", "website": "None", "summary": "None", "logo": "None", "latitude": 43.80366711128749, "longitude": -79.37131802227432}, "118834001RR0001": {"name": "CANADIAN MEMORIAL UNITED CHURCH", "designationCode": "C", "categoryCode": "44", "address": "1825 WEST 16TH AVE", "city": "VANCOUVER", "province": "BC", "country": "CA", "postalCode": "V6J2M3", "twitter": "None", "instagram": "None", "facebook": "None", "youtube": "None", "website": "None", "summary": "None", "logo": "None", "latitude": 49.25723548600598, "longitude": -123.1468737485429}, "888777844RR0001": {"name": "CANADIAN MENNONITE HEALTH ASSEMBLY", "designationCode": "C", "categoryCode": "49", "address": "515 LANGS DRIVE", "city": "CAMBRIDGE", "province": "ON", "country": "CA", "postalCode": "N3H5E4", "twitter": "None", "instagram": "None", "facebook": "None", "youtube": "None", "website": "None", "summary": "None", "logo": "None", "latitude": 43.3983332357027, "longitude": -80.34319574551314}, "119038487RR0001": {"name": "CANADIAN MENNONITE PUBLISHING SERVICE", "designationCode": "C", "categoryCode": "47", "address": "490 DUTTON DRIVE              UNIT C5", "city": "WATERLOO", "province": "ON", "country": "CA", "postalCode": "N2L6H7", "twitter": "None", "instagram": "None", "facebook": "None", "youtube": "None", "website": "None", "summary": "None", "logo": "None", "latitude": 43.49395276244295, "longitude": -80.53872485967753}, "885608323RR0001": {"name": "CANADIAN MENNONITE UNIVERSITY", "designationCode": "C", "categoryCode": "20", "address": "500 SHAFTESBURY BOULEVARD", "city": "WINNIPEG", "province": "MB", "country": "CA", "postalCode": "R3P2N2", "twitter": "None", "instagram": "None", "facebook": "None", "youtube": "None", "website": "None", "summary": "None", "logo": "None", "latitude": 49.86016418544834, "longitude": -97.23020803480374}, "106863715RR0001": {"name": "CANADIAN MENTAL HEALTH ASSOCIATIN 100 MILE HOUSE BRANCH", "designationCode": "C", "categoryCode": "11", "address": "BOX 876", "city": "100 MILE HOUSE", "province": "BC", "country": "CA", "postalCode": "V0K2E0", "twitter": "None", "instagram": "None", "facebook": "None", "youtube": "None", "website": "None", "summary": "None", "logo": "None", "latitude": 51.62931000000003, "longitude": -121.30063999999999}, "106864044RR0001": {"name": "CANADIAN MENTAL HEALTH ASSOCIATION (SASKATCHEWAN DIVISION) INC.", "designationCode": "C", "categoryCode": "11", "address": "2702 12TH AVE", "city": "REGINA", "province": "SK", "country": "CA", "postalCode": "S4T1J2", "twitter": "None", "instagram": "None", "facebook": "None", "youtube": "None", "website": "None", "summary": "None", "logo": "None", "latitude": 50.4488824565756, "longitude": -104.6200126902591}, "860962406RR0001": {"name": "CANADIAN MENTAL HEALTH ASSOCIATION (WEYBURN BRANCH)", "designationCode": "C", "categoryCode": "11", "address": "404 ASHFORD STREET", "city": "WEYBURN", "province": "SK", "country": "CA", "postalCode": "S4H1K1", "twitter": "None", "instagram": "None", "facebook": "None", "youtube": "None", "website": "None", "summary": "None", "logo": "None", "latitude": 49.66512658614038, "longitude": -103.84206421847952}, "122013139RR0001": {"name": "CANADIAN MENTAL HEALTH ASSOCIATION - CALGARY REGION", "designationCode": "C", "categoryCode": "11", "address": "400-105 12 AVE SE", "city": "CALGARY", "province": "AB", "country": "CA", "postalCode": "T2G1A1", "twitter": "None", "instagram": "None", "facebook": "None", "youtube": "None", "website": "None", "summary": "None", "logo": "None", "latitude": 51.04136053621104, "longitude": -114.06274186372553}, "835099870RR0001": {"name": "CANADIAN MENTAL HEALTH ASSOCIATION - CARIBOO CHILCOTIN BRANCH", "designationCode": "C", "categoryCode": "11", "address": "51 4TH AVE S", "city": "WILLIAMS LAKE", "province": "BC", "country": "CA", "postalCode": "V2G1J6", "twitter": "None", "instagram": "None", "facebook": "None", "youtube": "None", "website": "None", "summary": "None", "logo": "None", "latitude": 52.127539470165594, "longitude": -122.1405414182871}, "106863947RR0001": {"name": "CANADIAN MENTAL HEALTH ASSOCIATION - COCHRANE - TIMISKAMING BRANCH", "designationCode": "C", "categoryCode": "11", "address": "330 SECOND AVE STE 201", "city": "TIMMINS", "province": "ON", "country": "CA", "postalCode": "P4N8A4", "twitter": "None", "instagram": "None", "facebook": "None", "youtube": "None", "website": "None", "summary": "None", "logo": "None", "latitude": 48.47381105839089, "longitude": -81.32659291085366}, "892612912RR0001": {"name": "CANADIAN MENTAL HEALTH ASSOCIATION - KINGS COUNTY BRANCH", "designationCode": "C", "categoryCode": "11", "address": "203 - 35 WEBSTER ST", "city": "KENTVILLE", "province": "NS", "country": "CA", "postalCode": "B4N1H4", "twitter": "None", "instagram": "None", "facebook": "None", "youtube": "None", "website": "None", "summary": "None", "logo": "None", "latitude": 45.07849799896582, "longitude": -64.49794558903767}, "873443444RR0001": {"name": "CANADIAN MENTAL HEALTH ASSOCIATION - SASKATOON BRANCH INC.", "designationCode": "C", "categoryCode": "11", "address": "1301 AVENUE P NORTH", "city": "SASKATOON", "province": "SK", "country": "CA", "postalCode": "S7L2X1", "twitter": "None", "instagram": "None", "facebook": "None", "youtube": "None", "website": "None", "summary": "None", "logo": "None", "latitude": 52.14580188481736, "longitude": -106.69416777494351}, "806648499RR0001": {"name": "CANADIAN MENTAL HEALTH ASSOCIATION - SOUTH CARIBOO BRANCH", "designationCode": "C", "categoryCode": "11", "address": "PO BOX 876", "city": "100 MILE HOUSE", "province": "BC", "country": "CA", "postalCode": "V0K2E0", "twitter": "None", "instagram": "None", "facebook": "None", "youtube": "None", "website": "None", "summary": "None", "logo": "None", "latitude": 51.62931000000003, "longitude": -121.30063999999999}, "899675466RR0001": {"name": "CANADIAN MENTAL HEALTH ASSOCIATION ALBERT BRANCH INC. L'ASSOCIATION CANADIENNE POUR LA SANTE MENTALE FILIALE D'ALBERT INC.", "designationCode": "C", "categoryCode": "11", "address": "5295 ROUTE 114", "city": "HOPEWELL HILL", "province": "NB", "country": "CA", "postalCode": "E4H3M7", "twitter": "None", "instagram": "None", "facebook": "None", "youtube": "None", "website": "None", "summary": "None", "logo": "None", "latitude": 45.7662696927406, "longitude": -64.68112790885203}, "867624090RR0001": {"name": "CANADIAN MENTAL HEALTH ASSOCIATION ALBERTA NORTHWEST REGION 1995", "designationCode": "C", "categoryCode": "11", "address": "9713 100 AVE", "city": "GRANDE PRAIRIE", "province": "AB", "country": "CA", "postalCode": "T8V0T5", "twitter": "None", "instagram": "None", "facebook": "None", "youtube": "None", "website": "None", "summary": "None", "logo": "None", "latitude": 55.170655513994035, "longitude": -118.78586257660567}, "888441995RR0001": {"name": "CANADIAN MENTAL HEALTH ASSOCIATION B.C. DIVISION", "designationCode": "C", "categoryCode": "11", "address": "905 - 1130 PENDER ST W", "city": "VANCOUVER", "province": "BC", "country": "CA", "postalCode": "V6E4A4", "twitter": "None", "instagram": "None", "facebook": "None", "youtube": "None", "website": "None", "summary": "None", "logo": "None", "latitude": 49.28780697247422, "longitude": -123.12152136903433}, "137661328RR0001": {"name": "CANADIAN MENTAL HEALTH ASSOCIATION FOR THE KOOTENAYS", "designationCode": "C", "categoryCode": "11", "address": "100 - 1000 21ST AVE N", "city": "CRANBROOK", "province": "BC", "country": "CA", "postalCode": "V1C5L9", "twitter": "None", "instagram": "None", "facebook": "None", "youtube": "None", "website": "None", "summary": "None", "logo": "None", "latitude": 49.521788580904854, "longitude": -115.75208013690963}, "124872128RR0001": {"name": "CANADIAN MENTAL HEALTH ASSOCIATION HALIFAX BRANCH", "designationCode": "C", "categoryCode": "11", "address": "100-2020 GOTTINGEN ST.", "city": "HALIFAX", "province": "NS", "country": "CA", "postalCode": "B3K3A9", "twitter": "None", "instagram": "None", "facebook": "None", "youtube": "None", "website": "None", "summary": "None", "logo": "None", "latitude": 44.650875101852435, "longitude": -63.58173978310916}, "106863392RR0001": {"name": "CANADIAN MENTAL HEALTH ASSOCIATION KELOWNA BRANCH", "designationCode": "C", "categoryCode": "11", "address": "504 SUTHERLAND AVE", "city": "KELOWNA", "province": "BC", "country": "CA", "postalCode": "V1Y5X1", "twitter": "None", "instagram": "None", "facebook": "None", "youtube": "None", "website": "None", "summary": "None", "logo": "None", "latitude": 49.87970595504641, "longitude": -119.49281823870382}, "106863780RR0001": {"name": "CANADIAN MENTAL HEALTH ASSOCIATION NEWFOUNDLAND DIVISION", "designationCode": "C", "categoryCode": "11", "address": "70, THE BOULEVARD             1ST FLOOR", "city": "ST-JOHN'S", "province": "NL", "country": "CA", "postalCode": "A1A1K2", "twitter": "None", "instagram": "None", "facebook": "None", "youtube": "None", "website": "None", "summary": "None", "logo": "None", "latitude": 47.579588306711145, "longitude": -52.69988784626905}, "106864143RR0001": {"name": "CANADIAN MENTAL HEALTH ASSOCIATION NORTH AND WEST VANCOUVER BRANCH", "designationCode": "C", "categoryCode": "11", "address": "300 - 1835 LONSDALE AVE", "city": "NORTH VANCOUVER", "province": "BC", "country": "CA", "postalCode": "V7M2J8", "twitter": "None", "instagram": "None", "facebook": "None", "youtube": "None", "website": "None", "summary": "None", "logo": "None", "latitude": 49.32556437713834, "longitude": -123.07232378337916}, "133465609RR0001": {"name": "CANADIAN MENTAL HEALTH ASSOCIATION NOVA SCOTIA DIVISION", "designationCode": "C", "categoryCode": "11", "address": "200 - 45 ALDERNEY DR", "city": "DARTMOUTH", "province": "NS", "country": "CA", "postalCode": "B2Y2N6", "twitter": "None", "instagram": "None", "facebook": "None", "youtube": "None", "website": "None", "summary": "None", "logo": "None", "latitude": 44.66510530339292, "longitude": -63.56945518549857}, "106863665RR0001": {"name": "CANADIAN MENTAL HEALTH ASSOCIATION ONTARIO DIVISION", "designationCode": "C", "categoryCode": "11", "address": "180 DUNDAS STREET WEST", "city": "TORONTO", "province": "ON", "country": "CA", "postalCode": "M5G1Z8", "twitter": "None", "instagram": "None", "facebook": "None", "youtube": "None", "website": "None", "summary": "None", "logo": "None", "latitude": 43.65514309576426, "longitude": -79.38653771371685}, "106863764RR0001": {"name": "CANADIAN MENTAL HEALTH ASSOCIATION PORT ALBERNI BRANCH", "designationCode": "C", "categoryCode": "11", "address": "3178-2ND AVE", "city": "PORT ALBERNI", "province": "BC", "country": "CA", "postalCode": "V9Y4C3", "twitter": "None", "instagram": "None", "facebook": "None", "youtube": "None", "website": "None", "summary": "None", "logo": "None", "latitude": 49.23571093055872, "longitude": -124.80914543768415}, "106863590RR0001": {"name": "CANADIAN MENTAL HEALTH ASSOCIATION PRINCE EDWARD ISLAND DIVISION", "designationCode": "C", "categoryCode": "11", "address": "PO BOX 785", "city": "CHARLOTTETOWN", "province": "PE", "country": "CA", "postalCode": "C1A7L9", "twitter": "None", "instagram": "None", "facebook": "None", "youtube": "None", "website": "None", "summary": "None", "logo": "None", "latitude": 46.23659700000006, "longitude": -63.12815449999994}}