{"894375385RR0001": {"name": "OSOYOOS DESERT SOCIETY", "designationCode": "C", "categoryCode": "52", "address": "BOX 123", "city": "OSOYOOS", "province": "BC", "country": "CA", "postalCode": "V0H1V0", "twitter": "None", "instagram": "None", "facebook": "None", "youtube": "None", "website": "None", "summary": "None", "logo": "None", "latitude": 49.03284000000008, "longitude": -119.46625999999998}, "890428469RR0001": {"name": "OSOYOOS LAKE WATER QUALITY SOCIETY", "designationCode": "C", "categoryCode": "59", "address": "PO BOX 1382", "city": "OSOYOOS", "province": "BC", "country": "CA", "postalCode": "V0H1V0", "twitter": "None", "instagram": "None", "facebook": "None", "youtube": "None", "website": "None", "summary": "None", "logo": "None", "latitude": 49.03284000000008, "longitude": -119.46625999999998}, "119070910RR0001": {"name": "OSOYOOS MUSEUM SOCIETY", "designationCode": "C", "categoryCode": "50", "address": "PO BOX 791", "city": "OSOYOOS", "province": "BC", "country": "CA", "postalCode": "V0H1V0", "twitter": "None", "instagram": "None", "facebook": "None", "youtube": "None", "website": "None", "summary": "None", "logo": "None", "latitude": 49.03284000000008, "longitude": -119.46625999999998}, "130396823RR0001": {"name": "OSOYOOS SECONDARY SCHOOL TRANSPORTATION SOCIETY", "designationCode": "C", "categoryCode": "09", "address": "5800 115TH ST", "city": "OSOYOOS", "province": "BC", "country": "CA", "postalCode": "V0H1V4", "twitter": "None", "instagram": "None", "facebook": "None", "youtube": "None", "website": "None", "summary": "None", "logo": "None", "latitude": 49.01690807600964, "longitude": -119.48090559645594}, "887754067RR0001": {"name": "OSOYOOS SENIORS CENTRE ASSOCIATION", "designationCode": "C", "categoryCode": "56", "address": "PO BOX 828                    17 PARK PLACE", "city": "OSOYOOS", "province": "BC", "country": "CA", "postalCode": "V0H1V0", "twitter": "None", "instagram": "None", "facebook": "None", "youtube": "None", "website": "None", "summary": "None", "logo": "None", "latitude": 49.032935342935275, "longitude": -119.46327908047519}, "118818491RR0025": {"name": "OSOYOOS SEVENTH-DAY ADVENTIST CHURCH", "designationCode": "C", "categoryCode": "41", "address": "PO 1000", "city": "ABBOTSFORD", "province": "BC", "country": "CA", "postalCode": "V2S4P5", "twitter": "None", "instagram": "None", "facebook": "None", "youtube": "None", "website": "None", "summary": "None", "logo": "None", "latitude": 49.03851300000005, "longitude": -122.29441549999993}, "119070944RR0001": {"name": "OSOYOOS UNITED CHURCH", "designationCode": "C", "categoryCode": "44", "address": "PO BOX 581", "city": "OSOYOOS", "province": "BC", "country": "CA", "postalCode": "V0H1V0", "twitter": "None", "instagram": "None", "facebook": "None", "youtube": "None", "website": "None", "summary": "None", "logo": "None", "latitude": 49.03284000000008, "longitude": -119.46625999999998}, "874925928RR0001": {"name": "OSPREY COMMUNITY FOUNDATION", "designationCode": "A", "categoryCode": "03", "address": "B8-625 FRONT ST", "city": "NELSON", "province": "BC", "country": "CA", "postalCode": "V1L4B6", "twitter": "None", "instagram": "None", "facebook": "None", "youtube": "None", "website": "None", "summary": "None", "logo": "None", "latitude": 49.494813453524436, "longitude": -117.294183273731}, "895757896RR0001": {"name": "OSPREY MUSEUM", "designationCode": "C", "categoryCode": "50", "address": "315 MILL BRIDGE ROAD", "city": "FEVERSHAM", "province": "ON", "country": "CA", "postalCode": "N0C1C0", "twitter": "None", "instagram": "None", "facebook": "None", "youtube": "None", "website": "None", "summary": "None", "logo": "None", "latitude": 44.339281123521175, "longitude": -80.37313016844612}, "119070951RR0001": {"name": "OSSINGTON AVENUE BAPTIST CHURCH", "designationCode": "C", "categoryCode": "31", "address": "720 OSSINGTON", "city": "TORONTO", "province": "ON", "country": "CA", "postalCode": "M6G3T7", "twitter": "None", "instagram": "None", "facebook": "None", "youtube": "None", "website": "None", "summary": "None", "logo": "None", "latitude": 43.66185978934158, "longitude": -79.42564533833455}, "888191665RR0001": {"name": "OSSTF HUMANITY FUND", "designationCode": "B", "categoryCode": "05", "address": "60 MOBILE DRIVE", "city": "TORONTO", "province": "ON", "country": "CA", "postalCode": "M4A2P3", "twitter": "None", "instagram": "None", "facebook": "None", "youtube": "None", "website": "None", "summary": "None", "logo": "None", "latitude": 43.724294161261426, "longitude": -79.31944957276784}, "119070985RR0001": {"name": "OSTENFELD LUTHERAN CHURCH", "designationCode": "C", "categoryCode": "32", "address": "BOX 13, GROUP 6               RR#1", "city": "ANOLA", "province": "MB", "country": "CA", "postalCode": "R0E0A0", "twitter": "None", "instagram": "None", "facebook": "None", "youtube": "None", "website": "None", "summary": "None", "logo": "None", "latitude": 49.885053000000056, "longitude": -96.64109449999994}, "895510931RR0001": {"name": "OSTEOPOROSIS CANADA / OSTEOPOROSE CANADA", "designationCode": "C", "categoryCode": "11", "address": "SUITE 500                     1200 EGLINTON AVENUE EAST", "city": "TORONTO", "province": "ON", "country": "CA", "postalCode": "M3C1H9", "twitter": "None", "instagram": "None", "facebook": "None", "youtube": "None", "website": "None", "summary": "None", "logo": "None", "latitude": 43.72199581603065, "longitude": -79.33419000294285}, "104022884RR0001": {"name": "OSTEOTHEQUE DE MONTREAL INC.", "designationCode": "C", "categoryCode": "21", "address": "C.P. 6128-SUCC.CENTRE-VILLE", "city": "MONTREAL", "province": "QC", "country": "CA", "postalCode": "H3C3J7", "twitter": "None", "instagram": "None", "facebook": "None", "youtube": "None", "website": "None", "summary": "None", "logo": "None", "latitude": 45.49833600000005, "longitude": -73.55148649999994}, "119071009RR0001": {"name": "OSTOMY TORONTO CORPORATION", "designationCode": "C", "categoryCode": "11", "address": "609-344 BLOOR ST W", "city": "TORONTO", "province": "ON", "country": "CA", "postalCode": "M5S3A7", "twitter": "None", "instagram": "None", "facebook": "None", "youtube": "None", "website": "None", "summary": "None", "logo": "None", "latitude": 43.667372648743196, "longitude": -79.40049643191246}, "119071033RR0001": {"name": "OSTROVTZA TORAH FUND", "designationCode": "C", "categoryCode": "21", "address": "62 SULTANA AVE", "city": "TORONTO", "province": "ON", "country": "CA", "postalCode": "M6A1T1", "twitter": "None", "instagram": "None", "facebook": "None", "youtube": "None", "website": "None", "summary": "None", "logo": "None", "latitude": 43.727817183478415, "longitude": -79.43639772912452}, "889904264RR0001": {"name": "OSU CHILDREN'S LIBRARY FUND", "designationCode": "C", "categoryCode": "50", "address": "2900-350 7 AVE SW", "city": "CALGARY", "province": "AB", "country": "CA", "postalCode": "T2P3N9", "twitter": "None", "instagram": "None", "facebook": "None", "youtube": "None", "website": "None", "summary": "None", "logo": "None", "latitude": 51.04682342625144, "longitude": -114.07570373231476}, "119071058RR0001": {"name": "OTA EDUCATION FOUNDATION INC.", "designationCode": "A", "categoryCode": "23", "address": "555 DIXON ROAD", "city": "TORONTO", "province": "ON", "country": "CA", "postalCode": "M9W1H8", "twitter": "None", "instagram": "None", "facebook": "None", "youtube": "None", "website": "None", "summary": "None", "logo": "None", "latitude": 43.69138978709122, "longitude": -79.57137472271921}, "870164985RR0001": {"name": "OTIS CEMETERY INC", "designationCode": "C", "categoryCode": "59", "address": "7804 ROUTE 102", "city": "BARONY", "province": "NB", "country": "CA", "postalCode": "E6G1R3", "twitter": "None", "instagram": "None", "facebook": "None", "youtube": "None", "website": "None", "summary": "None", "logo": "None", "latitude": 45.97057051411772, "longitude": -67.1879219804907}, "139743645RR0001": {"name": "OTO-WA TAIKO GROUP", "designationCode": "C", "categoryCode": "22", "address": "370 PLEASANT PARK RD", "city": "OTTAWA", "province": "ON", "country": "CA", "postalCode": "K1H5M8", "twitter": "None", "instagram": "None", "facebook": "None", "youtube": "None", "website": "None", "summary": "None", "logo": "None", "latitude": 45.39341553563411, "longitude": -75.65698113765944}, "119288918RR0191": {"name": "OTONABEE CONGREGATION OF JEHOVAH'S WITNESSES, PETERBOROUGH, ONTARIO", "designationCode": "C", "categoryCode": "61", "address": "2137 DAVIS ROAD", "city": "CAVAN MONAGHAN", "province": "ON", "country": "CA", "postalCode": "K9J0G5", "twitter": "None", "instagram": "None", "facebook": "None", "youtube": "None", "website": "None", "summary": "None", "logo": "None", "latitude": 44.25976120679645, "longitude": -78.40754554260486}, "891096687RR0001": {"name": "OTTAWA ACADEMY FOR LIBERAL JUDAISM", "designationCode": "C", "categoryCode": "20", "address": "1301 PRINCE OF WALES DR", "city": "OTTAWA", "province": "ON", "country": "CA", "postalCode": "K2C1N2", "twitter": "None", "instagram": "None", "facebook": "None", "youtube": "None", "website": "None", "summary": "None", "logo": "None", "latitude": 45.37125659732212, "longitude": -75.70647238617369}, "855391066RR0001": {"name": "OTTAWA ALL NATIONS CHURCH", "designationCode": "C", "categoryCode": "39", "address": "PO BOX 46145 RPO BEACON HILL", "city": "GLOUCESTER", "province": "ON", "country": "CA", "postalCode": "K1J9M7", "twitter": "None", "instagram": "None", "facebook": "None", "youtube": "None", "website": "None", "summary": "None", "logo": "None", "latitude": 45.44624994835266, "longitude": -75.61335004385704}, "891576407RR0001": {"name": "OTTAWA AMITABHA BUDDHIST SOCIETY OF CANADA", "designationCode": "C", "categoryCode": "35", "address": "7828 LAWRENCE ST.             P.O. BOX 131", "city": "VERNON", "province": "ON", "country": "CA", "postalCode": "K0A3J0", "twitter": "None", "instagram": "None", "facebook": "None", "youtube": "None", "website": "None", "summary": "None", "logo": "None", "latitude": 45.1609153705062, "longitude": -75.46176195516196}, "869362780RR0001": {"name": "OTTAWA BLUESFEST", "designationCode": "C", "categoryCode": "22", "address": "450 CHURCHILL AVE N", "city": "OTTAWA", "province": "ON", "country": "CA", "postalCode": "K1Z5E2", "twitter": "None", "instagram": "None", "facebook": "None", "youtube": "None", "website": "None", "summary": "None", "logo": "None", "latitude": 45.39011920814826, "longitude": -75.75259383351576}, "119071249RR0001": {"name": "OTTAWA BOYS' CLUB FOUNDATION, INC.", "designationCode": "A", "categoryCode": "03", "address": "75 ALBERT ST SUITE 604", "city": "OTTAWA", "province": "ON", "country": "CA", "postalCode": "K1P5E7", "twitter": "None", "instagram": "None", "facebook": "None", "youtube": "None", "website": "None", "summary": "None", "logo": "None", "latitude": 45.42207928642739, "longitude": -75.69532471400531}, "119071256RR0001": {"name": "OTTAWA BUDDHIST SOCIETY", "designationCode": "C", "categoryCode": "35", "address": "1066 CASTLE HILL CRESCENT", "city": "OTTAWA", "province": "ON", "country": "CA", "postalCode": "K2C2A8", "twitter": "None", "instagram": "None", "facebook": "None", "youtube": "None", "website": "None", "summary": "None", "logo": "None", "latitude": 45.36809863670717, "longitude": -75.74780160312184}, "127391886RR0001": {"name": "OTTAWA C G I T COMMITTEE", "designationCode": "C", "categoryCode": "49", "address": "180 DUFFERIN RD", "city": "OTTAWA", "province": "ON", "country": "CA", "postalCode": "K1M2A6", "twitter": "None", "instagram": "None", "facebook": "None", "youtube": "None", "website": "None", "summary": "None", "logo": "None", "latitude": 45.44344304495362, "longitude": -75.68140908933029}, "119071306RR0001": {"name": "OTTAWA CARLETON PUPPETEERS FOR KIDS ON THE BLOCK", "designationCode": "C", "categoryCode": "09", "address": "395 SMYTH ROAD", "city": "OTTAWA", "province": "ON", "country": "CA", "postalCode": "K1H8L2", "twitter": "None", "instagram": "None", "facebook": "None", "youtube": "None", "website": "None", "summary": "None", "logo": "None", "latitude": 45.399101566921374, "longitude": -75.65280860300396}, "119071330RR0001": {"name": "OTTAWA CARLETON WHEELCHAIR SPORTS ASSOCIATION INC.", "designationCode": "C", "categoryCode": "56", "address": "791 EASTVALE DRIVE", "city": "OTTAWA", "province": "ON", "country": "CA", "postalCode": "K1J6Z9", "twitter": "None", "instagram": "None", "facebook": "None", "youtube": "None", "website": "None", "summary": "None", "logo": "None", "latitude": 45.45453343242537, "longitude": -75.59425207781776}, "138904610RR0001": {"name": "OTTAWA CATHOLIC CHILD CARE CORPORATION", "designationCode": "C", "categoryCode": "01", "address": "570 WEST HUNT CLUB ROAD", "city": "OTTAWA", "province": "ON", "country": "CA", "postalCode": "K2G3R4", "twitter": "None", "instagram": "None", "facebook": "None", "youtube": "None", "website": "None", "summary": "None", "logo": "None", "latitude": 45.33298800579972, "longitude": -75.72819528377299}, "856552930RR0001": {"name": "OTTAWA CHAMBER ORCHESTRA", "designationCode": "C", "categoryCode": "22", "address": "2356 KEYSTONE COURT", "city": "OTTAWA", "province": "ON", "country": "CA", "postalCode": "K1W1A8", "twitter": "None", "instagram": "None", "facebook": "None", "youtube": "None", "website": "None", "summary": "None", "logo": "None", "latitude": 45.43747807715392, "longitude": -75.54783278186841}, "132248717RR0001": {"name": "OTTAWA CHAPTER, CHILDREN'S INTERNATIONAL SUMMER VILLAGES (CANADA) INC", "designationCode": "C", "categoryCode": "56", "address": "P.O. BOX 1384, STATION B", "city": "OTTAWA", "province": "ON", "country": "CA", "postalCode": "K1P5R4", "twitter": "None", "instagram": "None", "facebook": "None", "youtube": "None", "website": "None", "summary": "None", "logo": "None", "latitude": 45.42177300000006, "longitude": -75.69115999999994}, "119071371RR0001": {"name": "OTTAWA CHEVRA KADISHA", "designationCode": "C", "categoryCode": "49", "address": "1771 CUBA AVE", "city": "OTTAWA", "province": "ON", "country": "CA", "postalCode": "K1G1L7", "twitter": "None", "instagram": "None", "facebook": "None", "youtube": "None", "website": "None", "summary": "None", "logo": "None", "latitude": 45.40131035581969, "longitude": -75.62888591889362}, "892423922RR0001": {"name": "OTTAWA CHILDREN'S CHOIR", "designationCode": "C", "categoryCode": "22", "address": "P.O. BOX 9176", "city": "OTTAWA", "province": "ON", "country": "CA", "postalCode": "K1G3T9", "twitter": "None", "instagram": "None", "facebook": "None", "youtube": "None", "website": "None", "summary": "None", "logo": "None", "latitude": 45.42177300000006, "longitude": -75.69115999999994}, "119071405RR0001": {"name": "OTTAWA CHINESE BIBLE CHURCH", "designationCode": "C", "categoryCode": "39", "address": "PO BOX 67058", "city": "OTTAWA", "province": "ON", "country": "CA", "postalCode": "K2A4E4", "twitter": "None", "instagram": "None", "facebook": "None", "youtube": "None", "website": "None", "summary": "None", "logo": "None", "latitude": 45.42177300000006, "longitude": -75.69115999999994}, "128967353RR0119": {"name": "OTTAWA CHINESE CATHOLIC COMMUNITY", "designationCode": "C", "categoryCode": "38", "address": "1187 MICHAEL STREET", "city": "OTTAWA", "province": "ON", "country": "CA", "postalCode": "K1J7T2", "twitter": "None", "instagram": "None", "facebook": "None", "youtube": "None", "website": "None", "summary": "None", "logo": "None", "latitude": 45.42328114683471, "longitude": -75.6327994193263}, "130918311RR0001": {"name": "OTTAWA CHINESE COMMUNITY SERVICE CENTRE", "designationCode": "C", "categoryCode": "59", "address": "2000 - 400 COOPER ST", "city": "OTTAWA", "province": "ON", "country": "CA", "postalCode": "K2P2H8", "twitter": "None", "instagram": "None", "facebook": "None", "youtube": "None", "website": "None", "summary": "None", "logo": "None", "latitude": 45.4178260814868, "longitude": -75.69267289346128}, "107805798RR0001": {"name": "OTTAWA CHINESE LANGUAGE SCHOOL INC.", "designationCode": "C", "categoryCode": "20", "address": "300 ROCHESTER STREET          ROOM 241 (ADULT HIGH SCHOOL)", "city": "OTTAWA", "province": "ON", "country": "CA", "postalCode": "K1R7N4", "twitter": "None", "instagram": "None", "facebook": "None", "youtube": "None", "website": "None", "summary": "None", "logo": "None", "latitude": 45.40461996277942, "longitude": -75.70935001341616}, "898060264RR0001": {"name": "OTTAWA CHORAL SOCIETY", "designationCode": "C", "categoryCode": "22", "address": "PO BOX 14017                  RPO GLEBE", "city": "OTTAWA", "province": "ON", "country": "CA", "postalCode": "K1S3T2", "twitter": "None", "instagram": "None", "facebook": "None", "youtube": "None", "website": "None", "summary": "None", "logo": "None", "latitude": 45.40375440177843, "longitude": -75.69294516061107}, "858870488RR0001": {"name": "OTTAWA CHRISTADELPHIAN ECCLESIA", "designationCode": "C", "categoryCode": "47", "address": "P.O. BOX 72162                KANATA NORTH RPO", "city": "KANATA", "province": "ON", "country": "CA", "postalCode": "K2K2P4", "twitter": "None", "instagram": "None", "facebook": "None", "youtube": "None", "website": "None", "summary": "None", "logo": "None", "latitude": 45.31961656713944, "longitude": -75.91875426026893}, "871749099RR0001": {"name": "OTTAWA CHRISTIAN CHORALE", "designationCode": "C", "categoryCode": "49", "address": "822 VINETTE CRESCENT", "city": "OTTAWA", "province": "ON", "country": "CA", "postalCode": "K1E1W9", "twitter": "None", "instagram": "None", "facebook": "None", "youtube": "None", "website": "None", "summary": "None", "logo": "None", "latitude": 45.486871250620375, "longitude": -75.51703102083202}, "107805806RR0001": {"name": "OTTAWA CHRISTIAN COUNSELLING SERVICE ASSOCIATION", "designationCode": "C", "categoryCode": "49", "address": "303-63 GLENCOE ST", "city": "OTTAWA", "province": "ON", "country": "CA", "postalCode": "K2H8S5", "twitter": "None", "instagram": "None", "facebook": "None", "youtube": "None", "website": "None", "summary": "None", "logo": "None", "latitude": 45.32517383403539, "longitude": -75.78166019424114}, "119071454RR0001": {"name": "OTTAWA CHRISTIAN SCHOOL ASSOCIATION", "designationCode": "C", "categoryCode": "20", "address": "255 TARTAN DRIVE", "city": "OTTAWA", "province": "ON", "country": "CA", "postalCode": "K2J3T1", "twitter": "None", "instagram": "None", "facebook": "None", "youtube": "None", "website": "None", "summary": "None", "logo": "None", "latitude": 45.26178542431797, "longitude": -75.76587134952996}, "119071462RR0001": {"name": "OTTAWA CHURCH OF GOD", "designationCode": "C", "categoryCode": "39", "address": "1820 CARLING AVENUE", "city": "OTTAWA", "province": "ON", "country": "CA", "postalCode": "K2A1E2", "twitter": "None", "instagram": "None", "facebook": "None", "youtube": "None", "website": "None", "summary": "None", "logo": "None", "latitude": 45.3766437568528, "longitude": -75.75556150178902}, "107805590RR0001": {"name": "OTTAWA COMMUNITY COALITION FOR LITERACY / REGROUPEMENT D'OTTAWA POUR L'ALPHAB\u00c9TISATION", "designationCode": "C", "categoryCode": "59", "address": "210-404 MCARTHUR AVENUE", "city": "OTTAWA", "province": "ON", "country": "CA", "postalCode": "K1K1G8", "twitter": "None", "instagram": "None", "facebook": "None", "youtube": "None", "website": "None", "summary": "None", "logo": "None", "latitude": 45.43209152120739, "longitude": -75.64884963765944}, "848956520RR0001": {"name": "OTTAWA COMMUNITY CONCERT BAND", "designationCode": "C", "categoryCode": "22", "address": "BRONSON CENTRE                211 BRONSON AVE", "city": "OTTAWA", "province": "ON", "country": "CA", "postalCode": "K1R6H5", "twitter": "None", "instagram": "None", "facebook": "None", "youtube": "None", "website": "None", "summary": "None", "logo": "None", "latitude": 45.41349725618897, "longitude": -75.7068905103587}, "107805632RR0001": {"name": "OTTAWA COMMUNITY IMMIGRANT SERVICES ORGANIZATION/ORGANISME COMMUNAUTAIRE DES SERVICES AUX IMMIGRANTS D'OTTAWA", "designationCode": "C", "categoryCode": "09", "address": "959 WELLINGTON ST", "city": "OTTAWA", "province": "ON", "country": "CA", "postalCode": "K1Y2X5", "twitter": "None", "instagram": "None", "facebook": "None", "youtube": "None", "website": "None", "summary": "None", "logo": "None", "latitude": 45.40656189177093, "longitude": -75.7220447435799}, "119071504RR0001": {"name": "OTTAWA CRIME STOPPERS-ECHEC AU CRIME-OTTAWA", "designationCode": "C", "categoryCode": "59", "address": "2515 BANK ST, P.O. BOX 40033", "city": "OTTAWA", "province": "ON", "country": "CA", "postalCode": "K1V0W8", "twitter": "None", "instagram": "None", "facebook": "None", "youtube": "None", "website": "None", "summary": "None", "logo": "None", "latitude": 45.35398346604166, "longitude": -75.6437969736156}, "125243733RR0001": {"name": "OTTAWA CURSILLO MOVEMENT", "designationCode": "C", "categoryCode": "38", "address": "153 WOODROFFE", "city": "OTTAWA", "province": "ON", "country": "CA", "postalCode": "K2A3T8", "twitter": "None", "instagram": "None", "facebook": "None", "youtube": "None", "website": "None", "summary": "None", "logo": "None", "latitude": 45.37706470081934, "longitude": -75.77467098773766}, "867660201RR0001": {"name": "OTTAWA DRAGON BOAT FOUNDATION", "designationCode": "A", "categoryCode": "03", "address": "180 KENT ST                   GROUND FLOOR", "city": "OTTAWA", "province": "ON", "country": "CA", "postalCode": "K1P0B6", "twitter": "None", "instagram": "None", "facebook": "None", "youtube": "None", "website": "None", "summary": "None", "logo": "None", "latitude": 45.41805734800075, "longitude": -75.70153813887059}, "107797383RR0029": {"name": "OTTAWA EAST SEVENTH-DAY ADVENTIST CHURCH", "designationCode": "C", "categoryCode": "41", "address": "194 PRINCE ALBERT ST", "city": "OTTAWA", "province": "ON", "country": "CA", "postalCode": "K1J9L9", "twitter": "None", "instagram": "None", "facebook": "None", "youtube": "None", "website": "None", "summary": "None", "logo": "None", "latitude": 45.42428852394869, "longitude": -75.65533170745579}, "119071546RR0001": {"name": "OTTAWA EVANGELICAL NEW TESTAMENT ASSEMBLY", "designationCode": "C", "categoryCode": "39", "address": "1859 WALKLEY RD", "city": "OTTAWA", "province": "ON", "country": "CA", "postalCode": "K1H6X6", "twitter": "None", "instagram": "None", "facebook": "None", "youtube": "None", "website": "None", "summary": "None", "logo": "None", "latitude": 45.3817404363205, "longitude": -75.63556157620164}, "119071553RR0001": {"name": "OTTAWA FIELD-NATURALISTS' CLUB", "designationCode": "C", "categoryCode": "52", "address": "P.O. BOX 35069                WESTGATE P.O.", "city": "OTTAWA", "province": "ON", "country": "CA", "postalCode": "K1Z1A2", "twitter": "None", "instagram": "None", "facebook": "None", "youtube": "None", "website": "None", "summary": "None", "logo": "None", "latitude": 45.42177300000006, "longitude": -75.69115999999994}, "884426040RR0001": {"name": "OTTAWA FOLK FESTIVAL", "designationCode": "C", "categoryCode": "22", "address": "450 CHURCHILL AVE", "city": "OTTAWA", "province": "ON", "country": "CA", "postalCode": "K1Z5E2", "twitter": "None", "instagram": "None", "facebook": "None", "youtube": "None", "website": "None", "summary": "None", "logo": "None", "latitude": 45.39011920814826, "longitude": -75.75259383351576}, "119071561RR0001": {"name": "OTTAWA FOYERS PARTAGE", "designationCode": "C", "categoryCode": "01", "address": "50-44 ECCLES ST", "city": "OTTAWA", "province": "ON", "country": "CA", "postalCode": "K1R6S4", "twitter": "None", "instagram": "None", "facebook": "None", "youtube": "None", "website": "None", "summary": "None", "logo": "None", "latitude": 45.40893705687018, "longitude": -75.7094134412835}, "876859919RR0001": {"name": "OTTAWA FRIENDS OF TIBET", "designationCode": "C", "categoryCode": "09", "address": "1098 KARSH DRIVE", "city": "OTTAWA", "province": "ON", "country": "CA", "postalCode": "K1G4P9", "twitter": "None", "instagram": "None", "facebook": "None", "youtube": "None", "website": "None", "summary": "None", "logo": "None", "latitude": 45.37115191228582, "longitude": -75.61292029381363}, "884073321RR0001": {"name": "OTTAWA GOSPEL CHURCH / EGLISE EVANGELIQUE D'OTTAWA", "designationCode": "C", "categoryCode": "39", "address": "2077 KINGSLEY ROAD", "city": "OTTAWA", "province": "ON", "country": "CA", "postalCode": "K2C2X6", "twitter": "None", "instagram": "None", "facebook": "None", "youtube": "None", "website": "None", "summary": "None", "logo": "None", "latitude": 45.35690109714924, "longitude": -75.77469224147377}, "119071595RR0001": {"name": "OTTAWA HEBREW FREE LOAN ASSOCIATION", "designationCode": "C", "categoryCode": "09", "address": "301-2255 CARLING AVE.", "city": "OTTAWA", "province": "ON", "country": "CA", "postalCode": "K2B7Z5", "twitter": "None", "instagram": "None", "facebook": "None", "youtube": "None", "website": "None", "summary": "None", "logo": "None", "latitude": 45.36898618875855, "longitude": -75.77361449780695}, "892123845RR0001": {"name": "OTTAWA HIGHLAND DANCING ASSOCIATION (OHDA)", "designationCode": "C", "categoryCode": "22", "address": "102-429 KENT ST", "city": "OTTAWA", "province": "ON", "country": "CA", "postalCode": "K2P1B5", "twitter": "None", "instagram": "None", "facebook": "None", "youtube": "None", "website": "None", "summary": "None", "logo": "None", "latitude": 45.4116862245369, "longitude": -75.69611754356862}, "132329335RR0001": {"name": "OTTAWA HORTICULTURAL SOCIETY", "designationCode": "C", "categoryCode": "52", "address": "BOX 8921", "city": "OTTAWA", "province": "ON", "country": "CA", "postalCode": "K1G3J2", "twitter": "None", "instagram": "None", "facebook": "None", "youtube": "None", "website": "None", "summary": "None", "logo": "None", "latitude": 45.42177300000006, "longitude": -75.69115999999994}, "123264715RR0001": {"name": "OTTAWA HUMANE SOCIETY", "designationCode": "C", "categoryCode": "54", "address": "245 WEST HUNT CLUB RD", "city": "OTTAWA", "province": "ON", "country": "CA", "postalCode": "K2E1A6", "twitter": "None", "instagram": "None", "facebook": "None", "youtube": "None", "website": "None", "summary": "None", "logo": "None", "latitude": 45.33976967373435, "longitude": -75.70855011111836}, "129847190RR0001": {"name": "OTTAWA INDEPENDENT LIVING RESOURCE CENTRE", "designationCode": "C", "categoryCode": "56", "address": "401-214, MONTREAL ROAD", "city": "OTTAWA", "province": "ON", "country": "CA", "postalCode": "K1L8L8", "twitter": "None", "instagram": "None", "facebook": "None", "youtube": "None", "website": "None", "summary": "None", "logo": "None", "latitude": 45.435598442639815, "longitude": -75.66274986785182}, "851839233RR0001": {"name": "OTTAWA INNER CITY HEALTH, INC.", "designationCode": "C", "categoryCode": "09", "address": "5 MYRAND AVENUE", "city": "OTTAWA", "province": "ON", "country": "CA", "postalCode": "K1N5N7", "twitter": "None", "instagram": "None", "facebook": "None", "youtube": "None", "website": "None", "summary": "None", "logo": "None", "latitude": 45.43386227589581, "longitude": -75.68333352374621}, "140888736RR0001": {"name": "OTTAWA INNERCITY MINISTRIES", "designationCode": "C", "categoryCode": "49", "address": "300-384 BANK STREET", "city": "OTTAWA", "province": "ON", "country": "CA", "postalCode": "K2P1Y4", "twitter": "None", "instagram": "None", "facebook": "None", "youtube": "None", "website": "None", "summary": "None", "logo": "None", "latitude": 45.41355831972424, "longitude": -75.69483465877993}, "867373409RR0001": {"name": "OTTAWA INTER COMMUNITY BUDDHIST SOCIETY", "designationCode": "C", "categoryCode": "35", "address": "4 CHRISTIE ST.", "city": "OTTAWA", "province": "ON", "country": "CA", "postalCode": "K1R6T2", "twitter": "None", "instagram": "None", "facebook": "None", "youtube": "None", "website": "None", "summary": "None", "logo": "None", "latitude": 45.40948670578233, "longitude": -75.70517245071856}, "814425153RR0001": {"name": "OTTAWA INTERFAITH SPIRITUALIST CHURCH", "designationCode": "C", "categoryCode": "39", "address": "32 - 655 RICHMOND RD", "city": "OTTAWA", "province": "ON", "country": "CA", "postalCode": "K2A3Y3", "twitter": "None", "instagram": "None", "facebook": "None", "youtube": "None", "website": "None", "summary": "None", "logo": "None", "latitude": 45.384671040827314, "longitude": -75.76665955055086}, "893673434RR0001": {"name": "OTTAWA ISLAMIC SCHOOL", "designationCode": "C", "categoryCode": "20", "address": "10 CORAL AVE", "city": "OTTAWA", "province": "ON", "country": "CA", "postalCode": "K2E5Z6", "twitter": "None", "instagram": "None", "facebook": "None", "youtube": "None", "website": "None", "summary": "None", "logo": "None", "latitude": 45.365975646921626, "longitude": -75.72206213610157}, "134133305RR0001": {"name": "OTTAWA JAPANESE CULTURAL CENTRE", "designationCode": "C", "categoryCode": "22", "address": "48 ONSLOW CRES", "city": "OTTAWA", "province": "ON", "country": "CA", "postalCode": "K1S1E9", "twitter": "None", "instagram": "None", "facebook": "None", "youtube": "None", "website": "None", "summary": "None", "logo": "None", "latitude": 45.40590269302906, "longitude": -75.67242634652885}, "119071637RR0001": {"name": "OTTAWA JAZZ FESTIVAL INC.", "designationCode": "C", "categoryCode": "22", "address": "602-294 ALBERT STREET", "city": "OTTAWA", "province": "ON", "country": "CA", "postalCode": "K1P6E6", "twitter": "None", "instagram": "None", "facebook": "None", "youtube": "None", "website": "None", "summary": "None", "logo": "None", "latitude": 45.41918279681473, "longitude": -75.70200919594325}, "895932572RR0001": {"name": "OTTAWA JEWISH COMMUNITY HIGH SCHOOL", "designationCode": "C", "categoryCode": "20", "address": "31, NADOLNY SACHS PRIVATE", "city": "OTTAWA", "province": "ON", "country": "CA", "postalCode": "K2A1R9", "twitter": "None", "instagram": "None", "facebook": "None", "youtube": "None", "website": "None", "summary": "None", "logo": "None", "latitude": 45.37610551650419, "longitude": -75.75253331672313}, "119071645RR0001": {"name": "OTTAWA JEWISH HISTORICAL SOCIETY", "designationCode": "C", "categoryCode": "52", "address": "21 NADOLNY SACHS PRIV", "city": "OTTAWA", "province": "ON", "country": "CA", "postalCode": "K2A1R9", "twitter": "None", "instagram": "None", "facebook": "None", "youtube": "None", "website": "None", "summary": "None", "logo": "None", "latitude": 45.375832560101486, "longitude": -75.75231223766554}, "889921235RR0001": {"name": "OTTAWA KOREAN COMMUNITY SCHOOL", "designationCode": "C", "categoryCode": "29", "address": "6 CHESWICK PL", "city": "NEPEAN", "province": "ON", "country": "CA", "postalCode": "K2G5S7", "twitter": "None", "instagram": "None", "facebook": "None", "youtube": "None", "website": "None", "summary": "None", "logo": "None", "latitude": 45.33829154146249, "longitude": -75.77328995380564}, "119071678RR0001": {"name": "OTTAWA LITTLE THEATRE INC.", "designationCode": "C", "categoryCode": "22", "address": "400 KING EDWARD AVE", "city": "OTTAWA", "province": "ON", "country": "CA", "postalCode": "K1N7M7", "twitter": "None", "instagram": "None", "facebook": "None", "youtube": "None", "website": "None", "summary": "None", "logo": "None", "latitude": 45.42826782985179, "longitude": -75.685418117433}, "893568089RR0001": {"name": "OTTAWA LUTHERAN REFUGEE SPONSORSHIP COMMITTEE", "designationCode": "C", "categoryCode": "99", "address": "2198 DESCHENES ST", "city": "OTTAWA", "province": "ON", "country": "CA", "postalCode": "K2B6N3", "twitter": "None", "instagram": "None", "facebook": "None", "youtube": "None", "website": "None", "summary": "None", "logo": "None", "latitude": 45.37854606797867, "longitude": -75.77660426643207}, "894945633RR0027": {"name": "OTTAWA MANDARIN ALLIANCE CHURCH", "designationCode": "C", "categoryCode": "39", "address": "550 CODD'S ROAD", "city": "OTTAWA", "province": "ON", "country": "CA", "postalCode": "K1K2G8", "twitter": "None", "instagram": "None", "facebook": "None", "youtube": "None", "website": "None", "summary": "None", "logo": "None", "latitude": 45.44785236467784, "longitude": -75.63215002726598}, "886475631RR0001": {"name": "OTTAWA MANDARIN SCHOOL INC.", "designationCode": "C", "categoryCode": "20", "address": "121 BEAVER RIDGE", "city": "NEPEAN", "province": "ON", "country": "CA", "postalCode": "K2E6E5", "twitter": "None", "instagram": "None", "facebook": "None", "youtube": "None", "website": "None", "summary": "None", "logo": "None", "latitude": 45.3597296658204, "longitude": -75.72407232985178}, "849804323RR0001": {"name": "OTTAWA MANDARIN WESLEYAN CHURCH", "designationCode": "C", "categoryCode": "39", "address": "203 KINCARDINE DR", "city": "KANATA", "province": "ON", "country": "CA", "postalCode": "K2V1C5", "twitter": "None", "instagram": "None", "facebook": "None", "youtube": "None", "website": "None", "summary": "None", "logo": "None", "latitude": 45.29120582347515, "longitude": -75.89781014894083}, "107806192RR0001": {"name": "OTTAWA MENNONITE CHURCH", "designationCode": "C", "categoryCode": "34", "address": "1830 KILBORN AVE", "city": "OTTAWA", "province": "ON", "country": "CA", "postalCode": "K1H6N4", "twitter": "None", "instagram": "None", "facebook": "None", "youtube": "None", "website": "None", "summary": "None", "logo": "None", "latitude": 45.38791454616569, "longitude": -75.64388906105377}, "892951765RR0001": {"name": "OTTAWA MESSIANIC FELLOWSHIP", "designationCode": "A", "categoryCode": "42", "address": "62 ROYAL OAK COURT", "city": "OTTAWA", "province": "ON", "country": "CA", "postalCode": "K1T3P1", "twitter": "None", "instagram": "None", "facebook": "None", "youtube": "None", "website": "None", "summary": "None", "logo": "None", "latitude": 45.356836263950576, "longitude": -75.64272559489888}, "119071694RR0001": {"name": "OTTAWA MODERN JEWISH SCHOOL", "designationCode": "C", "categoryCode": "20", "address": "21 NADOLNY SACHS PRIV", "city": "OTTAWA", "province": "ON", "country": "CA", "postalCode": "K2A1R9", "twitter": "None", "instagram": "None", "facebook": "None", "youtube": "None", "website": "None", "summary": "None", "logo": "None", "latitude": 45.375832560101486, "longitude": -75.75231223766554}, "119071702RR0001": {"name": "OTTAWA MONTESSORI SCHOOL/ECOLE MONTESSORI D'OTTAWA", "designationCode": "C", "categoryCode": "20", "address": "335 LINDSAY ST.", "city": "OTTAWA", "province": "ON", "country": "CA", "postalCode": "K1G0L6", "twitter": "None", "instagram": "None", "facebook": "None", "youtube": "None", "website": "None", "summary": "None", "logo": "None", "latitude": 45.407114304518096, "longitude": -75.65295971022574}, "132463738RR0001": {"name": "OTTAWA MONTHLY MEETING RELIGIOUS SOCIETY OF FRIENDS QUAKERS", "designationCode": "C", "categoryCode": "39", "address": "91A FOURTH AVE", "city": "OTTAWA", "province": "ON", "country": "CA", "postalCode": "K1S2L1", "twitter": "None", "instagram": "None", "facebook": "None", "youtube": "None", "website": "None", "summary": "None", "logo": "None", "latitude": 45.4029232763105, "longitude": -75.68690762015902}, "894375187RR0001": {"name": "OTTAWA MUSLIM CEMETERY INC.", "designationCode": "C", "categoryCode": "59", "address": "P.O. BOX 17034                1968 PORTOBELLO BLVD.", "city": "OTTAWA", "province": "ON", "country": "CA", "postalCode": "K4A4E7", "twitter": "None", "instagram": "None", "facebook": "None", "youtube": "None", "website": "None", "summary": "None", "logo": "None", "latitude": 45.46634396863641, "longitude": -75.46590214190036}, "119071736RR0001": {"name": "OTTAWA NEIGHBOURHOOD SERVICES", "designationCode": "C", "categoryCode": "09", "address": "60 NESTOW DR", "city": "NEPEAN", "province": "ON", "country": "CA", "postalCode": "K2G4L8", "twitter": "None", "instagram": "None", "facebook": "None", "youtube": "None", "website": "None", "summary": "None", "logo": "None", "latitude": 45.33759364585375, "longitude": -75.73802643349322}, "708830492RR0001": {"name": "OTTAWA NETWORK FOR BORDERLINE PERSONALITY DISORDER/Le r\u00e9seau d'ottawa pour le trouble de personnalit\u00e9 limite", "designationCode": "C", "categoryCode": "11", "address": "412 ROSINGDALE ST", "city": "KANATA", "province": "ON", "country": "CA", "postalCode": "K2M0L8", "twitter": "None", "instagram": "None", "facebook": "None", "youtube": "None", "website": "None", "summary": "None", "logo": "None", "latitude": 45.278746585896506, "longitude": -75.83710003413357}, "119071280RR0001": {"name": "OTTAWA NETWORK FOR EDUCATION / R\u00c9SEAU D'OTTAWA POUR L'\u00c9DUCATION", "designationCode": "A", "categoryCode": "23", "address": "900 MORRISON DRIVE, SUITE 205", "city": "OTTAWA", "province": "ON", "country": "CA", "postalCode": "K2H8K7", "twitter": "None", "instagram": "None", "facebook": "None", "youtube": "None", "website": "None", "summary": "None", "logo": "None", "latitude": 45.34590447605132, "longitude": -75.78925217332221}, "119071777RR0001": {"name": "OTTAWA PEACE AND ENVIRONMENT RESOURCE CENTRE", "designationCode": "C", "categoryCode": "50", "address": "PO BOX 4075 STATION E", "city": "OTTAWA", "province": "ON", "country": "CA", "postalCode": "K1S5B1", "twitter": "None", "instagram": "None", "facebook": "None", "youtube": "None", "website": "None", "summary": "None", "logo": "None", "latitude": 45.42177300000006, "longitude": -75.69115999999994}, "861292886RR0001": {"name": "OTTAWA PUBLIC LIBRARY BOARD", "designationCode": "C", "categoryCode": "50", "address": "120 METCALFE STREET", "city": "OTTAWA", "province": "ON", "country": "CA", "postalCode": "K1P5M2", "twitter": "None", "instagram": "None", "facebook": "None", "youtube": "None", "website": "None", "summary": "None", "logo": "None", "latitude": 45.42039332304244, "longitude": -75.69541756111109}, "119109221RR0001": {"name": "OTTAWA RAPE CRISIS CENTRE", "designationCode": "C", "categoryCode": "09", "address": "P.O. BOX 20206", "city": "OTTAWA", "province": "ON", "country": "CA", "postalCode": "K1N9P4", "twitter": "None", "instagram": "None", "facebook": "None", "youtube": "None", "website": "None", "summary": "None", "logo": "None", "latitude": 45.42177300000006, "longitude": -75.69115999999994}, "853851608RR0001": {"name": "OTTAWA REGION BULGARIAN FOUNDATION INC.", "designationCode": "C", "categoryCode": "21", "address": "1075 CASTLE HILL CRES", "city": "OTTAWA", "province": "ON", "country": "CA", "postalCode": "K2C2A9", "twitter": "None", "instagram": "None", "facebook": "None", "youtube": "None", "website": "None", "summary": "None", "logo": "None", "latitude": 45.3678937241042, "longitude": -75.74819207839468}, "898311170RR0001": {"name": "OTTAWA REGIONAL CANCER FOUNDATION/FONDATION DU CANCER DE LA REGION D'OTTAWA", "designationCode": "A", "categoryCode": "19", "address": "1500 ALTA VISTA DR", "city": "OTTAWA", "province": "ON", "country": "CA", "postalCode": "K1G3Y9", "twitter": "None", "instagram": "None", "facebook": "None", "youtube": "None", "website": "None", "summary": "None", "logo": "None", "latitude": 45.41071774438797, "longitude": -75.65694293562801}, "887388593RR0001": {"name": "OTTAWA REGIONAL SCIENCE FAIR", "designationCode": "C", "categoryCode": "56", "address": "50 LEONARD AVE.", "city": "OTTAWA", "province": "ON", "country": "CA", "postalCode": "K1S4T9", "twitter": "None", "instagram": "None", "facebook": "None", "youtube": "None", "website": "None", "summary": "None", "logo": "None", "latitude": 45.392583227306865, "longitude": -75.68860669637594}, "119071827RR0001": {"name": "OTTAWA REGIONAL YOUTH CHOIR SOCIETY", "designationCode": "C", "categoryCode": "22", "address": "151 LAURIER AVE E", "city": "OTTAWA", "province": "ON", "country": "CA", "postalCode": "K1N6N8", "twitter": "None", "instagram": "None", "facebook": "None", "youtube": "None", "website": "None", "summary": "None", "logo": "None", "latitude": 45.42486646575087, "longitude": -75.68407172219962}, "862697059RR0001": {"name": "OTTAWA RIVERKEEPER INC. / SENTINELLES DE LA RIVI\u00c8RE DES OUTAOUAIS INC.", "designationCode": "C", "categoryCode": "52", "address": "301-1960 SCOTT STREET", "city": "OTTAWA", "province": "ON", "country": "CA", "postalCode": "K1Z8L8", "twitter": "None", "instagram": "None", "facebook": "None", "youtube": "None", "website": "None", "summary": "None", "logo": "None", "latitude": 45.39702367635199, "longitude": -75.75021135870522}, "119125144RR0001": {"name": "OTTAWA ROTARY CLUB CHILDREN'S FOUNDATION", "designationCode": "A", "categoryCode": "63", "address": "PO BOX 9041                   STATION T", "city": "OTTAWA", "province": "ON", "country": "CA", "postalCode": "K1G3T8", "twitter": "None", "instagram": "None", "facebook": "None", "youtube": "None", "website": "None", "summary": "None", "logo": "None", "latitude": 45.4075526747762, "longitude": -75.65114751410245}, "894187962RR0001": {"name": "OTTAWA ROTARY HOME FOUNDATION", "designationCode": "A", "categoryCode": "03", "address": "823 ROTARY WAY", "city": "OTTAWA", "province": "ON", "country": "CA", "postalCode": "K1T3W6", "twitter": "None", "instagram": "None", "facebook": "None", "youtube": "None", "website": "None", "summary": "None", "logo": "None", "latitude": 45.327587834448785, "longitude": -75.59716250743783}, "882235203RR0001": {"name": "OTTAWA SAFE COMMUNITIES NETWORK", "designationCode": "C", "categoryCode": "59", "address": "42 MCDERMOT CRT", "city": "KANATA", "province": "ON", "country": "CA", "postalCode": "K2L3V4", "twitter": "None", "instagram": "None", "facebook": "None", "youtube": "None", "website": "None", "summary": "None", "logo": "None", "latitude": 45.301652256997016, "longitude": -75.88456328186841}, "119071322RR0001": {"name": "OTTAWA SAFETY COUNCIL", "designationCode": "C", "categoryCode": "59", "address": "103 - 301 MOODIE DR", "city": "NEPEAN", "province": "ON", "country": "CA", "postalCode": "K2H9C4", "twitter": "None", "instagram": "None", "facebook": "None", "youtube": "None", "website": "None", "summary": "None", "logo": "None", "latitude": 45.326254378036694, "longitude": -75.8355210949858}, "129856340RR0001": {"name": "OTTAWA SALUS CORPORATION", "designationCode": "C", "categoryCode": "01", "address": "2000 SCOTT STREET", "city": "OTTAWA", "province": "ON", "country": "CA", "postalCode": "K1Z6T2", "twitter": "None", "instagram": "None", "facebook": "None", "youtube": "None", "website": "None", "summary": "None", "logo": "None", "latitude": 45.39618366913863, "longitude": -75.75220910724812}}