{"106682024RR0001": {"name": "ACCESS COMMUNITY SERVICES INCORPORATED", "designationCode": "C", "categoryCode": "01", "address": "2 - 15 HENDERSON ST", "city": "PORT HOPE", "province": "ON", "country": "CA", "postalCode": "L1A0C6", "twitter": "None", "instagram": "None", "facebook": "None", "youtube": "None", "website": "None", "summary": "None", "logo": "None", "latitude": 43.987713000000056, "longitude": -78.38746999999994}, "118776848RR0001": {"name": "ACCESS FOR PARENTS AND CHILDREN IN ONTARIO", "designationCode": "C", "categoryCode": "09", "address": "KINARK CHILD & FAMILY SERVICES100 SHEPPARD AVE E-SUITE 504", "city": "TORONTO", "province": "ON", "country": "CA", "postalCode": "M2N6N5", "twitter": "None", "instagram": "None", "facebook": "None", "youtube": "None", "website": "None", "summary": "None", "logo": "None", "latitude": 43.764015788157046, "longitude": -79.39958194328467}, "118850197RR0001": {"name": "ACCESS FOUNDATION", "designationCode": "A", "categoryCode": "01", "address": "200 - 8661 201 ST", "city": "LANGLEY", "province": "BC", "country": "CA", "postalCode": "V2Y0G9", "twitter": "None", "instagram": "None", "facebook": "None", "youtube": "None", "website": "None", "summary": "None", "logo": "None", "latitude": 49.160020286012525, "longitude": -122.66530950574573}, "885241661RR0001": {"name": "ACCESS TO MEDIA EDUCATION SOCIETY", "designationCode": "C", "categoryCode": "23", "address": "PO BOX 124", "city": "GALIANO ISLAND", "province": "BC", "country": "CA", "postalCode": "V0N1P0", "twitter": "None", "instagram": "None", "facebook": "None", "youtube": "None", "website": "None", "summary": "None", "logo": "None", "latitude": 48.90217438271622, "longitude": -123.36977755047218}, "760231894RR0001": {"name": "ACCESSIBLE HOUSING LONDON", "designationCode": "B", "categoryCode": "09", "address": "416 RIDOUT ST S,", "city": "LONDON", "province": "ON", "country": "CA", "postalCode": "N6C4A1", "twitter": "None", "instagram": "None", "facebook": "None", "youtube": "None", "website": "None", "summary": "None", "logo": "None", "latitude": 42.96012048488079, "longitude": -81.24252243141575}, "106682032RR0001": {"name": "ACCESSIBLE HOUSING SOCIETY", "designationCode": "C", "categoryCode": "01", "address": "DEERFOOT JUNCTION III         215-1212 31ST AVENUE N.E.", "city": "CALGARY", "province": "AB", "country": "CA", "postalCode": "T2E7S8", "twitter": "None", "instagram": "None", "facebook": "None", "youtube": "None", "website": "None", "summary": "None", "logo": "None", "latitude": 51.080201640408255, "longitude": -114.0289527370182}, "119284602RR0001": {"name": "ACCLAIM HEALTH AND COMMUNITY CARE SERVICES", "designationCode": "C", "categoryCode": "11", "address": "DIRECTOR CORPORATE SERVICES   2370 SPEERS ROAD", "city": "OAKVILLE", "province": "ON", "country": "CA", "postalCode": "L6L5M2", "twitter": "None", "instagram": "None", "facebook": "None", "youtube": "None", "website": "None", "summary": "None", "logo": "None", "latitude": 43.4080524559987, "longitude": -79.72613079750722}, "129929295RR0001": {"name": "ACCOMMODATION, INFORMATION AND SUPPORT INC.", "designationCode": "C", "categoryCode": "59", "address": "720 SPADINA AVENUE            SUITE 316", "city": "TORONTO", "province": "ON", "country": "CA", "postalCode": "M5S2T9", "twitter": "None", "instagram": "None", "facebook": "None", "youtube": "None", "website": "None", "summary": "None", "logo": "None", "latitude": 43.665348604766635, "longitude": -79.40317238804866}, "816817829RR0001": {"name": "ACCOUNTABLE DEVELOPMENT WORKS", "designationCode": "C", "categoryCode": "09", "address": "1574 ERIN STREET", "city": "WINNIPEG", "province": "MB", "country": "CA", "postalCode": "R3E2T1", "twitter": "None", "instagram": "None", "facebook": "None", "youtube": "None", "website": "None", "summary": "None", "logo": "None", "latitude": 49.90580240383172, "longitude": -97.18350380812478}, "889362398RR0001": {"name": "ACCOUNTING DEVELOPMENT FUND", "designationCode": "A", "categoryCode": "25", "address": "SUITE 500 - 505 BURRARD ST    BOX 22", "city": "VANCOUVER", "province": "BC", "country": "CA", "postalCode": "V7X1M4", "twitter": "None", "instagram": "None", "facebook": "None", "youtube": "None", "website": "None", "summary": "None", "logo": "None", "latitude": 49.28622439653342, "longitude": -123.11849548822406}, "862880564RR0001": {"name": "ACCREDITED SUPPORTIVE LIVING SERVICES LIMITED", "designationCode": "C", "categoryCode": "11", "address": "P.O. BOX 680", "city": "GRIMSHAW", "province": "AB", "country": "CA", "postalCode": "T0H1W0", "twitter": "None", "instagram": "None", "facebook": "None", "youtube": "None", "website": "None", "summary": "None", "logo": "None", "latitude": 56.191580000000044, "longitude": -117.60929999999996}, "107726515RR0001": {"name": "ACCREDITED SUPPORTS TO THE COMMUNITY (A.S.C.) ASSOCIATION", "designationCode": "C", "categoryCode": "11", "address": "PO BOX 3940", "city": "OLDS", "province": "AB", "country": "CA", "postalCode": "T4H1P6", "twitter": "None", "instagram": "None", "facebook": "None", "youtube": "None", "website": "None", "summary": "None", "logo": "None", "latitude": 51.791613000000055, "longitude": -114.11061199999993}, "136850609RR0001": {"name": "ACCUEIL AUX IMMIGRANTS DE L'EST DE MONTREAL", "designationCode": "C", "categoryCode": "09", "address": "209-5960 JEAN-TALON EST", "city": "ST-L\u00c9ONARD", "province": "QC", "country": "CA", "postalCode": "H1S1M2", "twitter": "None", "instagram": "None", "facebook": "None", "youtube": "None", "website": "None", "summary": "None", "logo": "None", "latitude": 45.58668644794861, "longitude": -73.57915240795799}, "131977183RR0001": {"name": "ACCUEIL BLANCHE GOULET DE GASPE INC", "designationCode": "C", "categoryCode": "09", "address": "184 RUE DE LA REINE", "city": "GASPE", "province": "QC", "country": "CA", "postalCode": "G4X1T6", "twitter": "None", "instagram": "None", "facebook": "None", "youtube": "None", "website": "None", "summary": "None", "logo": "None", "latitude": 48.827628554273105, "longitude": -64.48714898156257}, "118776897RR0001": {"name": "ACCUEIL BONNEAU INC.", "designationCode": "C", "categoryCode": "09", "address": "427,RUE DE LA COMMUNE EST", "city": "MONTREAL", "province": "QC", "country": "CA", "postalCode": "H2Y1J4", "twitter": "None", "instagram": "None", "facebook": "None", "youtube": "None", "website": "None", "summary": "None", "logo": "None", "latitude": 45.51012854899297, "longitude": -73.55057289275187}, "118776939RR0001": {"name": "ACCUEIL DE ST-ESPRIT INC.", "designationCode": "C", "categoryCode": "56", "address": "36 DES BOULEAUX EST", "city": "QUEBEC", "province": "QC", "country": "CA", "postalCode": "G1L1T7", "twitter": "None", "instagram": "None", "facebook": "None", "youtube": "None", "website": "None", "summary": "None", "logo": "None", "latitude": 46.83668180070987, "longitude": -71.24277077295294}, "861350973RR0001": {"name": "ACCUEIL EMMANUEL", "designationCode": "C", "categoryCode": "09", "address": "7955 AV DE GASPE", "city": "MONTREAL", "province": "QC", "country": "CA", "postalCode": "H2R2A6", "twitter": "None", "instagram": "None", "facebook": "None", "youtube": "None", "website": "None", "summary": "None", "logo": "None", "latitude": 45.54005288816426, "longitude": -73.62800384012355}, "118776954RR0001": {"name": "ACCUEIL ET PARTAGE POUR HANDICAPES DE STE-MARTHE-SUR-LE-LAC INC.", "designationCode": "C", "categoryCode": "01", "address": "117-25E AVENUE", "city": "STE-MARTHE-SUR-LE-LAC", "province": "QC", "country": "CA", "postalCode": "J0N1P0", "twitter": "None", "instagram": "None", "facebook": "None", "youtube": "None", "website": "None", "summary": "None", "logo": "None", "latitude": 45.52822431141435, "longitude": -73.93713312141504}, "135591998RR0001": {"name": "ACCUEIL GROSSESSE BEAUCE-APALACHES", "designationCode": "C", "categoryCode": "09", "address": "10949 2E AVENUE", "city": "SAINT-GEORGES", "province": "QC", "country": "CA", "postalCode": "G5Y1V9", "twitter": "None", "instagram": "None", "facebook": "None", "youtube": "None", "website": "None", "summary": "None", "logo": "None", "latitude": 46.12523428117593, "longitude": -70.68182587243945}, "890639396RR0001": {"name": "ACCUEIL GROSSESSE BIRTHRIGHT DRUMMONDVILLE", "designationCode": "C", "categoryCode": "09", "address": "565,FONTAINE", "city": "DRUMMONDVILLE", "province": "QC", "country": "CA", "postalCode": "J2C6W2", "twitter": "None", "instagram": "None", "facebook": "None", "youtube": "None", "website": "None", "summary": "None", "logo": "None", "latitude": 45.87980628530219, "longitude": -72.53219751667709}, "132395864RR0001": {"name": "ACCUEIL LIAISON POUR ARRIVANTS (ALPA)", "designationCode": "C", "categoryCode": "09", "address": "2030, BLVD PIE-IX, BUREAU 309", "city": "MONTR\u00c9AL", "province": "QC", "country": "CA", "postalCode": "H1V2C8", "twitter": "None", "instagram": "None", "facebook": "None", "youtube": "None", "website": "None", "summary": "None", "logo": "None", "latitude": 45.55062515569284, "longitude": -73.54249161172018}, "890256647RR0001": {"name": "ACCUEIL MADORE INC.", "designationCode": "C", "categoryCode": "56", "address": "C.P. 981", "city": "THETFORD MINES", "province": "QC", "country": "CA", "postalCode": "G6G7N1", "twitter": "None", "instagram": "None", "facebook": "None", "youtube": "None", "website": "None", "summary": "None", "logo": "None", "latitude": 46.09057200000005, "longitude": -71.29926349999994}, "132029075RR0001": {"name": "ACCUEIL MARIE-DE-L'INCARNATION", "designationCode": "C", "categoryCode": "09", "address": "451 RUE MARGUERITE", "city": "BAIE-COMEAU", "province": "QC", "country": "CA", "postalCode": "G5C1G9", "twitter": "None", "instagram": "None", "facebook": "None", "youtube": "None", "website": "None", "summary": "None", "logo": "None", "latitude": 49.19582161613492, "longitude": -68.25049971703507}, "827287673RR0001": {"name": "ACCUEIL MICHEL B. COMTOIS", "designationCode": "C", "categoryCode": "09", "address": "160 RUE HELENE-BOULLE         C.P. 630", "city": "JOLIETTE", "province": "QC", "country": "CA", "postalCode": "J6E7N3", "twitter": "None", "instagram": "None", "facebook": "None", "youtube": "None", "website": "None", "summary": "None", "logo": "None", "latitude": 46.03144212796459, "longitude": -73.4407165355472}, "118777002RR0001": {"name": "ACCUEIL MISSIONNAIRE DES FILLES DE J\u00c9SUS", "designationCode": "C", "categoryCode": "43", "address": "566 NOTRE-DAME EST", "city": "TROIS-RIVI\u00c8RES", "province": "QC", "country": "CA", "postalCode": "G8T4G7", "twitter": "None", "instagram": "None", "facebook": "None", "youtube": "None", "website": "None", "summary": "None", "logo": "None", "latitude": 46.365804, "longitude": -72.50117327699232}, "118777010RR0001": {"name": "ACCUEIL NOTRE-DAME INC.", "designationCode": "C", "categoryCode": "01", "address": "320, RUE CARTIER", "city": "MAGOG", "province": "QC", "country": "CA", "postalCode": "J1X1X6", "twitter": "None", "instagram": "None", "facebook": "None", "youtube": "None", "website": "None", "summary": "None", "logo": "None", "latitude": 45.263425882595676, "longitude": -72.13795658895492}, "866824329RR0001": {"name": "ACCUEIL ST-AMBROISE DE LORETTEVILLE", "designationCode": "C", "categoryCode": "09", "address": "5 - 262 RUE RACINE", "city": "QUEBEC", "province": "QC", "country": "CA", "postalCode": "G2B1E6", "twitter": "None", "instagram": "None", "facebook": "None", "youtube": "None", "website": "None", "summary": "None", "logo": "None", "latitude": 46.85190800750181, "longitude": -71.35935922773955}, "118776996RR0001": {"name": "ACCUEIL-MATERNITE DE RIMOUSKI INC.", "designationCode": "C", "categoryCode": "09", "address": "340, AVENUE ROULEAU", "city": "RIMOUSKI", "province": "QC", "country": "CA", "postalCode": "G5L5V9", "twitter": "None", "instagram": "None", "facebook": "None", "youtube": "None", "website": "None", "summary": "None", "logo": "None", "latitude": 48.4413406125569, "longitude": -68.52360623714594}, "871679577RR0001": {"name": "ACCUEIL-SERENITE DE BELLECHASSE", "designationCode": "C", "categoryCode": "10", "address": "101 RUE PRINCIPALE", "city": "SAINTE-CLAIRE", "province": "QC", "country": "CA", "postalCode": "G0R2V0", "twitter": "None", "instagram": "None", "facebook": "None", "youtube": "None", "website": "None", "summary": "None", "logo": "None", "latitude": 46.59849923844403, "longitude": -70.86913692019166}, "101946762RR0001": {"name": "ACCUEILS AU COEUR DE L'ENFANCE", "designationCode": "C", "categoryCode": "01", "address": "1075 AVE SAINTE CROIX", "city": "ST-LAURENT", "province": "QC", "country": "CA", "postalCode": "H4L3Z2", "twitter": "None", "instagram": "None", "facebook": "None", "youtube": "None", "website": "None", "summary": "None", "logo": "None", "latitude": 45.51691540028331, "longitude": -73.68092531073259}, "118777077RR0001": {"name": "ACE ART INC.", "designationCode": "C", "categoryCode": "50", "address": "2ND FLOOR                     290 MCDERMOT AVE", "city": "WINNIPEG", "province": "MB", "country": "CA", "postalCode": "R3B0T2", "twitter": "None", "instagram": "None", "facebook": "None", "youtube": "None", "website": "None", "summary": "None", "logo": "None", "latitude": 49.8976570496568, "longitude": -97.14227024759062}, "890123573RR0001": {"name": "ACE ASSOCIATION FOR CO-OPERATIVE EDUCATION BRITISH COLUMBIA/YUKON TERRITORY/NORTHWEST TERRITORIES", "designationCode": "C", "categoryCode": "21", "address": "P.O. BOX 1700                 STN CSC", "city": "VICTORIA", "province": "BC", "country": "CA", "postalCode": "V8W3P2", "twitter": "None", "instagram": "None", "facebook": "None", "youtube": "None", "website": "None", "summary": "None", "logo": "None", "latitude": 48.42854700000005, "longitude": -123.36445249999994}, "138504139RR0001": {"name": "ACE MINISTRIES", "designationCode": "C", "categoryCode": "47", "address": "627 MAIN ST E", "city": "HAMILTON", "province": "ON", "country": "CA", "postalCode": "L8M1J5", "twitter": "None", "instagram": "None", "facebook": "None", "youtube": "None", "website": "None", "summary": "None", "logo": "None", "latitude": 43.24916603416224, "longitude": -79.84545463015762}, "890557044RR0001": {"name": "ACES QU\u00c9BEC ASSOCIATION CANADIENNE POUR l'EDUCATION ET LA S ENSIBILISATION / CAEO QU\u00c9BEC CANADIAN ASSOCIATION FOR EDUCATION AND OUTREACH", "designationCode": "C", "categoryCode": "59", "address": "CP 56086 CSP ALEXIS NIHON", "city": "MONTREAL", "province": "QC", "country": "CA", "postalCode": "H3Z3G3", "twitter": "None", "instagram": "None", "facebook": "None", "youtube": "None", "website": "None", "summary": "None", "logo": "None", "latitude": 45.48972527933195, "longitude": -73.58517781301734}, "106728280RR0001": {"name": "ACFAS INC.", "designationCode": "C", "categoryCode": "25", "address": "425 DE LA GAUCHETIERE EST", "city": "MONTREAL", "province": "QC", "country": "CA", "postalCode": "H2L2M7", "twitter": "None", "instagram": "None", "facebook": "None", "youtube": "None", "website": "None", "summary": "None", "logo": "None", "latitude": 45.51249668027578, "longitude": -73.55671620985036}, "853068534RR0001": {"name": "ACHEI TEMIMIM JEWISH CULTURAL & EDUCATIONAL NETWORK", "designationCode": "C", "categoryCode": "49", "address": "207 WESTON RD", "city": "TORONTO", "province": "ON", "country": "CA", "postalCode": "M6N4Z3", "twitter": "None", "instagram": "None", "facebook": "None", "youtube": "None", "website": "None", "summary": "None", "logo": "None", "latitude": 43.67758107885604, "longitude": -79.47228560583449}, "833353022RR0001": {"name": "ACHEINU ORGANIZATION", "designationCode": "C", "categoryCode": "09", "address": "27 BLACKDOME CRES", "city": "OTTAWA", "province": "ON", "country": "CA", "postalCode": "K2T1A9", "twitter": "None", "instagram": "None", "facebook": "None", "youtube": "None", "website": "None", "summary": "None", "logo": "None", "latitude": 45.3193411423913, "longitude": -75.91970310618026}, "845999069RR0001": {"name": "ACHIENG HIV / AIDS INTERNATIONAL PROJECT", "designationCode": "C", "categoryCode": "09", "address": "545 HURON DRIVE", "city": "BURLINGTON", "province": "ON", "country": "CA", "postalCode": "L7T3V4", "twitter": "None", "instagram": "None", "facebook": "None", "youtube": "None", "website": "None", "summary": "None", "logo": "None", "latitude": 43.31514351569614, "longitude": -79.8123659003406}, "118777093RR0001": {"name": "ACHILL CHORAL SOCIETY CORPORATION", "designationCode": "C", "categoryCode": "22", "address": "15 PUTNEY RD", "city": "CALEDON EAST", "province": "ON", "country": "CA", "postalCode": "L7C1R4", "twitter": "None", "instagram": "None", "facebook": "None", "youtube": "None", "website": "None", "summary": "None", "logo": "None", "latitude": 43.87061928420568, "longitude": -79.87306535801272}, "836801944RR0001": {"name": "ACHILLEA ENDEAVOURS", "designationCode": "C", "categoryCode": "59", "address": "306 BYRON AVE", "city": "OTTAWA", "province": "ON", "country": "CA", "postalCode": "K1Z6Z1", "twitter": "None", "instagram": "None", "facebook": "None", "youtube": "None", "website": "None", "summary": "None", "logo": "None", "latitude": 45.39351111904911, "longitude": -75.74494159587982}, "863078721RR0001": {"name": "ACHILLES TRACK CLUB OF CANADA", "designationCode": "C", "categoryCode": "09", "address": "123 SNOWDOWN AVE", "city": "TORONTO", "province": "ON", "country": "CA", "postalCode": "M4N2A8", "twitter": "None", "instagram": "None", "facebook": "None", "youtube": "None", "website": "None", "summary": "None", "logo": "None", "latitude": 43.73199676934627, "longitude": -79.39930434026779}, "819027087RR0001": {"name": "ACIAC", "designationCode": "C", "categoryCode": "22", "address": "4 DEVONSHIRE PLACE", "city": "TORONTO", "province": "ON", "country": "CA", "postalCode": "M5S2E1", "twitter": "None", "instagram": "None", "facebook": "None", "youtube": "None", "website": "None", "summary": "None", "logo": "None", "latitude": 43.664489738271136, "longitude": -79.3970538094811}, "888702990RR0001": {"name": "ACME UNITED CHURCH,", "designationCode": "C", "categoryCode": "44", "address": "P.O. BOX 293", "city": "ACME", "province": "AB", "country": "CA", "postalCode": "T0M0A0", "twitter": "None", "instagram": "None", "facebook": "None", "youtube": "None", "website": "None", "summary": "None", "logo": "None", "latitude": 51.49533000000008, "longitude": -113.50818999999996}, "106683329RR0001": {"name": "ACORN DAY CARE SOCIETY", "designationCode": "C", "categoryCode": "20", "address": "103-3637 CAMBIE STREET", "city": "VANCOUVER", "province": "BC", "country": "CA", "postalCode": "V5Z2X3", "twitter": "None", "instagram": "None", "facebook": "None", "youtube": "None", "website": "None", "summary": "None", "logo": "None", "latitude": 49.2525005342778, "longitude": -123.11528604945433}, "843734278RR0001": {"name": "ACORN INSTITUTE CANADA", "designationCode": "C", "categoryCode": "23", "address": "2-1324 DANFORTH AVE", "city": "TORONTO", "province": "ON", "country": "CA", "postalCode": "M4J1M9", "twitter": "None", "instagram": "None", "facebook": "None", "youtube": "None", "website": "None", "summary": "None", "logo": "None", "latitude": 43.68215613962135, "longitude": -79.32932823925208}, "894514595RR0001": {"name": "ACORN TO OAK YOUTH SERVICES", "designationCode": "C", "categoryCode": "47", "address": "1224 DUNDAS STREET EAST       UNIT 16", "city": "MISSISSAUGA", "province": "ON", "country": "CA", "postalCode": "L4Y4A2", "twitter": "None", "instagram": "None", "facebook": "None", "youtube": "None", "website": "None", "summary": "None", "logo": "None", "latitude": 43.605770032431465, "longitude": -79.58773957236475}, "118777168RR0001": {"name": "ACOUSTIC NEUROMA ASSOCIATION OF CANADA", "designationCode": "C", "categoryCode": "11", "address": "PO BOX 1005                   7B PLEASANT BLVD", "city": "TORONTO", "province": "ON", "country": "CA", "postalCode": "M4T1K2", "twitter": "None", "instagram": "None", "facebook": "None", "youtube": "None", "website": "None", "summary": "None", "logo": "None", "latitude": 43.687159169295384, "longitude": -79.39319549606036}, "140988262RR0001": {"name": "ACROSS BOUNDARIES: AN ETHNORACIAL MENTAL HEALTH CENTRE", "designationCode": "C", "categoryCode": "11", "address": "51 CLARKSON AVE.", "city": "TORONTO", "province": "ON", "country": "CA", "postalCode": "M6E2T5", "twitter": "None", "instagram": "None", "facebook": "None", "youtube": "None", "website": "None", "summary": "None", "logo": "None", "latitude": 43.6971668531653, "longitude": -79.4628851441803}, "125756874RR0001": {"name": "ACROSS LANGUAGES: TRANSLATION AND INTERPRETATION SERVICE", "designationCode": "C", "categoryCode": "09", "address": "129 & 131 WELLINGTON ST", "city": "LONDON", "province": "ON", "country": "CA", "postalCode": "N6B2K7", "twitter": "None", "instagram": "None", "facebook": "None", "youtube": "None", "website": "None", "summary": "None", "logo": "None", "latitude": 42.97672126366213, "longitude": -81.24118134266239}, "849466164RR0001": {"name": "ACROSS U-HUB", "designationCode": "C", "categoryCode": "09", "address": "232 HOOD ROAD", "city": "MARKHAM", "province": "ON", "country": "CA", "postalCode": "L3R3K8", "twitter": "None", "instagram": "None", "facebook": "None", "youtube": "None", "website": "None", "summary": "None", "logo": "None", "latitude": 43.82463504717531, "longitude": -79.3275370626403}, "861691236RR0001": {"name": "ACT AUTISM COMMUNITY TRAINING SOCIETY", "designationCode": "C", "categoryCode": "11", "address": "150-2250 BOUNDARY RD", "city": "BURNABY", "province": "BC", "country": "CA", "postalCode": "V5M3Z3", "twitter": "None", "instagram": "None", "facebook": "None", "youtube": "None", "website": "None", "summary": "None", "logo": "None", "latitude": 49.26422355103475, "longitude": -123.02344471448657}, "130071079RR0001": {"name": "ACT II CHILD AND FAMILY SERVICES", "designationCode": "B", "categoryCode": "59", "address": "2ND FLOOR                     1034 AUSTIN AVE", "city": "COQUITLAM", "province": "BC", "country": "CA", "postalCode": "V3K3P3", "twitter": "None", "instagram": "None", "facebook": "None", "youtube": "None", "website": "None", "summary": "None", "logo": "None", "latitude": 49.24892049387531, "longitude": -122.86460377709726}, "889242442RR0001": {"name": "ACT TO END VIOLENCE AGAINST WOMEN WINNIPEG", "designationCode": "A", "categoryCode": "65", "address": "2102-1265 LEILA AVE", "city": "WINNIPEG", "province": "MB", "country": "CA", "postalCode": "R2P0G3", "twitter": "None", "instagram": "None", "facebook": "None", "youtube": "None", "website": "None", "summary": "None", "logo": "None", "latitude": 49.957333802224895, "longitude": -97.15938136038956}, "833634678RR0001": {"name": "ACTION AGAINST HUNGER ACF (CANADA) ACTION CONTRE LA FAIM ACF (CANADA)", "designationCode": "C", "categoryCode": "09", "address": "500 - 720 BATHURST ST", "city": "TORONTO", "province": "ON", "country": "CA", "postalCode": "M5S2R4", "twitter": "None", "instagram": "None", "facebook": "None", "youtube": "None", "website": "None", "summary": "None", "logo": "None", "latitude": 43.66323143574358, "longitude": -79.41047606191914}, "899926349RR0001": {"name": "ACTION ALPHA - LITERACY IN ACTION", "designationCode": "C", "categoryCode": "21", "address": "7 RUE CONNOLLY", "city": "SHERBROOKE", "province": "QC", "country": "CA", "postalCode": "J1M1L8", "twitter": "None", "instagram": "None", "facebook": "None", "youtube": "None", "website": "None", "summary": "None", "logo": "None", "latitude": 45.36720600000005, "longitude": -71.85418999999993}, "101160232RR0001": {"name": "ACTION ART ACTUEL INC", "designationCode": "C", "categoryCode": "22", "address": "191 RUE RICHELIEU", "city": "SAINT-JEAN-SUR-RICHELIEU", "province": "QC", "country": "CA", "postalCode": "J3B6X7", "twitter": "None", "instagram": "None", "facebook": "None", "youtube": "None", "website": "None", "summary": "None", "logo": "None", "latitude": 45.30591900000002, "longitude": -73.25073092475066}, "894218452RR0001": {"name": "ACTION AUTISME", "designationCode": "C", "categoryCode": "19", "address": "4278 BOUL SAINTE-ROSE", "city": "LAVAL", "province": "QC", "country": "CA", "postalCode": "H7R1X4", "twitter": "None", "instagram": "None", "facebook": "None", "youtube": "None", "website": "None", "summary": "None", "logo": "None", "latitude": 45.56723502801672, "longitude": -73.84303234303775}, "852791631RR0001": {"name": "ACTION AUTISME ET T.E.D. HAUTE-COTE-NORD MANICOUAGAN", "designationCode": "C", "categoryCode": "11", "address": "CP 6143 SUCC BUREAU-CHEF", "city": "BAIE-COMEAU", "province": "QC", "country": "CA", "postalCode": "G5C0B7", "twitter": "None", "instagram": "None", "facebook": "None", "youtube": "None", "website": "None", "summary": "None", "logo": "None", "latitude": 49.22134800000006, "longitude": -68.15048299999994}, "873657522RR0001": {"name": "ACTION BENEVOLE CENTRE D'HEBERGEMENT CHAMPLAIN-GATINEAU", "designationCode": "C", "categoryCode": "01", "address": "510 BOUL LA VERENDRYE E", "city": "GATINEAU", "province": "QC", "country": "CA", "postalCode": "J8P8B4", "twitter": "None", "instagram": "None", "facebook": "None", "youtube": "None", "website": "None", "summary": "None", "logo": "None", "latitude": 45.495838095119765, "longitude": -75.67296406625684}, "132582958RR0001": {"name": "ACTION BENEVOLE DE VARENNES", "designationCode": "C", "categoryCode": "09", "address": "50, RUE DE LA FABRIQUE", "city": "VARENNES", "province": "QC", "country": "CA", "postalCode": "J3X1R1", "twitter": "None", "instagram": "None", "facebook": "None", "youtube": "None", "website": "None", "summary": "None", "logo": "None", "latitude": 45.68315858797985, "longitude": -73.4409615215973}, "862464310RR0001": {"name": "ACTION CANADA FOUNDATION", "designationCode": "C", "categoryCode": "29", "address": "5300 - 66 WELLINGTON STREET   TD BANK TOWER", "city": "TORONTO", "province": "ON", "country": "CA", "postalCode": "M5K1E6", "twitter": "None", "instagram": "None", "facebook": "None", "youtube": "None", "website": "None", "summary": "None", "logo": "None", "latitude": 43.647055248975605, "longitude": -79.38109901041601}, "885029843RR0001": {"name": "ACTION CANADIENNE INTERNATIONALE DE BIENFAISANCE", "designationCode": "C", "categoryCode": "39", "address": "735, NOTRE-DAME               AP#201", "city": "REPENTIGNY", "province": "QC", "country": "CA", "postalCode": "J6A2X4", "twitter": "None", "instagram": "None", "facebook": "None", "youtube": "None", "website": "None", "summary": "None", "logo": "None", "latitude": 45.757017344999646, "longitude": -73.4277658548674}, "130522832RR0001": {"name": "ACTION CENTRE DAY NURSERY INC", "designationCode": "C", "categoryCode": "01", "address": "377 DUFFERIN AVE", "city": "WINNIPEG", "province": "MB", "country": "CA", "postalCode": "R2W2Y2", "twitter": "None", "instagram": "None", "facebook": "None", "youtube": "None", "website": "None", "summary": "None", "logo": "None", "latitude": 49.9113529503432, "longitude": -97.1418445264875}, "134189687RR0001": {"name": "ACTION CENTRE-VILLE (MONTREAL) INC", "designationCode": "C", "categoryCode": "59", "address": "105 RUE ONTARIO EST, LOCAL 201", "city": "MONTREAL", "province": "QC", "country": "CA", "postalCode": "H2X1G9", "twitter": "None", "instagram": "None", "facebook": "None", "youtube": "None", "website": "None", "summary": "None", "logo": "None", "latitude": 45.51231921593854, "longitude": -73.56649610690141}, "106684087RR0001": {"name": "ACTION CHOMAGE DE QUEBEC INC.", "designationCode": "C", "categoryCode": "09", "address": "1279 4IEME AVENUE", "city": "QUEBEC", "province": "QC", "country": "CA", "postalCode": "G1J3B5", "twitter": "None", "instagram": "None", "facebook": "None", "youtube": "None", "website": "None", "summary": "None", "logo": "None", "latitude": 46.829032816810034, "longitude": -71.22958668140096}, "100040781RR0001": {"name": "ACTION COMMUNAUTAIRE B\u00c9N\u00c9VOLE DE SAINT-JEAN-BAPTISTE INC.", "designationCode": "C", "categoryCode": "09", "address": "175 17E AVENUE", "city": "DRUMMONDVILLE", "province": "QC", "country": "CA", "postalCode": "J2B3K1", "twitter": "None", "instagram": "None", "facebook": "None", "youtube": "None", "website": "None", "summary": "None", "logo": "None", "latitude": 45.86600261977026, "longitude": -72.4928982285476}, "871116026RR0001": {"name": "ACTION DIGNITE DE SAINT-LEONARD", "designationCode": "C", "categoryCode": "09", "address": "9089A BOUL. VIAU", "city": "SAINT-LEONARD", "province": "QC", "country": "CA", "postalCode": "H1R2V6", "twitter": "None", "instagram": "None", "facebook": "None", "youtube": "None", "website": "None", "summary": "None", "logo": "None", "latitude": 45.58821722654814, "longitude": -73.61327627274129}, "129383378RR0001": {"name": "ACTION EMPLOI PAPINEAU INC", "designationCode": "C", "categoryCode": "20", "address": "112 RUE MACLAREN EST", "city": "GATINEAU", "province": "QC", "country": "CA", "postalCode": "J8L1K1", "twitter": "None", "instagram": "None", "facebook": "None", "youtube": "None", "website": "None", "summary": "None", "logo": "None", "latitude": 45.5867354615386, "longitude": -75.41597301483075}, "132673104RR0001": {"name": "ACTION ENVIRONNEMENT SAINTE-ADELE", "designationCode": "C", "categoryCode": "59", "address": "210-1695, BOUL. LAVAL", "city": "LAVAL", "province": "QC", "country": "CA", "postalCode": "H7S2M2", "twitter": "None", "instagram": "None", "facebook": "None", "youtube": "None", "website": "None", "summary": "None", "logo": "None", "latitude": 45.56929519900169, "longitude": -73.7200242682211}, "873254635RR0001": {"name": "ACTION FAIM INC", "designationCode": "C", "categoryCode": "09", "address": "5075 JEAN TALON EST           SUITE 1404", "city": "MONTREAL", "province": "QC", "country": "CA", "postalCode": "H1S3G5", "twitter": "None", "instagram": "None", "facebook": "None", "youtube": "None", "website": "None", "summary": "None", "logo": "None", "latitude": 45.57661280627845, "longitude": -73.58355400057691}, "885884957RR0001": {"name": "ACTION FAMILLE LANORAIE INC.", "designationCode": "C", "categoryCode": "09", "address": "42 LOUIS JOSEPH DOUCET", "city": "LANORAIE", "province": "QC", "country": "CA", "postalCode": "J0K1E0", "twitter": "None", "instagram": "None", "facebook": "None", "youtube": "None", "website": "None", "summary": "None", "logo": "None", "latitude": 45.95921964418032, "longitude": -73.22106238496158}, "887119758RR0001": {"name": "ACTION FAMILLE LAVALTRIE INC", "designationCode": "C", "categoryCode": "09", "address": "1725 RUE NOTRE-DAME", "city": "LAVALTRIE", "province": "QC", "country": "CA", "postalCode": "J5T1S2", "twitter": "None", "instagram": "None", "facebook": "None", "youtube": "None", "website": "None", "summary": "None", "logo": "None", "latitude": 45.88934282598531, "longitude": -73.27328121068709}, "888423431RR0001": {"name": "ACTION FAMILLES DE LA PLAINE", "designationCode": "C", "categoryCode": "09", "address": "5900 RUE RODRIGUE", "city": "TERREBONNE", "province": "QC", "country": "CA", "postalCode": "J7M2C1", "twitter": "None", "instagram": "None", "facebook": "None", "youtube": "None", "website": "None", "summary": "None", "logo": "None", "latitude": 45.770321191759656, "longitude": -73.70750136707242}, "892546300RR0001": {"name": "ACTION FOR ANIMALS IN DISTRESS SOCIETY", "designationCode": "C", "categoryCode": "54", "address": "BOX 652 4974 KINGSWAY", "city": "BURNABY", "province": "BC", "country": "CA", "postalCode": "V5H4M9", "twitter": "None", "instagram": "None", "facebook": "None", "youtube": "None", "website": "None", "summary": "None", "logo": "None", "latitude": 49.22615218964349, "longitude": -122.99276359020539}, "886629393RR0001": {"name": "ACTION FOR BRIGHT CHILDREN (CALGARY SOCIETY)", "designationCode": "C", "categoryCode": "21", "address": "6012 TIPTON RD NW", "city": "CALGARY", "province": "AB", "country": "CA", "postalCode": "T2K3L4", "twitter": "None", "instagram": "None", "facebook": "None", "youtube": "None", "website": "None", "summary": "None", "logo": "None", "latitude": 51.105773661117205, "longitude": -114.07579410115994}, "899813851RR0001": {"name": "ACTION FOR HEALTHY COMMUNITIES SOCIETY OF EDMONTON", "designationCode": "C", "categoryCode": "19", "address": "200 - 10578 113 ST NW", "city": "EDMONTON", "province": "AB", "country": "CA", "postalCode": "T5H3H5", "twitter": "None", "instagram": "None", "facebook": "None", "youtube": "None", "website": "None", "summary": "None", "logo": "None", "latitude": 53.55321634244597, "longitude": -113.51578179740027}, "133247676RR0001": {"name": "ACTION GROUP ON EROSION, TECHNOLOGY AND CONCENTRATION", "designationCode": "C", "categoryCode": "21", "address": "206-180 METCALFE ST.", "city": "OTTAWA", "province": "ON", "country": "CA", "postalCode": "K2P1P5", "twitter": "None", "instagram": "None", "facebook": "None", "youtube": "None", "website": "None", "summary": "None", "logo": "None", "latitude": 45.41876688952057, "longitude": -75.69392531727138}, "118777309RR0001": {"name": "ACTION INTERNATIONAL MINISTRIES CORPORATION", "designationCode": "C", "categoryCode": "47", "address": "3015A 21ST ST NE", "city": "CALGARY", "province": "AB", "country": "CA", "postalCode": "T2E7T1", "twitter": "None", "instagram": "None", "facebook": "None", "youtube": "None", "website": "None", "summary": "None", "logo": "None", "latitude": 51.07886109672406, "longitude": -114.00915550415421}, "105371942RR0001": {"name": "ACTION JEUNESSE COTE-SUD", "designationCode": "C", "categoryCode": "59", "address": "75 SAINT-GERARD", "city": "SAINT-DAMIEN", "province": "QC", "country": "CA", "postalCode": "G0R2Y0", "twitter": "None", "instagram": "None", "facebook": "None", "youtube": "None", "website": "None", "summary": "None", "logo": "None", "latitude": 46.628944748264686, "longitude": -70.66690194597736}, "892333444RR0001": {"name": "ACTION JEUNESSE DE ST-ADRIEN", "designationCode": "C", "categoryCode": "09", "address": "400 MGR L'HEUREUX", "city": "WOTTON", "province": "QC", "country": "CA", "postalCode": "J0A1N0", "twitter": "None", "instagram": "None", "facebook": "None", "youtube": "None", "website": "None", "summary": "None", "logo": "None", "latitude": 45.73592634867702, "longitude": -71.81052690684935}, "886089358RR0001": {"name": "ACTION JEUNESSE ROUSSILLON", "designationCode": "C", "categoryCode": "09", "address": "164 BOULEVARD MONCHAMP", "city": "ST-CONSTANT", "province": "QC", "country": "CA", "postalCode": "J5A2K8", "twitter": "None", "instagram": "None", "facebook": "None", "youtube": "None", "website": "None", "summary": "None", "logo": "None", "latitude": 45.378021709129236, "longitude": -73.5836262399159}, "127841807RR0001": {"name": "ACTION JEUNESSE ST-PIE X DE LONGUEUIL INC", "designationCode": "C", "categoryCode": "57", "address": "1000, BOUL. ROLAND THERRIEN", "city": "LONGUEUIL", "province": "QC", "country": "CA", "postalCode": "J4J5H3", "twitter": "None", "instagram": "None", "facebook": "None", "youtube": "None", "website": "None", "summary": "None", "logo": "None", "latitude": 45.5404405100989, "longitude": -73.48795424715793}, "118777341RR0001": {"name": "ACTION LIFE OTTAWA INC.", "designationCode": "C", "categoryCode": "09", "address": "40-1000 BROOKFIELD RD", "city": "OTTAWA", "province": "ON", "country": "CA", "postalCode": "K1V6J7", "twitter": "None", "instagram": "None", "facebook": "None", "youtube": "None", "website": "None", "summary": "None", "logo": "None", "latitude": 45.37412859781307, "longitude": -75.67473763474526}, "107971251RR0001": {"name": "ACTION LINE HOUSING SOCIETY", "designationCode": "C", "categoryCode": "09", "address": "3755 MCGILL ST", "city": "BURNABY", "province": "BC", "country": "CA", "postalCode": "V5C1M2", "twitter": "None", "instagram": "None", "facebook": "None", "youtube": "None", "website": "None", "summary": "None", "logo": "None", "latitude": 49.28837446826104, "longitude": -123.02165177699231}, "890308059RR0001": {"name": "ACTION MINISTRIES OF GRAND MANAN", "designationCode": "C", "categoryCode": "09", "address": "70 RED POINT RD", "city": "GRAND MANAN", "province": "NB", "country": "CA", "postalCode": "E5G4J2", "twitter": "None", "instagram": "None", "facebook": "None", "youtube": "None", "website": "None", "summary": "None", "logo": "None", "latitude": 44.652722780233745, "longitude": -66.82844347723591}, "851223495RR0001": {"name": "ACTION MISSIONNAIRE PEUPLE ACQUIS (AMIPAC)", "designationCode": "C", "categoryCode": "39", "address": "C.P.62 SUCC.AHUNTISIC", "city": "MONTR\u00c9AL", "province": "QC", "country": "CA", "postalCode": "H3L3N5", "twitter": "None", "instagram": "None", "facebook": "None", "youtube": "None", "website": "None", "summary": "None", "logo": "None", "latitude": 45.547377000000054, "longitude": -73.67631649999993}, "118777366RR0001": {"name": "ACTION MONDIALE D'EVANGELISATION (QUEBEC) INC.", "designationCode": "C", "categoryCode": "47", "address": "110 PRINCIPALE                C.P. 80025", "city": "CH\u00c2TEAUGUAY", "province": "QC", "country": "CA", "postalCode": "J6J5X2", "twitter": "None", "instagram": "None", "facebook": "None", "youtube": "None", "website": "None", "summary": "None", "logo": "None", "latitude": 45.358167183478436, "longitude": -73.7571102320387}, "118777374RR0001": {"name": "ACTION NORTH RECOVERY CENTRE", "designationCode": "C", "categoryCode": "57", "address": "BOX 872", "city": "HIGH LEVEL", "province": "AB", "country": "CA", "postalCode": "T0H1Z0", "twitter": "None", "instagram": "None", "facebook": "None", "youtube": "None", "website": "None", "summary": "None", "logo": "None", "latitude": 58.52077909031678, "longitude": -117.13094845132863}, "882441975RR0001": {"name": "ACTION POPULAIRE DES MOULINS", "designationCode": "C", "categoryCode": "09", "address": "2500 BOUL MASCOUCHE           BUREAU 210", "city": "MASCOUCHE", "province": "QC", "country": "CA", "postalCode": "J7K0H5", "twitter": "None", "instagram": "None", "facebook": "None", "youtube": "None", "website": "None", "summary": "None", "logo": "None", "latitude": 45.74389239018424, "longitude": -73.61772075862127}, "894057132RR0001": {"name": "ACTION POUR LA SOLIDARITE, L'EQUITE, L'ENVIRONNEMENT ET LE DEVELOPPEMENT (ASEED)", "designationCode": "C", "categoryCode": "21", "address": "50 RUE ST-CATHERINE O         BUREAU 340", "city": "MONTREAL", "province": "QC", "country": "CA", "postalCode": "H2X3V4", "twitter": "None", "instagram": "None", "facebook": "None", "youtube": "None", "website": "None", "summary": "None", "logo": "None", "latitude": 45.50894347293556, "longitude": -73.56455956090953}, "133652214RR0001": {"name": "ACTION READ COMMUNITY LITERACY CENTRE OF GUELPH", "designationCode": "C", "categoryCode": "21", "address": "8 CORK ST E", "city": "GUELPH", "province": "ON", "country": "CA", "postalCode": "N1H2W8", "twitter": "None", "instagram": "None", "facebook": "None", "youtube": "None", "website": "None", "summary": "None", "logo": "None", "latitude": 43.54444402940953, "longitude": -80.25086643789166}, "874029002RR0001": {"name": "ACTION REVIVRE LTEE.", "designationCode": "C", "categoryCode": "11", "address": "1 BOUL ST-PIERRE O", "city": "CARAQUET", "province": "NB", "country": "CA", "postalCode": "E1W1B6", "twitter": "None", "instagram": "None", "facebook": "None", "youtube": "None", "website": "None", "summary": "None", "logo": "None", "latitude": 47.7940557305209, "longitude": -64.93876267415098}, "873436752RR0001": {"name": "ACTION RIVIERE CHAUDIERE", "designationCode": "C", "categoryCode": "59", "address": "68 - 2555 RANG SAINT-GABRIEL N", "city": "SAINTE-MARIE", "province": "QC", "country": "CA", "postalCode": "G6E3M8", "twitter": "None", "instagram": "None", "facebook": "None", "youtube": "None", "website": "None", "summary": "None", "logo": "None", "latitude": 46.507252500000014, "longitude": -71.04221324999999}, "100042373RR0001": {"name": "ACTION SANTE DE POINTE ST-CHARLES", "designationCode": "C", "categoryCode": "09", "address": "2423, WELLINGTON", "city": "MONTREAL", "province": "QC", "country": "CA", "postalCode": "H3K1X5", "twitter": "None", "instagram": "None", "facebook": "None", "youtube": "None", "website": "None", "summary": "None", "logo": "None", "latitude": 45.47430298557329, "longitude": -73.56151838095089}, "865965784RR0001": {"name": "ACTION SECOURS, VIE D'ESPOIR", "designationCode": "C", "categoryCode": "09", "address": "35 AVENUE MARIEN", "city": "MONTREAL-EST", "province": "QC", "country": "CA", "postalCode": "H1B4T8", "twitter": "None", "instagram": "None", "facebook": "None", "youtube": "None", "website": "None", "summary": "None", "logo": "None", "latitude": 45.632649351116505, "longitude": -73.49689702094759}, "891266389RR0001": {"name": "ACTION ST-FRANCOIS", "designationCode": "C", "categoryCode": "59", "address": "165 RUE MOORE", "city": "SHERBROOKE", "province": "QC", "country": "CA", "postalCode": "J1H1B8", "twitter": "None", "instagram": "None", "facebook": "None", "youtube": "None", "website": "None", "summary": "None", "logo": "None", "latitude": 45.40718965892417, "longitude": -71.89679158148175}, "118777390RR0001": {"name": "ACTION TRAVAIL CHALEURS INC.", "designationCode": "C", "categoryCode": "09", "address": "193B AV. GRAND-PR\u00c9", "city": "BONAVENTURE", "province": "QC", "country": "CA", "postalCode": "G0C1E0", "twitter": "None", "instagram": "None", "facebook": "None", "youtube": "None", "website": "None", "summary": "None", "logo": "None", "latitude": 48.05035327137532, "longitude": -65.48242563100413}, "100042670RR0001": {"name": "ACTION TRAVAIL DES FEMMES DU QUEBEC INC.", "designationCode": "C", "categoryCode": "59", "address": "7001 RUE HUTCHISON", "city": "MONTREAL", "province": "QC", "country": "CA", "postalCode": "H3N1Y9", "twitter": "None", "instagram": "None", "facebook": "None", "youtube": "None", "website": "None", "summary": "None", "logo": "None", "latitude": 45.52893846517394, "longitude": -73.61978131833924}, "853124592RR0001": {"name": "ACTION VOLUNTEER ALLIANCE", "designationCode": "C", "categoryCode": "01", "address": "PO BOX 104", "city": "CAMDEN EAST", "province": "ON", "country": "CA", "postalCode": "K0K1J0", "twitter": "None", "instagram": "None", "facebook": "None", "youtube": "None", "website": "None", "summary": "None", "logo": "None", "latitude": 44.3229690560032, "longitude": -76.87207729713941}, "118777408RR0001": {"name": "ACTION VOLUNTEERS FOR ANIMALS", "designationCode": "C", "categoryCode": "54", "address": "PO BOX 18233 RPO STEEPLEHILL", "city": "PICKERING", "province": "ON", "country": "CA", "postalCode": "L1V0B8", "twitter": "None", "instagram": "None", "facebook": "None", "youtube": "None", "website": "None", "summary": "None", "logo": "None", "latitude": 43.837818000000055, "longitude": -79.08191449999994}}