{"118783190RR0002": {"name": "ALL SAINTS ANGLICAN CHURCH", "designationCode": "C", "categoryCode": "30", "address": "PO BOX 39", "city": "BEAR CANYON", "province": "AB", "country": "CA", "postalCode": "T0H0B0", "twitter": "None", "instagram": "None", "facebook": "None", "youtube": "None", "website": "None", "summary": "None", "logo": "None", "latitude": 56.22103000000004, "longitude": -119.81989999999996}, "118783588RR0002": {"name": "ALL SAINTS ANGLICAN CHURCH", "designationCode": "C", "categoryCode": "30", "address": "249 HAMILTON RD", "city": "LONDON", "province": "ON", "country": "CA", "postalCode": "N5Z1R2", "twitter": "None", "instagram": "None", "facebook": "None", "youtube": "None", "website": "None", "summary": "None", "logo": "None", "latitude": 42.98154273991591, "longitude": -81.22572539523338}, "129144549RR0016": {"name": "ALL SAINTS ANGLICAN CHURCH", "designationCode": "C", "categoryCode": "30", "address": "8011 THOMPSON RD", "city": "KIMBERLEY", "province": "BC", "country": "CA", "postalCode": "V1A3L7", "twitter": "None", "instagram": "None", "facebook": "None", "youtube": "None", "website": "None", "summary": "None", "logo": "None", "latitude": 49.675500000000014, "longitude": -115.982883}, "129144549RR0022": {"name": "ALL SAINTS ANGLICAN CHURCH", "designationCode": "C", "categoryCode": "30", "address": "3205 27 STREET", "city": "VERNON", "province": "BC", "country": "CA", "postalCode": "V1T4W8", "twitter": "None", "instagram": "None", "facebook": "None", "youtube": "None", "website": "None", "summary": "None", "logo": "None", "latitude": 50.26581916763806, "longitude": -119.26657851079139}, "130402019RR0028": {"name": "ALL SAINTS ANGLICAN CHURCH", "designationCode": "C", "categoryCode": "30", "address": "PO BOX 97", "city": "AKLAVIK", "province": "NT", "country": "CA", "postalCode": "X0E0A0", "twitter": "None", "instagram": "None", "facebook": "None", "youtube": "None", "website": "None", "summary": "None", "logo": "None", "latitude": 68.21754000000004, "longitude": -135.01334999999995}, "135347524RR0002": {"name": "ALL SAINTS ANGLICAN CHURCH", "designationCode": "C", "categoryCode": "30", "address": "PO BOX 100", "city": "GORE BAY", "province": "ON", "country": "CA", "postalCode": "P0P1H0", "twitter": "None", "instagram": "None", "facebook": "None", "youtube": "None", "website": "None", "summary": "None", "logo": "None", "latitude": 45.90865156608953, "longitude": -82.45968892721794}, "889162772RR0001": {"name": "ALL SAINTS ANGLICAN CHURCH", "designationCode": "C", "categoryCode": "30", "address": "239 3RD STREET", "city": "WEYBURN", "province": "SK", "country": "CA", "postalCode": "S4H0W5", "twitter": "None", "instagram": "None", "facebook": "None", "youtube": "None", "website": "None", "summary": "None", "logo": "None", "latitude": 49.66386995589522, "longitude": -103.85315789208066}, "862592037RR0001": {"name": "ALL SAINTS ANGLICAN CHURCH - MACTIER", "designationCode": "C", "categoryCode": "30", "address": "P. O. BOX 489", "city": "MACTIER", "province": "ON", "country": "CA", "postalCode": "P0C1H0", "twitter": "None", "instagram": "None", "facebook": "None", "youtube": "None", "website": "None", "summary": "None", "logo": "None", "latitude": 45.197790000000055, "longitude": -79.78854949999993}, "888025848RR0001": {"name": "ALL SAINTS ANGLICAN CHURCH KATEPWA", "designationCode": "C", "categoryCode": "30", "address": "BOX 656", "city": "INDIAN HEAD", "province": "SK", "country": "CA", "postalCode": "S0G2K0", "twitter": "None", "instagram": "None", "facebook": "None", "youtube": "None", "website": "None", "summary": "None", "logo": "None", "latitude": 50.52675000000005, "longitude": -103.66901999999999}, "130113798RR0001": {"name": "ALL SAINTS ANGLICAN CHURCH,", "designationCode": "C", "categoryCode": "30", "address": "606-12 ST SW", "city": "MEDICINE HAT", "province": "AB", "country": "CA", "postalCode": "T1A4V2", "twitter": "None", "instagram": "None", "facebook": "None", "youtube": "None", "website": "None", "summary": "None", "logo": "None", "latitude": 50.02786749653755, "longitude": -110.700504}, "887394260RR0001": {"name": "ALL SAINTS ANGLICAN CHURCH, ENTRY ISLAND", "designationCode": "C", "categoryCode": "30", "address": "219 CH MAIN", "city": "ENTRY ISLAND", "province": "QC", "country": "CA", "postalCode": "G4T1Z6", "twitter": "None", "instagram": "None", "facebook": "None", "youtube": "None", "website": "None", "summary": "None", "logo": "None", "latitude": 47.2730594454671, "longitude": -61.709783568555586}, "839970126RR0001": {"name": "ALL SAINTS ANGLICAN FOUNDATION COLLINGWOOD", "designationCode": "A", "categoryCode": "43", "address": "32 ELGIN STREET", "city": "COLLINGWOOD", "province": "ON", "country": "CA", "postalCode": "L9Y4V2", "twitter": "None", "instagram": "None", "facebook": "None", "youtube": "None", "website": "None", "summary": "None", "logo": "None", "latitude": 44.50024011067385, "longitude": -80.21494106529873}, "130402019RR0023": {"name": "ALL SAINTS ANGLICAN PARISH", "designationCode": "C", "categoryCode": "30", "address": "BOX 25", "city": "ARCTIC BAY", "province": "NU", "country": "CA", "postalCode": "X0A0A0", "twitter": "None", "instagram": "None", "facebook": "None", "youtube": "None", "website": "None", "summary": "None", "logo": "None", "latitude": 73.05195300000005, "longitude": -85.32781999999993}, "133279620RR0002": {"name": "ALL SAINTS ANGLICAN PARISH", "designationCode": "C", "categoryCode": "30", "address": "9902 MANNING AVE", "city": "FORT MCMURRAY", "province": "AB", "country": "CA", "postalCode": "T9H2B9", "twitter": "None", "instagram": "None", "facebook": "None", "youtube": "None", "website": "None", "summary": "None", "logo": "None", "latitude": 56.72765588816426, "longitude": -111.3782410547927}, "118783315RR0001": {"name": "ALL SAINTS CEMETERY COMMITTEE", "designationCode": "C", "categoryCode": "59", "address": "BOX 258", "city": "GANDER", "province": "NL", "country": "CA", "postalCode": "A1V1W6", "twitter": "None", "instagram": "None", "facebook": "None", "youtube": "None", "website": "None", "summary": "None", "logo": "None", "latitude": 48.95684700000005, "longitude": -54.60917299999993}, "106702764RR0001": {"name": "ALL SAINTS CHURCH", "designationCode": "C", "categoryCode": "30", "address": "300 DUNDAS ST W", "city": "WHITBY", "province": "ON", "country": "CA", "postalCode": "L1N2M5", "twitter": "None", "instagram": "None", "facebook": "None", "youtube": "None", "website": "None", "summary": "None", "logo": "None", "latitude": 43.87924908580959, "longitude": -78.94482789635855}, "106702780RR0001": {"name": "ALL SAINTS CHURCH", "designationCode": "C", "categoryCode": "30", "address": "32 ELGIN STREET", "city": "COLLINGWOOD", "province": "ON", "country": "CA", "postalCode": "L9Y4V2", "twitter": "None", "instagram": "None", "facebook": "None", "youtube": "None", "website": "None", "summary": "None", "logo": "None", "latitude": 44.50024011067385, "longitude": -80.21494106529873}, "106702970RR0002": {"name": "ALL SAINTS CHURCH", "designationCode": "C", "categoryCode": "30", "address": "30 HIGH ST.", "city": "HUNTSVILLE", "province": "ON", "country": "CA", "postalCode": "P1H1N9", "twitter": "None", "instagram": "None", "facebook": "None", "youtube": "None", "website": "None", "summary": "None", "logo": "None", "latitude": 45.32685561838528, "longitude": -79.21492983625707}, "108099771RR0012": {"name": "ALL SAINTS CHURCH", "designationCode": "C", "categoryCode": "30", "address": "PO BOX 555", "city": "RIDGEWAY", "province": "ON", "country": "CA", "postalCode": "L0S1N0", "twitter": "None", "instagram": "None", "facebook": "None", "youtube": "None", "website": "None", "summary": "None", "logo": "None", "latitude": 42.86752540440902, "longitude": -79.05886267228345}, "108099771RR0053": {"name": "ALL SAINTS CHURCH", "designationCode": "C", "categoryCode": "30", "address": "19 PEARL ST N", "city": "HAMILTON", "province": "ON", "country": "CA", "postalCode": "L8R2Y6", "twitter": "None", "instagram": "None", "facebook": "None", "youtube": "None", "website": "None", "summary": "None", "logo": "None", "latitude": 43.260890330902164, "longitude": -79.88175106065303}, "108099771RR0115": {"name": "ALL SAINTS CHURCH", "designationCode": "C", "categoryCode": "30", "address": "80 FORKS ROAD EAST", "city": "WELLAND", "province": "ON", "country": "CA", "postalCode": "L3B5K5", "twitter": "None", "instagram": "None", "facebook": "None", "youtube": "None", "website": "None", "summary": "None", "logo": "None", "latitude": 42.94712045224683, "longitude": -79.24165005107045}, "118783356RR0002": {"name": "ALL SAINTS CHURCH", "designationCode": "C", "categoryCode": "30", "address": "521 PLEASANT ST               PO BOX 506", "city": "KINGSTON", "province": "NS", "country": "CA", "postalCode": "B0P1R0", "twitter": "None", "instagram": "None", "facebook": "None", "youtube": "None", "website": "None", "summary": "None", "logo": "None", "latitude": 44.984551713312825, "longitude": -64.94975337719998}, "118783372RR0001": {"name": "ALL SAINTS CHURCH", "designationCode": "C", "categoryCode": "30", "address": "P.O. BOX 1611", "city": "SEPT-ILES", "province": "QC", "country": "CA", "postalCode": "G4R4X9", "twitter": "None", "instagram": "None", "facebook": "None", "youtube": "None", "website": "None", "summary": "None", "logo": "None", "latitude": 50.209593000000055, "longitude": -66.38952049999993}, "118783398RR0001": {"name": "ALL SAINTS CHURCH", "designationCode": "C", "categoryCode": "30", "address": "1255 RTE 141", "city": "ST-HERMENEGILDE", "province": "QC", "country": "CA", "postalCode": "J0B2W0", "twitter": "None", "instagram": "None", "facebook": "None", "youtube": "None", "website": "None", "summary": "None", "logo": "None", "latitude": 45.02132990994204, "longitude": -71.63471026159812}, "118783406RR0002": {"name": "ALL SAINTS CHURCH", "designationCode": "C", "categoryCode": "30", "address": "446 BRUCE STREET", "city": "DUNHAM", "province": "QC", "country": "CA", "postalCode": "J0E1M0", "twitter": "None", "instagram": "None", "facebook": "None", "youtube": "None", "website": "None", "summary": "None", "logo": "None", "latitude": 45.12324064475722, "longitude": -72.82199286958257}, "118783414RR0002": {"name": "ALL SAINTS CHURCH", "designationCode": "C", "categoryCode": "30", "address": "1965 GRIME STREET", "city": "SHERBROOKE", "province": "QC", "country": "CA", "postalCode": "J1J1E8", "twitter": "None", "instagram": "None", "facebook": "None", "youtube": "None", "website": "None", "summary": "None", "logo": "None", "latitude": 45.41521575327476, "longitude": -71.92202133429518}, "118783422RR0002": {"name": "ALL SAINTS CHURCH", "designationCode": "C", "categoryCode": "30", "address": "248, 18TH AVENUE", "city": "DEUX MONTAGNES", "province": "QC", "country": "CA", "postalCode": "J7R4B1", "twitter": "None", "instagram": "None", "facebook": "None", "youtube": "None", "website": "None", "summary": "None", "logo": "None", "latitude": 45.537444535374306, "longitude": -73.90227798892015}, "118783430RR0001": {"name": "ALL SAINTS CHURCH", "designationCode": "C", "categoryCode": "30", "address": "235 RUBIDGE STREET", "city": "PETERBOROUGH", "province": "ON", "country": "CA", "postalCode": "K9J3N9", "twitter": "None", "instagram": "None", "facebook": "None", "youtube": "None", "website": "None", "summary": "None", "logo": "None", "latitude": 44.300275208436744, "longitude": -78.3264482004153}, "118783554RR0002": {"name": "ALL SAINTS CHURCH", "designationCode": "C", "categoryCode": "30", "address": "688 MT. PLEASANT RD.", "city": "MT PLEASANT", "province": "ON", "country": "CA", "postalCode": "N0E1K0", "twitter": "None", "instagram": "None", "facebook": "None", "youtube": "None", "website": "None", "summary": "None", "logo": "None", "latitude": 43.07924858283808, "longitude": -80.3127086665998}, "118783562RR0002": {"name": "ALL SAINTS CHURCH", "designationCode": "C", "categoryCode": "30", "address": "400 NORTHFIELD DRIVE W", "city": "WATERLOO", "province": "ON", "country": "CA", "postalCode": "N2L0A6", "twitter": "None", "instagram": "None", "facebook": "None", "youtube": "None", "website": "None", "summary": "None", "logo": "None", "latitude": 43.49049572110311, "longitude": -80.56461165517324}, "118783620RR0002": {"name": "ALL SAINTS CHURCH", "designationCode": "C", "categoryCode": "39", "address": "PO BOX 61", "city": "WHITE RIVER", "province": "ON", "country": "CA", "postalCode": "P0M3G0", "twitter": "None", "instagram": "None", "facebook": "None", "youtube": "None", "website": "None", "summary": "None", "logo": "None", "latitude": 48.593360000000075, "longitude": -85.27550999999994}, "118783653RR0002": {"name": "ALL SAINTS CHURCH", "designationCode": "C", "categoryCode": "30", "address": "175 COLONY STREET", "city": "WINNIPEG", "province": "MB", "country": "CA", "postalCode": "R3C1W2", "twitter": "None", "instagram": "None", "facebook": "None", "youtube": "None", "website": "None", "summary": "None", "logo": "None", "latitude": 49.8857761887299, "longitude": -97.15126997648493}, "118783695RR0001": {"name": "ALL SAINTS CHURCH", "designationCode": "C", "categoryCode": "30", "address": "PO BOX 22", "city": "LASHBURN", "province": "SK", "country": "CA", "postalCode": "S0M1H0", "twitter": "None", "instagram": "None", "facebook": "None", "youtube": "None", "website": "None", "summary": "None", "logo": "None", "latitude": 53.13346000000007, "longitude": -109.60150999999996}, "118783703RR0001": {"name": "ALL SAINTS CHURCH", "designationCode": "C", "categoryCode": "30", "address": "BOX 12", "city": "MAYMONT", "province": "SK", "country": "CA", "postalCode": "S0M1T0", "twitter": "None", "instagram": "None", "facebook": "None", "youtube": "None", "website": "None", "summary": "None", "logo": "None", "latitude": 52.56311000000005, "longitude": -107.70735999999994}, "118783711RR0001": {"name": "ALL SAINTS CHURCH", "designationCode": "C", "categoryCode": "30", "address": "PO BOX 327", "city": "EDAM", "province": "SK", "country": "CA", "postalCode": "S0M0V0", "twitter": "None", "instagram": "None", "facebook": "None", "youtube": "None", "website": "None", "summary": "None", "logo": "None", "latitude": 53.18347000000006, "longitude": -108.76810999999998}, "118783729RR0001": {"name": "ALL SAINTS CHURCH", "designationCode": "C", "categoryCode": "30", "address": "PO BOX 658", "city": "SHAUNAVON", "province": "SK", "country": "CA", "postalCode": "S0N2M0", "twitter": "None", "instagram": "None", "facebook": "None", "youtube": "None", "website": "None", "summary": "None", "logo": "None", "latitude": 49.64645000000007, "longitude": -108.41961999999995}, "131369209RR0001": {"name": "ALL SAINTS CHURCH", "designationCode": "C", "categoryCode": "30", "address": "BOX 1206", "city": "WATROUS", "province": "SK", "country": "CA", "postalCode": "S0K4T0", "twitter": "None", "instagram": "None", "facebook": "None", "youtube": "None", "website": "None", "summary": "None", "logo": "None", "latitude": 51.719579978192066, "longitude": -105.4459035}, "132001884RR0001": {"name": "ALL SAINTS CHURCH", "designationCode": "C", "categoryCode": "30", "address": "1801 LORNE AVE", "city": "SASKATOON", "province": "SK", "country": "CA", "postalCode": "S7H1Y5", "twitter": "None", "instagram": "None", "facebook": "None", "youtube": "None", "website": "None", "summary": "None", "logo": "None", "latitude": 52.107984922009365, "longitude": -106.67037580887552}, "897945275RR0001": {"name": "ALL SAINTS CHURCH", "designationCode": "C", "categoryCode": "30", "address": "166 MCKEEN ST.", "city": "FREDERICTON", "province": "NB", "country": "CA", "postalCode": "E3A2R1", "twitter": "None", "instagram": "None", "facebook": "None", "youtube": "None", "website": "None", "summary": "None", "logo": "None", "latitude": 45.97384245406545, "longitude": -66.63537326490287}, "108099771RR0044": {"name": "ALL SAINTS CHURCH (ERIN)", "designationCode": "C", "categoryCode": "30", "address": "BOX 358", "city": "ERIN", "province": "ON", "country": "CA", "postalCode": "N0B1T0", "twitter": "None", "instagram": "None", "facebook": "None", "youtube": "None", "website": "None", "summary": "None", "logo": "None", "latitude": 43.758004500000006, "longitude": -80.07697350000001}, "108099771RR0052": {"name": "ALL SAINTS CHURCH (HAGERSVILLE)", "designationCode": "C", "categoryCode": "30", "address": "BOX 365", "city": "HAGERSVILLE", "province": "ON", "country": "CA", "postalCode": "N0A1H0", "twitter": "None", "instagram": "None", "facebook": "None", "youtube": "None", "website": "None", "summary": "None", "logo": "None", "latitude": 42.96624567435869, "longitude": -80.04526476987148}, "736806894RR0001": {"name": "ALL SAINTS CHURCH - COMMUNITY CENTRE", "designationCode": "C", "categoryCode": "30", "address": "315 DUNDAS ST E", "city": "TORONTO", "province": "ON", "country": "CA", "postalCode": "M5A2A2", "twitter": "None", "instagram": "None", "facebook": "None", "youtube": "None", "website": "None", "summary": "None", "logo": "None", "latitude": 43.658314827630086, "longitude": -79.37084812155928}, "133656009RR0001": {"name": "ALL SAINTS CHURCH HOMES FOR TOMORROW SOCIETY", "designationCode": "C", "categoryCode": "09", "address": "319 DUNDAS ST E", "city": "TORONTO", "province": "ON", "country": "CA", "postalCode": "M5A2A2", "twitter": "None", "instagram": "None", "facebook": "None", "youtube": "None", "website": "None", "summary": "None", "logo": "None", "latitude": 43.65832681320335, "longitude": -79.37081811434592}, "106703036RR0001": {"name": "ALL SAINTS CHURCH KINGSWAY", "designationCode": "C", "categoryCode": "30", "address": "2850 BLOOR STREET WEST", "city": "TORONTO", "province": "ON", "country": "CA", "postalCode": "M8X1B2", "twitter": "None", "instagram": "None", "facebook": "None", "youtube": "None", "website": "None", "summary": "None", "logo": "None", "latitude": 43.64884015072985, "longitude": -79.50491939676257}, "108084658RR0001": {"name": "ALL SAINTS CHURCH, GREELY, ONTARIO", "designationCode": "C", "categoryCode": "30", "address": "5389 BOWESVILLE RD", "city": "GLOUCESTER", "province": "ON", "country": "CA", "postalCode": "K1X1B8", "twitter": "None", "instagram": "None", "facebook": "None", "youtube": "None", "website": "None", "summary": "None", "logo": "None", "latitude": 45.26154101445539, "longitude": -75.61699350450165}, "872563960RR0001": {"name": "ALL SAINTS CHURCH, LEMINSTER", "designationCode": "C", "categoryCode": "30", "address": "1740 HWY 14 VAUGHANS RR#3", "city": "WINDSOR", "province": "NS", "country": "CA", "postalCode": "B0N2T0", "twitter": "None", "instagram": "None", "facebook": "None", "youtube": "None", "website": "None", "summary": "None", "logo": "None", "latitude": 44.838164390097816, "longitude": -64.23250242786433}, "839297553RR0001": {"name": "ALL SAINTS COMMUNITY CHURCH", "designationCode": "C", "categoryCode": "39", "address": "13742 COLDICUTT AVE", "city": "WHITE ROCK", "province": "BC", "country": "CA", "postalCode": "V4B3A9", "twitter": "None", "instagram": "None", "facebook": "None", "youtube": "None", "website": "None", "summary": "None", "logo": "None", "latitude": 49.03020450678067, "longitude": -122.84155341618097}, "895964096RR0001": {"name": "ALL SAINTS COMMUNITY HEALTH CARE FOUNDATION", "designationCode": "A", "categoryCode": "13", "address": "PO BOX 220                    10 PRINCESS STREET", "city": "SPRINGHILL", "province": "NS", "country": "CA", "postalCode": "B0M1X0", "twitter": "None", "instagram": "None", "facebook": "None", "youtube": "None", "website": "None", "summary": "None", "logo": "None", "latitude": 45.65027177021165, "longitude": -64.05181144113928}, "106703051RR0001": {"name": "ALL SAINTS GREEK ORTHODOX CHURCH", "designationCode": "C", "categoryCode": "39", "address": "3125 BAYVIEW AVE", "city": "WILLOWDALE", "province": "ON", "country": "CA", "postalCode": "M2K1G2", "twitter": "None", "instagram": "None", "facebook": "None", "youtube": "None", "website": "None", "summary": "None", "logo": "None", "latitude": 43.781525108806, "longitude": -79.39133655863051}, "106703101RR0001": {"name": "ALL SAINTS LUTHERAN CHURCH", "designationCode": "C", "categoryCode": "32", "address": "13850-119A STREET", "city": "EDMONTON", "province": "AB", "country": "CA", "postalCode": "T5X5B7", "twitter": "None", "instagram": "None", "facebook": "None", "youtube": "None", "website": "None", "summary": "None", "logo": "None", "latitude": 53.60105583625708, "longitude": -113.52792303113246}, "118783869RR0001": {"name": "ALL SAINTS LUTHERAN CHURCH", "designationCode": "C", "categoryCode": "32", "address": "450 LAHAVE ST                 17-208", "city": "BRIDGEWATER", "province": "NS", "country": "CA", "postalCode": "B4V4A3", "twitter": "None", "instagram": "None", "facebook": "None", "youtube": "None", "website": "None", "summary": "None", "logo": "None", "latitude": 44.37902536555668, "longitude": -64.51566585769098}, "891027989RR0001": {"name": "ALL SAINTS LUTHERAN CHURCH", "designationCode": "C", "categoryCode": "32", "address": "380 MIDPARK BLVD SE", "city": "CALGARY", "province": "AB", "country": "CA", "postalCode": "T2X2K4", "twitter": "None", "instagram": "None", "facebook": "None", "youtube": "None", "website": "None", "summary": "None", "logo": "None", "latitude": 50.90814248211083, "longitude": -114.05969138773155}, "118783877RR0001": {"name": "ALL SAINTS LUTHERAN CHURCH (OTTAWA) INC.", "designationCode": "C", "categoryCode": "32", "address": "1061 PINECREST RD", "city": "OTTAWA", "province": "ON", "country": "CA", "postalCode": "K2B6B7", "twitter": "None", "instagram": "None", "facebook": "None", "youtube": "None", "website": "None", "summary": "None", "logo": "None", "latitude": 45.35140729283268, "longitude": -75.79085157527894}, "828963611RR0001": {"name": "ALL SAINTS MEMORIAL SOCIETY INC.", "designationCode": "C", "categoryCode": "59", "address": "738 HILLSIDE RD", "city": "ELGIN", "province": "NB", "country": "CA", "postalCode": "E4Z1X6", "twitter": "None", "instagram": "None", "facebook": "None", "youtube": "None", "website": "None", "summary": "None", "logo": "None", "latitude": 45.76070580324868, "longitude": -65.06130246953043}, "888656485RR0001": {"name": "ALL SAINTS NURSERY SCHOOL ASSOCIATION", "designationCode": "C", "categoryCode": "20", "address": "3205 27 ST", "city": "VERNON", "province": "BC", "country": "CA", "postalCode": "V1T4W8", "twitter": "None", "instagram": "None", "facebook": "None", "youtube": "None", "website": "None", "summary": "None", "logo": "None", "latitude": 50.26581916763806, "longitude": -119.26657851079139}, "864972229RR0001": {"name": "ALL SAINTS OF ALASKA AND ST. ARSENY ORTHODOX CHRISTIAN CHURCH SOCIETY", "designationCode": "C", "categoryCode": "39", "address": "101 - 1561 STOCKTON CRES", "city": "VICTORIA", "province": "BC", "country": "CA", "postalCode": "V8P3B9", "twitter": "None", "instagram": "None", "facebook": "None", "youtube": "None", "website": "None", "summary": "None", "logo": "None", "latitude": 48.46633750288554, "longitude": -123.33323169317329}, "842930349RR0001": {"name": "ALL SAINTS OF NORTH AMERICA ORTHODOX CHURCH OF HAMILTON", "designationCode": "C", "categoryCode": "39", "address": "10 PRINCIP ST", "city": "HAMILTON", "province": "ON", "country": "CA", "postalCode": "L8W2M3", "twitter": "None", "instagram": "None", "facebook": "None", "youtube": "None", "website": "None", "summary": "None", "logo": "None", "latitude": 43.20918280930822, "longitude": -79.8566997618731}, "118849470RR0075": {"name": "ALL SAINTS PARISH", "designationCode": "C", "categoryCode": "38", "address": "821 FAIRFAX ST", "city": "COQUITLAM", "province": "BC", "country": "CA", "postalCode": "V3J5K7", "twitter": "None", "instagram": "None", "facebook": "None", "youtube": "None", "website": "None", "summary": "None", "logo": "None", "latitude": 49.26461671352182, "longitude": -122.85461954197022}, "119109817RR0071": {"name": "ALL SAINTS PARISH", "designationCode": "C", "categoryCode": "38", "address": "124 FRONT ST E", "city": "STRATHROY", "province": "ON", "country": "CA", "postalCode": "N7G1Y9", "twitter": "None", "instagram": "None", "facebook": "None", "youtube": "None", "website": "None", "summary": "None", "logo": "None", "latitude": 42.9605583652261, "longitude": -81.62025837688284}, "119229896RR0043": {"name": "ALL SAINTS PARISH", "designationCode": "C", "categoryCode": "30", "address": "419 CONCEPTION BAY HIGHWAY", "city": "CONCEPTION BAY SOUTH", "province": "NL", "country": "CA", "postalCode": "A1X7A2", "twitter": "None", "instagram": "None", "facebook": "None", "youtube": "None", "website": "None", "summary": "None", "logo": "None", "latitude": 47.50997295678958, "longitude": -52.9833133739666}, "107585085RR0007": {"name": "ALL SAINTS PARISH, MAYFAIR, SK.", "designationCode": "C", "categoryCode": "38", "address": "BOX 131", "city": "MAYFAIR", "province": "SK", "country": "CA", "postalCode": "S0M1S0", "twitter": "None", "instagram": "None", "facebook": "None", "youtube": "None", "website": "None", "summary": "None", "logo": "None", "latitude": 52.98237000000006, "longitude": -107.60025999999999}, "818757312RR0001": {"name": "ALL SAINTS ROMAN CATHOLIC PARISH INC.", "designationCode": "C", "categoryCode": "38", "address": "P.O. BOX 117", "city": "CARDIGAN", "province": "PE", "country": "CA", "postalCode": "C0A1G0", "twitter": "None", "instagram": "None", "facebook": "None", "youtube": "None", "website": "None", "summary": "None", "logo": "None", "latitude": 46.410999152731904, "longitude": -62.57920248076298}, "119302420RR0001": {"name": "ALL SAINTS SPRINGHILL HOSPITAL AUXILIARY", "designationCode": "C", "categoryCode": "19", "address": "P.O. BOX 952", "city": "SPRINGHILL", "province": "NS", "country": "CA", "postalCode": "B0M1X0", "twitter": "None", "instagram": "None", "facebook": "None", "youtube": "None", "website": "None", "summary": "None", "logo": "None", "latitude": 45.65057000000007, "longitude": -64.05729999999994}, "863001293RR0001": {"name": "ALL SAINTS TRADITIONAL ANGLICAN CHURCH RENFREW", "designationCode": "C", "categoryCode": "30", "address": "904 RENFREW DR NE", "city": "CALGARY", "province": "AB", "country": "CA", "postalCode": "T2E5J1", "twitter": "None", "instagram": "None", "facebook": "None", "youtube": "None", "website": "None", "summary": "None", "logo": "None", "latitude": 51.059746173466436, "longitude": -114.0325188224942}, "118783950RR0001": {"name": "ALL SAINTS UKRAINIAN CATHOLIC PARISH", "designationCode": "C", "categoryCode": "38", "address": "BOX 312", "city": "SWAN RIVER", "province": "MB", "country": "CA", "postalCode": "R0L1Z0", "twitter": "None", "instagram": "None", "facebook": "None", "youtube": "None", "website": "None", "summary": "None", "logo": "None", "latitude": 52.11672730414978, "longitude": -101.25989472758229}, "118784008RR0001": {"name": "ALL SAINTS UKRAINIAN GREEK ORTHODOX CHURCH OF ST. PAUL", "designationCode": "C", "categoryCode": "39", "address": "4105A 46 AVE                  SS2", "city": "ST PAUL", "province": "AB", "country": "CA", "postalCode": "T0A3A2", "twitter": "None", "instagram": "None", "facebook": "None", "youtube": "None", "website": "None", "summary": "None", "logo": "None", "latitude": 53.98752731495684, "longitude": -111.27169286598176}, "108084658RR0084": {"name": "ALL SAINTS WESTBORO PARISH", "designationCode": "C", "categoryCode": "30", "address": "347 RICHMOND ROAD", "city": "OTTAWA", "province": "ON", "country": "CA", "postalCode": "K2A0E7", "twitter": "None", "instagram": "None", "facebook": "None", "youtube": "None", "website": "None", "summary": "None", "logo": "None", "latitude": 45.391818937301444, "longitude": -75.75454697088675}, "867571044RR0001": {"name": "ALL SAINTS-ROMANIAN ORTHODOX PARISH OF TORONTO", "designationCode": "C", "categoryCode": "39", "address": "545 DANFORTH ROAD", "city": "TORONTO", "province": "ON", "country": "CA", "postalCode": "M1K1C9", "twitter": "None", "instagram": "None", "facebook": "None", "youtube": "None", "website": "None", "summary": "None", "logo": "None", "latitude": 43.70997699720138, "longitude": -79.26515101760072}, "870079886RR0001": {"name": "ALL SAINTS' ANGLICAN CHURCH", "designationCode": "C", "categoryCode": "30", "address": "P O BOX 7177", "city": "DRAYTON VALLEY", "province": "AB", "country": "CA", "postalCode": "T7A1S4", "twitter": "None", "instagram": "None", "facebook": "None", "youtube": "None", "website": "None", "summary": "None", "logo": "None", "latitude": 53.22798600000006, "longitude": -114.98692399999993}, "889441242RR0002": {"name": "ALL SAINTS' CATHEDRAL", "designationCode": "C", "categoryCode": "30", "address": "10035-103 STREET", "city": "EDMONTON", "province": "AB", "country": "CA", "postalCode": "T5J0X5", "twitter": "None", "instagram": "None", "facebook": "None", "youtube": "None", "website": "None", "summary": "None", "logo": "None", "latitude": 53.540019, "longitude": -113.49735679623781}, "118783323RR0001": {"name": "ALL SAINTS' CHINESE CONGREGATION", "designationCode": "C", "categoryCode": "30", "address": "1100 DENISON ST", "city": "MARKHAM", "province": "ON", "country": "CA", "postalCode": "L3R0Z4", "twitter": "None", "instagram": "None", "facebook": "None", "youtube": "None", "website": "None", "summary": "None", "logo": "None", "latitude": 43.8301036408621, "longitude": -79.32312309856287}, "893632455RR0001": {"name": "ALL SAINTS' FOUNDATION INC.", "designationCode": "C", "categoryCode": "39", "address": "JOHN'S TAX SERVICE            BOX 915", "city": "MINNEDOSA", "province": "MB", "country": "CA", "postalCode": "R0J1E0", "twitter": "None", "instagram": "None", "facebook": "None", "youtube": "None", "website": "None", "summary": "None", "logo": "None", "latitude": 50.35204290882316, "longitude": -100.20187636199029}, "893072975RR0001": {"name": "ALL SAINTS' UKRAINIAN ORTHODOXCHURCH", "designationCode": "C", "categoryCode": "39", "address": "BOX 125", "city": "BELLIS", "province": "AB", "country": "CA", "postalCode": "T0A0J0", "twitter": "None", "instagram": "None", "facebook": "None", "youtube": "None", "website": "None", "summary": "None", "logo": "None", "latitude": 54.13262000000003, "longitude": -112.15113999999994}, "887480994RR0001": {"name": "ALL SLAVIC FULL GOSPEL CHURCH", "designationCode": "C", "categoryCode": "36", "address": "50 EARL ST", "city": "HAMILTON", "province": "ON", "country": "CA", "postalCode": "L8L6L2", "twitter": "None", "instagram": "None", "facebook": "None", "youtube": "None", "website": "None", "summary": "None", "logo": "None", "latitude": 43.258198023861794, "longitude": -79.83689951370557}, "119110450RR0110": {"name": "ALL SOULS' PARISH", "designationCode": "C", "categoryCode": "38", "address": "21 BARTON STREET WEST", "city": "HAMILTON", "province": "ON", "country": "CA", "postalCode": "L8L1A2", "twitter": "None", "instagram": "None", "facebook": "None", "youtube": "None", "website": "None", "summary": "None", "logo": "None", "latitude": 43.26437300969487, "longitude": -79.86662942812619}, "865289466RR0001": {"name": "ALL STAR CHILDREN SERVICES INC.", "designationCode": "C", "categoryCode": "01", "address": "160 SPRUCE AVENUE", "city": "ELLIOT LAKE", "province": "ON", "country": "CA", "postalCode": "P5A2C5", "twitter": "None", "instagram": "None", "facebook": "None", "youtube": "None", "website": "None", "summary": "None", "logo": "None", "latitude": 46.39214691672923, "longitude": -82.65933103938502}, "886671874RR0001": {"name": "ALL TRIBES CHRISTIAN CAMP (ALGOMA) INC.", "designationCode": "C", "categoryCode": "49", "address": "2190 A-LINE RD                RR 1", "city": "RICHARDS LANDING", "province": "ON", "country": "CA", "postalCode": "P0R1J0", "twitter": "None", "instagram": "None", "facebook": "None", "youtube": "None", "website": "None", "summary": "None", "logo": "None", "latitude": 46.234991775361436, "longitude": -84.05223379407923}, "118784099RR0001": {"name": "ALL-TRIBES MISSIONARY COUNCIL OF CANADA", "designationCode": "C", "categoryCode": "39", "address": "132 OLD TRUNK RD", "city": "BLIND RIVER", "province": "ON", "country": "CA", "postalCode": "P0R1B0", "twitter": "None", "instagram": "None", "facebook": "None", "youtube": "None", "website": "None", "summary": "None", "logo": "None", "latitude": 46.19364272246081, "longitude": -83.01973391806995}, "890510993RR0001": {"name": "ALLAITEMENT QUEBEC", "designationCode": "C", "categoryCode": "19", "address": "177, 71E RUE EST", "city": "QU\u00c9BEC", "province": "QC", "country": "CA", "postalCode": "G1H1L4", "twitter": "None", "instagram": "None", "facebook": "None", "youtube": "None", "website": "None", "summary": "None", "logo": "None", "latitude": 46.85749534139296, "longitude": -71.26295256370815}, "868081357RR0001": {"name": "ALLAITEMENT-SOLEIL", "designationCode": "C", "categoryCode": "11", "address": "C.P.21084                     CSPST-MARC", "city": "SHAWINIGAN", "province": "QC", "country": "CA", "postalCode": "G9N8M7", "twitter": "None", "instagram": "None", "facebook": "None", "youtube": "None", "website": "None", "summary": "None", "logo": "None", "latitude": 46.54257900000006, "longitude": -72.75195349999993}, "891454571RR0001": {"name": "ALLAN AND SUSAN FENWICK CHARITABLE FOUNDATION", "designationCode": "B", "categoryCode": "05", "address": "7C - 2 CHEDINGTON PL", "city": "NORTH YORK", "province": "ON", "country": "CA", "postalCode": "M4N3R5", "twitter": "None", "instagram": "None", "facebook": "None", "youtube": "None", "website": "None", "summary": "None", "logo": "None", "latitude": 43.72858934055624, "longitude": -79.38127498415963}, "106700370RR0001": {"name": "ALLAN BAPTIST CHURCH", "designationCode": "C", "categoryCode": "31", "address": "PO BOX 296", "city": "ALLAN", "province": "SK", "country": "CA", "postalCode": "S0K0C0", "twitter": "None", "instagram": "None", "facebook": "None", "youtube": "None", "website": "None", "summary": "None", "logo": "None", "latitude": 51.80652939035252, "longitude": -106.50774144526987}, "890649742RR0001": {"name": "ALLAN BROOKS NATURE CENTRE SOCIETY", "designationCode": "C", "categoryCode": "52", "address": "BOX 20038", "city": "VERNON", "province": "BC", "country": "CA", "postalCode": "V1T9L4", "twitter": "None", "instagram": "None", "facebook": "None", "youtube": "None", "website": "None", "summary": "None", "logo": "None", "latitude": 50.26567200000005, "longitude": -119.27378149999993}, "898976717RR0001": {"name": "ALLAN TIFFIN TRUST", "designationCode": "B", "categoryCode": "05", "address": "130 KING ST W  20TH FLOOR     BOX 430 STN FIRST CANADIAN PL", "city": "TORONTO", "province": "ON", "country": "CA", "postalCode": "M5X1K1", "twitter": "None", "instagram": "None", "facebook": "None", "youtube": "None", "website": "None", "summary": "None", "logo": "None"}, "119288918RR0412": {"name": "ALLANDALE CONGREGATION OF JEHOVAH'S WITNESSES BARRIE ONTARIO", "designationCode": "C", "categoryCode": "61", "address": "14 FREDERICK STREET", "city": "BARRIE", "province": "ON", "country": "CA", "postalCode": "L4N2L5", "twitter": "None", "instagram": "None", "facebook": "None", "youtube": "None", "website": "None", "summary": "None", "logo": "None", "latitude": 44.37855927200066, "longitude": -79.69765474285875}, "118782499RR0001": {"name": "ALLARD FOUNDATION LTD.", "designationCode": "B", "categoryCode": "03", "address": "210, 5324 CALGARY TRAIL", "city": "EDMONTON", "province": "AB", "country": "CA", "postalCode": "T6H4J8", "twitter": "None", "instagram": "None", "facebook": "None", "youtube": "None", "website": "None", "summary": "None", "logo": "None", "latitude": 53.491104639736925, "longitude": -113.4953254291358}, "132675323RR0001": {"name": "ALLEGIANCE ELITE, A MARCHING BRASS ENSEMBLE ASSOCIATION", "designationCode": "C", "categoryCode": "22", "address": "244 OGDEN CRES SE", "city": "CALGARY", "province": "AB", "country": "CA", "postalCode": "T2C1R1", "twitter": "None", "instagram": "None", "facebook": "None", "youtube": "None", "website": "None", "summary": "None", "logo": "None", "latitude": 50.985854496537556, "longitude": -114.01836210935426}, "132730490RR0001": {"name": "ALLEGRO MONTESSORI SCHOOL INC", "designationCode": "C", "categoryCode": "20", "address": "4215 DEGEER STREET", "city": "SASKATOON", "province": "SK", "country": "CA", "postalCode": "S7H4N6", "twitter": "None", "instagram": "None", "facebook": "None", "youtube": "None", "website": "None", "summary": "None", "logo": "None", "latitude": 52.11824052712176, "longitude": -106.57870081112588}, "118782515RR0001": {"name": "ALLEN AND MILLI GOULD FAMILY FOUNDATION", "designationCode": "B", "categoryCode": "59", "address": "310 MAIN ST W", "city": "HAMILTON", "province": "ON", "country": "CA", "postalCode": "L8P1J8", "twitter": "None", "instagram": "None", "facebook": "None", "youtube": "None", "website": "None", "summary": "None", "logo": "None", "latitude": 43.258395121299486, "longitude": -79.88253747945643}, "140037565RR0001": {"name": "ALLEN S LOREEN VAN DE KERK HOVE FAMILY FOUNDATION", "designationCode": "B", "categoryCode": "53", "address": "1651 WEST BURNSIDE RD", "city": "VICTORIA", "province": "BC", "country": "CA", "postalCode": "V9E2E2", "twitter": "None", "instagram": "None", "facebook": "None", "youtube": "None", "website": "None", "summary": "None", "logo": "None", "latitude": 48.474675764647934, "longitude": -123.43232903664982}, "118782523RR0001": {"name": "ALLEN-BRADLEY EMPLOYEES' CHARITABLE FUND", "designationCode": "B", "categoryCode": "75", "address": "135 DUNDAS ST", "city": "CAMBRIDGE", "province": "ON", "country": "CA", "postalCode": "N1R5X1", "twitter": "None", "instagram": "None", "facebook": "None", "youtube": "None", "website": "None", "summary": "None", "logo": "None", "latitude": 43.36016813575486, "longitude": -80.29658518549857}, "892023342RR0001": {"name": "ALLENBY DAYCARE INC", "designationCode": "C", "categoryCode": "01", "address": "391 ST. CLEMENTS AVENUE", "city": "TORONTO", "province": "ON", "country": "CA", "postalCode": "M5N1M2", "twitter": "None", "instagram": "None", "facebook": "None", "youtube": "None", "website": "None", "summary": "None", "logo": "None", "latitude": 43.70989884869325, "longitude": -79.4129451248775}, "132188756RR0001": {"name": "ALLENBY PARENTS ASSOCIATION", "designationCode": "C", "categoryCode": "21", "address": "391 ST. CLEMENTS AVE.", "city": "TORONTO", "province": "ON", "country": "CA", "postalCode": "M5N1M2", "twitter": "None", "instagram": "None", "facebook": "None", "youtube": "None", "website": "None", "summary": "None", "logo": "None", "latitude": 43.70989884869325, "longitude": -79.4129451248775}, "106701493RR0001": {"name": "ALLENFORD PARKHEAD PASTORAL CHARGE", "designationCode": "C", "categoryCode": "44", "address": "318889 GREY ROAD 1            RR#2", "city": "OWENSOUND", "province": "ON", "country": "CA", "postalCode": "N4K5N4", "twitter": "None", "instagram": "None", "facebook": "None", "youtube": "None", "website": "None", "summary": "None", "logo": "None", "latitude": 44.59050600000006, "longitude": -80.94473449999994}, "894201201RR0001": {"name": "ALLEYKATZ EARLY LEARNING CENTRE INC.", "designationCode": "C", "categoryCode": "01", "address": "P. O. BOX 237", "city": "EASTEND", "province": "SK", "country": "CA", "postalCode": "S0N0T0", "twitter": "None", "instagram": "None", "facebook": "None", "youtube": "None", "website": "None", "summary": "None", "logo": "None", "latitude": 49.51367000000005, "longitude": -108.82889999999998}, "806478343RR0001": {"name": "ALLI'S JOURNEY", "designationCode": "A", "categoryCode": "03", "address": "806 - 71 CHARLES ST E", "city": "TORONTO", "province": "ON", "country": "CA", "postalCode": "M4Y2T3", "twitter": "None", "instagram": "None", "facebook": "None", "youtube": "None", "website": "None", "summary": "None", "logo": "None", "latitude": 43.669272226471435, "longitude": -79.38301196433383}, "118782739RR0001": {"name": "ALLIANCE & DISTRICT AGRICULTURAL SOCIETY", "designationCode": "C", "categoryCode": "56", "address": "BOX 92", "city": "ALLIANCE", "province": "AB", "country": "CA", "postalCode": "T0B0A0", "twitter": "None", "instagram": "None", "facebook": "None", "youtube": "None", "website": "None", "summary": "None", "logo": "None", "latitude": 52.43345000000005, "longitude": -111.78502999999995}, "118782622RR0001": {"name": "ALLIANCE AND DISTRICT MUSEUM SOCIETY", "designationCode": "C", "categoryCode": "50", "address": "P.O. BOX 101", "city": "ALLIANCE", "province": "AB", "country": "CA", "postalCode": "T0B0A0", "twitter": "None", "instagram": "None", "facebook": "None", "youtube": "None", "website": "None", "summary": "None", "logo": "None", "latitude": 52.43345000000005, "longitude": -111.78502999999995}, "118782630RR0018": {"name": "ALLIANCE CHRETIENNE ET MISSIONNAIRE DE GATINEAU", "designationCode": "C", "categoryCode": "39", "address": "185 AV GATINEAU", "city": "GATINEAU", "province": "QC", "country": "CA", "postalCode": "J8T4J7", "twitter": "None", "instagram": "None", "facebook": "None", "youtube": "None", "website": "None", "summary": "None", "logo": "None", "latitude": 45.487716834266514, "longitude": -75.71728779421765}, "894034776RR0001": {"name": "ALLIANCE CHURCH", "designationCode": "C", "categoryCode": "39", "address": "1559 ILLECILLEWAET ROAD", "city": "REVELSTOKE", "province": "BC", "country": "CA", "postalCode": "V0E2S1", "twitter": "None", "instagram": "None", "facebook": "None", "youtube": "None", "website": "None", "summary": "None", "logo": "None", "latitude": 50.985825834266514, "longitude": -118.17956469175965}}