{"133259952RR0001": {"name": "SANATAN MANDIR CULTURAL CENTRE", "designationCode": "C", "categoryCode": "09", "address": "9333 WOODBINE AVENUE", "city": "MARKHAM", "province": "ON", "country": "CA", "postalCode": "L6C1T5", "twitter": "None", "instagram": "None", "facebook": "None", "youtube": "None", "website": "None", "summary": "None", "logo": "None", "latitude": 43.871146165704836, "longitude": -79.36351656875807}, "107952855RR0001": {"name": "SANCTA MARIA HOUSE", "designationCode": "C", "categoryCode": "01", "address": "102 BERNARD AVE.", "city": "TORONTO", "province": "ON", "country": "CA", "postalCode": "M5R1R9", "twitter": "None", "instagram": "None", "facebook": "None", "youtube": "None", "website": "None", "summary": "None", "logo": "None", "latitude": 43.672841223440365, "longitude": -79.40289790106176}, "119138717RR0001": {"name": "SANCTA MARIA HOUSE ASSOCIATION", "designationCode": "C", "categoryCode": "01", "address": "2056 WEST 7TH AVENUE", "city": "VANCOUVER", "province": "BC", "country": "CA", "postalCode": "V6J1T4", "twitter": "None", "instagram": "None", "facebook": "None", "youtube": "None", "website": "None", "summary": "None", "logo": "None", "latitude": 49.265531488458805, "longitude": -123.1517916931733}, "822135877RR0001": {"name": "SANCTIFIED WORD MINISTRY", "designationCode": "C", "categoryCode": "49", "address": "47 BERESFORD CRESCENT", "city": "BRAMPTON", "province": "ON", "country": "CA", "postalCode": "L6P2M2", "twitter": "None", "instagram": "None", "facebook": "None", "youtube": "None", "website": "None", "summary": "None", "logo": "None", "latitude": 43.7754147599112, "longitude": -79.69303163139836}, "107952863RR0002": {"name": "SANCTUAIRE DE BEAUVOIR", "designationCode": "C", "categoryCode": "38", "address": "675 C\u00d4TE DE BEAUVOIR", "city": "SHERBROOKE", "province": "QC", "country": "CA", "postalCode": "J1C0B8", "twitter": "None", "instagram": "None", "facebook": "None", "youtube": "None", "website": "None", "summary": "None", "logo": "None", "latitude": 45.453961557360174, "longitude": -71.89812157386437}, "881450001RR0001": {"name": "SANCTUAIRE DIOCESAIN NOTRE-DAME-DE-POINTE-NAVARRE", "designationCode": "C", "categoryCode": "38", "address": "765, BOUL POINTE-NAVARRE", "city": "GASPE", "province": "QC", "country": "CA", "postalCode": "G4X1A7", "twitter": "None", "instagram": "None", "facebook": "None", "youtube": "None", "website": "None", "summary": "None", "logo": "None", "latitude": 48.87146697985245, "longitude": -64.54979135173625}, "131908881RR0005": {"name": "SANCTUAIRE MARIE REINE DES COEURS,", "designationCode": "C", "categoryCode": "38", "address": "6455 AV LOUIS-RIEL", "city": "MONTREAL", "province": "QC", "country": "CA", "postalCode": "H1M1P1", "twitter": "None", "instagram": "None", "facebook": "None", "youtube": "None", "website": "None", "summary": "None", "logo": "None", "latitude": 45.58260586317727, "longitude": -73.54911009397524}, "119138774RR0001": {"name": "SANCTUAIRE NOTRE-DAME DE LOURDES", "designationCode": "C", "categoryCode": "38", "address": "C.P. 159", "city": "GIROUXVILLE", "province": "AB", "country": "CA", "postalCode": "T0H1S0", "twitter": "None", "instagram": "None", "facebook": "None", "youtube": "None", "website": "None", "summary": "None", "logo": "None", "latitude": 58.390100000000075, "longitude": -116.01802999999995}, "107614463RR0001": {"name": "SANCTUAIRE NOTRE-DAME DE LOURDES DE RIGAUD", "designationCode": "C", "categoryCode": "38", "address": "43 ST-VIATEUR", "city": "RIGAUD", "province": "QC", "country": "CA", "postalCode": "J0P1P0", "twitter": "None", "instagram": "None", "facebook": "None", "youtube": "None", "website": "None", "summary": "None", "logo": "None", "latitude": 45.47470493546601, "longitude": -74.2999140250939}, "119138758RR0001": {"name": "SANCTUAIRE NOTRE-DAME-DE-FATIMA", "designationCode": "C", "categoryCode": "49", "address": "193-A, ROUTE 132", "city": "LA POCATIERE", "province": "QC", "country": "CA", "postalCode": "G0R1Z0", "twitter": "None", "instagram": "None", "facebook": "None", "youtube": "None", "website": "None", "summary": "None", "logo": "None", "latitude": 47.36482559928404, "longitude": -70.0536583854516}, "138565726RR0001": {"name": "SANCTUAIRE NOTRE-DAME-DE-LA-CONFIANCE INC", "designationCode": "C", "categoryCode": "47", "address": "75-3 AVE O CP 252", "city": "PALMAROLLE", "province": "QC", "country": "CA", "postalCode": "J0Z3C0", "twitter": "None", "instagram": "None", "facebook": "None", "youtube": "None", "website": "None", "summary": "None", "logo": "None", "latitude": 48.66338618454628, "longitude": -79.20364252357332}, "119138782RR0001": {"name": "SANCTUAIRE NOTRE-DAME-DU-CAP", "designationCode": "C", "categoryCode": "38", "address": "626 RUE NOTRE-DAME EST", "city": "TROIS-RIVIERES", "province": "QC", "country": "CA", "postalCode": "G8T4G9", "twitter": "None", "instagram": "None", "facebook": "None", "youtube": "None", "website": "None", "summary": "None", "logo": "None", "latitude": 46.370717696087496, "longitude": -72.49794364946044}, "804686947RR0001": {"name": "SANCTUARY HOUSE OF PRAYER (WINNIPEG) INC.", "designationCode": "C", "categoryCode": "39", "address": "28 NOBLE AVE", "city": "WINNIPEG", "province": "MB", "country": "CA", "postalCode": "R2L0J4", "twitter": "None", "instagram": "None", "facebook": "None", "youtube": "None", "website": "None", "summary": "None", "logo": "None", "latitude": 49.91633211183575, "longitude": -97.12212143256959}, "822440723RR0001": {"name": "SANCTUARY MINISTRIES OF LONDON", "designationCode": "C", "categoryCode": "39", "address": "531 TALBOT ST", "city": "LONDON", "province": "ON", "country": "CA", "postalCode": "N6A2S5", "twitter": "None", "instagram": "None", "facebook": "None", "youtube": "None", "website": "None", "summary": "None", "logo": "None", "latitude": 42.9868436755439, "longitude": -81.2538237140053}, "890379340RR0001": {"name": "SANCTUARY MINISTRIES OF TORONTO", "designationCode": "C", "categoryCode": "39", "address": "25 CHARLES ST E", "city": "TORONTO", "province": "ON", "country": "CA", "postalCode": "M4Y1R9", "twitter": "None", "instagram": "None", "facebook": "None", "youtube": "None", "website": "None", "summary": "None", "logo": "None", "latitude": 43.6688688420568, "longitude": -79.38490798666979}, "889790218RR0001": {"name": "SANCTUARY NORTH SUPPORT PROGRAM", "designationCode": "C", "categoryCode": "09", "address": "187 BROWNING AVENUE", "city": "TORONTO", "province": "ON", "country": "CA", "postalCode": "M4K1W7", "twitter": "None", "instagram": "None", "facebook": "None", "youtube": "None", "website": "None", "summary": "None", "logo": "None", "latitude": 43.68260671827583, "longitude": -79.34911634318198}, "803759471RR0001": {"name": "SANCTUM FOUNDATION", "designationCode": "B", "categoryCode": "03", "address": "BOX 2009", "city": "COCHRANE", "province": "AB", "country": "CA", "postalCode": "T4C1B8", "twitter": "None", "instagram": "None", "facebook": "None", "youtube": "None", "website": "None", "summary": "None", "logo": "None", "latitude": 51.19089900000006, "longitude": -114.46804249999994}, "859761678RR0001": {"name": "SANCTUM RETREAT SOCIETY OF ALBERTA", "designationCode": "C", "categoryCode": "49", "address": "23 GLENBROOK CRESCENT", "city": "COCHRANE", "province": "AB", "country": "CA", "postalCode": "T4C1E7", "twitter": "None", "instagram": "None", "facebook": "None", "youtube": "None", "website": "None", "summary": "None", "logo": "None", "latitude": 51.19213675102442, "longitude": -114.47911675757393}, "878685361RR0001": {"name": "SAND BAY CEMETERY", "designationCode": "C", "categoryCode": "59", "address": "71 JUNETOWN RD", "city": "MALLORYTOWN", "province": "ON", "country": "CA", "postalCode": "K0E1R0", "twitter": "None", "instagram": "None", "facebook": "None", "youtube": "None", "website": "None", "summary": "None", "logo": "None", "latitude": 44.51202693603299, "longitude": -75.90688887220925}, "890444771RR0001": {"name": "SAND HILL CEMETERY", "designationCode": "C", "categoryCode": "59", "address": "3232 HIGHWAY 202", "city": "EAST GORE", "province": "NS", "country": "CA", "postalCode": "B2S3A9", "twitter": "None", "instagram": "None", "facebook": "None", "youtube": "None", "website": "None", "summary": "None", "logo": "None", "latitude": 45.103925088280484, "longitude": -63.672432946233904}, "868495094RR0001": {"name": "SAND LAKE CHARITABLE TRUST", "designationCode": "B", "categoryCode": "03", "address": "50-1ST AVE NE", "city": "SWIFT CURRENT", "province": "SK", "country": "CA", "postalCode": "S9H4W4", "twitter": "None", "instagram": "None", "facebook": "None", "youtube": "None", "website": "None", "summary": "None", "logo": "None", "latitude": 50.282664378132, "longitude": -107.79863205289816}, "893301960RR0001": {"name": "SANDCASTLES ALBERT PARK CHILDCARE INC.", "designationCode": "C", "categoryCode": "20", "address": "3910 GORDON ROAD", "city": "REGINA", "province": "SK", "country": "CA", "postalCode": "S4S6Y3", "twitter": "None", "instagram": "None", "facebook": "None", "youtube": "None", "website": "None", "summary": "None", "logo": "None", "latitude": 50.40558010822748, "longitude": -104.63713738967913}, "887966463RR0001": {"name": "SANDERSON CENTRE FOUNDATION", "designationCode": "A", "categoryCode": "52", "address": "90 DALHOUSIE STREET", "city": "BRANTFORD", "province": "ON", "country": "CA", "postalCode": "N3T2J2", "twitter": "None", "instagram": "None", "facebook": "None", "youtube": "None", "website": "None", "summary": "None", "logo": "None", "latitude": 43.13942988547802, "longitude": -80.26447307860668}, "119138857RR0001": {"name": "SANDFORD UNITED BAPTIST CHURCH", "designationCode": "C", "categoryCode": "31", "address": "598 RODNEY ROAD", "city": "SANDFORD", "province": "NS", "country": "CA", "postalCode": "B5A5K9", "twitter": "None", "instagram": "None", "facebook": "None", "youtube": "None", "website": "None", "summary": "None", "logo": "None", "latitude": 43.91665634448007, "longitude": -66.13958859365812}, "119138865RR0001": {"name": "SANDFORD UNITED CHURCH", "designationCode": "C", "categoryCode": "44", "address": "405 SANDFORD ROAD", "city": "SANDFORD", "province": "ON", "country": "CA", "postalCode": "L0C1E0", "twitter": "None", "instagram": "None", "facebook": "None", "youtube": "None", "website": "None", "summary": "None", "logo": "None", "latitude": 44.135356130324226, "longitude": -79.20974646615653}, "119138873RR0001": {"name": "SANDHILL PRESBYTERIAN CHURCH", "designationCode": "C", "categoryCode": "37", "address": "2307 SUNBURY RD", "city": "INVERARY", "province": "ON", "country": "CA", "postalCode": "K0H1X0", "twitter": "None", "instagram": "None", "facebook": "None", "youtube": "None", "website": "None", "summary": "None", "logo": "None", "latitude": 44.38828004384517, "longitude": -76.36846254641004}, "887388999RR0001": {"name": "SANDHILL UNITED CHURCH,", "designationCode": "C", "categoryCode": "44", "address": "13595 TORBRAM RD", "city": "CALEDON", "province": "ON", "country": "CA", "postalCode": "L7C2T7", "twitter": "None", "instagram": "None", "facebook": "None", "youtube": "None", "website": "None", "summary": "None", "logo": "None", "latitude": 43.81395223206737, "longitude": -79.81483203935638}, "136439643RR0001": {"name": "SANDON HISTORICAL SOCIETY", "designationCode": "C", "categoryCode": "50", "address": "BOX 52", "city": "NEW DENVER", "province": "BC", "country": "CA", "postalCode": "V0G1S0", "twitter": "None", "instagram": "None", "facebook": "None", "youtube": "None", "website": "None", "summary": "None", "logo": "None", "latitude": 49.99242000000004, "longitude": -117.37212999999997}, "888920642RR0001": {"name": "SANDOVER-SLY MEMORIAL FUND FOR YOUTH EXCHANGE PROGRAM OF ROTARY INTERNAT DIST 504 MICHAEL", "designationCode": "C", "categoryCode": "21", "address": "4705 GRAHAM AVE", "city": "TERRACE", "province": "BC", "country": "CA", "postalCode": "V8G1A6", "twitter": "None", "instagram": "None", "facebook": "None", "youtube": "None", "website": "None", "summary": "None", "logo": "None", "latitude": 54.505926667433144, "longitude": -128.59396087059903}, "866503337RR0001": {"name": "SANDRA SCHMIRLER OLYMPIC PARK", "designationCode": "C", "categoryCode": "56", "address": "BOX 1477", "city": "BIGGAR", "province": "SK", "country": "CA", "postalCode": "S0K0M0", "twitter": "None", "instagram": "None", "facebook": "None", "youtube": "None", "website": "None", "summary": "None", "logo": "None", "latitude": 52.065150000000074, "longitude": -107.99375999999995}, "139606891RR0001": {"name": "SANDWITH CO-OPERATIVE COMMUNITY HALL", "designationCode": "C", "categoryCode": "56", "address": "RR 1", "city": "GLENBUSH", "province": "SK", "country": "CA", "postalCode": "S0M0Z0", "twitter": "None", "instagram": "None", "facebook": "None", "youtube": "None", "website": "None", "summary": "None", "logo": "None", "latitude": 53.25621000000007, "longitude": -108.00094999999999}, "119138956RR0001": {"name": "SANDWITH PRESBYTERIAN CHURCH", "designationCode": "C", "categoryCode": "37", "address": "R.R. 1", "city": "GLENBUSH", "province": "SK", "country": "CA", "postalCode": "S0M0Z0", "twitter": "None", "instagram": "None", "facebook": "None", "youtube": "None", "website": "None", "summary": "None", "logo": "None", "latitude": 53.25621000000007, "longitude": -108.00094999999999}, "868238940RR0001": {"name": "SANDY AND BERYL MACDONALD FOUNDATION", "designationCode": "B", "categoryCode": "05", "address": "130 KING ST W, 20TH FLOOR     PO BOX 430, STN FIRST CANADIAN", "city": "TORONTO", "province": "ON", "country": "CA", "postalCode": "M5X1K1", "twitter": "None", "instagram": "None", "facebook": "None", "youtube": "None", "website": "None", "summary": "None", "logo": "None"}, "868053273RR0001": {"name": "SANDY BEACH COMMUNITY CAMP INC.", "designationCode": "C", "categoryCode": "56", "address": "P.O. BOX 1933", "city": "LLOYDMINSTER", "province": "SK", "country": "CA", "postalCode": "S9V1N4", "twitter": "None", "instagram": "None", "facebook": "None", "youtube": "None", "website": "None", "summary": "None", "logo": "None", "latitude": 53.274840000000054, "longitude": -109.99074949999994}, "891131740RR0001": {"name": "SANDY BEACH KI MAMOW ATOSKANOW FOUNDATION", "designationCode": "C", "categoryCode": "01", "address": "RR 1, SITE 1, COMP 111", "city": "ONOWAY", "province": "AB", "country": "CA", "postalCode": "T0E1V0", "twitter": "None", "instagram": "None", "facebook": "None", "youtube": "None", "website": "None", "summary": "None", "logo": "None", "latitude": 53.70644400000006, "longitude": -114.18662149999994}, "107764573RR0012": {"name": "SANDY COVE BIBLE CAMP", "designationCode": "C", "categoryCode": "47", "address": "500 SANDY COVE LANE", "city": "DUMFRIES", "province": "NB", "country": "CA", "postalCode": "E6G1S8", "twitter": "None", "instagram": "None", "facebook": "None", "youtube": "None", "website": "None", "summary": "None", "logo": "None", "latitude": 45.93014436961415, "longitude": -67.15201856021389}, "896542784RR0001": {"name": "SANDY COVE UNITED BAPTIST CHURCH", "designationCode": "C", "categoryCode": "31", "address": "UNITED BAPTIST CHURCH", "city": "SANDY COVE", "province": "NS", "country": "CA", "postalCode": "B0V1E0", "twitter": "None", "instagram": "None", "facebook": "None", "youtube": "None", "website": "None", "summary": "None", "logo": "None", "latitude": 33.828610000000026, "longitude": -118.28443999999996}, "867736324RR0001": {"name": "SANDY CREEK GOSPEL JAMBOREE INC.", "designationCode": "C", "categoryCode": "47", "address": "PO BOX 476", "city": "CARONPORT", "province": "SK", "country": "CA", "postalCode": "S0H0S0", "twitter": "None", "instagram": "None", "facebook": "None", "youtube": "None", "website": "None", "summary": "None", "logo": "None", "latitude": 50.45526000000007, "longitude": -105.81779999999998}, "890646748RR0001": {"name": "SANDY HILL CEMETERY SOCIETY", "designationCode": "C", "categoryCode": "59", "address": "771 HIGHWAY 214", "city": "BELNAN", "province": "NS", "country": "CA", "postalCode": "B2S2P6", "twitter": "None", "instagram": "None", "facebook": "None", "youtube": "None", "website": "None", "summary": "None", "logo": "None", "latitude": 44.99583249046927, "longitude": -63.528121182931166}, "107953671RR0001": {"name": "SANDY HILL COMMUNITY HEALTH CENTRE, INC.", "designationCode": "C", "categoryCode": "10", "address": "221 NELSON ST", "city": "OTTAWA", "province": "ON", "country": "CA", "postalCode": "K1N1C7", "twitter": "None", "instagram": "None", "facebook": "None", "youtube": "None", "website": "None", "summary": "None", "logo": "None", "latitude": 45.429117976974936, "longitude": -75.6836781311099}, "119288918RR1084": {"name": "SANDY HILL CONGREGATION OF JEHOVAH'S WITNESSES", "designationCode": "C", "categoryCode": "61", "address": "1637 CYRVILLE ROAD", "city": "OTTAWA", "province": "ON", "country": "CA", "postalCode": "K1B3L7", "twitter": "None", "instagram": "None", "facebook": "None", "youtube": "None", "website": "None", "summary": "None", "logo": "None", "latitude": 45.41819703473914, "longitude": -75.60988665901107}, "119138980RR0001": {"name": "SANDY LAKE DROP-IN CENTRE INCORPORATED", "designationCode": "C", "categoryCode": "56", "address": "100 MAIN ST", "city": "SANDY LAKE", "province": "MB", "country": "CA", "postalCode": "R0J1X0", "twitter": "None", "instagram": "None", "facebook": "None", "youtube": "None", "website": "None", "summary": "None", "logo": "None", "latitude": 50.52853813964268, "longitude": -100.17528405197973}, "119138998RR0001": {"name": "SANDY LAKE RECREATIONAL ASSOCIATION INC.", "designationCode": "C", "categoryCode": "56", "address": "PO BOX 104", "city": "SANDY LAKE", "province": "MB", "country": "CA", "postalCode": "R0J1X0", "twitter": "None", "instagram": "None", "facebook": "None", "youtube": "None", "website": "None", "summary": "None", "logo": "None", "latitude": 50.52604802382196, "longitude": -100.17807618143935}, "134635341RR0001": {"name": "SANDY LAKE SEVENTH-DAY ADVENTIST ACADEMY", "designationCode": "C", "categoryCode": "20", "address": "435 HAMMONDS PLAINS RD", "city": "BEDFORD", "province": "NS", "country": "CA", "postalCode": "B4B1Y2", "twitter": "None", "instagram": "None", "facebook": "None", "youtube": "None", "website": "None", "summary": "None", "logo": "None", "latitude": 44.72655913634906, "longitude": -63.69638535051147}, "814020210RR0001": {"name": "SANDY PINES WILDLIFE CENTRE INCORPORATED", "designationCode": "C", "categoryCode": "54", "address": "8749 COUNTY ROAD 2 RR#6", "city": "NAPANEE", "province": "ON", "country": "CA", "postalCode": "K7R3L1", "twitter": "None", "instagram": "None", "facebook": "None", "youtube": "None", "website": "None", "summary": "None", "logo": "None", "latitude": 44.218463446616134, "longitude": -76.98218674762371}, "851254615RR0001": {"name": "SANDY PLAINS COMMUNITY CHURCH", "designationCode": "C", "categoryCode": "39", "address": "111 HWY # 141                 SEGUIN TOWNSHIP", "city": "PARRY SOUND", "province": "ON", "country": "CA", "postalCode": "P2A2W8", "twitter": "None", "instagram": "None", "facebook": "None", "youtube": "None", "website": "None", "summary": "None", "logo": "None", "latitude": 45.28918799837538, "longitude": -79.81482730634917}, "871880704RR0001": {"name": "SANDY POINT CEMETERY COMPANY", "designationCode": "C", "categoryCode": "59", "address": "PO BOX 1381", "city": "SHELBURNE", "province": "NS", "country": "CA", "postalCode": "B0T1W0", "twitter": "None", "instagram": "None", "facebook": "None", "youtube": "None", "website": "None", "summary": "None", "logo": "None", "latitude": 43.57026600000006, "longitude": -65.35813399999994}, "138512702RR0001": {"name": "SANDY-SAULTEAUX SPIRITUAL CENTRE INC.", "designationCode": "C", "categoryCode": "20", "address": "PO BOX 210", "city": "BEAUSEJOUR", "province": "MB", "country": "CA", "postalCode": "R0E0C0", "twitter": "None", "instagram": "None", "facebook": "None", "youtube": "None", "website": "None", "summary": "None", "logo": "None", "latitude": 50.061750000000075, "longitude": -96.50519999999995}, "128862521RR0001": {"name": "SANFORD HOUSING SOCIETY", "designationCode": "C", "categoryCode": "01", "address": "225 2ND AVE W", "city": "VANCOUVER", "province": "BC", "country": "CA", "postalCode": "V5Y1C7", "twitter": "None", "instagram": "None", "facebook": "None", "youtube": "None", "website": "None", "summary": "None", "logo": "None", "latitude": 49.268822101044364, "longitude": -123.11044713131145}, "889286845RR0001": {"name": "SANFORD UNITED CHURCH", "designationCode": "C", "categoryCode": "44", "address": "BOX 33", "city": "SPRINGSTEIN", "province": "MB", "country": "CA", "postalCode": "R0G2N0", "twitter": "None", "instagram": "None", "facebook": "None", "youtube": "None", "website": "None", "summary": "None", "logo": "None", "latitude": 49.80460000000005, "longitude": -97.50215999999995}, "888820065RR0001": {"name": "SANGUDO GOLDEN CLUB", "designationCode": "C", "categoryCode": "56", "address": "BOX 73", "city": "SANGUDO", "province": "AB", "country": "CA", "postalCode": "T0E2A0", "twitter": "None", "instagram": "None", "facebook": "None", "youtube": "None", "website": "None", "summary": "None", "logo": "None", "latitude": 53.88934000000006, "longitude": -114.90204999999997}, "108153594RR0001": {"name": "SANGUDO PASTORAL CHARGE", "designationCode": "C", "categoryCode": "44", "address": "P.O. BOX 625", "city": "SANGUDO", "province": "AB", "country": "CA", "postalCode": "T0E2A0", "twitter": "None", "instagram": "None", "facebook": "None", "youtube": "None", "website": "None", "summary": "None", "logo": "None", "latitude": 53.88934000000006, "longitude": -114.90204999999997}, "890208879RR0001": {"name": "SANGWOO YOUTONG CHEE CHAIR OF THEOLOGY", "designationCode": "B", "categoryCode": "21", "address": "5800 UNIVERSITY BLVD", "city": "VANCOUVER", "province": "BC", "country": "CA", "postalCode": "V6T2E4", "twitter": "None", "instagram": "None", "facebook": "None", "youtube": "None", "website": "None", "summary": "None", "logo": "None", "latitude": 49.2664520346817, "longitude": -123.24414880181698}, "856532833RR0001": {"name": "SANS OUBLIER LE SOURIRE", "designationCode": "C", "categoryCode": "09", "address": "1700 RUE AMHERST", "city": "MONTREAL", "province": "QC", "country": "CA", "postalCode": "H2L3L5", "twitter": "None", "instagram": "None", "facebook": "None", "youtube": "None", "website": "None", "summary": "None", "logo": "None", "latitude": 45.51896782956331, "longitude": -73.56035312158794}, "892301698RR0001": {"name": "SANT BABA VASAKHA SINGH SIKH SOCIETY", "designationCode": "C", "categoryCode": "62", "address": "31987 TOWNSHIPLINE RD", "city": "ABBOTSFORD", "province": "BC", "country": "CA", "postalCode": "V4X1W4", "twitter": "None", "instagram": "None", "facebook": "None", "youtube": "None", "website": "None", "summary": "None", "logo": "None", "latitude": 49.089389467684114, "longitude": -122.33909241618096}, "872849492RR0001": {"name": "SANT JALARAM CHARITABLE FOUNDATION OF NORTH AMERICA", "designationCode": "A", "categoryCode": "03", "address": "2236 SORRENTO DRIVE", "city": "COQUITLAM", "province": "BC", "country": "CA", "postalCode": "V3K6P3", "twitter": "None", "instagram": "None", "facebook": "None", "youtube": "None", "website": "None", "summary": "None", "logo": "None", "latitude": 49.237767556466146, "longitude": -122.83040969926147}, "741203723RR0001": {"name": "SANT\u00c9 SANS FRONTI\u00c8RES", "designationCode": "C", "categoryCode": "11", "address": "774 RUE SAINT-LOUIS", "city": "TERREBONNE", "province": "QC", "country": "CA", "postalCode": "J6W1J8", "twitter": "None", "instagram": "None", "facebook": "None", "youtube": "None", "website": "None", "summary": "None", "logo": "None", "latitude": 45.69488252120741, "longitude": -73.63555821856428}, "107491706RR0001": {"name": "SANTA CABRINI HOSPITAL/HOPITAL SANTA CABRINI", "designationCode": "C", "categoryCode": "10", "address": "5655, RUE ST ZOTIQUE EST", "city": "MONTREAL", "province": "QC", "country": "CA", "postalCode": "H1T1P7", "twitter": "None", "instagram": "None", "facebook": "None", "youtube": "None", "website": "None", "summary": "None", "logo": "None", "latitude": 45.579873203065524, "longitude": -73.57014455234403}, "132329723RR0001": {"name": "SANTA CLAUS FUND COMMITTEE", "designationCode": "C", "categoryCode": "01", "address": "40 STONE MANOR DR", "city": "NORTH BAY", "province": "ON", "country": "CA", "postalCode": "P1C0A3", "twitter": "None", "instagram": "None", "facebook": "None", "youtube": "None", "website": "None", "summary": "None", "logo": "None", "latitude": 46.343350019813975, "longitude": -79.44454008394123}, "119139103RR0001": {"name": "SANTA CLAUS STOCKING FUND OF VICTORIA COUNTY", "designationCode": "C", "categoryCode": "09", "address": "PO BOX 301 STN MAIN", "city": "LINDSAY", "province": "ON", "country": "CA", "postalCode": "K9V4S3", "twitter": "None", "instagram": "None", "facebook": "None", "youtube": "None", "website": "None", "summary": "None", "logo": "None", "latitude": 44.35437300000005, "longitude": -78.73967149999993}, "830898813RR0001": {"name": "SANTA COMES TO BAY STREET", "designationCode": "C", "categoryCode": "09", "address": "140 DUNVEGAN RD", "city": "TORONTO", "province": "ON", "country": "CA", "postalCode": "M4V2R3", "twitter": "None", "instagram": "None", "facebook": "None", "youtube": "None", "website": "None", "summary": "None", "logo": "None", "latitude": 43.694055849010354, "longitude": -79.4081045989669}, "119139111RR0001": {"name": "SANTA CRUZ (MISSION PORTUGAISE) ARCHIDIOCESE DE MONTREAL", "designationCode": "C", "categoryCode": "38", "address": "60 RACHEL OUEST", "city": "MONTREAL", "province": "QC", "country": "CA", "postalCode": "H2W1G3", "twitter": "None", "instagram": "None", "facebook": "None", "youtube": "None", "website": "None", "summary": "None", "logo": "None", "latitude": 45.517083140977675, "longitude": -73.58250718702779}, "107954091RR0001": {"name": "SANTA MARIA SENIOR CITIZENS HOME INC.", "designationCode": "C", "categoryCode": "01", "address": "4215 REGINA AVENUE", "city": "REGINA", "province": "SK", "country": "CA", "postalCode": "S4S0J5", "twitter": "None", "instagram": "None", "facebook": "None", "youtube": "None", "website": "None", "summary": "None", "logo": "None", "latitude": 50.43486449509524, "longitude": -104.64205305107045}, "119139137RR0001": {"name": "SANTA SENIOR ORGANIZATION", "designationCode": "C", "categoryCode": "09", "address": "1 YOUNG ST #206", "city": "HAMILTON", "province": "ON", "country": "CA", "postalCode": "L8N1T8", "twitter": "None", "instagram": "None", "facebook": "None", "youtube": "None", "website": "None", "summary": "None", "logo": "None", "latitude": 43.25126996087477, "longitude": -79.87107463835193}, "119139145RR0001": {"name": "SANTA'S HELPERS", "designationCode": "C", "categoryCode": "09", "address": "313 CLARENCE ST", "city": "PORT COLBORNE", "province": "ON", "country": "CA", "postalCode": "L3K3G9", "twitter": "None", "instagram": "None", "facebook": "None", "youtube": "None", "website": "None", "summary": "None", "logo": "None", "latitude": 42.886112508222965, "longitude": -79.2614607485429}, "727796294RR0001": {"name": "SANTA'S HELPERS ASSOCIATION", "designationCode": "C", "categoryCode": "09", "address": "604-5171 BRIGHOUSE WAY", "city": "RICHMOND", "province": "BC", "country": "CA", "postalCode": "V7C0A2", "twitter": "None", "instagram": "None", "facebook": "None", "youtube": "None", "website": "None", "summary": "None", "logo": "None", "latitude": 49.17282900000005, "longitude": -123.15457249999994}, "888677267RR0001": {"name": "SANTA'S WORKSHOP SOCIETY", "designationCode": "C", "categoryCode": "09", "address": "65B ROD & GUN ROAD", "city": "COURTENAY", "province": "BC", "country": "CA", "postalCode": "V9N3N1", "twitter": "None", "instagram": "None", "facebook": "None", "youtube": "None", "website": "None", "summary": "None", "logo": "None", "latitude": 49.68551443373379, "longitude": -125.020826140847}, "131485328RR0001": {"name": "SANTAS ANONYMOUS SOCIETY", "designationCode": "C", "categoryCode": "09", "address": "#2-4320 29TH STREET", "city": "VERNON", "province": "BC", "country": "CA", "postalCode": "V1T5B8", "twitter": "None", "instagram": "None", "facebook": "None", "youtube": "None", "website": "None", "summary": "None", "logo": "None", "latitude": 50.276996691846556, "longitude": -119.27004648704424}, "874508922RR0001": {"name": "SANTE A COEUR D'AUTRAY MATAWINIE", "designationCode": "C", "categoryCode": "03", "address": "C.P. 982", "city": "ST-GABRIEL", "province": "QC", "country": "CA", "postalCode": "J0K2N0", "twitter": "None", "instagram": "None", "facebook": "None", "youtube": "None", "website": "None", "summary": "None", "logo": "None", "latitude": 46.17226890259481, "longitude": -73.41344390672162}, "861812584RR0001": {"name": "SANTE MENTALE ESTRIE INC. / MENTAL HEALTH ESTRIE INC.", "designationCode": "C", "categoryCode": "09", "address": "257 RUE QUEEN SUITE 900", "city": "SHERBROOKEE", "province": "QC", "country": "CA", "postalCode": "J1M1K7", "twitter": "None", "instagram": "None", "facebook": "None", "youtube": "None", "website": "None", "summary": "None", "logo": "None", "latitude": 45.37460569245213, "longitude": -71.86142395703695}, "124262783RR0001": {"name": "SANTE MENTALE ET SOCIETE", "designationCode": "C", "categoryCode": "21", "address": "C.P 60194, SUCC ST.DENIS", "city": "MONTREAL", "province": "QC", "country": "CA", "postalCode": "H2J4E1", "twitter": "None", "instagram": "None", "facebook": "None", "youtube": "None", "website": "None", "summary": "None", "logo": "None", "latitude": 45.5263118591819, "longitude": -73.58805745076155}, "140717414RR0001": {"name": "SANTROPOL ROULANT INC /SANTROPOL ON WHEELS INC", "designationCode": "C", "categoryCode": "09", "address": "111 RUE ROY EST", "city": "MONTR\u00c9AL", "province": "QC", "country": "CA", "postalCode": "H2W1M1", "twitter": "None", "instagram": "None", "facebook": "None", "youtube": "None", "website": "None", "summary": "None", "logo": "None", "latitude": 45.51648595420967, "longitude": -73.57504238969345}, "881468706RR0001": {"name": "SAPIENTIA CARE", "designationCode": "A", "categoryCode": "43", "address": "P. O. BOX 3279                147 MOUNT EDWARD ROAD", "city": "CHARLOTTETOWN", "province": "PE", "country": "CA", "postalCode": "C1A8W5", "twitter": "None", "instagram": "None", "facebook": "None", "youtube": "None", "website": "None", "summary": "None", "logo": "None", "latitude": 46.260965787119865, "longitude": -63.13393902068779}, "899045686RR0001": {"name": "SAPPERTON OLD AGE PENSIONERS ASSOCIATION", "designationCode": "C", "categoryCode": "09", "address": "318 KEARY ST", "city": "NEW WESTMINSTER", "province": "BC", "country": "CA", "postalCode": "V3L3L3", "twitter": "None", "instagram": "None", "facebook": "None", "youtube": "None", "website": "None", "summary": "None", "logo": "None", "latitude": 49.22551854674262, "longitude": -122.89397327699231}, "898809686RR0001": {"name": "SAR ALBERTA (SEARCH AND RESCUE ASSOCIATION OF ALBERTA)", "designationCode": "C", "categoryCode": "59", "address": "9768-170 STREET               SUITE 142", "city": "EDMONTON", "province": "AB", "country": "CA", "postalCode": "T5T5L4", "twitter": "None", "instagram": "None", "facebook": "None", "youtube": "None", "website": "None", "summary": "None", "logo": "None", "latitude": 53.535195000000016, "longitude": -113.61546671270631}, "870626520RR0001": {"name": "SARA RIEL FOUNDATION INC./LA FONDATION SARA RIEL INC.", "designationCode": "A", "categoryCode": "13", "address": "66 MOORE AVENUE", "city": "WINNIPEG", "province": "MB", "country": "CA", "postalCode": "R2M2C4", "twitter": "None", "instagram": "None", "facebook": "None", "youtube": "None", "website": "None", "summary": "None", "logo": "None", "latitude": 49.83857520286814, "longitude": -97.11724465554862}, "107305757RR0001": {"name": "SARA RIEL INC.", "designationCode": "C", "categoryCode": "01", "address": "66 MOORE AVENUE", "city": "WINNIPEG", "province": "MB", "country": "CA", "postalCode": "R2M2C4", "twitter": "None", "instagram": "None", "facebook": "None", "youtube": "None", "website": "None", "summary": "None", "logo": "None", "latitude": 49.83857520286814, "longitude": -97.11724465554862}, "889010393RR0001": {"name": "SARAH STAPLES FOUNDATION", "designationCode": "B", "categoryCode": "25", "address": "350 LANGDON CRESCENT          P.O. BOX 908", "city": "MOOSE JAW", "province": "SK", "country": "CA", "postalCode": "S6H4P6", "twitter": "None", "instagram": "None", "facebook": "None", "youtube": "None", "website": "None", "summary": "None", "logo": "None", "latitude": 50.39306588270357, "longitude": -105.53302628884478}, "889942017RR0001": {"name": "SARASVATI DRAMATIC THEATRE PRODUCTIONS AND REPERTORY INC.", "designationCode": "C", "categoryCode": "22", "address": "242 CATHEDRAL AVE", "city": "WINNIPEG", "province": "MB", "country": "CA", "postalCode": "R2W0X3", "twitter": "None", "instagram": "None", "facebook": "None", "youtube": "None", "website": "None", "summary": "None", "logo": "None", "latitude": 49.924319093513894, "longitude": -97.1273102832534}, "106915275RR0001": {"name": "SARDIS CHILDREN'S CENTRE SOCIETY", "designationCode": "C", "categoryCode": "20", "address": "8999 YOUNG RD", "city": "CHILLIWACK", "province": "BC", "country": "CA", "postalCode": "V2P4R9", "twitter": "None", "instagram": "None", "facebook": "None", "youtube": "None", "website": "None", "summary": "None", "logo": "None", "latitude": 49.16559832419628, "longitude": -121.95263346953044}, "896952611RR0001": {"name": "SARDIS COMMUNITY CHURCH", "designationCode": "C", "categoryCode": "34", "address": "45625 SOUTH SUMAS ROAD", "city": "CHILLIWACK", "province": "BC", "country": "CA", "postalCode": "V2R4M7", "twitter": "None", "instagram": "None", "facebook": "None", "youtube": "None", "website": "None", "summary": "None", "logo": "None", "latitude": 49.11843051875454, "longitude": -121.96176325145709}, "890460843RR0001": {"name": "SARDIS DOORWAY FOR MOTHERS AND CHILDREN SOCIETY", "designationCode": "C", "categoryCode": "01", "address": "45625 SOUTH SUMAS RD", "city": "CHILLIWACK", "province": "BC", "country": "CA", "postalCode": "V2R4M7", "twitter": "None", "instagram": "None", "facebook": "None", "youtube": "None", "website": "None", "summary": "None", "logo": "None", "latitude": 49.11843051875454, "longitude": -121.96176325145709}, "890969975RR0001": {"name": "SARDIS FELLOWSHIP BAPTIST CHURCH", "designationCode": "C", "categoryCode": "31", "address": "45187 WELLS ROAD", "city": "CHILLIWACK", "province": "BC", "country": "CA", "postalCode": "V2R1H6", "twitter": "None", "instagram": "None", "facebook": "None", "youtube": "None", "website": "None", "summary": "None", "logo": "None", "latitude": 49.13492334899252, "longitude": -121.97439008312784}, "131797656RR0001": {"name": "SARGENT AVENUE MENNONITE CHURCH", "designationCode": "C", "categoryCode": "34", "address": "926 GARFIELD ST N", "city": "WINNIPEG", "province": "MB", "country": "CA", "postalCode": "R3E2N6", "twitter": "None", "instagram": "None", "facebook": "None", "youtube": "None", "website": "None", "summary": "None", "logo": "None", "latitude": 49.89738837829651, "longitude": -97.17623531476123}, "130378839RR0001": {"name": "SARNIA AND DISTRICT SOCIETY FOR PREVENTION OF CRUELTY TO ANIMALS", "designationCode": "C", "categoryCode": "54", "address": "131 EXMOUTH STREET", "city": "SARNIA", "province": "ON", "country": "CA", "postalCode": "N7T7W8", "twitter": "None", "instagram": "None", "facebook": "None", "youtube": "None", "website": "None", "summary": "None", "logo": "None", "latitude": 42.98559588564133, "longitude": -82.40504238564131}, "891469264RR0001": {"name": "SARNIA CENTRAL ATHLETICS CORPORATION", "designationCode": "C", "categoryCode": "56", "address": "311 VIDAL STREET NORTH", "city": "SARNIA", "province": "ON", "country": "CA", "postalCode": "N7T5Y7", "twitter": "None", "instagram": "None", "facebook": "None", "youtube": "None", "website": "None", "summary": "None", "logo": "None", "latitude": 42.97750178788875, "longitude": -82.40343291157511}, "882951510RR0001": {"name": "SARNIA CHRISTIAN FELLOWSHIP", "designationCode": "C", "categoryCode": "39", "address": "180 STUART STREET", "city": "SARNIA", "province": "ON", "country": "CA", "postalCode": "N7T3B3", "twitter": "None", "instagram": "None", "facebook": "None", "youtube": "None", "website": "None", "summary": "None", "logo": "None", "latitude": 42.96800347329299, "longitude": -82.3999014842118}, "891516734RR0001": {"name": "SARNIA CHURCH OF CHRIST, INC.", "designationCode": "C", "categoryCode": "39", "address": "796 ERROL RD E", "city": "SARNIA", "province": "ON", "country": "CA", "postalCode": "N7V2G7", "twitter": "None", "instagram": "None", "facebook": "None", "youtube": "None", "website": "None", "summary": "None", "logo": "None", "latitude": 42.99895616166828, "longitude": -82.38234833429908}, "119227452RR0001": {"name": "SARNIA COMMUNITY FOUNDATION", "designationCode": "A", "categoryCode": "59", "address": "SUITE 110 560 EXMOUTH STREET", "city": "SARNIA", "province": "ON", "country": "CA", "postalCode": "N7T5P5", "twitter": "None", "instagram": "None", "facebook": "None", "youtube": "None", "website": "None", "summary": "None", "logo": "None", "latitude": 42.985373606760575, "longitude": -82.38675905026827}, "119139376RR0001": {"name": "SARNIA CONCERT ASSOCIATION", "designationCode": "C", "categoryCode": "22", "address": "P O BOX 2777 STN MAIN", "city": "SARNIA", "province": "ON", "country": "CA", "postalCode": "N7T7W1", "twitter": "None", "instagram": "None", "facebook": "None", "youtube": "None", "website": "None", "summary": "None", "logo": "None", "latitude": 42.97877700000005, "longitude": -82.40368399999993}, "895337624RR0001": {"name": "SARNIA FIRST RESPONDERS INC.", "designationCode": "C", "categoryCode": "59", "address": "PO BOX 65", "city": "CHAMBERLAIN", "province": "SK", "country": "CA", "postalCode": "S0G0R0", "twitter": "None", "instagram": "None", "facebook": "None", "youtube": "None", "website": "None", "summary": "None", "logo": "None", "latitude": 50.635021481049044, "longitude": -104.25271035618137}, "134593979RR0001": {"name": "SARNIA GOSPEL HALL", "designationCode": "C", "categoryCode": "39", "address": "315 TAWNY RD.", "city": "SARNIA", "province": "ON", "country": "CA", "postalCode": "N7S5K1", "twitter": "None", "instagram": "None", "facebook": "None", "youtube": "None", "website": "None", "summary": "None", "logo": "None", "latitude": 43.0075249690134, "longitude": -82.35647468321658}, "892373044RR0001": {"name": "SARNIA HINDU SOCIETY", "designationCode": "C", "categoryCode": "48", "address": "1238 MICHIGAN AVENUE", "city": "SARNIA", "province": "ON", "country": "CA", "postalCode": "N7S3Y2", "twitter": "None", "instagram": "None", "facebook": "None", "youtube": "None", "website": "None", "summary": "None", "logo": "None", "latitude": 42.999951768346676, "longitude": -82.36274153061287}, "119139442RR0001": {"name": "SARNIA HISTORICAL SOCIETY", "designationCode": "C", "categoryCode": "50", "address": "247 CASSANDRA BLVD", "city": "SARNIA", "province": "ON", "country": "CA", "postalCode": "N7S0A3", "twitter": "None", "instagram": "None", "facebook": "None", "youtube": "None", "website": "None", "summary": "None", "logo": "None", "latitude": 42.97036147445377, "longitude": -82.34661534753843}, "119139459RR0001": {"name": "SARNIA KIWANIS FOUNDATION INC.", "designationCode": "C", "categoryCode": "56", "address": "180 NORTH COLLEGE AVE", "city": "SARNIA", "province": "ON", "country": "CA", "postalCode": "N7T7X2", "twitter": "None", "instagram": "None", "facebook": "None", "youtube": "None", "website": "None", "summary": "None", "logo": "None", "latitude": 42.973371251778005, "longitude": -82.40163114196127}, "129697991RR0001": {"name": "SARNIA LAMBTON ADULT LEARNING SUPPORT SERVICES", "designationCode": "C", "categoryCode": "20", "address": "1353 DALEY AVE", "city": "SARNIA", "province": "ON", "country": "CA", "postalCode": "N7S5E6", "twitter": "None", "instagram": "None", "facebook": "None", "youtube": "None", "website": "None", "summary": "None", "logo": "None", "latitude": 43.01261285732982, "longitude": -82.35340302868246}, "119139475RR0001": {"name": "SARNIA LAMBTON SPORTS HALL OF FAME", "designationCode": "C", "categoryCode": "50", "address": "P.O. BOX 503", "city": "SARNIA", "province": "ON", "country": "CA", "postalCode": "N7T7J4", "twitter": "None", "instagram": "None", "facebook": "None", "youtube": "None", "website": "None", "summary": "None", "logo": "None", "latitude": 42.97877700000005, "longitude": -82.40368399999993}, "854805207RR0001": {"name": "SARNIA LAMBTON TASKFORCE ON HEALTHCARE WORKER RECRUITMENT", "designationCode": "C", "categoryCode": "59", "address": "556 CHRISTINA ST N", "city": "SARNIA", "province": "ON", "country": "CA", "postalCode": "N7T5W6", "twitter": "None", "instagram": "None", "facebook": "None", "youtube": "None", "website": "None", "summary": "None", "logo": "None", "latitude": 42.98383086802943, "longitude": -82.40088494987931}, "134630250RR0001": {"name": "SARNIA LAMBTON WHITE CANE CLUB", "designationCode": "C", "categoryCode": "11", "address": "PO BOX 2323                   207 NORTH CHRISTINA ST", "city": "SARNIA", "province": "ON", "country": "CA", "postalCode": "N7T1S6", "twitter": "None", "instagram": "None", "facebook": "None", "youtube": "None", "website": "None", "summary": "None", "logo": "None", "latitude": 42.97370470721233, "longitude": -82.40692717092534}, "896925013RR0001": {"name": "SARNIA LIGHTHOUSE COMMUNITY CHURCH", "designationCode": "C", "categoryCode": "36", "address": "152 PARKER ST", "city": "SARNIA", "province": "ON", "country": "CA", "postalCode": "N7T6G1", "twitter": "None", "instagram": "None", "facebook": "None", "youtube": "None", "website": "None", "summary": "None", "logo": "None", "latitude": 42.98283988650071, "longitude": -82.39810008570211}}