{"853501088RR0001": {"name": "EXPLOITS VALLEY HIGH FOUNDATION", "designationCode": "C", "categoryCode": "21", "address": "392 CORENFELL HEIGHTS", "city": "CORAND FALLS-WINDSOR", "province": "NL", "country": "CA", "postalCode": "A2A2J2", "twitter": "None", "instagram": "None", "facebook": "None", "youtube": "None", "website": "None", "summary": "None", "logo": "None", "latitude": 48.95033100000006, "longitude": -55.61989099999994}, "892395989RR0001": {"name": "EXPLOITS VALLEY S P C A", "designationCode": "C", "categoryCode": "54", "address": "13A DUGGAN STREET", "city": "GRAND FALLS - WINDSOR", "province": "NL", "country": "CA", "postalCode": "A2A2K7", "twitter": "None", "instagram": "None", "facebook": "None", "youtube": "None", "website": "None", "summary": "None", "logo": "None", "latitude": 48.94823964663634, "longitude": -55.65932763872551}, "142432186RR0001": {"name": "EXPLORATIONS, UN PROJET DE MCGILL POUR LES ETUDIANTS DOUES ET TALENTUEUX INC", "designationCode": "C", "categoryCode": "20", "address": "3700, RUE MCTAVISH            ROOM B-161", "city": "MONTREAL", "province": "QC", "country": "CA", "postalCode": "H3A1Y2", "twitter": "None", "instagram": "None", "facebook": "None", "youtube": "None", "website": "None", "summary": "None", "logo": "None", "latitude": 45.50413701220502, "longitude": -73.5788358537422}, "119813574RR0001": {"name": "EXPLORER'S CHILDREN'S CENTRE INC", "designationCode": "C", "categoryCode": "20", "address": "1466 WILLIAM AVE W", "city": "WINNIPEG", "province": "MB", "country": "CA", "postalCode": "R3E1A5", "twitter": "None", "instagram": "None", "facebook": "None", "youtube": "None", "website": "None", "summary": "None", "logo": "None", "latitude": 49.91507810462241, "longitude": -97.18875929768011}, "133593871RR0001": {"name": "EXPLOS-NATURE", "designationCode": "C", "categoryCode": "21", "address": "302, RUE DE LA RIVIERE,       C.P. 129", "city": "LES BERGERONNES", "province": "QC", "country": "CA", "postalCode": "G0T1G0", "twitter": "None", "instagram": "None", "facebook": "None", "youtube": "None", "website": "None", "summary": "None", "logo": "None", "latitude": 48.244786680535576, "longitude": -69.54660011483593}, "734301096RR0001": {"name": "EXPLOSION GOSPEL ESTRIE", "designationCode": "B", "categoryCode": "22", "address": "5261 112 RTE", "city": "ASCOT CORNER", "province": "QC", "country": "CA", "postalCode": "J0B1A0", "twitter": "None", "instagram": "None", "facebook": "None", "youtube": "None", "website": "None", "summary": "None", "logo": "None", "latitude": 45.44188716744681, "longitude": -71.78097598480272}, "891357642RR0001": {"name": "EXPO-SCIENCES M\u00c9TROPOLITAINE DE MONTR\u00c9AL/MONTR\u00c9AL REGIONAL SCIENCE FAIR", "designationCode": "C", "categoryCode": "21", "address": "4105 FREMONT", "city": "LAVAL", "province": "QC", "country": "CA", "postalCode": "H7T1T6", "twitter": "None", "instagram": "None", "facebook": "None", "youtube": "None", "website": "None", "summary": "None", "logo": "None", "latitude": 45.55499570719599, "longitude": -73.7705257840901}, "891622664RR0001": {"name": "EXPORT DEVELOPMENT CANADA EMPLOYEE CHARITY TRUST", "designationCode": "B", "categoryCode": "75", "address": "150 SLATER STREET", "city": "OTTAWA", "province": "ON", "country": "CA", "postalCode": "K1A1K3", "twitter": "None", "instagram": "None", "facebook": "None", "youtube": "None", "website": "None", "summary": "None", "logo": "None", "latitude": 45.420329613596095, "longitude": -75.69739164954734}, "137422945RR0001": {"name": "EXPRESSION LASALLE CENTRE COMMUNAUTAIRE EN SANTE MENTALE", "designationCode": "C", "categoryCode": "09", "address": "210-405 TERRASSE NEWMAN", "city": "LASALLE", "province": "QC", "country": "CA", "postalCode": "H8R2Y9", "twitter": "None", "instagram": "None", "facebook": "None", "youtube": "None", "website": "None", "summary": "None", "logo": "None", "latitude": 45.43056607660568, "longitude": -73.6365372650471}, "133247858RR0001": {"name": "EXPRESSION, CENTRE D'EXPOSITION DE ST-HYACINTHE INC.", "designationCode": "C", "categoryCode": "22", "address": "495 ST-SIMON", "city": "ST-HYACINTHE", "province": "QC", "country": "CA", "postalCode": "J2S5C3", "twitter": "None", "instagram": "None", "facebook": "None", "youtube": "None", "website": "None", "summary": "None", "logo": "None", "latitude": 45.62459856480468, "longitude": -72.94547903220032}, "867049645RR0001": {"name": "EXPRESSWAY FAMILY CENTRE INC.", "designationCode": "C", "categoryCode": "59", "address": "BOX 428", "city": "OXBOW", "province": "SK", "country": "CA", "postalCode": "S0C2B0", "twitter": "None", "instagram": "None", "facebook": "None", "youtube": "None", "website": "None", "summary": "None", "logo": "None", "latitude": 49.23346331645773, "longitude": -102.17827573496838}, "891700841RR0001": {"name": "EXSHAW LIBRARY SOCIETY", "designationCode": "C", "categoryCode": "50", "address": "PO BOX 157                    #2 HEART MTN DRIVE", "city": "EXSHAW", "province": "AB", "country": "CA", "postalCode": "T0L2C0", "twitter": "None", "instagram": "None", "facebook": "None", "youtube": "None", "website": "None", "summary": "None", "logo": "None", "latitude": 51.062140581741566, "longitude": -115.15440451693688}, "118904846RR0001": {"name": "EXTEND-A-FAMILY", "designationCode": "C", "categoryCode": "09", "address": "3300 YONGE STREET             SUITE 200", "city": "TORONTO", "province": "ON", "country": "CA", "postalCode": "M4N2L6", "twitter": "None", "instagram": "None", "facebook": "None", "youtube": "None", "website": "None", "summary": "None", "logo": "None", "latitude": 43.73059056841135, "longitude": -79.40367870416623}, "137805685RR0001": {"name": "EXTEND-A-FAMILY (CANADA)", "designationCode": "C", "categoryCode": "01", "address": "806 VERNON SREET", "city": "WHITBY", "province": "ON", "country": "CA", "postalCode": "L1N3C8", "twitter": "None", "instagram": "None", "facebook": "None", "youtube": "None", "website": "None", "summary": "None", "logo": "None", "latitude": 43.887623132407995, "longitude": -78.95538979032251}, "107357212RR0001": {"name": "EXTEND-A-FAMILY (KINGSTON)", "designationCode": "C", "categoryCode": "09", "address": "24 ADVANCE AVE", "city": "NAPANEE", "province": "ON", "country": "CA", "postalCode": "K7R3Y6", "twitter": "None", "instagram": "None", "facebook": "None", "youtube": "None", "website": "None", "summary": "None", "logo": "None", "latitude": 44.25540353802469, "longitude": -76.95720089745801}, "886096544RR0001": {"name": "EXTENDED HANDS MINISTRIES", "designationCode": "C", "categoryCode": "47", "address": "20 LOUISE ST", "city": "WEST PINE RIDGE", "province": "MB", "country": "CA", "postalCode": "R1C0H3", "twitter": "None", "instagram": "None", "facebook": "None", "youtube": "None", "website": "None", "summary": "None", "logo": "None", "latitude": 50.002613693495746, "longitude": -96.95038205736353}, "887920247RR0001": {"name": "EXTENDICARE/PORT STANLEY WOMAN'S AUXILIARY", "designationCode": "C", "categoryCode": "19", "address": "7542 BURWELL RD. R.R.#1", "city": "FINGAL", "province": "ON", "country": "CA", "postalCode": "N0L1K0", "twitter": "None", "instagram": "None", "facebook": "None", "youtube": "None", "website": "None", "summary": "None", "logo": "None", "latitude": 42.69442099229571, "longitude": -81.32179313742922}, "860671734RR0001": {"name": "EXTERNAT MONT-JESUS-MARIE", "designationCode": "C", "categoryCode": "20", "address": "2755 CHEMIN COTE STE-CATHERINE", "city": "MONTREAL", "province": "QC", "country": "CA", "postalCode": "H3T1B5", "twitter": "None", "instagram": "None", "facebook": "None", "youtube": "None", "website": "None", "summary": "None", "logo": "None", "latitude": 45.50616751536253, "longitude": -73.62075300129021}, "118904903RR0001": {"name": "EXTERNAT SACRE-COEUR", "designationCode": "C", "categoryCode": "20", "address": "535 RUE LEFRANCOIS", "city": "ROSEMERE", "province": "QC", "country": "CA", "postalCode": "J7A4R5", "twitter": "None", "instagram": "None", "facebook": "None", "youtube": "None", "website": "None", "summary": "None", "logo": "None", "latitude": 45.65224734407867, "longitude": -73.78672564516259}, "119088821RR0001": {"name": "EXTERNAT SAINT-COEUR DE MARIE", "designationCode": "C", "categoryCode": "20", "address": "30, AVENUE DES CASCADES", "city": "BEAUPORT", "province": "QC", "country": "CA", "postalCode": "G1E2J8", "twitter": "None", "instagram": "None", "facebook": "None", "youtube": "None", "website": "None", "summary": "None", "logo": "None", "latitude": 46.86371086427381, "longitude": -71.20026688856827}, "107357352RR0001": {"name": "EXTERNAT ST-JEAN EUDES", "designationCode": "C", "categoryCode": "20", "address": "650 AV BOURG-ROYAL", "city": "CHARLESBOURG", "province": "QC", "country": "CA", "postalCode": "G2L1M8", "twitter": "None", "instagram": "None", "facebook": "None", "youtube": "None", "website": "None", "summary": "None", "logo": "None", "latitude": 46.876831175976605, "longitude": -71.24378719813629}, "886740802RR0001": {"name": "EXTREME DREAM MINISTRIES SOCIETY", "designationCode": "C", "categoryCode": "49", "address": "7929 CORONET RD NW", "city": "EDMONTON", "province": "AB", "country": "CA", "postalCode": "T6E4N7", "twitter": "None", "instagram": "None", "facebook": "None", "youtube": "None", "website": "None", "summary": "None", "logo": "None", "latitude": 53.50502366134833, "longitude": -113.4467407876108}, "834443327RR0001": {"name": "EXTREME RESPONSE CANADA", "designationCode": "C", "categoryCode": "09", "address": "49 VIRGINIA AVE", "city": "SIMCOE", "province": "ON", "country": "CA", "postalCode": "N3Y5M3", "twitter": "None", "instagram": "None", "facebook": "None", "youtube": "None", "website": "None", "summary": "None", "logo": "None", "latitude": 42.83225238219163, "longitude": -80.32320135302106}, "892897166RR0001": {"name": "EYA ENVIRONMENTAL YOUTH ALLIANCE SOCIETY", "designationCode": "C", "categoryCode": "59", "address": "500 - 610 MAIN ST", "city": "VANCOUVER", "province": "BC", "country": "CA", "postalCode": "V6A2V3", "twitter": "None", "instagram": "None", "facebook": "None", "youtube": "None", "website": "None", "summary": "None", "logo": "None", "latitude": 49.279329707163114, "longitude": -123.09969365930993}, "870088358RR0001": {"name": "EYAA-KEEN CENTRE INC", "designationCode": "C", "categoryCode": "11", "address": "547 NOTRE DAME AVE", "city": "WINNIPEG", "province": "MB", "country": "CA", "postalCode": "R3B1S2", "twitter": "None", "instagram": "None", "facebook": "None", "youtube": "None", "website": "None", "summary": "None", "logo": "None", "latitude": 49.89974191369946, "longitude": -97.15381373506847}, "892361973RR0001": {"name": "EYE INSTITUTE OF TORONTO", "designationCode": "B", "categoryCode": "13", "address": "40 PRINCE ARTHUR AVE", "city": "TORONTO", "province": "ON", "country": "CA", "postalCode": "M5R1A9", "twitter": "None", "instagram": "None", "facebook": "None", "youtube": "None", "website": "None", "summary": "None", "logo": "None", "latitude": 43.66930720901366, "longitude": -79.3976672035893}, "118904952RR0001": {"name": "EYE LEVEL GALLERY SOCIETY", "designationCode": "C", "categoryCode": "22", "address": "101 - 5663 CORNWALLIS ST", "city": "HALIFAX", "province": "NS", "country": "CA", "postalCode": "B3K1B6", "twitter": "None", "instagram": "None", "facebook": "None", "youtube": "None", "website": "None", "summary": "None", "logo": "None", "latitude": 44.65117487650749, "longitude": -63.585858921893774}, "107357402RR0001": {"name": "EYEBROW FREE METHODIST CHURCH", "designationCode": "C", "categoryCode": "39", "address": "PO BOX 57", "city": "TUGASKE", "province": "SK", "country": "CA", "postalCode": "S0H4B0", "twitter": "None", "instagram": "None", "facebook": "None", "youtube": "None", "website": "None", "summary": "None", "logo": "None", "latitude": 50.866760000000056, "longitude": -106.28451999999999}, "888268646RR0001": {"name": "EYEBROW MENNONITE CHURCH", "designationCode": "C", "categoryCode": "34", "address": "BOX 75", "city": "EYEBROW", "province": "SK", "country": "CA", "postalCode": "S0H1L0", "twitter": "None", "instagram": "None", "facebook": "None", "youtube": "None", "website": "None", "summary": "None", "logo": "None", "latitude": 50.80265000000003, "longitude": -106.15014999999994}, "886426394RR0001": {"name": "EYEBROW SASKATCHEWAN HEALTH-CARE ASSOCIATION AUXILIARY", "designationCode": "A", "categoryCode": "13", "address": "PO BOX 74", "city": "EYEBROW", "province": "SK", "country": "CA", "postalCode": "S0H1L0", "twitter": "None", "instagram": "None", "facebook": "None", "youtube": "None", "website": "None", "summary": "None", "logo": "None", "latitude": 50.80265000000003, "longitude": -106.15014999999994}, "875009417RR0001": {"name": "EYEGO TO THE ARTS", "designationCode": "C", "categoryCode": "22", "address": "25 CAROLINE ST N", "city": "WATERLOO", "province": "ON", "country": "CA", "postalCode": "N2L2Y5", "twitter": "None", "instagram": "None", "facebook": "None", "youtube": "None", "website": "None", "summary": "None", "logo": "None", "latitude": 43.464898614749934, "longitude": -80.525703442466}, "895163608RR0001": {"name": "EYEOPENER LIONS FOUNDATION (ELF)", "designationCode": "A", "categoryCode": "63", "address": "40 COUGAR RIDGE LANDNG SW", "city": "CALGARY", "province": "AB", "country": "CA", "postalCode": "T3H0X8", "twitter": "None", "instagram": "None", "facebook": "None", "youtube": "None", "website": "None", "summary": "None", "logo": "None", "latitude": 51.068405807663446, "longitude": -114.20106200663643}, "892923848RR0001": {"name": "EYESIGHT INTERNATIONAL (CANADA)", "designationCode": "C", "categoryCode": "11", "address": "1603-805 WEST BROADWAY AVE", "city": "VANCOUVER", "province": "BC", "country": "CA", "postalCode": "V5Z1K1", "twitter": "None", "instagram": "None", "facebook": "None", "youtube": "None", "website": "None", "summary": "None", "logo": "None", "latitude": 49.263319731988446, "longitude": -123.12069631652113}, "889268645RR0001": {"name": "EZER LENESIUM", "designationCode": "C", "categoryCode": "09", "address": "5794 DEOM", "city": "MONTREAL", "province": "QC", "country": "CA", "postalCode": "H3S2N4", "twitter": "None", "instagram": "None", "facebook": "None", "youtube": "None", "website": "None", "summary": "None", "logo": "None", "latitude": 45.51057860364145, "longitude": -73.61914312297291}, "717987721RR0001": {"name": "EZRA Chaplaincy", "designationCode": "C", "categoryCode": "47", "address": "PO BOX 4057                   PEARLGATE PO", "city": "MOUNT PEARL", "province": "NL", "country": "CA", "postalCode": "A1N0A1", "twitter": "None", "instagram": "None", "facebook": "None", "youtube": "None", "website": "None", "summary": "None", "logo": "None", "latitude": 47.51892600000005, "longitude": -52.81489249999993}, "874852668RR0001": {"name": "EZRA MINISTRIES - LES MINISTERES D'ESDRAS", "designationCode": "C", "categoryCode": "39", "address": "1000 OLD SAMBRO ROAD", "city": "HARRIETSFIELD", "province": "NS", "country": "CA", "postalCode": "B3V1B1", "twitter": "None", "instagram": "None", "facebook": "None", "youtube": "None", "website": "None", "summary": "None", "logo": "None", "latitude": 44.57539174274318, "longitude": -63.63417992149068}, "894778083RR0001": {"name": "EZRAS ACHIM CONGREGATION OF BROTHERLY HELP", "designationCode": "C", "categoryCode": "42", "address": "6-4661 AV VAN HORNE", "city": "MONTREAL", "province": "QC", "country": "CA", "postalCode": "H3W1H8", "twitter": "None", "instagram": "None", "facebook": "None", "youtube": "None", "website": "None", "summary": "None", "logo": "None", "latitude": 45.495628731346216, "longitude": -73.63654647671514}, "118831783RR0001": {"name": "EZRAS CHOLIM ORGANIZATION", "designationCode": "C", "categoryCode": "11", "address": "335 BROOKE AVENUE", "city": "TORONTO", "province": "ON", "country": "CA", "postalCode": "M5M2L4", "twitter": "None", "instagram": "None", "facebook": "None", "youtube": "None", "website": "None", "summary": "None", "logo": "None", "latitude": 43.731671878700524, "longitude": -79.42629492117263}, "887644664RR0001": {"name": "EZRAS MENACHEM AVROHOM LOAN FUND", "designationCode": "C", "categoryCode": "21", "address": "5331 HUTCHISON AVENUE", "city": "MONTREAL", "province": "QC", "country": "CA", "postalCode": "H2V4B4", "twitter": "None", "instagram": "None", "facebook": "None", "youtube": "None", "website": "None", "summary": "None", "logo": "None", "latitude": 45.5204641737549, "longitude": -73.60035860101571}, "118904986RR0001": {"name": "EZRAS NOSHIM MATTAN BASAISSER", "designationCode": "C", "categoryCode": "09", "address": "5263 AV DUROCHER", "city": "OUTREMONT", "province": "QC", "country": "CA", "postalCode": "H2V3X9", "twitter": "None", "instagram": "None", "facebook": "None", "youtube": "None", "website": "None", "summary": "None", "logo": "None", "latitude": 45.51928322482536, "longitude": -73.59979168483474}, "138620604RR0001": {"name": "EZRAS PLEITIM CANADIAN ASSOCIATION", "designationCode": "C", "categoryCode": "39", "address": "50 BRISBANE RD", "city": "DOWNSVIEW", "province": "ON", "country": "CA", "postalCode": "M3J2K2", "twitter": "None", "instagram": "None", "facebook": "None", "youtube": "None", "website": "None", "summary": "None", "logo": "None", "latitude": 43.77196112245333, "longitude": -79.47367805386907}, "130080450RR0001": {"name": "EZRAT ISRAEL CHARITABLE FOUNDATION", "designationCode": "C", "categoryCode": "21", "address": "4891 KENT AVENUE", "city": "MONTREAL", "province": "QC", "country": "CA", "postalCode": "H3W1H4", "twitter": "None", "instagram": "None", "facebook": "None", "youtube": "None", "website": "None", "summary": "None", "logo": "None", "latitude": 45.493387647527186, "longitude": -73.63992817710178}, "118905009RR0001": {"name": "EZRAT MEHABRIM", "designationCode": "C", "categoryCode": "21", "address": "70 CHARLTON BLVD", "city": "TORONTO", "province": "ON", "country": "CA", "postalCode": "M2M1B9", "twitter": "None", "instagram": "None", "facebook": "None", "youtube": "None", "website": "None", "summary": "None", "logo": "None", "latitude": 43.78199311798127, "longitude": -79.42948861547109}, "118904994RR0001": {"name": "EZRATH TORAH FUND", "designationCode": "C", "categoryCode": "09", "address": "6825 DECARIE BLVD", "city": "MONTREAL", "province": "QC", "country": "CA", "postalCode": "H3W3E4", "twitter": "None", "instagram": "None", "facebook": "None", "youtube": "None", "website": "None", "summary": "None", "logo": "None", "latitude": 45.49227445464238, "longitude": -73.64790943101171}, "800451791RR0001": {"name": "E2 Society for Twice-Exceptional Learners", "designationCode": "C", "categoryCode": "20", "address": "4115 RAMSAY CRES NW", "city": "EDMONTON", "province": "AB", "country": "CA", "postalCode": "T6H5M9", "twitter": "None", "instagram": "None", "facebook": "None", "youtube": "None", "website": "None", "summary": "None", "logo": "None", "latitude": 53.47788796805949, "longitude": -113.58382611936624}, "106954480RR0001": {"name": "E3 (EDUCATE, ENABLE, EMPOWER) COMMUNITY SERVICES INC.", "designationCode": "C", "categoryCode": "11", "address": "100 PRETTY RIVER PKY NORTH", "city": "COLLINGWOOD", "province": "ON", "country": "CA", "postalCode": "L9Y4X2", "twitter": "None", "instagram": "None", "facebook": "None", "youtube": "None", "website": "None", "summary": "None", "logo": "None", "latitude": 44.50664178831602, "longitude": -80.206023551652}, "889542262RR0001": {"name": "F & CS EMPLOYEES CHARITY FUND INC", "designationCode": "C", "categoryCode": "75", "address": "1680 OXFORD ST E              P O BOX 7010 DEPOT #1", "city": "LONDON", "province": "ON", "country": "CA", "postalCode": "N5Y5R8", "twitter": "None", "instagram": "None", "facebook": "None", "youtube": "None", "website": "None", "summary": "None", "logo": "None", "latitude": 43.003007506141316, "longitude": -81.22754564619565}, "869759977RR0001": {"name": "F & E STRUMPSKI FOUNDATION", "designationCode": "B", "categoryCode": "03", "address": "32575 SIMON AVENUE", "city": "ABBOTSFORD", "province": "BC", "country": "CA", "postalCode": "V2T4W6", "twitter": "None", "instagram": "None", "facebook": "None", "youtube": "None", "website": "None", "summary": "None", "logo": "None", "latitude": 49.05339944214889, "longitude": -122.32208155689884}, "879879229RR0001": {"name": "F A I R (CANADA)", "designationCode": "C", "categoryCode": "23", "address": "619 ECHO DRIVE", "city": "OTTAWA", "province": "ON", "country": "CA", "postalCode": "K1S1P1", "twitter": "None", "instagram": "None", "facebook": "None", "youtube": "None", "website": "None", "summary": "None", "logo": "None", "latitude": 45.401785867620674, "longitude": -75.67862850732892}, "141676346RR0001": {"name": "F A I R E (FAMILLES D'APPUI ET INTERVENTION POUR UN RESEAU D'ENTRAIDE)", "designationCode": "C", "categoryCode": "09", "address": "216 - 1800 RUE SAINT-PAUL", "city": "TROIS-RIVIERES", "province": "QC", "country": "CA", "postalCode": "G9A1J7", "twitter": "None", "instagram": "None", "facebook": "None", "youtube": "None", "website": "None", "summary": "None", "logo": "None", "latitude": 46.35766314767143, "longitude": -72.54947296860773}, "140388281RR0001": {"name": "F A M E CANADA INC", "designationCode": "C", "categoryCode": "39", "address": "P.O BOX 1347                  107 WALKER AVENUE", "city": "SUMMERSIDE", "province": "PE", "country": "CA", "postalCode": "C1N4K2", "twitter": "None", "instagram": "None", "facebook": "None", "youtube": "None", "website": "None", "summary": "None", "logo": "None", "latitude": 46.41539390694305, "longitude": -63.783683033543475}, "868336173RR0001": {"name": "F A S T FAMILY ADOLESCENT STRAIGHT TALK INC", "designationCode": "C", "categoryCode": "11", "address": "33 DEBORA DR", "city": "GRIMSBY", "province": "ON", "country": "CA", "postalCode": "L3M4J1", "twitter": "None", "instagram": "None", "facebook": "None", "youtube": "None", "website": "None", "summary": "None", "logo": "None", "latitude": 43.1915193377863, "longitude": -79.55170736736088}, "890939440RR0001": {"name": "F C JONES FOUNDATION FUND", "designationCode": "B", "categoryCode": "15", "address": "380 WELLINGTON ST 12TH FLOOR", "city": "LONDON", "province": "ON", "country": "CA", "postalCode": "N6A5B5", "twitter": "None", "instagram": "None", "facebook": "None", "youtube": "None", "website": "None", "summary": "None", "logo": "None", "latitude": 42.98403487844074, "longitude": -81.24475227780037}, "891383341RR0001": {"name": "F C S FOOD ON THE CORNER SOCIETY", "designationCode": "C", "categoryCode": "09", "address": "P.O. BOX 19053                1153-56 ST", "city": "DELTA", "province": "BC", "country": "CA", "postalCode": "V4L2P8", "twitter": "None", "instagram": "None", "facebook": "None", "youtube": "None", "website": "None", "summary": "None", "logo": "None", "latitude": 49.023807104694626, "longitude": -123.06882928791019}, "886223254RR0001": {"name": "F O C U S FOR LIFE-THREATENING ILLNESSES SOCIETY", "designationCode": "C", "categoryCode": "59", "address": "296 MARIGOLD RD", "city": "KELOWNA", "province": "BC", "country": "CA", "postalCode": "V1V1P5", "twitter": "None", "instagram": "None", "facebook": "None", "youtube": "None", "website": "None", "summary": "None", "logo": "None", "latitude": 49.91812127589579, "longitude": -119.43792839381973}, "865364210RR0001": {"name": "F. J. DAVEY HOME", "designationCode": "C", "categoryCode": "09", "address": "733 THIRD LINE E", "city": "SAULT STE. MARIE", "province": "ON", "country": "CA", "postalCode": "P6A7C1", "twitter": "None", "instagram": "None", "facebook": "None", "youtube": "None", "website": "None", "summary": "None", "logo": "None", "latitude": 46.55300305510468, "longitude": -84.31364021947935}, "870991718RR0001": {"name": "F. J. DAVEY HOME FOUNDATION", "designationCode": "A", "categoryCode": "13", "address": "733 THIRD LINE EAST", "city": "SAULT STE. MARIE", "province": "ON", "country": "CA", "postalCode": "P6A7C1", "twitter": "None", "instagram": "None", "facebook": "None", "youtube": "None", "website": "None", "summary": "None", "logo": "None", "latitude": 46.55300305510468, "longitude": -84.31364021947935}, "819263633RR0001": {"name": "F.A.C.E. Free African Children Thru Education", "designationCode": "C", "categoryCode": "25", "address": "184 WEST CREEK CLOSE", "city": "CHESTERMERE", "province": "AB", "country": "CA", "postalCode": "T1X1M3", "twitter": "None", "instagram": "None", "facebook": "None", "youtube": "None", "website": "None", "summary": "None", "logo": "None", "latitude": 51.03464426227715, "longitude": -113.8311471295807}, "118910561RR0001": {"name": "F.A.C.L. FOUNDATION FOR THE ADVANCEMENT OF CANADIAN LETTERS", "designationCode": "C", "categoryCode": "22", "address": "1319 WATERSIDE WAY", "city": "KINGSTON", "province": "ON", "country": "CA", "postalCode": "K7K7J8", "twitter": "None", "instagram": "None", "facebook": "None", "youtube": "None", "website": "None", "summary": "None", "logo": "None", "latitude": 44.2737402650471, "longitude": -76.4523215785389}, "871897427RR0001": {"name": "F.A.F.P. FEDERATION OF ABORIGINAL FOSTER PARENTS", "designationCode": "C", "categoryCode": "01", "address": "3455 KASLO ST.", "city": "VANCOUVER", "province": "BC", "country": "CA", "postalCode": "V5M3H4", "twitter": "None", "instagram": "None", "facebook": "None", "youtube": "None", "website": "None", "summary": "None", "logo": "None", "latitude": 49.25353020511343, "longitude": -123.04711748803187}, "818033961RR0001": {"name": "F.C. Li Family Foundation", "designationCode": "B", "categoryCode": "03", "address": "2839 29TH W AVE", "city": "VANCOUVER", "province": "BC", "country": "CA", "postalCode": "V6L1Y2", "twitter": "None", "instagram": "None", "facebook": "None", "youtube": "None", "website": "None", "summary": "None", "logo": "None", "latitude": 49.24614051875455, "longitude": -123.16907152553523}, "107377574RR0001": {"name": "F.C.E. FONDATION POUR LA CULTURE ET L'EDUCATION/F.C.E. FOUNDATION CULTURE EDUCATION", "designationCode": "C", "categoryCode": "29", "address": "630 RUE SHERBROOKE.O.SUITE 400", "city": "MONTREAL", "province": "QC", "country": "CA", "postalCode": "H3A1E4", "twitter": "None", "instagram": "None", "facebook": "None", "youtube": "None", "website": "None", "summary": "None", "logo": "None", "latitude": 45.505404, "longitude": -73.5724035}, "821622289RR0001": {"name": "F.E.A.T.(Fostering, Empowering, Advocating, Together) for Children of Incarcerated Parents", "designationCode": "C", "categoryCode": "09", "address": "432 HORNER AVE", "city": "ETOBICOKE", "province": "ON", "country": "CA", "postalCode": "M8W2B2", "twitter": "None", "instagram": "None", "facebook": "None", "youtube": "None", "website": "None", "summary": "None", "logo": "None", "latitude": 43.60336613630311, "longitude": -79.5378698057302}, "118914597RR0001": {"name": "F.E.R.: FRIENDS OF ECOLOGICAL RESERVES SOCIETY", "designationCode": "C", "categoryCode": "54", "address": "BOX 8477", "city": "VICTORIA", "province": "BC", "country": "CA", "postalCode": "V8W3S1", "twitter": "None", "instagram": "None", "facebook": "None", "youtube": "None", "website": "None", "summary": "None", "logo": "None", "latitude": 48.42854700000005, "longitude": -123.36445249999994}, "815109475RR0001": {"name": "F.I.S.H.E.R.S. INTERNATIONAL MINISTRIES", "designationCode": "C", "categoryCode": "47", "address": "2601 SPURAWAY AVENUE", "city": "COQUITLAM", "province": "BC", "country": "CA", "postalCode": "V3C2C4", "twitter": "None", "instagram": "None", "facebook": "None", "youtube": "None", "website": "None", "summary": "None", "logo": "None", "latitude": 49.26318647547438, "longitude": -122.81674427699232}, "893809863RR0001": {"name": "F.J. CONNELL MUSIC SCHOLARSHIP TRUST", "designationCode": "C", "categoryCode": "22", "address": "139 HOCHELAGA ST. W.", "city": "MOOSE JAW", "province": "SK", "country": "CA", "postalCode": "S6H2G2", "twitter": "None", "instagram": "None", "facebook": "None", "youtube": "None", "website": "None", "summary": "None", "logo": "None", "latitude": 50.396171836592686, "longitude": -105.53833179049678}, "101816197RR0001": {"name": "F.K. MORROW FOUNDATION", "designationCode": "B", "categoryCode": "03", "address": "101 THORNCLIFFE PARK DRIVE", "city": "TORONTO", "province": "ON", "country": "CA", "postalCode": "M4H1M2", "twitter": "None", "instagram": "None", "facebook": "None", "youtube": "None", "website": "None", "summary": "None", "logo": "None", "latitude": 43.70847745213221, "longitude": -79.34405100121208}, "882289762RR0001": {"name": "F.P. WALSHE FUND RAISING FOUNDATION", "designationCode": "C", "categoryCode": "21", "address": "1600-6 AVENUE                 FORT MACLEOD", "city": "T0L0Z0", "province": "AB", "country": "CA", "postalCode": "T0L0Z0", "twitter": "None", "instagram": "None", "facebook": "None", "youtube": "None", "website": "None", "summary": "None", "logo": "None", "latitude": 49.72455363716345, "longitude": -113.3975003982828}, "863549556RR0001": {"name": "F.P.S.S. FOSTER PARENT SUPPORT SERVICES SOCIETY", "designationCode": "C", "categoryCode": "09", "address": "735 GOLDSTREAM AVE            UNIT 145", "city": "VICTORIA", "province": "BC", "country": "CA", "postalCode": "V9B2X4", "twitter": "None", "instagram": "None", "facebook": "None", "youtube": "None", "website": "None", "summary": "None", "logo": "None", "latitude": 48.44813650539571, "longitude": -123.49745098808343}, "118930353RR0001": {"name": "F.P.W. VOLONTEER FIRE BRIGADE", "designationCode": "C", "categoryCode": "59", "address": "GENERAL DELIVERY", "city": "PORT GREVILLE", "province": "NS", "country": "CA", "postalCode": "B0M1T0", "twitter": "None", "instagram": "None", "facebook": "None", "youtube": "None", "website": "None", "summary": "None", "logo": "None", "latitude": 45.40786800000005, "longitude": -64.54948399999994}, "883448474RR0001": {"name": "F.R.O.N.T. Femmes regroup\u00e9es en options non traditionnelles", "designationCode": "C", "categoryCode": "20", "address": "3958 DANDURAND                BUREAU 22", "city": "MONTREAL", "province": "QC", "country": "CA", "postalCode": "H1X1P7", "twitter": "None", "instagram": "None", "facebook": "None", "youtube": "None", "website": "None", "summary": "None", "logo": "None", "latitude": 45.558357684978986, "longitude": -73.57218453661507}, "134758317RR0001": {"name": "F.W. FISHER FOUNDATION", "designationCode": "C", "categoryCode": "50", "address": "879-RR#1-SIXTH ST", "city": "COLLINGWOOD", "province": "ON", "country": "CA", "postalCode": "L9W3Y9", "twitter": "None", "instagram": "None", "facebook": "None", "youtube": "None", "website": "None", "summary": "None", "logo": "None", "latitude": 43.922805000000054, "longitude": -80.09103049999993}, "773366497RR0001": {"name": "F.W. Thompson Family Foundation", "designationCode": "B", "categoryCode": "03", "address": "115 BLYTHWOOD RD", "city": "TORONTO", "province": "ON", "country": "CA", "postalCode": "M4N1A5", "twitter": "None", "instagram": "None", "facebook": "None", "youtube": "None", "website": "None", "summary": "None", "logo": "None", "latitude": 43.71727279098635, "longitude": -79.39697715430785}, "848998068RR0001": {"name": "F\u00e9d\u00e9ration des lacs de Val des Monts", "designationCode": "C", "categoryCode": "52", "address": "668 CHEMIN VAL DU LAC", "city": "VAL DES MONTS", "province": "QC", "country": "CA", "postalCode": "J8N2N5", "twitter": "None", "instagram": "None", "facebook": "None", "youtube": "None", "website": "None", "summary": "None", "logo": "None", "latitude": 45.71202750929082, "longitude": -75.66630437191985}, "131221491RR0001": {"name": "F\u00e9d\u00e9ration des maisons d'h\u00e9bergement pour femmes", "designationCode": "B", "categoryCode": "09", "address": "2485, SHERBROOKE EST", "city": "MONTR\u00c9AL", "province": "QC", "country": "CA", "postalCode": "H2K1E8", "twitter": "None", "instagram": "None", "facebook": "None", "youtube": "None", "website": "None", "summary": "None", "logo": "None", "latitude": 45.535775363869774, "longitude": -73.56143482309976}, "101756112RR0001": {"name": "F\u00e9d\u00e9ration des parents du Manitoba Inc", "designationCode": "C", "categoryCode": "21", "address": "177 EUGENIE ST", "city": "WINNIPEG", "province": "MB", "country": "CA", "postalCode": "R2H0X9", "twitter": "None", "instagram": "None", "facebook": "None", "youtube": "None", "website": "None", "summary": "None", "logo": "None", "latitude": 49.879720486005965, "longitude": -97.12044338926077}, "119154110RR0001": {"name": "F\u00e9d\u00e9ration qu\u00e9b\u00e9coise de l'autisme/ Qu\u00e9bec Federation for Autism", "designationCode": "C", "categoryCode": "09", "address": "3396 RUE JEAN-TALON E", "city": "MONTREAL", "province": "QC", "country": "CA", "postalCode": "H2A1W8", "twitter": "None", "instagram": "None", "facebook": "None", "youtube": "None", "website": "None", "summary": "None", "logo": "None", "latitude": 45.56053528697566, "longitude": -73.59678794336097}, "831911748RR0001": {"name": "F\u00e9d\u00e9ration Mondiale des journalistes scientifiques / World Federation of Science Journalists", "designationCode": "C", "categoryCode": "21", "address": "33 - 1124 RUE MARIE-ANNE E", "city": "MONTREAL", "province": "QC", "country": "CA", "postalCode": "H2J2B7", "twitter": "None", "instagram": "None", "facebook": "None", "youtube": "None", "website": "None", "summary": "None", "logo": "None", "latitude": 45.527332060233675, "longitude": -73.57650222502875}, "801350166RR0001": {"name": "F\u00e9lins Parmi Nous", "designationCode": "C", "categoryCode": "54", "address": "9400 RANG STE-HENRIETTE #126", "city": "MIRABEL", "province": "QC", "country": "CA", "postalCode": "J7J0J2", "twitter": "None", "instagram": "None", "facebook": "None", "youtube": "None", "website": "None", "summary": "None", "logo": "None", "latitude": 45.645809050781985, "longitude": -73.94123741799864}, "132329848RR0001": {"name": "F\u00c9D\u00c9RATION DE LA FAMILLE RICHELIEU-YAMASKA", "designationCode": "C", "categoryCode": "09", "address": "1900 OUEST, GIROUARD          C.P. 190", "city": "SAINT-HYACINTHE", "province": "QC", "country": "CA", "postalCode": "J2S7B4", "twitter": "None", "instagram": "None", "facebook": "None", "youtube": "None", "website": "None", "summary": "None", "logo": "None", "latitude": 45.62391797590707, "longitude": -72.94864985033708}, "121136618RR0001": {"name": "F\u00c9D\u00c9RATION DES ASSOCIATIONS DE FAMILLES MONOPARENTALES ET RECOMPOS\u00c9ES DU QU\u00c9BEC", "designationCode": "C", "categoryCode": "09", "address": "584, RUE GUIZOT EST", "city": "MONTR\u00c9AL", "province": "QC", "country": "CA", "postalCode": "H2P1N3", "twitter": "None", "instagram": "None", "facebook": "None", "youtube": "None", "website": "None", "summary": "None", "logo": "None", "latitude": 45.545073548704536, "longitude": -73.63133488868384}, "106692320RR0001": {"name": "F\u00c9D\u00c9RATION DU MOUVEMENT ALBATROS DU QU\u00c9BEC", "designationCode": "C", "categoryCode": "09", "address": "2830, BOUL. DES FORGES", "city": "TROIS-RIVI\u00c8RES", "province": "QC", "country": "CA", "postalCode": "G8Z1V2", "twitter": "None", "instagram": "None", "facebook": "None", "youtube": "None", "website": "None", "summary": "None", "logo": "None", "latitude": 46.34785580549905, "longitude": -72.56851099746117}, "140797614RR0001": {"name": "F\u00c9D\u00c9RATION NOURRI-SOURCE", "designationCode": "C", "categoryCode": "19", "address": "CP 98033 PLACE \u00c9LITE", "city": "STE-TH\u00c9R\u00c8SE", "province": "QC", "country": "CA", "postalCode": "J7E5R4", "twitter": "None", "instagram": "None", "facebook": "None", "youtube": "None", "website": "None", "summary": "None", "logo": "None", "latitude": 45.640671000000054, "longitude": -73.84444099999993}, "860499938RR0001": {"name": "F\u00c9D\u00c9RATION QU\u00c9B\u00c9COISE D'\u00c9QUITATION TH\u00c9RAPEUTIQUE", "designationCode": "C", "categoryCode": "56", "address": "267 RTE PRINCIPALE", "city": "SAINT-RENE", "province": "QC", "country": "CA", "postalCode": "G0M1Z0", "twitter": "None", "instagram": "None", "facebook": "None", "youtube": "None", "website": "None", "summary": "None", "logo": "None", "latitude": 46.04936237607478, "longitude": -70.61553110779639}, "898946447RR0001": {"name": "F\u00c9D\u00c9RATION QU\u00c9B\u00c9COISE DES AMIS DE L'ORGUE (FQAO)", "designationCode": "C", "categoryCode": "22", "address": "1749 BOISVERT", "city": "LAVAL", "province": "QC", "country": "CA", "postalCode": "H7M2L1", "twitter": "None", "instagram": "None", "facebook": "None", "youtube": "None", "website": "None", "summary": "None", "logo": "None", "latitude": 45.59934810519932, "longitude": -73.72098065110521}, "107378762RR0001": {"name": "F\u00c9D\u00c9RATION QU\u00c9B\u00c9COISE DES ORGANISMES COMMUNAUTAIRES FAMILLE", "designationCode": "C", "categoryCode": "09", "address": "222 RUE VICTORIA", "city": "SAINT-LAMBERT", "province": "QC", "country": "CA", "postalCode": "J4P2H6", "twitter": "None", "instagram": "None", "facebook": "None", "youtube": "None", "website": "None", "summary": "None", "logo": "None", "latitude": 45.50309013962134, "longitude": -73.51678640285076}, "101756344RR0002": {"name": "F\u00c9D\u00c9RATION QU\u00c9B\u00c9COISE DU SCOUTISME", "designationCode": "C", "categoryCode": "29", "address": "7331 RUE SAINT-DENIS", "city": "MONTREAL", "province": "QC", "country": "CA", "postalCode": "H2R2E5", "twitter": "None", "instagram": "None", "facebook": "None", "youtube": "None", "website": "None", "summary": "None", "logo": "None", "latitude": 45.53926088816424, "longitude": -73.6174749822264}, "818138869RR0001": {"name": "Fa-Yi Chong-De Guang-Hui Association", "designationCode": "C", "categoryCode": "39", "address": "48 BOSWORTH ST", "city": "ANCASTER", "province": "ON", "country": "CA", "postalCode": "L9K1N9", "twitter": "None", "instagram": "None", "facebook": "None", "youtube": "None", "website": "None", "summary": "None", "logo": "None", "latitude": 43.21390869995396, "longitude": -79.95654721412087}, "107365819RR0001": {"name": "Fabrique de la paroisse Saint-Christophe de d'Alembert", "designationCode": "C", "categoryCode": "38", "address": "5085 RUE SAGUENAY", "city": "ROUYN NORANDA", "province": "QC", "country": "CA", "postalCode": "J9Y0B1", "twitter": "None", "instagram": "None", "facebook": "None", "youtube": "None", "website": "None", "summary": "None", "logo": "None", "latitude": 48.36129573411618, "longitude": -79.01662923333679}, "888482890RR0001": {"name": "Fabrique de la paroisse Saint-Colomban", "designationCode": "C", "categoryCode": "38", "address": "342 B MONTEE DE L'EGLISE", "city": "ST-COLOMBAN", "province": "QC", "country": "CA", "postalCode": "J0R1N0", "twitter": "None", "instagram": "None", "facebook": "None", "youtube": "None", "website": "None", "summary": "None", "logo": "None", "latitude": 45.793813500000006, "longitude": -74.17613700000001}, "890378649RR0001": {"name": "Fabrique de la Paroisse de Saint-Jean l'\u00c9vangeliste de McWatters", "designationCode": "C", "categoryCode": "38", "address": "3038, AVENUE LARIVI\u00c8RE", "city": "ROUYN-NORANDA", "province": "QC", "country": "CA", "postalCode": "J9Y0G8", "twitter": "None", "instagram": "None", "facebook": "None", "youtube": "None", "website": "None", "summary": "None", "logo": "None", "latitude": 48.21426550562684, "longitude": -78.91585119317328}, "130152838RR0001": {"name": "Fabrique de la Paroisse de Saint-Laurent-de-Charlevoix", "designationCode": "C", "categoryCode": "38", "address": "CP 250-353 ST-ETIENNE", "city": "LA MALBAIE", "province": "QC", "country": "CA", "postalCode": "G5A1T8", "twitter": "None", "instagram": "None", "facebook": "None", "youtube": "None", "website": "None", "summary": "None", "logo": "None", "latitude": 47.65481530339292, "longitude": -70.15056495276738}, "812165827RR0001": {"name": "Face of Today Foundation", "designationCode": "A", "categoryCode": "03", "address": "PO BOX 49130                  2900-595 BURRARD STREET", "city": "VANCOUVER", "province": "BC", "country": "CA", "postalCode": "V7X1J1", "twitter": "None", "instagram": "None", "facebook": "None", "youtube": "None", "website": "None", "summary": "None", "logo": "None", "latitude": 49.285749245109116, "longitude": -123.11912667060957}, "890881972RR0001": {"name": "Face the Future Foundation", "designationCode": "C", "categoryCode": "09", "address": "150 BLOOR STREET WEST M110", "city": "TORONTO", "province": "ON", "country": "CA", "postalCode": "M5S2X9", "twitter": "None", "instagram": "None", "facebook": "None", "youtube": "None", "website": "None", "summary": "None", "logo": "None", "latitude": 43.66889522012214, "longitude": -79.39337913809213}, "847385267RR0001": {"name": "Face to Face Ministries Society", "designationCode": "C", "categoryCode": "49", "address": "2585 HIGHFIELD CRES", "city": "ABBOTSFORD", "province": "BC", "country": "CA", "postalCode": "V2S4J3", "twitter": "None", "instagram": "None", "facebook": "None", "youtube": "None", "website": "None", "summary": "None", "logo": "None", "latitude": 49.04881880016161, "longitude": -122.27535339275187}, "858720295RR0001": {"name": "Face Sask. Inc.", "designationCode": "C", "categoryCode": "11", "address": "224 - 305 PINEHOUSE DR", "city": "SASKATOON", "province": "SK", "country": "CA", "postalCode": "S7K7Z4", "twitter": "None", "instagram": "None", "facebook": "None", "youtube": "None", "website": "None", "summary": "None", "logo": "None", "latitude": 52.168086611662865, "longitude": -106.62093509077259}, "828043489RR0001": {"name": "Face2Face Project Inc. / Projet Face\u00e0Face Inc.", "designationCode": "C", "categoryCode": "50", "address": "54 BRAE CRES", "city": "STITTSVILLE", "province": "ON", "country": "CA", "postalCode": "K2S1S8", "twitter": "None", "instagram": "None", "facebook": "None", "youtube": "None", "website": "None", "summary": "None", "logo": "None", "latitude": 45.250060914507536, "longitude": -75.92034142535623}, "826450173RR0001": {"name": "Facilitation Wellington Dufferin - Independent Support Services", "designationCode": "C", "categoryCode": "59", "address": "PO BOX 24045 RPO BULLFROG", "city": "GUELPH", "province": "ON", "country": "CA", "postalCode": "N1E6V8", "twitter": "None", "instagram": "None", "facebook": "None", "youtube": "None", "website": "None", "summary": "None", "logo": "None", "latitude": 43.54455300000005, "longitude": -80.24788249999993}, "821814019RR0001": {"name": "Facing History and Ourselves", "designationCode": "C", "categoryCode": "21", "address": "@ CENTRE FOR SOCIAL INNOVATION215 SPADINA AVENUE, SUITE 170", "city": "TORONTO", "province": "ON", "country": "CA", "postalCode": "M5T2C7", "twitter": "None", "instagram": "None", "facebook": "None", "youtube": "None", "website": "None", "summary": "None", "logo": "None", "latitude": 43.6491374984708, "longitude": -79.39668598294755}, "855315560RR0001": {"name": "Facult\u00e9 de Th\u00e9ologie \u00c9vang\u00e9lique", "designationCode": "C", "categoryCode": "39", "address": "10710, AV. HAMELIN", "city": "MONTREAL", "province": "QC", "country": "CA", "postalCode": "H2B2G1", "twitter": "None", "instagram": "None", "facebook": "None", "youtube": "None", "website": "None", "summary": "None", "logo": "None", "latitude": 45.572249735212715, "longitude": -73.65812204538629}}