{"891250912RR0001": {"name": "BONAPARTE WATERSHED STEWARDSHIP SOCIETY", "designationCode": "C", "categoryCode": "59", "address": "3897 HIGHWAY 97 N", "city": "CACHE CREEK", "province": "BC", "country": "CA", "postalCode": "V0K1H1", "twitter": "None", "instagram": "None", "facebook": "None", "youtube": "None", "website": "None", "summary": "None", "logo": "None", "latitude": 50.82474738940068, "longitude": -121.3484209323192}, "889017190RR0001": {"name": "BONAR LAW MEMORIAL SCHOOL SCHOLARSHIP FUND", "designationCode": "C", "categoryCode": "21", "address": "197 MAIN ST", "city": "REXTON", "province": "NB", "country": "CA", "postalCode": "E4W2A9", "twitter": "None", "instagram": "None", "facebook": "None", "youtube": "None", "website": "None", "summary": "None", "logo": "None", "latitude": 46.640075742105694, "longitude": -64.8574752905927}, "106801103RR0001": {"name": "BONAR PARKDALE PRESBYTERIAN CHURCH", "designationCode": "C", "categoryCode": "37", "address": "250 DUNN AVE", "city": "TORONTO", "province": "ON", "country": "CA", "postalCode": "M6K2K9", "twitter": "None", "instagram": "None", "facebook": "None", "youtube": "None", "website": "None", "summary": "None", "logo": "None", "latitude": 43.64020271994927, "longitude": -79.43422474066571}, "130097173RR0001": {"name": "BONAR-PARKDALE SENIOR CITIZENS NON-PROFIT HOUSING CORPORATION", "designationCode": "C", "categoryCode": "01", "address": "240 DUNN AVENUE", "city": "TORONTO", "province": "ON", "country": "CA", "postalCode": "M6K3K6", "twitter": "None", "instagram": "None", "facebook": "None", "youtube": "None", "website": "None", "summary": "None", "logo": "None", "latitude": 43.6398397127359, "longitude": -79.43408376951915}, "853595544RR0001": {"name": "BONAVISTA BAPTIST CHURCH FELLOWSHIP", "designationCode": "C", "categoryCode": "31", "address": "1507 ACADIA DRIVE SE", "city": "CALGARY", "province": "AB", "country": "CA", "postalCode": "T2J5C4", "twitter": "None", "instagram": "None", "facebook": "None", "youtube": "None", "website": "None", "summary": "None", "logo": "None", "latitude": 50.93083618734491, "longitude": -114.04842263739964}, "854232410RR0001": {"name": "BONAVISTA EVANGELICAL MISSIONARY CHURCH FELLOWSHIP", "designationCode": "C", "categoryCode": "39", "address": "1509 LAKE ONTARIO DRIVE SE", "city": "CALGARY", "province": "AB", "country": "CA", "postalCode": "T2J4Y7", "twitter": "None", "instagram": "None", "facebook": "None", "youtube": "None", "website": "None", "summary": "None", "logo": "None", "latitude": 50.94205272300769, "longitude": -114.0336734340988}, "890366248RR0001": {"name": "BONAVISTA PASTORAL CHARGE,", "designationCode": "C", "categoryCode": "44", "address": "PO BOX 394", "city": "BONAVISTA", "province": "NL", "country": "CA", "postalCode": "A0C1B0", "twitter": "None", "instagram": "None", "facebook": "None", "youtube": "None", "website": "None", "summary": "None", "logo": "None", "latitude": 48.60760000000005, "longitude": -53.09807999999998}, "118813419RR0001": {"name": "BOND HEAD UNITED CHURCH", "designationCode": "C", "categoryCode": "44", "address": "PO BOX 139, HWY 88", "city": "BOND HEAD", "province": "ON", "country": "CA", "postalCode": "L0G1B0", "twitter": "None", "instagram": "None", "facebook": "None", "youtube": "None", "website": "None", "summary": "None", "logo": "None", "latitude": 44.09053337194022, "longitude": -79.67176694764966}, "864723499RR0001": {"name": "BONDSLAVE BIKER MINISTRY MOTORCYCLE CLUB INC.", "designationCode": "C", "categoryCode": "47", "address": "305 MACHRAY AVENUE", "city": "WINNIPEG", "province": "MB", "country": "CA", "postalCode": "R2W1A3", "twitter": "None", "instagram": "None", "facebook": "None", "youtube": "None", "website": "None", "summary": "None", "logo": "None"}, "891334948RR0001": {"name": "BONE CREEK CHARITABLE TRUST", "designationCode": "B", "categoryCode": "39", "address": "50-1ST AVE NW", "city": "SWIFT CURRENT", "province": "SK", "country": "CA", "postalCode": "S9H4W4", "twitter": "None", "instagram": "None", "facebook": "None", "youtube": "None", "website": "None", "summary": "None", "logo": "None", "latitude": 50.28210306693845, "longitude": -107.80131220144244}, "119471076RR0001": {"name": "BONFIELD FAMILY LIFE CENTRE", "designationCode": "C", "categoryCode": "01", "address": "P.O. BOX 37", "city": "BONFIELD", "province": "ON", "country": "CA", "postalCode": "P0H1E0", "twitter": "None", "instagram": "None", "facebook": "None", "youtube": "None", "website": "None", "summary": "None", "logo": "None", "latitude": 46.238950000000045, "longitude": -79.14709999999997}, "839324670RR0001": {"name": "BONISA MISSION CANADA", "designationCode": "C", "categoryCode": "47", "address": "674 MAIN ST S                 BOX 4", "city": "BURGESSVILLE", "province": "ON", "country": "CA", "postalCode": "N0J1C0", "twitter": "None", "instagram": "None", "facebook": "None", "youtube": "None", "website": "None", "summary": "None", "logo": "None", "latitude": 43.01832326588381, "longitude": -80.65188712132813}, "133373696RR0001": {"name": "BONJOUR AUJOURD'HUI ET APR\u00c8S INC.", "designationCode": "C", "categoryCode": "09", "address": "800 MONTROSE", "city": "LAVAL", "province": "QC", "country": "CA", "postalCode": "H7E3M5", "twitter": "None", "instagram": "None", "facebook": "None", "youtube": "None", "website": "None", "summary": "None", "logo": "None", "latitude": 45.59070783484346, "longitude": -73.66642784569214}, "894432855RR0001": {"name": "BONJOUR SOLEIL REGROUPEMENT DE FAMILLES MONOPARENTALES ET RECOMPOS\u00c9ES DE LA VALL\u00c9E DU RICHELIEU", "designationCode": "C", "categoryCode": "09", "address": "205 - 308 RUE MONTSABRE", "city": "BELOEIL", "province": "QC", "country": "CA", "postalCode": "J3G2H5", "twitter": "None", "instagram": "None", "facebook": "None", "youtube": "None", "website": "None", "summary": "None", "logo": "None", "latitude": 45.556986910677225, "longitude": -73.21165285983876}, "889223392RR0001": {"name": "BONNE BAY HOSPITAL AUXILIARY", "designationCode": "C", "categoryCode": "19", "address": "BONNE BAY HOSPITAL", "city": "NORRIS POINT", "province": "NL", "country": "CA", "postalCode": "A0K3V0", "twitter": "None", "instagram": "None", "facebook": "None", "youtube": "None", "website": "None", "summary": "None", "logo": "None", "latitude": 49.53217324512665, "longitude": -57.87839794486152}, "884379421RR0001": {"name": "BONNE BAY PASTORAL CHARGE,", "designationCode": "C", "categoryCode": "44", "address": "P.O. BOX 246", "city": "TROUT RIVER", "province": "NL", "country": "CA", "postalCode": "A0K5P0", "twitter": "None", "instagram": "None", "facebook": "None", "youtube": "None", "website": "None", "summary": "None", "logo": "None", "latitude": 49.49440916419026, "longitude": -57.92346722085277}, "856537485RR0001": {"name": "BONNECHERE ARTS AND HISTORICAL SOCIETY", "designationCode": "C", "categoryCode": "50", "address": "193 SAND ROAD                 PO BOX 275", "city": "EGANVILLE", "province": "ON", "country": "CA", "postalCode": "K0J1T0", "twitter": "None", "instagram": "None", "facebook": "None", "youtube": "None", "website": "None", "summary": "None", "logo": "None", "latitude": 45.523675688643465, "longitude": -77.12817374403303}, "118813468RR0001": {"name": "BONNECHERE MANOR AUXILIARY OF RENFREW", "designationCode": "C", "categoryCode": "19", "address": "470 ALBERT ST", "city": "RENFREW", "province": "ON", "country": "CA", "postalCode": "K7V4L5", "twitter": "None", "instagram": "None", "facebook": "None", "youtube": "None", "website": "None", "summary": "None", "logo": "None", "latitude": 45.48355994555402, "longitude": -76.70169659622559}, "870125101RR0001": {"name": "BONNECHERE MANOR FOUNDATION", "designationCode": "A", "categoryCode": "03", "address": "470 ALBERT STREET", "city": "RENFREW", "province": "ON", "country": "CA", "postalCode": "K7V4L5", "twitter": "None", "instagram": "None", "facebook": "None", "youtube": "None", "website": "None", "summary": "None", "logo": "None", "latitude": 45.48355994555402, "longitude": -76.70169659622559}, "819593070RR0001": {"name": "BONNECHERE RIVER WATERSHED PROJECT", "designationCode": "C", "categoryCode": "59", "address": "P.O. BOX 234", "city": "RENFREW", "province": "ON", "country": "CA", "postalCode": "K7V4A3", "twitter": "None", "instagram": "None", "facebook": "None", "youtube": "None", "website": "None", "summary": "None", "logo": "None", "latitude": 45.47460300000006, "longitude": -76.68749149999994}, "131367385RR0001": {"name": "BONNECHERE UNION PUBLIC LIBRARY", "designationCode": "C", "categoryCode": "50", "address": "BOX 39                        74 A MAPLE STREET", "city": "EGANVILLE", "province": "ON", "country": "CA", "postalCode": "K0J1T0", "twitter": "None", "instagram": "None", "facebook": "None", "youtube": "None", "website": "None", "summary": "None", "logo": "None", "latitude": 45.541523548675855, "longitude": -77.09696318223767}, "889779195RR0001": {"name": "BONNIE & DARYL HOWARD CHARITABLE FOUNDATION", "designationCode": "B", "categoryCode": "13", "address": "4131 CRESTVIEW ROAD S.W.", "city": "CALGARY", "province": "AB", "country": "CA", "postalCode": "T2T2L5", "twitter": "None", "instagram": "None", "facebook": "None", "youtube": "None", "website": "None", "summary": "None", "logo": "None", "latitude": 51.018097799324885, "longitude": -114.09000255063775}, "118813476RR0001": {"name": "BONNIE DOON BAPTIST CHURCH", "designationCode": "C", "categoryCode": "31", "address": "8505-90 ST", "city": "EDMONTON", "province": "AB", "country": "CA", "postalCode": "T6C3L4", "twitter": "None", "instagram": "None", "facebook": "None", "youtube": "None", "website": "None", "summary": "None", "logo": "None", "latitude": 53.521560502914184, "longitude": -113.46560583288154}, "118813484RR0001": {"name": "BONNIE GLEN, ALBERTA, CONGREGATION OF JEHOVAH'S WITNESSES", "designationCode": "C", "categoryCode": "61", "address": "BOX 1, SITE 1, RR#2", "city": "THORSBY", "province": "AB", "country": "CA", "postalCode": "T0C2P0", "twitter": "None", "instagram": "None", "facebook": "None", "youtube": "None", "website": "None", "summary": "None", "logo": "None", "latitude": 53.07519149999999, "longitude": -113.99293349999999}, "863129920RR0001": {"name": "BONNINGTON REGIONAL PARK SOCIETY", "designationCode": "C", "categoryCode": "56", "address": "4136 VIEW RIDGE ROAD", "city": "BONNINGTON", "province": "BC", "country": "CA", "postalCode": "V0G2G3", "twitter": "None", "instagram": "None", "facebook": "None", "youtube": "None", "website": "None", "summary": "None", "logo": "None", "latitude": 49.46739037577446, "longitude": -117.4762335263745}, "871101507RR0001": {"name": "BONNY LEA CHARITABLE FOUNDATION", "designationCode": "A", "categoryCode": "03", "address": "5 COLLICUTT ROAD              P.O. BOX 560", "city": "CHESTER", "province": "NS", "country": "CA", "postalCode": "B0J1J0", "twitter": "None", "instagram": "None", "facebook": "None", "youtube": "None", "website": "None", "summary": "None", "logo": "None", "latitude": 44.59271671521741, "longitude": -64.26904579476498}, "890230642RR0001": {"name": "BONNYVILLE ALBERTA CONGREGATION OF JEHOVAH'S WITNESSES", "designationCode": "C", "categoryCode": "61", "address": "PO BOX 5491                   (RSA 46218 TWP RD 612)", "city": "BONNYVILLE", "province": "AB", "country": "CA", "postalCode": "T9N2G6", "twitter": "None", "instagram": "None", "facebook": "None", "youtube": "None", "website": "None", "summary": "None", "logo": "None", "latitude": 54.267945000000054, "longitude": -110.75332399999994}, "888759248RR0001": {"name": "BONNYVILLE AND DISTRICT HISTORICAL SOCIETY-SOCIETE HISTORIQUE DE BONNYVILLE ET REGION THE", "designationCode": "C", "categoryCode": "50", "address": "PO BOX 6995 STN MAIN", "city": "BONNYVILLE", "province": "AB", "country": "CA", "postalCode": "T9N2H4", "twitter": "None", "instagram": "None", "facebook": "None", "youtube": "None", "website": "None", "summary": "None", "logo": "None", "latitude": 54.267945000000054, "longitude": -110.75332399999994}, "879161719RR0001": {"name": "BONNYVILLE AND DISTRICT S.P.C.A. (SOCIETY FOR THE PREVENTIONOF CRUELTY TO ANIMALS)", "designationCode": "C", "categoryCode": "54", "address": "BOX 5444", "city": "BONNYVILLE", "province": "AB", "country": "CA", "postalCode": "T9N2G5", "twitter": "None", "instagram": "None", "facebook": "None", "youtube": "None", "website": "None", "summary": "None", "logo": "None", "latitude": 54.267945000000054, "longitude": -110.75332399999994}, "130525546RR0001": {"name": "BONNYVILLE BAPTIST CHURCH", "designationCode": "C", "categoryCode": "31", "address": "4111-43 AVE", "city": "BONNYVILLE", "province": "AB", "country": "CA", "postalCode": "T9N1S7", "twitter": "None", "instagram": "None", "facebook": "None", "youtube": "None", "website": "None", "summary": "None", "logo": "None", "latitude": 54.260149471579254, "longitude": -110.72225363641869}, "884458019RR0001": {"name": "BONNYVILLE COMMUNITY CHURCH", "designationCode": "C", "categoryCode": "39", "address": "4414-52 AVE", "city": "BONNYVILLE", "province": "AB", "country": "CA", "postalCode": "T9N0C3", "twitter": "None", "instagram": "None", "facebook": "None", "youtube": "None", "website": "None", "summary": "None", "logo": "None", "latitude": 54.27027647735032, "longitude": -110.72670219317328}, "106801749RR0001": {"name": "BONNYVILLE FELLOWSHIP ALLIANCE CHURCH OF THE CHRISTIAN AND MISSIONARY ALLIANCE IN CANADA", "designationCode": "C", "categoryCode": "39", "address": "BOX 6293", "city": "BONNYVILLE", "province": "AB", "country": "CA", "postalCode": "T9N2G8", "twitter": "None", "instagram": "None", "facebook": "None", "youtube": "None", "website": "None", "summary": "None", "logo": "None", "latitude": 54.267945000000054, "longitude": -110.75332399999994}, "860233840RR0001": {"name": "BONNYVILLE FIREFIGHTERS ASSOCIATION", "designationCode": "C", "categoryCode": "59", "address": "BOX 6827", "city": "BONNYVILLE", "province": "AB", "country": "CA", "postalCode": "T9N2H3", "twitter": "None", "instagram": "None", "facebook": "None", "youtube": "None", "website": "None", "summary": "None", "logo": "None", "latitude": 54.267945000000054, "longitude": -110.75332399999994}, "866399488RR0001": {"name": "BONNYVILLE HEALTH FOUNDATION", "designationCode": "C", "categoryCode": "11", "address": "P O BAG 1008", "city": "BONNYVILLE", "province": "AB", "country": "CA", "postalCode": "T9N2J7", "twitter": "None", "instagram": "None", "facebook": "None", "youtube": "None", "website": "None", "summary": "None", "logo": "None", "latitude": 54.267945000000054, "longitude": -110.75332399999994}, "106801780RR0001": {"name": "BONNYVILLE INDIAN & METIS REHABILITATION CENTRE", "designationCode": "C", "categoryCode": "57", "address": "PO BOX 8148  STN MAIN", "city": "BONNYVILLE", "province": "AB", "country": "CA", "postalCode": "T9N2J4", "twitter": "None", "instagram": "None", "facebook": "None", "youtube": "None", "website": "None", "summary": "None", "logo": "None", "latitude": 54.267945000000054, "longitude": -110.75332399999994}, "108153743RR0001": {"name": "BONNYVILLE PASTORAL CHARGE", "designationCode": "C", "categoryCode": "44", "address": "4510 43 AVE", "city": "BONNYVILLE", "province": "AB", "country": "CA", "postalCode": "T9N1R4", "twitter": "None", "instagram": "None", "facebook": "None", "youtube": "None", "website": "None", "summary": "None", "logo": "None", "latitude": 54.26082751399403, "longitude": -110.7299147216227}, "872513874RR0001": {"name": "BONNYVILLE PENTECOSTAL CHURCH", "designationCode": "C", "categoryCode": "36", "address": "4715-51 AVE", "city": "BONNYVILLE", "province": "AB", "country": "CA", "postalCode": "T9N1A9", "twitter": "None", "instagram": "None", "facebook": "None", "youtube": "None", "website": "None", "summary": "None", "logo": "None", "latitude": 54.26900652986307, "longitude": -110.73431258381903}, "118813575RR0001": {"name": "BONNYVILLE PLAY AND LEARN CHILD CARE SOCIETY", "designationCode": "C", "categoryCode": "01", "address": "PO BOX 8086  STN MAIN", "city": "BONNYVILLE", "province": "AB", "country": "CA", "postalCode": "T9N2J4", "twitter": "None", "instagram": "None", "facebook": "None", "youtube": "None", "website": "None", "summary": "None", "logo": "None", "latitude": 54.267945000000054, "longitude": -110.75332399999994}, "118813591RR0001": {"name": "BONNYVILLE SENIOR CITIZENS' SOCIETY", "designationCode": "C", "categoryCode": "56", "address": "4813-47 AVE", "city": "BONNYVILLE", "province": "AB", "country": "CA", "postalCode": "T9N1M4", "twitter": "None", "instagram": "None", "facebook": "None", "youtube": "None", "website": "None", "summary": "None", "logo": "None", "latitude": 54.26494549711448, "longitude": -110.73613427699232}, "118813583RR0001": {"name": "BONNYVILLE SEVENTH-DAY ADVENTIST CHURCH", "designationCode": "C", "categoryCode": "41", "address": "5816 HIGHWAY 2A", "city": "LACOMBE", "province": "AB", "country": "CA", "postalCode": "T4L2G5", "twitter": "None", "instagram": "None", "facebook": "None", "youtube": "None", "website": "None", "summary": "None", "logo": "None", "latitude": 52.474063600197404, "longitude": -113.71692568401835}, "885209007RR0001": {"name": "BONNYVILLE VICTIM SERVICES SOCIETY", "designationCode": "C", "categoryCode": "59", "address": "4515 54 AVE", "city": "BONNYVILLE", "province": "AB", "country": "CA", "postalCode": "T9N0C2", "twitter": "None", "instagram": "None", "facebook": "None", "youtube": "None", "website": "None", "summary": "None", "logo": "None", "latitude": 54.2717717926284, "longitude": -110.72818431533881}, "892376310RR0001": {"name": "BONNYVILLE YOUTH CLUB", "designationCode": "C", "categoryCode": "09", "address": "PO BOX 7733", "city": "BONNYVILLE", "province": "AB", "country": "CA", "postalCode": "T9N2J1", "twitter": "None", "instagram": "None", "facebook": "None", "youtube": "None", "website": "None", "summary": "None", "logo": "None", "latitude": 54.267945000000054, "longitude": -110.75332399999994}, "107597957RR0001": {"name": "BONSECOURS INC.", "designationCode": "C", "categoryCode": "57", "address": "11130, BOUL. PIE 1X", "city": "MONTREAL-NORD", "province": "QC", "country": "CA", "postalCode": "H1H3B5", "twitter": "None", "instagram": "None", "facebook": "None", "youtube": "None", "website": "None", "summary": "None", "logo": "None", "latitude": 45.59288100415494, "longitude": -73.63961501653286}, "118813617RR0001": {"name": "BONSHAW UNITED BAPTIST CHURCH", "designationCode": "C", "categoryCode": "31", "address": "17634 TRANS CANADA HWY", "city": "BONSHAW", "province": "PE", "country": "CA", "postalCode": "C0A1C0", "twitter": "None", "instagram": "None", "facebook": "None", "youtube": "None", "website": "None", "summary": "None", "logo": "None", "latitude": 46.19414629753588, "longitude": -63.35276229684339}, "130623036RR0001": {"name": "BONSOR 55+ SOCIETY", "designationCode": "C", "categoryCode": "56", "address": "6533 NELSON AVENUE", "city": "BURNABY", "province": "BC", "country": "CA", "postalCode": "V5H0C2", "twitter": "None", "instagram": "None", "facebook": "None", "youtube": "None", "website": "None", "summary": "None", "logo": "None", "latitude": 49.22449833739712, "longitude": -122.99432422506636}, "119111854RR0001": {"name": "BOOKMATES INC.", "designationCode": "C", "categoryCode": "21", "address": "623 ERIN STREET", "city": "WINNIPEG", "province": "MB", "country": "CA", "postalCode": "R3G2W1", "twitter": "None", "instagram": "None", "facebook": "None", "youtube": "None", "website": "None", "summary": "None", "logo": "None", "latitude": 49.88514548681403, "longitude": -97.18505923515538}, "891437741RR0001": {"name": "BOOKTON CEMETERY BOARD", "designationCode": "C", "categoryCode": "59", "address": "RR 1, 236 LA SALETTE ROAD", "city": "LA SALETTE", "province": "ON", "country": "CA", "postalCode": "N0E1H0", "twitter": "None", "instagram": "None", "facebook": "None", "youtube": "None", "website": "None", "summary": "None", "logo": "None", "latitude": 42.90422473602077, "longitude": -80.49071788605812}, "131519936RR0001": {"name": "BOOKTON PRESBYTERIAN CHURCH,", "designationCode": "C", "categoryCode": "37", "address": "271 WINDHAM RD 6              RR#1", "city": "LASALETTE", "province": "ON", "country": "CA", "postalCode": "N0E1H0", "twitter": "None", "instagram": "None", "facebook": "None", "youtube": "None", "website": "None", "summary": "None", "logo": "None", "latitude": 42.92910930336426, "longitude": -80.49594612545441}, "893288928RR0001": {"name": "BOOM ROAD PENTECOSTAL CHURCH", "designationCode": "C", "categoryCode": "36", "address": "1535 ROUTE 425 HWY", "city": "BOOM ROAD", "province": "NB", "country": "CA", "postalCode": "E9E1H4", "twitter": "None", "instagram": "None", "facebook": "None", "youtube": "None", "website": "None", "summary": "None", "logo": "None", "latitude": 46.95268921690772, "longitude": -65.7857331583393}, "131583650RR0001": {"name": "BOON AVENUE BAPTIST CHURCH", "designationCode": "C", "categoryCode": "31", "address": "9 BOON AVE", "city": "TORONTO", "province": "ON", "country": "CA", "postalCode": "M6E3Z2", "twitter": "None", "instagram": "None", "facebook": "None", "youtube": "None", "website": "None", "summary": "None", "logo": "None", "latitude": 43.6777537574297, "longitude": -79.44637812404078}, "118813682RR0001": {"name": "BOONE, HODGSON, WILKINSON TRUST FUND", "designationCode": "C", "categoryCode": "21", "address": "948 HARRISON WAY", "city": "GABRIOLA", "province": "BC", "country": "CA", "postalCode": "V0R1X2", "twitter": "None", "instagram": "None", "facebook": "None", "youtube": "None", "website": "None", "summary": "None", "logo": "None", "latitude": 49.1718190009872, "longitude": -123.864239764516}, "862593399RR0001": {"name": "BORDEN CARE HOME INC", "designationCode": "C", "categoryCode": "09", "address": "BOX 155", "city": "BORDEN", "province": "SK", "country": "CA", "postalCode": "S0K0N0", "twitter": "None", "instagram": "None", "facebook": "None", "youtube": "None", "website": "None", "summary": "None", "logo": "None", "latitude": 52.37279920269652, "longitude": -107.14668130840676}, "894897669RR0001": {"name": "BORDEN FAMILY RESOURCE CENTRE/LE CENTRE DE RESSOURCES A LA FAMILLE DE BORDEN", "designationCode": "C", "categoryCode": "09", "address": "28 ARNHEM RD(BLDG E123)       PO BOX 1000 STN MAIN", "city": "BORDEN", "province": "ON", "country": "CA", "postalCode": "L0M1C0", "twitter": "None", "instagram": "None", "facebook": "None", "youtube": "None", "website": "None", "summary": "None", "logo": "None"}, "118802180RR0002": {"name": "BORDEN UNITED CHURCH", "designationCode": "C", "categoryCode": "44", "address": "1230 CALLBECK ST              RR 1", "city": "BEDEQUE", "province": "PE", "country": "CA", "postalCode": "C0B1C0", "twitter": "None", "instagram": "None", "facebook": "None", "youtube": "None", "website": "None", "summary": "None", "logo": "None", "latitude": 46.3378290446938, "longitude": -63.72086766126142}, "118813757RR0001": {"name": "BORDEN UNITED CHURCH", "designationCode": "C", "categoryCode": "44", "address": "BOX 118", "city": "BORDEN", "province": "SK", "country": "CA", "postalCode": "S0K0N0", "twitter": "None", "instagram": "None", "facebook": "None", "youtube": "None", "website": "None", "summary": "None", "logo": "None", "latitude": 52.37279920269652, "longitude": -107.14668130840676}, "892353442RR0001": {"name": "BORDER BUILDINGS INC.", "designationCode": "C", "categoryCode": "59", "address": "200-700 CALIFORNIA AVENUE", "city": "WINDSOR", "province": "ON", "country": "CA", "postalCode": "N9B2Z2", "twitter": "None", "instagram": "None", "facebook": "None", "youtube": "None", "website": "None", "summary": "None", "logo": "None", "latitude": 42.30345973516994, "longitude": -83.06248505862439}, "856530142RR0001": {"name": "BORDER LAND SCHOOL DIVISION", "designationCode": "C", "categoryCode": "20", "address": "120 9TH ST NW", "city": "ALTONA", "province": "MB", "country": "CA", "postalCode": "R0G0B1", "twitter": "None", "instagram": "None", "facebook": "None", "youtube": "None", "website": "None", "summary": "None", "logo": "None", "latitude": 49.11031082755924, "longitude": -97.55222317088551}, "108184714RR0001": {"name": "BORDER REGIONAL LIBRARY BOARD", "designationCode": "C", "categoryCode": "50", "address": "BOX 970", "city": "VIRDEN", "province": "MB", "country": "CA", "postalCode": "R0M2C0", "twitter": "None", "instagram": "None", "facebook": "None", "youtube": "None", "website": "None", "summary": "None", "logo": "None", "latitude": 49.85688000000005, "longitude": -100.92262999999997}, "860852508RR0001": {"name": "BORDERLESS WORLD VOLUNTEERS", "designationCode": "C", "categoryCode": "29", "address": "601 - 1650 BAYSHORE DRIVE", "city": "VANCOUVER", "province": "BC", "country": "CA", "postalCode": "V6G3K2", "twitter": "None", "instagram": "None", "facebook": "None", "youtube": "None", "website": "None", "summary": "None", "logo": "None", "latitude": 49.291882042443454, "longitude": -123.13110185397335}, "890271596RR0001": {"name": "BORDERVIEW MENNONITE CHURCH", "designationCode": "C", "categoryCode": "34", "address": "BOX 139", "city": "TOLSTOI", "province": "MB", "country": "CA", "postalCode": "R0A2E0", "twitter": "None", "instagram": "None", "facebook": "None", "youtube": "None", "website": "None", "summary": "None", "logo": "None", "latitude": 49.08761000000004, "longitude": -96.80849999999998}, "872220967RR0001": {"name": "BOREART, CENTRE D'EXPOSITION EN ARTS VISUELS", "designationCode": "C", "categoryCode": "22", "address": "279, RUE PRINCIPALE           BUREAU 211", "city": "GRANBY", "province": "QC", "country": "CA", "postalCode": "J2G2W1", "twitter": "None", "instagram": "None", "facebook": "None", "youtube": "None", "website": "None", "summary": "None", "logo": "None", "latitude": 45.40118229868971, "longitude": -72.72956860667121}, "888993201RR0001": {"name": "BORN TO READ NEW BRUNSWICK INC.", "designationCode": "C", "categoryCode": "19", "address": "P.O. BOX 1534                 STATION A", "city": "FREDERICTON", "province": "NB", "country": "CA", "postalCode": "E3B5G2", "twitter": "None", "instagram": "None", "facebook": "None", "youtube": "None", "website": "None", "summary": "None", "logo": "None", "latitude": 45.96062100000006, "longitude": -66.63911299999994}, "862824786RR0001": {"name": "BORNEO ORANGUTAN SOCIETY CANADA", "designationCode": "C", "categoryCode": "54", "address": "74 BOULTBEE AVE.", "city": "TORONTO", "province": "ON", "country": "CA", "postalCode": "M4J1B1", "twitter": "None", "instagram": "None", "facebook": "None", "youtube": "None", "website": "None", "summary": "None", "logo": "None", "latitude": 43.67340108855088, "longitude": -79.33592010006343}, "890206592RR0001": {"name": "BORNISH ST COLUMBA R C CEMETERY BOARD", "designationCode": "C", "categoryCode": "59", "address": "163 PARKHILL MAIN ST", "city": "PARKHILL", "province": "ON", "country": "CA", "postalCode": "N0M2K0", "twitter": "None", "instagram": "None", "facebook": "None", "youtube": "None", "website": "None", "summary": "None", "logo": "None", "latitude": 43.158726670552255, "longitude": -81.68530571218763}, "106802432RR0001": {"name": "BOROCHOV CULTURAL CENTRE AND KOL YISROEL CONGREGATION", "designationCode": "C", "categoryCode": "20", "address": "272 CODSELL AVE", "city": "DOWNSVIEW", "province": "ON", "country": "CA", "postalCode": "M3H3X2", "twitter": "None", "instagram": "None", "facebook": "None", "youtube": "None", "website": "None", "summary": "None", "logo": "None", "latitude": 43.754321165733494, "longitude": -79.45870615641398}, "894219484RR0001": {"name": "BOSANQUET SMALL WORLD NURSERY SCHOOL INCORPORATED", "designationCode": "C", "categoryCode": "20", "address": "BOX 62", "city": "THEDFORD", "province": "ON", "country": "CA", "postalCode": "N0M2N0", "twitter": "None", "instagram": "None", "facebook": "None", "youtube": "None", "website": "None", "summary": "None", "logo": "None", "latitude": 43.164100000000076, "longitude": -81.85481999999996}, "893245977RR0001": {"name": "BOSNIAN ISLAMIC ASSOCIATION (GAZI HUSREV-BEG)", "designationCode": "C", "categoryCode": "60", "address": "122 NORTH QUEEN STREET", "city": "ETOBICOKE", "province": "ON", "country": "CA", "postalCode": "M8Z2E4", "twitter": "None", "instagram": "None", "facebook": "None", "youtube": "None", "website": "None", "summary": "None", "logo": "None", "latitude": 43.62040010744967, "longitude": -79.54981909674521}, "893211664RR0001": {"name": "BOSNIAN ISLAMIC CENTRE", "designationCode": "C", "categoryCode": "60", "address": "75 BIRMINGHAM ST.", "city": "TORONTO", "province": "ON", "country": "CA", "postalCode": "M8V2C3", "twitter": "None", "instagram": "None", "facebook": "None", "youtube": "None", "website": "None", "summary": "None", "logo": "None", "latitude": 43.603642834843455, "longitude": -79.50429553774025}, "870139219RR0001": {"name": "BOSNIAN ISLAMIC CENTRE OF HAMILTON", "designationCode": "C", "categoryCode": "60", "address": "P.O. BOX 56073", "city": "STONEY CREEK", "province": "ON", "country": "CA", "postalCode": "L8G5C9", "twitter": "None", "instagram": "None", "facebook": "None", "youtube": "None", "website": "None", "summary": "None", "logo": "None", "latitude": 43.20879000000005, "longitude": -79.65669049999994}, "874227218RR0001": {"name": "BOSNIAN ISLAMIC COMMUNITY OF WINDSOR", "designationCode": "C", "categoryCode": "60", "address": "8330 ENFIELD PL", "city": "WINDSOR", "province": "ON", "country": "CA", "postalCode": "N8S4M9", "twitter": "None", "instagram": "None", "facebook": "None", "youtube": "None", "website": "None", "summary": "None", "logo": "None", "latitude": 42.325384545674765, "longitude": -82.93490354483804}, "873783153RR0001": {"name": "BOSNIAN-CANADIAN ISLAMIC CENTRE OF THE CITY OF LONDON", "designationCode": "C", "categoryCode": "60", "address": "41 HOLBORN AVE", "city": "LONDON", "province": "ON", "country": "CA", "postalCode": "N6J2P9", "twitter": "None", "instagram": "None", "facebook": "None", "youtube": "None", "website": "None", "summary": "None", "logo": "None", "latitude": 42.9631006275319, "longitude": -81.26231944604402}, "892270232RR0001": {"name": "BOSNIAN-CANADIAN RELIEF ASSOCIATION INC.", "designationCode": "C", "categoryCode": "02", "address": "122 NORTH QUEEN STREET", "city": "ETOBICOKE", "province": "ON", "country": "CA", "postalCode": "M8Z2E4", "twitter": "None", "instagram": "None", "facebook": "None", "youtube": "None", "website": "None", "summary": "None", "logo": "None", "latitude": 43.62040010744967, "longitude": -79.54981909674521}, "863122776RR0001": {"name": "BOSS - BEST OPPORTUNITY TO SUPPORT SELF", "designationCode": "C", "categoryCode": "59", "address": "3011 SUFFOLK STREET", "city": "WINDSOR", "province": "ON", "country": "CA", "postalCode": "N8R1P1", "twitter": "None", "instagram": "None", "facebook": "None", "youtube": "None", "website": "None", "summary": "None", "logo": "None", "latitude": 42.30967190951586, "longitude": -82.90797950377956}, "130725088RR0001": {"name": "BOSTON BAPTIST CHURCH", "designationCode": "C", "categoryCode": "31", "address": "2985 COCKSHUTT RD.            RR#1", "city": "WATERFORD", "province": "ON", "country": "CA", "postalCode": "N0E1Y0", "twitter": "None", "instagram": "None", "facebook": "None", "youtube": "None", "website": "None", "summary": "None", "logo": "None", "latitude": 42.99074194310118, "longitude": -80.27012841355523}, "118813864RR0001": {"name": "BOSTON MILLS CEMETERY", "designationCode": "C", "categoryCode": "59", "address": "1754 STATION RD", "city": "CALEDON", "province": "ON", "country": "CA", "postalCode": "L7C3L1", "twitter": "None", "instagram": "None", "facebook": "None", "youtube": "None", "website": "None", "summary": "None", "logo": "None", "latitude": 43.757081160164894, "longitude": -79.91593055124333}, "895935898RR0001": {"name": "BOSTON PIZZA FOUNDATION", "designationCode": "A", "categoryCode": "03", "address": "100-10760 SHELLBRIDGE WAY", "city": "RICHMOND", "province": "BC", "country": "CA", "postalCode": "V6X3H1", "twitter": "None", "instagram": "None", "facebook": "None", "youtube": "None", "website": "None", "summary": "None", "logo": "None", "latitude": 49.18738453173897, "longitude": -123.10587352553523}, "118813872RR0001": {"name": "BOSTON PRESBYTERIAN CHURCH", "designationCode": "C", "categoryCode": "37", "address": "10293-4TH AVE RR#5", "city": "MILTON", "province": "ON", "country": "CA", "postalCode": "L9T2X9", "twitter": "None", "instagram": "None", "facebook": "None", "youtube": "None", "website": "None", "summary": "None", "logo": "None", "latitude": 43.585420152863705, "longitude": -79.9354049125475}, "866275191RR0001": {"name": "BOSWELL AND DISTRICT EMERGENCY VOLUNTEERS", "designationCode": "C", "categoryCode": "59", "address": "12338 HIGHWAY 3A", "city": "BOSWELL", "province": "BC", "country": "CA", "postalCode": "V0B1A4", "twitter": "None", "instagram": "None", "facebook": "None", "youtube": "None", "website": "None", "summary": "None", "logo": "None", "latitude": 49.4608377938989, "longitude": -116.76574883741542}, "118813880RR0001": {"name": "BOSWELL MEMORIAL HALL", "designationCode": "C", "categoryCode": "56", "address": "12374 BOSWELL RD", "city": "BOSWELL", "province": "BC", "country": "CA", "postalCode": "V0B1A4", "twitter": "None", "instagram": "None", "facebook": "None", "youtube": "None", "website": "None", "summary": "None", "logo": "None", "latitude": 49.46236312210755, "longitude": -116.76516154077}, "118813906RR0001": {"name": "BOTHWELL BAPTIST CHURCH", "designationCode": "C", "categoryCode": "31", "address": "BOX 52, 280 PETER STREET", "city": "BOTHWELL", "province": "ON", "country": "CA", "postalCode": "N0P1C0", "twitter": "None", "instagram": "None", "facebook": "None", "youtube": "None", "website": "None", "summary": "None", "logo": "None", "latitude": 42.632137245917164, "longitude": -81.86840224811021}, "892557844RR0001": {"name": "BOTHWELL PASTORAL CHARGE,", "designationCode": "C", "categoryCode": "44", "address": "392 PARK AVE EAST             SUITE 103", "city": "CHATHAM", "province": "ON", "country": "CA", "postalCode": "N7M5Y5", "twitter": "None", "instagram": "None", "facebook": "None", "youtube": "None", "website": "None", "summary": "None", "logo": "None", "latitude": 42.40435313379296, "longitude": -82.16609310915271}, "876933417RR0001": {"name": "BOTHWELL-ZONE & DISTRICT HISTORICAL SOCIETY", "designationCode": "C", "categoryCode": "50", "address": "BOX 309", "city": "BOTHWELL", "province": "ON", "country": "CA", "postalCode": "N0P1C0", "twitter": "None", "instagram": "None", "facebook": "None", "youtube": "None", "website": "None", "summary": "None", "logo": "None", "latitude": 42.62168174056715, "longitude": -81.87963950771424}, "880074760RR0001": {"name": "BOTWOOD BOYS AND GIRLS CLUB INCORPORATED", "designationCode": "C", "categoryCode": "09", "address": "PO BOX 1049", "city": "BOTWOOD", "province": "NL", "country": "CA", "postalCode": "A0H1E0", "twitter": "None", "instagram": "None", "facebook": "None", "youtube": "None", "website": "None", "summary": "None", "logo": "None", "latitude": 49.12576868009626, "longitude": -55.37020900602628}, "119288918RR0619": {"name": "BOTWOOD CONGREGATION OF JEHOVAH'S WITNESSES", "designationCode": "C", "categoryCode": "61", "address": "PO BOX 122", "city": "BOTWOOD", "province": "NL", "country": "CA", "postalCode": "A0H1E0", "twitter": "None", "instagram": "None", "facebook": "None", "youtube": "None", "website": "None", "summary": "None", "logo": "None", "latitude": 49.12576868009626, "longitude": -55.37020900602628}, "870147329RR0001": {"name": "BOUCHER INSTITUTE OF NATUROPATHIC MEDECINE SOCIETY", "designationCode": "C", "categoryCode": "20", "address": "330-435 COLUMBIA ST", "city": "NEW WESTMINSTER", "province": "BC", "country": "CA", "postalCode": "V3L5N8", "twitter": "None", "instagram": "None", "facebook": "None", "youtube": "None", "website": "None", "summary": "None", "logo": "None", "latitude": 49.20435988954924, "longitude": -122.9057752825609}, "887038958RR0001": {"name": "BOUDDHISME INTERNATIONAL POUR LE PROGRES DE LA SOCIETE DE MONTREAL/INTERNATIONAL BUDDHIST PROGRESS SOCIETY OF MONTREAL", "designationCode": "C", "categoryCode": "35", "address": "3831 RUE JEAN TALON EST", "city": "MONTREAL", "province": "QC", "country": "CA", "postalCode": "H1A1Y3", "twitter": "None", "instagram": "None", "facebook": "None", "youtube": "None", "website": "None", "summary": "None", "logo": "None", "latitude": 45.564196891770926, "longitude": -73.59358621804466}, "889966263RR0001": {"name": "BOUFFE DEPANNAGE DE STE-AGATHE-DES-MONTS", "designationCode": "C", "categoryCode": "09", "address": "37 PRINCIPALE EST", "city": "SAINTE-AGATHE-DES-MONTS", "province": "QC", "country": "CA", "postalCode": "J8C1J5", "twitter": "None", "instagram": "None", "facebook": "None", "youtube": "None", "website": "None", "summary": "None", "logo": "None", "latitude": 46.046606732702536, "longitude": -74.28531684277795}, "730379922RR0001": {"name": "BOUFFE PARTAGE", "designationCode": "C", "categoryCode": "09", "address": "302 AV BRAHMS", "city": "CHATEAUGUAY", "province": "QC", "country": "CA", "postalCode": "J6K2W4", "twitter": "None", "instagram": "None", "facebook": "None", "youtube": "None", "website": "None", "summary": "None", "logo": "None", "latitude": 45.34659266166547, "longitude": -73.71236880457634}, "867148223RR0001": {"name": "BOUFFE POUR TOUS", "designationCode": "B", "categoryCode": "09", "address": "911 BOULEVARD ROLAND-THERRIEN", "city": "LONGUEUIL", "province": "QC", "country": "CA", "postalCode": "J4J4L3", "twitter": "None", "instagram": "None", "facebook": "None", "youtube": "None", "website": "None", "summary": "None", "logo": "None", "latitude": 45.54063048990111, "longitude": -73.48951177116393}, "893478438RR0001": {"name": "BOUFFE-ACTION DE ROSEMONT", "designationCode": "C", "categoryCode": "09", "address": "5350 RUE LAFOND               LOC. R-115", "city": "MONTR\u00c9AL", "province": "QC", "country": "CA", "postalCode": "H1Y2X2", "twitter": "None", "instagram": "None", "facebook": "None", "youtube": "None", "website": "None", "summary": "None", "logo": "None", "latitude": 45.55238905297504, "longitude": -73.5710193212821}, "106802895RR0001": {"name": "BOULARDERIE PASTORAL CHARGE", "designationCode": "C", "categoryCode": "44", "address": "1564 OLD ROUTE 5", "city": "BIG BRAS D'OR", "province": "NS", "country": "CA", "postalCode": "B1X1B4", "twitter": "None", "instagram": "None", "facebook": "None", "youtube": "None", "website": "None", "summary": "None", "logo": "None", "latitude": 46.28512339912852, "longitude": -60.41367980976956}, "130638042RR0001": {"name": "BOULTER GOSPEL CHAPEL", "designationCode": "C", "categoryCode": "39", "address": "R.R.#1, 27209 HWY 62 S.", "city": "BANCROFT", "province": "ON", "country": "CA", "postalCode": "K0L1C0", "twitter": "None", "instagram": "None", "facebook": "None", "youtube": "None", "website": "None", "summary": "None", "logo": "None", "latitude": 45.02964421211395, "longitude": -77.81634533641595}, "865185839RR0001": {"name": "BOUNDARY COMMUNITY CHURCH", "designationCode": "C", "categoryCode": "34", "address": "PO BOX 129", "city": "MIDWAY", "province": "BC", "country": "CA", "postalCode": "V0H1M0", "twitter": "None", "instagram": "None", "facebook": "None", "youtube": "None", "website": "None", "summary": "None", "logo": "None", "latitude": 49.10113921679708, "longitude": -118.67616064840723}, "118813963RR0001": {"name": "BOUNDARY COMMUNITY FOOD BANK SOCIETY", "designationCode": "C", "categoryCode": "01", "address": "PO BOX 1052", "city": "GRAND FORKS", "province": "BC", "country": "CA", "postalCode": "V0H1H0", "twitter": "None", "instagram": "None", "facebook": "None", "youtube": "None", "website": "None", "summary": "None", "logo": "None", "latitude": 49.03245000000004, "longitude": -118.44297999999998}, "132152752RR0001": {"name": "BOUNDARY COMMUNITY HOSPICE ASSOCIATION", "designationCode": "C", "categoryCode": "01", "address": "BOX 2647", "city": "GRAND FORKS", "province": "BC", "country": "CA", "postalCode": "V0H1H0", "twitter": "None", "instagram": "None", "facebook": "None", "youtube": "None", "website": "None", "summary": "None", "logo": "None", "latitude": 49.032020000000045, "longitude": -118.43659999999994}, "118813971RR0001": {"name": "BOUNDARY COMMUNITY SCHOOL ASSOCIATION", "designationCode": "C", "categoryCode": "20", "address": "750 EAST 26TH STREET", "city": "NORTH VANCOUVER", "province": "BC", "country": "CA", "postalCode": "V7K1A4", "twitter": "None", "instagram": "None", "facebook": "None", "youtube": "None", "website": "None", "summary": "None", "logo": "None", "latitude": 49.33312253043999, "longitude": -123.0523827485429}, "889295069RR0001": {"name": "BOUNDARY CREEK UNITED BAPTIST CEMETERY INC.", "designationCode": "C", "categoryCode": "59", "address": "POST OFFICE BOX 204", "city": "MONCTON", "province": "NB", "country": "CA", "postalCode": "E1C8K9", "twitter": "None", "instagram": "None", "facebook": "None", "youtube": "None", "website": "None", "summary": "None", "logo": "None", "latitude": 46.08834900000005, "longitude": -64.77824149999994}, "118813997RR0001": {"name": "BOUNDARY FAMILY AND INDIVIDUAL SERVICES SOCIETY", "designationCode": "C", "categoryCode": "09", "address": "BOX 2498", "city": "GRAND FORKS", "province": "BC", "country": "CA", "postalCode": "V0H1H0", "twitter": "None", "instagram": "None", "facebook": "None", "youtube": "None", "website": "None", "summary": "None", "logo": "None", "latitude": 49.032020000000045, "longitude": -118.43659999999994}, "887765865RR0001": {"name": "BOUNDARY HISTORICAL SOCIETY", "designationCode": "C", "categoryCode": "50", "address": "PO BOX 2346", "city": "GRAND FORKS", "province": "BC", "country": "CA", "postalCode": "V0H1H0", "twitter": "None", "instagram": "None", "facebook": "None", "youtube": "None", "website": "None", "summary": "None", "logo": "None", "latitude": 49.03245000000004, "longitude": -118.44297999999998}, "118814011RR0001": {"name": "BOUNDARY MUSEUM SOCIETY", "designationCode": "C", "categoryCode": "50", "address": "6145 RESERVOIR ROAD", "city": "GRAND FORKS", "province": "BC", "country": "CA", "postalCode": "V0H1H5", "twitter": "None", "instagram": "None", "facebook": "None", "youtube": "None", "website": "None", "summary": "None", "logo": "None", "latitude": 49.01851855861809, "longitude": -118.5064907879605}}