{"850522913RR0001": {"name": "Fonds Rosa-H\u00e9bert", "designationCode": "C", "categoryCode": "43", "address": "5655 RUE DE SALABERRY", "city": "MONTREAL", "province": "QC", "country": "CA", "postalCode": "H4J1J5", "twitter": "None", "instagram": "None", "facebook": "None", "youtube": "None", "website": "None", "summary": "None", "logo": "None", "latitude": 45.528873699753234, "longitude": -73.71145253699511}, "806445821RR0001": {"name": "Fonds S\u00e9commi", "designationCode": "C", "categoryCode": "49", "address": "7625, BOULEVARD PARENT", "city": "TROIS-RIVI\u00c8RES", "province": "QC", "country": "CA", "postalCode": "G9A5E1", "twitter": "None", "instagram": "None", "facebook": "None", "youtube": "None", "website": "None", "summary": "None", "logo": "None", "latitude": 46.36596196696296, "longitude": -72.62960900181767}, "802437517RR0001": {"name": "Fonds Solidarit\u00e9 Sud", "designationCode": "A", "categoryCode": "03", "address": "370 RUE DU MUGUETS", "city": "ST-MATHIEU-DE-BELOEIL", "province": "QC", "country": "CA", "postalCode": "J3G0G8", "twitter": "None", "instagram": "None", "facebook": "None", "youtube": "None", "website": "None", "summary": "None", "logo": "None", "latitude": 45.577856756852796, "longitude": -73.27131496837659}, "838258713RR0001": {"name": "Fontaine Family Foundation Inc.", "designationCode": "B", "categoryCode": "03", "address": "THOMPSON DORFMAN SWEATMAN LLP 2200-201 PORTAGE AVE", "city": "WINNIPEG", "province": "MB", "country": "CA", "postalCode": "R3B3L3", "twitter": "None", "instagram": "None", "facebook": "None", "youtube": "None", "website": "None", "summary": "None", "logo": "None", "latitude": 49.895359615067065, "longitude": -97.13919299627776}, "801489303RR0001": {"name": "Food for thought Kelowna Breakfast Society", "designationCode": "B", "categoryCode": "09", "address": "3349 LARKSPUR COURT", "city": "KELOWNA", "province": "BC", "country": "CA", "postalCode": "V1W4S7", "twitter": "None", "instagram": "None", "facebook": "None", "youtube": "None", "website": "None", "summary": "None", "logo": "None", "latitude": 49.84182753563413, "longitude": -119.40863404053887}, "835005950RR0001": {"name": "Food Action Society of the North Okanagan", "designationCode": "C", "categoryCode": "09", "address": "3105 33 ST", "city": "VERNON", "province": "BC", "country": "CA", "postalCode": "V1T9P7", "twitter": "None", "instagram": "None", "facebook": "None", "youtube": "None", "website": "None", "summary": "None", "logo": "None", "latitude": 50.265108, "longitude": -119.2750784924695}, "887208676RR0001": {"name": "Food Allergy Canada / Allergies alimentaires Canada", "designationCode": "C", "categoryCode": "11", "address": "507 - 505 CONSUMERS RD", "city": "NORTH YORK", "province": "ON", "country": "CA", "postalCode": "M2J4V8", "twitter": "None", "instagram": "None", "facebook": "None", "youtube": "None", "website": "None", "summary": "None", "logo": "None", "latitude": 43.77121033498767, "longitude": -79.3243361956548}, "822547816RR0001": {"name": "Food Bank Society of Whitehorse", "designationCode": "C", "categoryCode": "09", "address": "306 ALEXANDER STREET", "city": "WHITEHORSE", "province": "YT", "country": "CA", "postalCode": "Y1A2L6", "twitter": "None", "instagram": "None", "facebook": "None", "youtube": "None", "website": "None", "summary": "None", "logo": "None", "latitude": 60.72288037996993, "longitude": -135.0582972006751}, "847758968RR0001": {"name": "Food Banks of Saskatchewan Corporation", "designationCode": "A", "categoryCode": "09", "address": "2-445 WINNIPEG STREET", "city": "REGINA", "province": "SK", "country": "CA", "postalCode": "S4R8P2", "twitter": "None", "instagram": "None", "facebook": "None", "youtube": "None", "website": "None", "summary": "None", "logo": "None", "latitude": 50.47172355103489, "longitude": -104.59515272648136}, "842889859RR0001": {"name": "Food First Foundation", "designationCode": "C", "categoryCode": "21", "address": "PO BOX 973 STN MAIN", "city": "YELLOWKNIFE", "province": "NT", "country": "CA", "postalCode": "X1A2N7", "twitter": "None", "instagram": "None", "facebook": "None", "youtube": "None", "website": "None", "summary": "None", "logo": "None", "latitude": 62.45446200000005, "longitude": -114.37092349999993}, "824295455RR0001": {"name": "Food Rescue (Yellowknife)", "designationCode": "C", "categoryCode": "09", "address": "345B OLD AIRPORT ROAD", "city": "YELLOWKNIFE", "province": "NT", "country": "CA", "postalCode": "X1A3T4", "twitter": "None", "instagram": "None", "facebook": "None", "youtube": "None", "website": "None", "summary": "None", "logo": "None", "latitude": 62.457335724642, "longitude": -114.41075344431226}, "818910374RR0001": {"name": "Food 4 Children Society", "designationCode": "C", "categoryCode": "09", "address": "49 WALL ST", "city": "ST PETERS", "province": "NS", "country": "CA", "postalCode": "B0E3B0", "twitter": "None", "instagram": "None", "facebook": "None", "youtube": "None", "website": "None", "summary": "None", "logo": "None", "latitude": 45.727804787177185, "longitude": -60.82522529277536}, "833297484RR0001": {"name": "Food4Kids Hamilton Halton", "designationCode": "C", "categoryCode": "09", "address": "405 WHITNEY AVE", "city": "HAMILTON", "province": "ON", "country": "CA", "postalCode": "L8S2H6", "twitter": "None", "instagram": "None", "facebook": "None", "youtube": "None", "website": "None", "summary": "None", "logo": "None", "latitude": 43.25135971106246, "longitude": -79.93755862308849}, "747836096RR0001": {"name": "Food4Kids Ontario", "designationCode": "C", "categoryCode": "09", "address": "407 WHITNEY AVE,", "city": "HAMILTON", "province": "ON", "country": "CA", "postalCode": "L8S2H6", "twitter": "None", "instagram": "None", "facebook": "None", "youtube": "None", "website": "None", "summary": "None", "logo": "None", "latitude": 43.25134268552725, "longitude": -79.93766759755326}, "751269895RR0001": {"name": "Food4Kids Waterloo Wellington Inc.", "designationCode": "C", "categoryCode": "09", "address": "7 - 100 CAMPBELL AVE", "city": "KITCHENER", "province": "ON", "country": "CA", "postalCode": "N2H4X8", "twitter": "None", "instagram": "None", "facebook": "None", "youtube": "None", "website": "None", "summary": "None", "logo": "None", "latitude": 43.47187371417819, "longitude": -80.47673823157642}, "815351663RR0001": {"name": "Foord Family Foundation", "designationCode": "B", "categoryCode": "03", "address": "P.O. BOX 1240", "city": "VERNON", "province": "BC", "country": "CA", "postalCode": "V1T6N6", "twitter": "None", "instagram": "None", "facebook": "None", "youtube": "None", "website": "None", "summary": "None", "logo": "None", "latitude": 50.26567200000005, "longitude": -119.27378149999993}, "791061328RR0001": {"name": "Footbridge Foundation", "designationCode": "A", "categoryCode": "13", "address": "1000 - 1200 BURRARD ST", "city": "VANCOUVER", "province": "BC", "country": "CA", "postalCode": "V6Z2C7", "twitter": "None", "instagram": "None", "facebook": "None", "youtube": "None", "website": "None", "summary": "None", "logo": "None", "latitude": 49.27872895585447, "longitude": -123.12957399567216}, "118927086RR0001": {"name": "Foothills Alliance Church", "designationCode": "C", "categoryCode": "39", "address": "333 EDGEPARK BLVD NW", "city": "CALGARY", "province": "AB", "country": "CA", "postalCode": "T3A4K4", "twitter": "None", "instagram": "None", "facebook": "None", "youtube": "None", "website": "None", "summary": "None", "logo": "None", "latitude": 51.13658118512322, "longitude": -114.15718594047543}, "838886562RR0001": {"name": "Foothills Community Church of Okotoks", "designationCode": "C", "categoryCode": "39", "address": "PO BOX 1277 STN MAIN", "city": "OKOTOKS", "province": "AB", "country": "CA", "postalCode": "T1S1B3", "twitter": "None", "instagram": "None", "facebook": "None", "youtube": "None", "website": "None", "summary": "None", "logo": "None", "latitude": 50.72589600000006, "longitude": -113.97494149999994}, "749473096RR0001": {"name": "Foothills Islamic Society (FIS)", "designationCode": "C", "categoryCode": "60", "address": "10A - 710 CENTRE ST SE", "city": "HIGH RIVER", "province": "AB", "country": "CA", "postalCode": "T1V0H3", "twitter": "None", "instagram": "None", "facebook": "None", "youtube": "None", "website": "None", "summary": "None", "logo": "None", "latitude": 50.576188568411375, "longitude": -113.87144282829391}, "844144303RR0001": {"name": "Footprints for Learning Society", "designationCode": "C", "categoryCode": "20", "address": "102 - 2926 KINGSVIEW BLVD SE", "city": "AIRDRIE", "province": "AB", "country": "CA", "postalCode": "T4A0C9", "twitter": "None", "instagram": "None", "facebook": "None", "youtube": "None", "website": "None", "summary": "None", "logo": "None", "latitude": 51.25975480789573, "longitude": -113.99510799466165}, "847058849RR0001": {"name": "Footprints in the Sand Foundation", "designationCode": "A", "categoryCode": "03", "address": "BOX 62                        SUITE 1250 - 1500 WEST GEORGIA", "city": "VANCOUVER", "province": "BC", "country": "CA", "postalCode": "V6G2Z6", "twitter": "None", "instagram": "None", "facebook": "None", "youtube": "None", "website": "None", "summary": "None", "logo": "None", "latitude": 49.29013479542975, "longitude": -123.1300069287031}, "845294180RR0001": {"name": "For the Love of Learning Incorporated", "designationCode": "C", "categoryCode": "20", "address": "POST OFFICE BOX 7231          STATION C", "city": "ST JOHNS", "province": "NL", "country": "CA", "postalCode": "A1E3Y4", "twitter": "None", "instagram": "None", "facebook": "None", "youtube": "None", "website": "None", "summary": "None", "logo": "None", "latitude": 47.56082100000006, "longitude": -52.71219349999993}, "835093824RR0001": {"name": "For the Needy-Not the Greedy Medical Equipment & Supplies Corporation", "designationCode": "C", "categoryCode": "19", "address": "7281 FERN AVENUE", "city": "NIAGARA FALLS", "province": "ON", "country": "CA", "postalCode": "L2G5H3", "twitter": "None", "instagram": "None", "facebook": "None", "youtube": "None", "website": "None", "summary": "None", "logo": "None", "latitude": 43.07010033888282, "longitude": -79.10637006359258}, "820675437RR0001": {"name": "For Child's Hope Canada", "designationCode": "C", "categoryCode": "01", "address": "56 RED FERN TERRACE", "city": "HALIFAX", "province": "NS", "country": "CA", "postalCode": "B3S1K8", "twitter": "None", "instagram": "None", "facebook": "None", "youtube": "None", "website": "None", "summary": "None", "logo": "None", "latitude": 44.67102012796459, "longitude": -63.671995310837424}, "862521002RR0001": {"name": "For Kids 'N' Giggles Puppet Theatre", "designationCode": "C", "categoryCode": "22", "address": "1760 DEMPSEY ROAD", "city": "NORTH VANCOUVER", "province": "BC", "country": "CA", "postalCode": "V7K1T4", "twitter": "None", "instagram": "None", "facebook": "None", "youtube": "None", "website": "None", "summary": "None", "logo": "None", "latitude": 49.34787247489748, "longitude": -123.02318249999999}, "843558735RR0001": {"name": "For Students and Communities Inc.", "designationCode": "C", "categoryCode": "21", "address": "45 WILMONT COURT", "city": "BRAMPTON", "province": "ON", "country": "CA", "postalCode": "L6X4Z4", "twitter": "None", "instagram": "None", "facebook": "None", "youtube": "None", "website": "None", "summary": "None", "logo": "None", "latitude": 43.67750778377298, "longitude": -79.81415465722205}, "823194881RR0001": {"name": "For\u00eat Hereford Inc.", "designationCode": "C", "categoryCode": "52", "address": "294 RUE SAINT-JACQUES N", "city": "COATICOOK", "province": "QC", "country": "CA", "postalCode": "J1A2R3", "twitter": "None", "instagram": "None", "facebook": "None", "youtube": "None", "website": "None", "summary": "None", "logo": "None", "latitude": 45.136734820705186, "longitude": -71.79691129436189}, "823683487RR0001": {"name": "Forest and the Femme Society", "designationCode": "C", "categoryCode": "57", "address": "313 - 2055 COMMERCIAL DR", "city": "VANCOUVER", "province": "BC", "country": "CA", "postalCode": "V5N0C7", "twitter": "None", "instagram": "None", "facebook": "None", "youtube": "None", "website": "None", "summary": "None", "logo": "None", "latitude": 49.266292930391586, "longitude": -123.06976349254973}, "830317467RR0001": {"name": "Forest City Destiny Church", "designationCode": "C", "categoryCode": "39", "address": "37 EASTMAN AVE", "city": "LONDON", "province": "ON", "country": "CA", "postalCode": "N5W2M3", "twitter": "None", "instagram": "None", "facebook": "None", "youtube": "None", "website": "None", "summary": "None", "logo": "None", "latitude": 42.993025691355626, "longitude": -81.1997211068441}, "768771891RR0001": {"name": "Forest City Film Festival", "designationCode": "C", "categoryCode": "22", "address": "1373 SPRUCEDALE AVE", "city": "LONDON", "province": "ON", "country": "CA", "postalCode": "N5X2N7", "twitter": "None", "instagram": "None", "facebook": "None", "youtube": "None", "website": "None", "summary": "None", "logo": "None", "latitude": 43.02539333720937, "longitude": -81.25631105539827}, "766368492RR0001": {"name": "Forest City North Church", "designationCode": "C", "categoryCode": "39", "address": "35 - 1828 BLUE HERON DR", "city": "LONDON", "province": "ON", "country": "CA", "postalCode": "N6H0B7", "twitter": "None", "instagram": "None", "facebook": "None", "youtube": "None", "website": "None", "summary": "None", "logo": "None", "latitude": 43.00400917044709, "longitude": -81.33728343114845}, "839736717RR0001": {"name": "Forest Dale Home Foundation", "designationCode": "A", "categoryCode": "03", "address": "5836 KING STREET", "city": "RIVERSIDE-ALBERT", "province": "NB", "country": "CA", "postalCode": "E4H4B9", "twitter": "None", "instagram": "None", "facebook": "None", "youtube": "None", "website": "None", "summary": "None", "logo": "None", "latitude": 45.74881027411782, "longitude": -64.74083327761164}, "821001401RR0001": {"name": "Forest Glen Community Cemetery Inc.", "designationCode": "C", "categoryCode": "59", "address": "689 RTE 905", "city": "POLLETT RIVER", "province": "NB", "country": "CA", "postalCode": "E4Z3B3", "twitter": "None", "instagram": "None", "facebook": "None", "youtube": "None", "website": "None", "summary": "None", "logo": "None", "latitude": 45.88125422741165, "longitude": -65.10132917301814}, "815349311RR0001": {"name": "Forest Hill Jewish Centre", "designationCode": "C", "categoryCode": "42", "address": "360 SPADINA RD", "city": "TORONTO", "province": "ON", "country": "CA", "postalCode": "M5P2V4", "twitter": "None", "instagram": "None", "facebook": "None", "youtube": "None", "website": "None", "summary": "None", "logo": "None", "latitude": 43.68618962891686, "longitude": -79.41184319291348}, "847733441RR0001": {"name": "Forest Home United Church", "designationCode": "C", "categoryCode": "44", "address": "165 LINE 15 N", "city": "ORILLIA", "province": "ON", "country": "CA", "postalCode": "L3V0H5", "twitter": "None", "instagram": "None", "facebook": "None", "youtube": "None", "website": "None", "summary": "None", "logo": "None", "latitude": 44.571338705811, "longitude": -79.44812620924478}, "839160801RR0001": {"name": "Forest Legacy Foundation", "designationCode": "B", "categoryCode": "03", "address": "4984 DOGWOOD DRIVE", "city": "DELTA", "province": "BC", "country": "CA", "postalCode": "V4M1M6", "twitter": "None", "instagram": "None", "facebook": "None", "youtube": "None", "website": "None", "summary": "None", "logo": "None", "latitude": 49.01628161223978, "longitude": -123.08546727823305}, "837687243RR0001": {"name": "Forest Trust for the Children of Cortes Island Society", "designationCode": "C", "categoryCode": "52", "address": "BOX 68                        1457 BAYVIEW ROAD", "city": "WHALETOWN", "province": "BC", "country": "CA", "postalCode": "V0P1Z0", "twitter": "None", "instagram": "None", "facebook": "None", "youtube": "None", "website": "None", "summary": "None", "logo": "None", "latitude": 50.09980094850421, "longitude": -124.97989670132435}, "844412056RR0001": {"name": "Forever Chai Foundation of Canada", "designationCode": "C", "categoryCode": "03", "address": "1057 STEELES AVENUE WEST      PO BOX 81596", "city": "TORONTO", "province": "ON", "country": "CA", "postalCode": "M2R3X1", "twitter": "None", "instagram": "None", "facebook": "None", "youtube": "None", "website": "None", "summary": "None", "logo": "None", "latitude": 43.79177857478035, "longitude": -79.44848861125855}, "827328584RR0001": {"name": "Forever Families of Canada Inc.", "designationCode": "C", "categoryCode": "29", "address": "1445 CALLSBECK AVE", "city": "WINNIPEG", "province": "MB", "country": "CA", "postalCode": "R2K4K4", "twitter": "None", "instagram": "None", "facebook": "None", "youtube": "None", "website": "None", "summary": "None", "logo": "None", "latitude": 49.90995201973551, "longitude": -97.06306284344178}, "851063040RR0001": {"name": "Forever Thyme Sanctuary", "designationCode": "B", "categoryCode": "54", "address": "14571 WARDEN AVENUE,", "city": "STOUFFVILLE", "province": "ON", "country": "CA", "postalCode": "L4A7X5", "twitter": "None", "instagram": "None", "facebook": "None", "youtube": "None", "website": "None", "summary": "None", "logo": "None", "latitude": 44.00538403335417, "longitude": -79.36609390729696}, "815464003RR0001": {"name": "Forget Me Not - Cenotaph Fund Inc.", "designationCode": "C", "categoryCode": "59", "address": "37 PARK AVENUE", "city": "CORNER BROOK", "province": "NL", "country": "CA", "postalCode": "A2H7H8", "twitter": "None", "instagram": "None", "facebook": "None", "youtube": "None", "website": "None", "summary": "None", "logo": "None", "latitude": 48.98452993641443, "longitude": -57.974933286942935}, "815741624RR0001": {"name": "Forget Me Not Cat Sanctuary Society", "designationCode": "C", "categoryCode": "54", "address": "SUITE 157                     3-11 BELLEROSE DRIVE", "city": "ST. ALBERT", "province": "AB", "country": "CA", "postalCode": "T8N5C9", "twitter": "None", "instagram": "None", "facebook": "None", "youtube": "None", "website": "None", "summary": "None", "logo": "None", "latitude": 53.64456254481969, "longitude": -113.62370374135219}, "851598417RR0001": {"name": "Forgotten Ones Cat Rescue and Adoption Inc.", "designationCode": "C", "categoryCode": "54", "address": "245 ALTAMIRA RD", "city": "RICHMOND HILL", "province": "ON", "country": "CA", "postalCode": "L4C4C9", "twitter": "None", "instagram": "None", "facebook": "None", "youtube": "None", "website": "None", "summary": "None", "logo": "None", "latitude": 43.87748718347843, "longitude": -79.45044787122735}, "139997969RR0001": {"name": "Forgotten People Connection", "designationCode": "C", "categoryCode": "39", "address": "4458 SIDEROAD 20N", "city": "GUELPH", "province": "ON", "country": "CA", "postalCode": "N1H6J3", "twitter": "None", "instagram": "None", "facebook": "None", "youtube": "None", "website": "None", "summary": "None", "logo": "None", "latitude": 43.478646000000055, "longitude": -80.22445549999993}, "131159576RR0001": {"name": "Formation AlterGo / AlterGo Formation", "designationCode": "C", "categoryCode": "59", "address": "525 RUE DOMINION 3E ETAGE", "city": "MONTREAL", "province": "QC", "country": "CA", "postalCode": "H3J2B4", "twitter": "None", "instagram": "None", "facebook": "None", "youtube": "None", "website": "None", "summary": "None", "logo": "None", "latitude": 45.48452789621432, "longitude": -73.5735421333316}, "853396406RR0001": {"name": "Forstar Charitable Foundation", "designationCode": "A", "categoryCode": "03", "address": "SUITE 1510,                   141 ADELAIDE ST. W.", "city": "TORONTO", "province": "ON", "country": "CA", "postalCode": "M5H3L5", "twitter": "None", "instagram": "None", "facebook": "None", "youtube": "None", "website": "None", "summary": "None", "logo": "None", "latitude": 43.649088853165296, "longitude": -79.38442797945643}, "118928308RR0001": {"name": "Fort City Church of the Christian and Missionary Alliance in Canada", "designationCode": "C", "categoryCode": "39", "address": "101 SPRUCE STREET", "city": "FORT MCMURRAY", "province": "AB", "country": "CA", "postalCode": "T9K1E2", "twitter": "None", "instagram": "None", "facebook": "None", "youtube": "None", "website": "None", "summary": "None", "logo": "None", "latitude": 56.73418464441146, "longitude": -111.42911741101642}, "806609459RR0001": {"name": "Fort Erie Historical Railway Association", "designationCode": "C", "categoryCode": "50", "address": "407 BELLEVIEW BLVD            P.O. BOX 1064", "city": "RIDGEWAY", "province": "ON", "country": "CA", "postalCode": "L0S1N0", "twitter": "None", "instagram": "None", "facebook": "None", "youtube": "None", "website": "None", "summary": "None", "logo": "None", "latitude": 42.88574616180969, "longitude": -79.05610050490475}, "897488797RR0001": {"name": "Fort Frances Tribal Area Health Services Inc.", "designationCode": "C", "categoryCode": "11", "address": "PO BOX 608 STN MAIN", "city": "FORT FRANCES", "province": "ON", "country": "CA", "postalCode": "P9A3M9", "twitter": "None", "instagram": "None", "facebook": "None", "youtube": "None", "website": "None", "summary": "None", "logo": "None", "latitude": 48.610023000000055, "longitude": -93.39111349999993}, "802549113RR0001": {"name": "Fort Frontenac Library", "designationCode": "C", "categoryCode": "50", "address": "P. O. BOX 17000 STATION FORCES", "city": "KINGSTON", "province": "ON", "country": "CA", "postalCode": "K7K7B4", "twitter": "None", "instagram": "None", "facebook": "None", "youtube": "None", "website": "None", "summary": "None", "logo": "None", "latitude": 44.23153200000006, "longitude": -76.47933049999993}, "872910807RR0001": {"name": "Fort Macleod Kids First Family Centre", "designationCode": "C", "categoryCode": "09", "address": "PO BOX 2419", "city": "FORT MACLEOD", "province": "AB", "country": "CA", "postalCode": "T0L0Z0", "twitter": "None", "instagram": "None", "facebook": "None", "youtube": "None", "website": "None", "summary": "None", "logo": "None", "latitude": 49.72608000000008, "longitude": -113.39563999999996}, "816530844RR0001": {"name": "Fort McMurray Korean Church", "designationCode": "C", "categoryCode": "39", "address": "101 TUNDRA DRIVE", "city": "FORT MCMURRAY", "province": "AB", "country": "CA", "postalCode": "T9H5A4", "twitter": "None", "instagram": "None", "facebook": "None", "youtube": "None", "website": "None", "summary": "None", "logo": "None", "latitude": 56.73227768694087, "longitude": -111.4584865347678}, "855918819RR0001": {"name": "Fort Nelson Community Literacy Society", "designationCode": "C", "categoryCode": "21", "address": "P.O. BOX 91", "city": "FORT NELSON", "province": "BC", "country": "CA", "postalCode": "V0C1R0", "twitter": "None", "instagram": "None", "facebook": "None", "youtube": "None", "website": "None", "summary": "None", "logo": "None", "latitude": 58.80501000000004, "longitude": -122.70459999999997}, "892745167RR0001": {"name": "Fort Nelson Hospice Society", "designationCode": "C", "categoryCode": "09", "address": "BAG 1000                      5315 LIARD ST", "city": "FORT NELSON", "province": "BC", "country": "CA", "postalCode": "V0C1R0", "twitter": "None", "instagram": "None", "facebook": "None", "youtube": "None", "website": "None", "summary": "None", "logo": "None", "latitude": 58.809082590234446, "longitude": -122.70317518365184}, "107395253RR0001": {"name": "Fort Nelson Playschool Society", "designationCode": "C", "categoryCode": "01", "address": "PO BOX 834", "city": "FORT NELSON", "province": "BC", "country": "CA", "postalCode": "V0C1R0", "twitter": "None", "instagram": "None", "facebook": "None", "youtube": "None", "website": "None", "summary": "None", "logo": "None", "latitude": 58.80465000000004, "longitude": -122.70046999999994}, "119288918RR1582": {"name": "Fort Nelson, British Columbia Congregation of Jehovah's Witnesses", "designationCode": "C", "categoryCode": "61", "address": "PO BOX 3377", "city": "FORT NELSON", "province": "BC", "country": "CA", "postalCode": "V0C1R0", "twitter": "None", "instagram": "None", "facebook": "None", "youtube": "None", "website": "None", "summary": "None", "logo": "None", "latitude": 58.80465000000004, "longitude": -122.70046999999994}, "822133864RR0001": {"name": "Fort Pelly-Livingstone Museum", "designationCode": "C", "categoryCode": "50", "address": "POST OFFICE BOX 217", "city": "PELLY", "province": "SK", "country": "CA", "postalCode": "S0A2Z0", "twitter": "None", "instagram": "None", "facebook": "None", "youtube": "None", "website": "None", "summary": "None", "logo": "None", "latitude": 50.38314143458857, "longitude": -101.69730002519363}, "846326684RR0001": {"name": "Fort Point Cemetery Company", "designationCode": "C", "categoryCode": "59", "address": "2902 HIGHWAY 331", "city": "PENTZ", "province": "NS", "country": "CA", "postalCode": "B0R1G0", "twitter": "None", "instagram": "None", "facebook": "None", "youtube": "None", "website": "None", "summary": "None", "logo": "None", "latitude": 44.30161520394562, "longitude": -64.38992587276363}, "119288918RR0650": {"name": "Fort Qu'Appelle Congregation of Jehovah's Witnesses, Fort Qu'Appelle, Saskatchewan", "designationCode": "C", "categoryCode": "61", "address": "POST OFFICE BOX 1122", "city": "FORT QU'APPELLE", "province": "SK", "country": "CA", "postalCode": "S0G1S0", "twitter": "None", "instagram": "None", "facebook": "None", "youtube": "None", "website": "None", "summary": "None", "logo": "None", "latitude": 50.76964000000004, "longitude": -103.79339999999996}, "751829920RR0001": {"name": "Fort Saskatchewan Skateboarding Society", "designationCode": "C", "categoryCode": "56", "address": "9909 82 ST", "city": "FORT SASKATCHEWAN", "province": "AB", "country": "CA", "postalCode": "T8L3E6", "twitter": "None", "instagram": "None", "facebook": "None", "youtube": "None", "website": "None", "summary": "None", "logo": "None", "latitude": 53.69404249460432, "longitude": -113.24695060141974}, "819253097RR0001": {"name": "Fort St John Oilfield Christian Fellowship", "designationCode": "C", "categoryCode": "49", "address": "9947 WILLOW RD                PO BOX 6656", "city": "FORT ST JOHN", "province": "BC", "country": "CA", "postalCode": "V1J4J1", "twitter": "None", "instagram": "None", "facebook": "None", "youtube": "None", "website": "None", "summary": "None", "logo": "None", "latitude": 56.25253500000005, "longitude": -120.84748099999993}, "866485063RR0001": {"name": "Fort St. John & Area Senior's Care Foundation", "designationCode": "C", "categoryCode": "13", "address": "#102  9816 - 108 AVENUE", "city": "FORT ST JOHN", "province": "BC", "country": "CA", "postalCode": "V1J5S4", "twitter": "None", "instagram": "None", "facebook": "None", "youtube": "None", "website": "None", "summary": "None", "logo": "None", "latitude": 56.25381252986306, "longitude": -120.8454514417162}, "118903509RR0001": {"name": "Fort St. John Evangelical Mission", "designationCode": "C", "categoryCode": "39", "address": "8220-89 AVE", "city": "FORT ST JOHN", "province": "BC", "country": "CA", "postalCode": "V1J5S5", "twitter": "None", "instagram": "None", "facebook": "None", "youtube": "None", "website": "None", "summary": "None", "logo": "None", "latitude": 56.23542146436589, "longitude": -120.81567060935426}, "775630122RR0001": {"name": "Fort St. John Firefighters Charitable Society", "designationCode": "B", "categoryCode": "03", "address": "9312 93 AVE", "city": "FORT ST. JOHN", "province": "BC", "country": "CA", "postalCode": "V1J6T4", "twitter": "None", "instagram": "None", "facebook": "None", "youtube": "None", "website": "None", "summary": "None", "logo": "None", "latitude": 56.2390994787926, "longitude": -120.8350712514571}, "107396020RR0001": {"name": "Fort St. John Women's Resource Society", "designationCode": "C", "categoryCode": "09", "address": "10051 100 AVE", "city": "FORT ST JOHN", "province": "BC", "country": "CA", "postalCode": "V1J1Y7", "twitter": "None", "instagram": "None", "facebook": "None", "youtube": "None", "website": "None", "summary": "None", "logo": "None", "latitude": 56.24644554674262, "longitude": -120.84877252553522}, "107395907RR0001": {"name": "Fort St. John, Association for Community Living", "designationCode": "C", "categoryCode": "11", "address": "10251 100 AVE", "city": "FORT ST. JOHN", "province": "BC", "country": "CA", "postalCode": "V1J1Y8", "twitter": "None", "instagram": "None", "facebook": "None", "youtube": "None", "website": "None", "summary": "None", "logo": "None", "latitude": 56.24644554674262, "longitude": -120.85195410935425}, "107396228RR0001": {"name": "Fort William Baptist Church, Thunder Bay, Ontario", "designationCode": "C", "categoryCode": "31", "address": "1800 MOODIE STREET", "city": "THUNDER BAY", "province": "ON", "country": "CA", "postalCode": "P7E4Z2", "twitter": "None", "instagram": "None", "facebook": "None", "youtube": "None", "website": "None", "summary": "None", "logo": "None", "latitude": 48.37593953231588, "longitude": -89.26256241618097}, "857473060RR0001": {"name": "Forte Musical Theatre Guild", "designationCode": "C", "categoryCode": "22", "address": "162 PATRICK VIEW SW", "city": "CALGARY", "province": "AB", "country": "CA", "postalCode": "T3H3B1", "twitter": "None", "instagram": "None", "facebook": "None", "youtube": "None", "website": "None", "summary": "None", "logo": "None", "latitude": 51.06652893533954, "longitude": -114.17897297209883}, "828223313RR0001": {"name": "Forth Junction Heritage Society", "designationCode": "C", "categoryCode": "50", "address": "66 KERR CLOSE", "city": "RED DEER", "province": "AB", "country": "CA", "postalCode": "T4P3V6", "twitter": "None", "instagram": "None", "facebook": "None", "youtube": "None", "website": "None", "summary": "None", "logo": "None", "latitude": 52.311131455450415, "longitude": -113.82801067545701}, "806666756RR0001": {"name": "Fortier Family Foundation", "designationCode": "B", "categoryCode": "03", "address": "19443 LESLIE STREET", "city": "SHARON", "province": "ON", "country": "CA", "postalCode": "L0G1V0", "twitter": "None", "instagram": "None", "facebook": "None", "youtube": "None", "website": "None", "summary": "None", "logo": "None", "latitude": 44.113414829043734, "longitude": -79.44390423971436}, "803453034RR0001": {"name": "Fortuit Th\u00e9\u00e2tre", "designationCode": "C", "categoryCode": "22", "address": "917 RUE SAINT-HUBERT", "city": "GRANBY", "province": "QC", "country": "CA", "postalCode": "J2H2K6", "twitter": "None", "instagram": "None", "facebook": "None", "youtube": "None", "website": "None", "summary": "None", "logo": "None", "latitude": 45.441301642506865, "longitude": -72.72598711417302}, "818357675RR0001": {"name": "Fortune ATV Trail Association Inc.", "designationCode": "C", "categoryCode": "56", "address": "PO BOX 429", "city": "FORTUNE", "province": "NL", "country": "CA", "postalCode": "A0E1P0", "twitter": "None", "instagram": "None", "facebook": "None", "youtube": "None", "website": "None", "summary": "None", "logo": "None", "latitude": 47.074110000000076, "longitude": -55.82591999999994}, "118928902RR0001": {"name": "Fortune United Church", "designationCode": "C", "categoryCode": "44", "address": "2 DIXON ST                    PO BOX 383", "city": "FORTUNE", "province": "NL", "country": "CA", "postalCode": "A0E1P0", "twitter": "None", "instagram": "None", "facebook": "None", "youtube": "None", "website": "None", "summary": "None", "logo": "None", "latitude": 47.07386550000001, "longitude": -55.821672}, "861056646RR0001": {"name": "Forum for Women Entrepreneurs in British Columbia", "designationCode": "C", "categoryCode": "20", "address": "200 - 409 GRANVILLE ST", "city": "VANCOUVER", "province": "BC", "country": "CA", "postalCode": "V6C1T2", "twitter": "None", "instagram": "None", "facebook": "None", "youtube": "None", "website": "None", "summary": "None", "logo": "None", "latitude": 49.28514383654554, "longitude": -123.11419112049143}, "857606057RR0001": {"name": "Forward in Faith Church BC", "designationCode": "B", "categoryCode": "39", "address": "201 - 14640 64 AVE", "city": "SURREY", "province": "BC", "country": "CA", "postalCode": "V3S1X7", "twitter": "None", "instagram": "None", "facebook": "None", "youtube": "None", "website": "None", "summary": "None", "logo": "None", "latitude": 49.11912450678067, "longitude": -122.81674050000001}, "854547312RR0001": {"name": "Forward Church Inc.", "designationCode": "C", "categoryCode": "39", "address": "108 CARLETON STREET", "city": "WOODSTOCK", "province": "NB", "country": "CA", "postalCode": "E7M1Z7", "twitter": "None", "instagram": "None", "facebook": "None", "youtube": "None", "website": "None", "summary": "None", "logo": "None", "latitude": 46.149355700180074, "longitude": -67.57153671878937}, "839365574RR0001": {"name": "Forward City Church Inc.", "designationCode": "C", "categoryCode": "39", "address": "136 MORNING GLORY LANE", "city": "CHATHAM", "province": "ON", "country": "CA", "postalCode": "N7L5S5", "twitter": "None", "instagram": "None", "facebook": "None", "youtube": "None", "website": "None", "summary": "None", "logo": "None", "latitude": 42.40810037246811, "longitude": -82.2244186140861}, "844253187RR0001": {"name": "Forward March Ministries", "designationCode": "C", "categoryCode": "49", "address": "76 MANNING DRIVE", "city": "CHATAM", "province": "ON", "country": "CA", "postalCode": "N7M0A6", "twitter": "None", "instagram": "None", "facebook": "None", "youtube": "None", "website": "None", "summary": "None", "logo": "None", "latitude": 42.37552959365812, "longitude": -82.2052229003406}, "860150978RR0001": {"name": "Forword Society", "designationCode": "C", "categoryCode": "47", "address": "POST OFFICE BOX 321", "city": "COBBLE HILL", "province": "BC", "country": "CA", "postalCode": "V0R1L0", "twitter": "None", "instagram": "None", "facebook": "None", "youtube": "None", "website": "None", "summary": "None", "logo": "None", "latitude": 48.67040081812132, "longitude": -123.56645604658561}, "821487907RR0001": {"name": "Foster Community Church", "designationCode": "C", "categoryCode": "39", "address": "10-15300 105 AVE", "city": "SURREY", "province": "BC", "country": "CA", "postalCode": "V3R6A7", "twitter": "None", "instagram": "None", "facebook": "None", "youtube": "None", "website": "None", "summary": "None", "logo": "None", "latitude": 49.193304517889175, "longitude": -122.79771352553522}, "802916049RR0001": {"name": "Fostering Communication", "designationCode": "C", "categoryCode": "29", "address": "29 AHRENS ST W", "city": "KITCHENER", "province": "ON", "country": "CA", "postalCode": "N2H4B6", "twitter": "None", "instagram": "None", "facebook": "None", "youtube": "None", "website": "None", "summary": "None", "logo": "None", "latitude": 43.453880665820385, "longitude": -80.48788350251016}, "816291041RR0001": {"name": "Foundation for a Healthy Saskatchewan Inc.", "designationCode": "A", "categoryCode": "13", "address": "103 HOSPITAL DRIVE", "city": "SASKATOON", "province": "SK", "country": "CA", "postalCode": "S7N0W8", "twitter": "None", "instagram": "None", "facebook": "None", "youtube": "None", "website": "None", "summary": "None", "logo": "None", "latitude": 52.13004270348365, "longitude": -106.64217694051077}, "866262348RR0001": {"name": "Foundation for the Advancement of Mi'Kmaw Education", "designationCode": "A", "categoryCode": "23", "address": "47 MAILLARD STREET", "city": "SYDNEY", "province": "NS", "country": "CA", "postalCode": "B1S2P5", "twitter": "None", "instagram": "None", "facebook": "None", "youtube": "None", "website": "None", "summary": "None", "logo": "None", "latitude": 46.12038983262174, "longitude": -60.19219066885015}, "119285278RR0001": {"name": "Foundation for the Victoria Symphony", "designationCode": "A", "categoryCode": "22", "address": "610 - 620 VIEW ST", "city": "VICTORIA", "province": "BC", "country": "CA", "postalCode": "V8W1J6", "twitter": "None", "instagram": "None", "facebook": "None", "youtube": "None", "website": "None", "summary": "None", "logo": "None", "latitude": 48.42565545657561, "longitude": -123.36678018872988}, "815140231RR0001": {"name": "Foundation for Addiction and Mental Health", "designationCode": "C", "categoryCode": "11", "address": "5316 - 7005 FAIRMOUNT DR SE", "city": "CALGARY", "province": "AB", "country": "CA", "postalCode": "T2H0K4", "twitter": "None", "instagram": "None", "facebook": "None", "youtube": "None", "website": "None", "summary": "None", "logo": "None", "latitude": 50.99136258090485, "longitude": -114.06385411590378}, "888288669RR0001": {"name": "Foundation for Advancing Family Medicine / Fondation pour l'avancement de la m\u00e9decine familiale", "designationCode": "C", "categoryCode": "29", "address": "2630 SKYMARK AVENUE", "city": "MISSISSAUGA", "province": "ON", "country": "CA", "postalCode": "L4W5A4", "twitter": "None", "instagram": "None", "facebook": "None", "youtube": "None", "website": "None", "summary": "None", "logo": "None", "latitude": 43.65910838020108, "longitude": -79.59786357057574}, "134471333RR0001": {"name": "Foundation for Cancer Wellness", "designationCode": "C", "categoryCode": "11", "address": "2033 MOUNT FOREST DR", "city": "BURLINGTON", "province": "ON", "country": "CA", "postalCode": "L7P1H4", "twitter": "None", "instagram": "None", "facebook": "None", "youtube": "None", "website": "None", "summary": "None", "logo": "None", "latitude": 43.347200497951185, "longitude": -79.82753826066102}, "801009002RR0001": {"name": "Foundation for Civic Literacy", "designationCode": "C", "categoryCode": "21", "address": "55 MELROSE AVENUE", "city": "OTTAWA", "province": "ON", "country": "CA", "postalCode": "K1Y1T8", "twitter": "None", "instagram": "None", "facebook": "None", "youtube": "None", "website": "None", "summary": "None", "logo": "None", "latitude": 45.40137561893356, "longitude": -75.72378263292758}, "801430307RR0001": {"name": "Foundation for Environmental Stewardship", "designationCode": "C", "categoryCode": "59", "address": "100 - 32 BRITAIN ST", "city": "TORONTO", "province": "ON", "country": "CA", "postalCode": "M5A1R6", "twitter": "None", "instagram": "None", "facebook": "None", "youtube": "None", "website": "None", "summary": "None", "logo": "None", "latitude": 43.65380412851284, "longitude": -79.37054649500833}, "806868410RR0001": {"name": "Foundation for Liver and Intestinal Disorders", "designationCode": "C", "categoryCode": "21", "address": "1500 WEST GEORGIA STREET      SUITE 1250 P.O. BOX   62", "city": "VANCOUVER", "province": "BC", "country": "CA", "postalCode": "V6G2Z6", "twitter": "None", "instagram": "None", "facebook": "None", "youtube": "None", "website": "None", "summary": "None", "logo": "None", "latitude": 49.2900638104334, "longitude": -123.12989899362336}, "829775402RR0001": {"name": "Foundation for Open Development", "designationCode": "C", "categoryCode": "09", "address": "112-1615 FRANCES ST.", "city": "VANCOUVER", "province": "BC", "country": "CA", "postalCode": "V5L1Z3", "twitter": "None", "instagram": "None", "facebook": "None", "youtube": "None", "website": "None", "summary": "None", "logo": "None", "latitude": 49.27947150043268, "longitude": -123.0718309417162}, "852770601RR0001": {"name": "Foundation for Public Good", "designationCode": "A", "categoryCode": "03", "address": "1500 WEST GEORGIA STREET      SUITE 1250   BOX 62", "city": "VANCOUVER", "province": "BC", "country": "CA", "postalCode": "V6G2Z6", "twitter": "None", "instagram": "None", "facebook": "None", "youtube": "None", "website": "None", "summary": "None", "logo": "None", "latitude": 49.2900638104334, "longitude": -123.12989899362336}, "800750416RR0001": {"name": "Foundation of the Soci\u00e9t\u00e9 Internationale D'Urologie FSIU / Fondation de la soci\u00e9t\u00e9 internationale d'urologie FSIU", "designationCode": "C", "categoryCode": "19", "address": "1155 UNIVERSITY STREET        SUITE 1012", "city": "MONTREAL", "province": "QC", "country": "CA", "postalCode": "H3B3A7", "twitter": "None", "instagram": "None", "facebook": "None", "youtube": "None", "website": "None", "summary": "None", "logo": "None", "latitude": 38.62519000080763, "longitude": -122.86379139208519}, "806545034RR0001": {"name": "Foundation of Canadian Catholic Congregations/ Fondation des congr\u00e9gations Catholiques Canadiennes", "designationCode": "C", "categoryCode": "03", "address": "6299 AIRPORT ROAD             SUITE 100", "city": "MISSISSAUGA", "province": "ON", "country": "CA", "postalCode": "L4V1N3", "twitter": "None", "instagram": "None", "facebook": "None", "youtube": "None", "website": "None", "summary": "None", "logo": "None", "latitude": 43.690123284263, "longitude": -79.62375186534166}, "857742894RR0001": {"name": "Foundation Baptist Church of Edmondon", "designationCode": "C", "categoryCode": "31", "address": "202 WESTON DR", "city": "SPRUCE GROVE", "province": "AB", "country": "CA", "postalCode": "T7X1T9", "twitter": "None", "instagram": "None", "facebook": "None", "youtube": "None", "website": "None", "summary": "None", "logo": "None", "latitude": 53.5457421845463, "longitude": -113.91978042281741}, "822556973RR0001": {"name": "Foundation Baptist College", "designationCode": "C", "categoryCode": "49", "address": "2215 17 STREET NORTHWEST", "city": "EDMONTON", "province": "AB", "country": "CA", "postalCode": "T6T1J1", "twitter": "None", "instagram": "None", "facebook": "None", "youtube": "None", "website": "None", "summary": "None", "logo": "None", "latitude": 53.453217226783366, "longitude": -113.36908430459928}, "814891560RR0001": {"name": "Foundation For Human Rights For Eastern Europe", "designationCode": "C", "categoryCode": "59", "address": "163 CHARTWELL RD", "city": "OAKVILLE", "province": "ON", "country": "CA", "postalCode": "L6J3Z7", "twitter": "None", "instagram": "None", "facebook": "None", "youtube": "None", "website": "None", "summary": "None", "logo": "None", "latitude": 43.45582722038197, "longitude": -79.66133568982642}, "855717385RR0001": {"name": "Foundation For Prader-Willi Research Canada", "designationCode": "C", "categoryCode": "13", "address": "19-13085 YONGE STREET         SUITE 370", "city": "RICHMOND HILL", "province": "ON", "country": "CA", "postalCode": "L4E0K2", "twitter": "None", "instagram": "None", "facebook": "None", "youtube": "None", "website": "None", "summary": "None", "logo": "None", "latitude": 43.947931567863115, "longitude": -79.45543372742243}, "816817589RR0001": {"name": "Foundation FEL Canada / Fondation FEL Canada", "designationCode": "C", "categoryCode": "21", "address": "1212 ALBANY DR", "city": "OTTAWA", "province": "ON", "country": "CA", "postalCode": "K2C2L4", "twitter": "None", "instagram": "None", "facebook": "None", "youtube": "None", "website": "None", "summary": "None", "logo": "None", "latitude": 45.361499385509866, "longitude": -75.75569267014822}}