{"812319499RR0001": {"name": "St. Joseph's Housing Corporation Inc. Guelph", "designationCode": "C", "categoryCode": "09", "address": "100 WESTMOUNT ROAD", "city": "GUELPH", "province": "ON", "country": "CA", "postalCode": "N1H5H8", "twitter": "None", "instagram": "None", "facebook": "None", "youtube": "None", "website": "None", "summary": "None", "logo": "None", "latitude": 43.55088010439057, "longitude": -80.27103337871628}, "833941842RR0001": {"name": "St. Joseph's Kingsbridge Community", "designationCode": "C", "categoryCode": "56", "address": "84675A BLUEWATER HWY          RR 3", "city": "GODERICH", "province": "ON", "country": "CA", "postalCode": "N7A3X9", "twitter": "None", "instagram": "None", "facebook": "None", "youtube": "None", "website": "None", "summary": "None", "logo": "None", "latitude": 43.929180355069484, "longitude": -81.69950986931549}, "107910259RR0065": {"name": "St. Joseph's Parish", "designationCode": "C", "categoryCode": "38", "address": "162 LESLIE STREET", "city": "TORONTO", "province": "ON", "country": "CA", "postalCode": "M4M3C7", "twitter": "None", "instagram": "None", "facebook": "None", "youtube": "None", "website": "None", "summary": "None", "logo": "None", "latitude": 43.665017972791325, "longitude": -79.33102314340091}, "107910259RR0106": {"name": "St. Joseph's Parish", "designationCode": "C", "categoryCode": "38", "address": "200 MORRISH ROAD", "city": "WEST HILL", "province": "ON", "country": "CA", "postalCode": "M1C1E8", "twitter": "None", "instagram": "None", "facebook": "None", "youtube": "None", "website": "None", "summary": "None", "logo": "None", "latitude": 43.78244643298832, "longitude": -79.17029589507078}, "107910259RR0115": {"name": "St. Joseph's Parish", "designationCode": "C", "categoryCode": "38", "address": "573 SIMCOE STREET             PO BOX 179", "city": "BEAVERTON", "province": "ON", "country": "CA", "postalCode": "L0K1A0", "twitter": "None", "instagram": "None", "facebook": "None", "youtube": "None", "website": "None", "summary": "None", "logo": "None", "latitude": 44.4274600588731, "longitude": -79.14646017576612}, "107910259RR0144": {"name": "St. Joseph's Parish", "designationCode": "C", "categoryCode": "38", "address": "5440 DURIE ROAD", "city": "MISSISSAUGA", "province": "ON", "country": "CA", "postalCode": "L5M2J5", "twitter": "None", "instagram": "None", "facebook": "None", "youtube": "None", "website": "None", "summary": "None", "logo": "None", "latitude": 43.58129700940641, "longitude": -79.70216528939888}, "107307191RR0072": {"name": "St. Joseph's Parish, Kelvington, SK", "designationCode": "C", "categoryCode": "38", "address": "P.O. BOX 501", "city": "KELVINGTON", "province": "SK", "country": "CA", "postalCode": "S0A1W0", "twitter": "None", "instagram": "None", "facebook": "None", "youtube": "None", "website": "None", "summary": "None", "logo": "None", "latitude": 50.942659313471935, "longitude": -102.0486202158667}, "806955779RR0001": {"name": "St. Joseph's Park Restoration Association", "designationCode": "C", "categoryCode": "56", "address": "5001 HIGHWAY 31 NORTH         POST OFFICE BOX 721", "city": "MACKLIN", "province": "SK", "country": "CA", "postalCode": "S0L2C0", "twitter": "None", "instagram": "None", "facebook": "None", "youtube": "None", "website": "None", "summary": "None", "logo": "None", "latitude": 52.33573056977197, "longitude": -109.9359135}, "119184448RR0001": {"name": "St. Joseph's Villa Dundas", "designationCode": "C", "categoryCode": "01", "address": "56 GOVERNOR'S RD", "city": "DUNDAS", "province": "ON", "country": "CA", "postalCode": "L9H5G7", "twitter": "None", "instagram": "None", "facebook": "None", "youtube": "None", "website": "None", "summary": "None", "logo": "None", "latitude": 43.26224473876206, "longitude": -79.9576194987306}, "757966320RR0005": {"name": "St. Jude Syro-Malabar Catholic Church, Winnipeg", "designationCode": "C", "categoryCode": "39", "address": "556 ST ANNE'S RD", "city": "WINNIPEG", "province": "MB", "country": "CA", "postalCode": "R2M3G4", "twitter": "None", "instagram": "None", "facebook": "None", "youtube": "None", "website": "None", "summary": "None", "logo": "None", "latitude": 49.836271013590014, "longitude": -97.09198653266166}, "107910259RR0066": {"name": "St. Jude's Parish", "designationCode": "C", "categoryCode": "38", "address": "3265 WESTON ROAD", "city": "WESTON", "province": "ON", "country": "CA", "postalCode": "M9M2T9", "twitter": "None", "instagram": "None", "facebook": "None", "youtube": "None", "website": "None", "summary": "None", "logo": "None", "latitude": 43.741054141554585, "longitude": -79.5398536247046}, "107910259RR0201": {"name": "St. Justin Martyr Parish", "designationCode": "C", "categoryCode": "38", "address": "3898 HIGHWAY  7E", "city": "UNIONVILLE", "province": "ON", "country": "CA", "postalCode": "L3R1L3", "twitter": "None", "instagram": "None", "facebook": "None", "youtube": "None", "website": "None", "summary": "None", "logo": "None", "latitude": 43.85710719069062, "longitude": -79.32841631740622}, "873837470RR0001": {"name": "St. Justin School Parent Advisory Association", "designationCode": "C", "categoryCode": "21", "address": "8405 175 ST NW", "city": "EDMONTON", "province": "AB", "country": "CA", "postalCode": "T5T0G9", "twitter": "None", "instagram": "None", "facebook": "None", "youtube": "None", "website": "None", "summary": "None", "logo": "None", "latitude": 53.517251105199314, "longitude": -113.62369079049634}, "893525378RR0001": {"name": "St. JEROME CATHOLIC SCHOOL COMMUNITY COUNCIL CORP.", "designationCode": "C", "categoryCode": "21", "address": "770 RINK AVENUE", "city": "REGINA", "province": "SK", "country": "CA", "postalCode": "S4X1V8", "twitter": "None", "instagram": "None", "facebook": "None", "youtube": "None", "website": "None", "summary": "None", "logo": "None", "latitude": 50.487853385018916, "longitude": -104.68204666928285}, "888360849RR0001": {"name": "St. Kosmas Aitolos Greek Orthodox Church of Metropolitan Toronto Inc.", "designationCode": "C", "categoryCode": "39", "address": "4 BURNLEY AVE", "city": "SCARBOROUGH", "province": "ON", "country": "CA", "postalCode": "M1R2M4", "twitter": "None", "instagram": "None", "facebook": "None", "youtube": "None", "website": "None", "summary": "None", "logo": "None", "latitude": 43.74347583484344, "longitude": -79.3079967053783}, "757966320RR0003": {"name": "St. Kuriakose Chavara Syro-Malabar Catholic Church, Belleville", "designationCode": "C", "categoryCode": "39", "address": "296 CHURCH STREET", "city": "BELLEVILLE", "province": "ON", "country": "CA", "postalCode": "K8N3C6", "twitter": "None", "instagram": "None", "facebook": "None", "youtube": "None", "website": "None", "summary": "None", "logo": "None", "latitude": 44.16827081652158, "longitude": -77.382959903485}, "846279594RR0001": {"name": "St. Lawrence Acoustic Stage Performances", "designationCode": "C", "categoryCode": "22", "address": "POST OFFICE BOX 3009", "city": "MORRISBURG", "province": "ON", "country": "CA", "postalCode": "K0C1X0", "twitter": "None", "instagram": "None", "facebook": "None", "youtube": "None", "website": "None", "summary": "None", "logo": "None", "latitude": 44.89832000000007, "longitude": -75.19097999999997}, "817554413RR0001": {"name": "St. Lawrence Community Youth Network Inc.", "designationCode": "C", "categoryCode": "09", "address": "PO BOX 338", "city": "ST. LAWRENCE", "province": "NL", "country": "CA", "postalCode": "A0E2V0", "twitter": "None", "instagram": "None", "facebook": "None", "youtube": "None", "website": "None", "summary": "None", "logo": "None", "latitude": 46.92468000000008, "longitude": -55.39275999999995}, "107910259RR0067": {"name": "St. Lawrence Martyr Parish", "designationCode": "C", "categoryCode": "38", "address": "2210 LAWRENCE AVE. EAST", "city": "SCARBOROUGH", "province": "ON", "country": "CA", "postalCode": "M1P2P9", "twitter": "None", "instagram": "None", "facebook": "None", "youtube": "None", "website": "None", "summary": "None", "logo": "None", "latitude": 43.74845420237722, "longitude": -79.28035923301967}, "107910259RR0200": {"name": "St. Leo the Great Parish", "designationCode": "C", "categoryCode": "38", "address": "130 WATFORD STREET", "city": "BROOKLIN", "province": "ON", "country": "CA", "postalCode": "L1M1H2", "twitter": "None", "instagram": "None", "facebook": "None", "youtube": "None", "website": "None", "summary": "None", "logo": "None", "latitude": 43.96514843213689, "longitude": -78.95042925425571}, "107910259RR0068": {"name": "St. Leo's Parish", "designationCode": "C", "categoryCode": "38", "address": "277 ROYAL YORK RD", "city": "TORONTO", "province": "ON", "country": "CA", "postalCode": "M8V2V8", "twitter": "None", "instagram": "None", "facebook": "None", "youtube": "None", "website": "None", "summary": "None", "logo": "None", "latitude": 43.61417461394189, "longitude": -79.49751086672664}, "107910259RR0193": {"name": "St. Leonard's Parish", "designationCode": "C", "categoryCode": "38", "address": "187 CONESTOGA DR", "city": "BRAMPTON", "province": "ON", "country": "CA", "postalCode": "L6Z3X8", "twitter": "None", "instagram": "None", "facebook": "None", "youtube": "None", "website": "None", "summary": "None", "logo": "None", "latitude": 43.72235400556859, "longitude": -79.79071155534095}, "119185098RR0001": {"name": "St. Leonard's Place, Peel", "designationCode": "C", "categoryCode": "59", "address": "1105 QUEEN ST E               BOX 2607", "city": "BRAMPTON", "province": "ON", "country": "CA", "postalCode": "L6T5M6", "twitter": "None", "instagram": "None", "facebook": "None", "youtube": "None", "website": "None", "summary": "None", "logo": "None", "latitude": 43.70957590533226, "longitude": -79.73370041211294}, "107910259RR0160": {"name": "St. Louis-de-France Parish", "designationCode": "C", "categoryCode": "38", "address": "1415 DON MILLS ROAD", "city": "DON MILLS", "province": "ON", "country": "CA", "postalCode": "M3B2X5", "twitter": "None", "instagram": "None", "facebook": "None", "youtube": "None", "website": "None", "summary": "None", "logo": "None", "latitude": 43.7536548362303, "longitude": -79.34697324306123}, "119185965RR0001": {"name": "St. Luke Evangelical Lutheran Church", "designationCode": "C", "categoryCode": "32", "address": "326 MACKAY STREET", "city": "OTTAWA", "province": "ON", "country": "CA", "postalCode": "K1M2B9", "twitter": "None", "instagram": "None", "facebook": "None", "youtube": "None", "website": "None", "summary": "None", "logo": "None", "latitude": 45.44023915794319, "longitude": -75.68099560032323}, "119185536RR0001": {"name": "St. Luke's Anglican Church", "designationCode": "C", "categoryCode": "30", "address": "508551 HIGHWAY 89", "city": "MULMUR", "province": "ON", "country": "CA", "postalCode": "L9V0P7", "twitter": "None", "instagram": "None", "facebook": "None", "youtube": "None", "website": "None", "summary": "None", "logo": "None", "latitude": 44.12231037589638, "longitude": -79.99818542210852}, "825965692RR0001": {"name": "St. Luke's Anglican Church Pembroke", "designationCode": "C", "categoryCode": "30", "address": "307 JULIEN STREET", "city": "PEMBROKE", "province": "ON", "country": "CA", "postalCode": "K8A3P6", "twitter": "None", "instagram": "None", "facebook": "None", "youtube": "None", "website": "None", "summary": "None", "logo": "None", "latitude": 45.80908000614549, "longitude": -77.1202112271053}, "107910259RR0146": {"name": "St. Luke's Parish", "designationCode": "C", "categoryCode": "38", "address": "39 GREEN LANE", "city": "THORNHILL", "province": "ON", "country": "CA", "postalCode": "L3T6K5", "twitter": "None", "instagram": "None", "facebook": "None", "youtube": "None", "website": "None", "summary": "None", "logo": "None", "latitude": 43.821969772087584, "longitude": -79.39795490186981}, "851685909RR0001": {"name": "St. Macrina Counselling Services Inc.", "designationCode": "C", "categoryCode": "11", "address": "153 BROADVIEW AVENUE", "city": "TORONTO", "province": "ON", "country": "CA", "postalCode": "M4M2E9", "twitter": "None", "instagram": "None", "facebook": "None", "youtube": "None", "website": "None", "summary": "None", "logo": "None", "latitude": 43.66037356287144, "longitude": -79.35043979069789}, "107910259RR0011": {"name": "St. Margaret of Scotland Parish", "designationCode": "C", "categoryCode": "38", "address": "222 RIDLEY BOULEVARD", "city": "TORONTO", "province": "ON", "country": "CA", "postalCode": "M5M3M6", "twitter": "None", "instagram": "None", "facebook": "None", "youtube": "None", "website": "None", "summary": "None", "logo": "None", "latitude": 43.738289201800285, "longitude": -79.42156718705645}, "107910259RR0153": {"name": "St. Margaret Mary Parish", "designationCode": "C", "categoryCode": "38", "address": "8500 ISLINGTON AVE", "city": "WOODBRIDGE", "province": "ON", "country": "CA", "postalCode": "L4L1X4", "twitter": "None", "instagram": "None", "facebook": "None", "youtube": "None", "website": "None", "summary": "None", "logo": "None", "latitude": 43.801137021091826, "longitude": -79.5849199789655}, "108084658RR0097": {"name": "St. Margaret's Anglican Church", "designationCode": "C", "categoryCode": "30", "address": "1376 HWY 17 EAST", "city": "RUTHERGLEN", "province": "ON", "country": "CA", "postalCode": "P0H2E0", "twitter": "None", "instagram": "None", "facebook": "None", "youtube": "None", "website": "None", "summary": "None", "logo": "None", "latitude": 46.27041291037182, "longitude": -79.04430585038583}, "107910259RR0125": {"name": "St. Margaret's Parish", "designationCode": "C", "categoryCode": "38", "address": "589 HUGEL AVENUE", "city": "MIDLAND", "province": "ON", "country": "CA", "postalCode": "L4R1W3", "twitter": "None", "instagram": "None", "facebook": "None", "youtube": "None", "website": "None", "summary": "None", "logo": "None", "latitude": 44.74839910861633, "longitude": -79.88894476583098}, "107910259RR0004": {"name": "St. Marguerite d'Youville Parish", "designationCode": "C", "categoryCode": "38", "address": "2490 SANDALWOOD PKWY EAST", "city": "BRAMPTON", "province": "ON", "country": "CA", "postalCode": "L6R3A4", "twitter": "None", "instagram": "None", "facebook": "None", "youtube": "None", "website": "None", "summary": "None", "logo": "None", "latitude": 43.76492925370745, "longitude": -79.74900043121326}, "119109833RR0005": {"name": "St. Marguerite Bourgeoys Parish", "designationCode": "C", "categoryCode": "38", "address": "18 SCHOLARS RD", "city": "UPPER TANTALLON", "province": "NS", "country": "CA", "postalCode": "B3Z0N2", "twitter": "None", "instagram": "None", "facebook": "None", "youtube": "None", "website": "None", "summary": "None", "logo": "None", "latitude": 44.696647471493264, "longitude": -63.86488002668906}, "107910259RR0069": {"name": "St. Maria Goretti Parish", "designationCode": "C", "categoryCode": "38", "address": "717 KENNEDY RD", "city": "SCARBOROUGH", "province": "ON", "country": "CA", "postalCode": "M1K2C1", "twitter": "None", "instagram": "None", "facebook": "None", "youtube": "None", "website": "None", "summary": "None", "logo": "None", "latitude": 43.72920999446009, "longitude": -79.26667122892297}, "800990798RR0001": {"name": "St. Mark & St. Philopater Coptic Orthodox Church", "designationCode": "C", "categoryCode": "39", "address": "2015 CREELMAN AVE", "city": "VANCOUVER", "province": "BC", "country": "CA", "postalCode": "V6J1C2", "twitter": "None", "instagram": "None", "facebook": "None", "youtube": "None", "website": "None", "summary": "None", "logo": "None", "latitude": 49.27452448600596, "longitude": -123.15068105245543}, "129144549RR0006": {"name": "St. Mark's Anglican Church Valhalla Parish", "designationCode": "C", "categoryCode": "30", "address": "PO BOX 187", "city": "NAKUSP", "province": "BC", "country": "CA", "postalCode": "V0G1R0", "twitter": "None", "instagram": "None", "facebook": "None", "youtube": "None", "website": "None", "summary": "None", "logo": "None", "latitude": 50.23888800000006, "longitude": -117.80203399999994}, "107910259RR0070": {"name": "St. Mark's Parish", "designationCode": "C", "categoryCode": "38", "address": "277 PARK LAWN RD", "city": "TORONTO", "province": "ON", "country": "CA", "postalCode": "M8Y3J7", "twitter": "None", "instagram": "None", "facebook": "None", "youtube": "None", "website": "None", "summary": "None", "logo": "None", "latitude": 43.63411312406943, "longitude": -79.49249822090154}, "107910259RR0184": {"name": "St. Mark's Parish", "designationCode": "C", "categoryCode": "38", "address": "345 GLAD PARK AVENUE", "city": "STOUFFVILLE", "province": "ON", "country": "CA", "postalCode": "L4A1E4", "twitter": "None", "instagram": "None", "facebook": "None", "youtube": "None", "website": "None", "summary": "None", "logo": "None", "latitude": 43.974058118500864, "longitude": -79.25950610667027}, "842506313RR0001": {"name": "St. Mark's Traditional Anglican Church", "designationCode": "C", "categoryCode": "39", "address": "2117 SKYLARK LANE", "city": "SIDNEY", "province": "BC", "country": "CA", "postalCode": "V8L1Y5", "twitter": "None", "instagram": "None", "facebook": "None", "youtube": "None", "website": "None", "summary": "None", "logo": "None", "latitude": 48.6505974884588, "longitude": -123.41129408381903}, "107910259RR0163": {"name": "St. Martin de Porres Parish", "designationCode": "C", "categoryCode": "38", "address": "4179 LAWRENCE AVE E", "city": "SCARBOROUGH", "province": "ON", "country": "CA", "postalCode": "M1E2S3", "twitter": "None", "instagram": "None", "facebook": "None", "youtube": "None", "website": "None", "summary": "None", "logo": "None", "latitude": 43.76806688533697, "longitude": -79.18763383345845}, "107910259RR0158": {"name": "St. Martin of Tours Parish", "designationCode": "C", "categoryCode": "38", "address": "1290 MCBRIDE AVENUE", "city": "MISSISSAUGA", "province": "ON", "country": "CA", "postalCode": "L5C1M8", "twitter": "None", "instagram": "None", "facebook": "None", "youtube": "None", "website": "None", "summary": "None", "logo": "None", "latitude": 43.55969262972492, "longitude": -79.65628488963614}, "847527066RR0001": {"name": "St. Mary & St. George Coptic Orthodox Church of Red Deer", "designationCode": "C", "categoryCode": "39", "address": "4346 39 ST", "city": "RED DEER", "province": "AB", "country": "CA", "postalCode": "T4N0Z5", "twitter": "None", "instagram": "None", "facebook": "None", "youtube": "None", "website": "None", "summary": "None", "logo": "None", "latitude": 52.25946546047076, "longitude": -113.79877255536961}, "799124698RR0001": {"name": "St. Mary & St. Mark Coptic Orthodox Church", "designationCode": "C", "categoryCode": "39", "address": "335 MAKI AVENUE", "city": "SUDBURY", "province": "ON", "country": "CA", "postalCode": "P3E2P3", "twitter": "None", "instagram": "None", "facebook": "None", "youtube": "None", "website": "None", "summary": "None", "logo": "None", "latitude": 46.4581888492835, "longitude": -80.98929817173392}, "774696520RR0001": {"name": "St. Mary & St. Paul Coptic Orthodox Church of Calgary", "designationCode": "C", "categoryCode": "39", "address": "PO BOX 34251 RPO WESTBROOK", "city": "CALGARY", "province": "AB", "country": "CA", "postalCode": "T3C3W2", "twitter": "None", "instagram": "None", "facebook": "None", "youtube": "None", "website": "None", "summary": "None", "logo": "None", "latitude": 51.04149007501829, "longitude": -114.14100994835258}, "866305899RR0001": {"name": "St. Mary and St. Mena Orthodox Church", "designationCode": "C", "categoryCode": "39", "address": "357 STROUDS LANE", "city": "PICKERING", "province": "ON", "country": "CA", "postalCode": "L1V7J2", "twitter": "None", "instagram": "None", "facebook": "None", "youtube": "None", "website": "None", "summary": "None", "logo": "None", "latitude": 43.8235058778638, "longitude": -79.13476329237133}, "107910259RR0073": {"name": "St. Mary of the Angels Parish", "designationCode": "C", "categoryCode": "38", "address": "1481 DUFFERIN ST", "city": "TORONTO", "province": "ON", "country": "CA", "postalCode": "M6H4C7", "twitter": "None", "instagram": "None", "facebook": "None", "youtube": "None", "website": "None", "summary": "None", "logo": "None", "latitude": 43.672671293092485, "longitude": -79.4407990614578}, "837417757RR0001": {"name": "St. Mary Eritrean Orthodox Tewahdo Church", "designationCode": "C", "categoryCode": "39", "address": "47 BOULLEE STREET", "city": "LONDON", "province": "ON", "country": "CA", "postalCode": "N5Y1T5", "twitter": "None", "instagram": "None", "facebook": "None", "youtube": "None", "website": "None", "summary": "None", "logo": "None", "latitude": 43.00632778489817, "longitude": -81.22372338164337}, "839015435RR0001": {"name": "St. Mary Eritrean Orthodox Tewahdo Church Regina Inc.", "designationCode": "C", "categoryCode": "39", "address": "11 - 111 ANGUS RD", "city": "REGINA", "province": "SK", "country": "CA", "postalCode": "S4R3L4", "twitter": "None", "instagram": "None", "facebook": "None", "youtube": "None", "website": "None", "summary": "None", "logo": "None", "latitude": 50.48205392200936, "longitude": -104.6203778065096}, "107910259RR0140": {"name": "St. Mary Immaculate Parish", "designationCode": "C", "categoryCode": "38", "address": "10295 YONGE STREET", "city": "RICHMOND HILL", "province": "ON", "country": "CA", "postalCode": "L4C3R9", "twitter": "None", "instagram": "None", "facebook": "None", "youtube": "None", "website": "None", "summary": "None", "logo": "None", "latitude": 43.87841289592588, "longitude": -79.43886688727021}, "757966320RR0009": {"name": "St. Mary Knanaya Mission Syro-Malabar Catholic Church, Toronto", "designationCode": "C", "categoryCode": "39", "address": "5555 CREDITVIEW ROAD", "city": "MISSISSAUGA", "province": "ON", "country": "CA", "postalCode": "L5V2B9", "twitter": "None", "instagram": "None", "facebook": "None", "youtube": "None", "website": "None", "summary": "None", "logo": "None", "latitude": 43.5892212576026, "longitude": -79.7005546231754}, "119109817RR0076": {"name": "St. Mary Parish", "designationCode": "C", "categoryCode": "38", "address": "211 UNION ST", "city": "SIMCOE", "province": "ON", "country": "CA", "postalCode": "N3Y2B3", "twitter": "None", "instagram": "None", "facebook": "None", "youtube": "None", "website": "None", "summary": "None", "logo": "None", "latitude": 42.83876334332621, "longitude": -80.3121078769115}, "107910259RR0138": {"name": "St. Mary Star of the Sea Parish", "designationCode": "C", "categoryCode": "38", "address": "11 PETER ST SOUTH", "city": "MISSISSAUGA", "province": "ON", "country": "CA", "postalCode": "L5H2G1", "twitter": "None", "instagram": "None", "facebook": "None", "youtube": "None", "website": "None", "summary": "None", "logo": "None", "latitude": 43.548392251745554, "longitude": -79.58810686482205}, "119188050RR0001": {"name": "St. Mary's and St. Timothy's Anglican Church", "designationCode": "C", "categoryCode": "30", "address": "4308-50 AVENUE", "city": "SYLVAN LAKE", "province": "AB", "country": "CA", "postalCode": "T4S1C1", "twitter": "None", "instagram": "None", "facebook": "None", "youtube": "None", "website": "None", "summary": "None", "logo": "None", "latitude": 52.311333006116854, "longitude": -114.08820596852082}, "826043622RR0001": {"name": "St. Mary's Band Inc.", "designationCode": "C", "categoryCode": "22", "address": "12 BRINLEY STREET", "city": "SAINT JOHN", "province": "NB", "country": "CA", "postalCode": "E2L3E8", "twitter": "None", "instagram": "None", "facebook": "None", "youtube": "None", "website": "None", "summary": "None", "logo": "None", "latitude": 45.28237599555661, "longitude": -66.05398699875926}, "851610709RR0001": {"name": "St. Mary's Cathedral Basilica Foundation", "designationCode": "C", "categoryCode": "43", "address": "1531 GRAFTON ST", "city": "HALIFAX", "province": "NS", "country": "CA", "postalCode": "B3J2B9", "twitter": "None", "instagram": "None", "facebook": "None", "youtube": "None", "website": "None", "summary": "None", "logo": "None", "latitude": 44.64439061139251, "longitude": -63.57409284393179}, "107909939RR0093": {"name": "St. Mary's Church", "designationCode": "C", "categoryCode": "38", "address": "PO BOX 1025 STN MAIN", "city": "BANFF", "province": "AB", "country": "CA", "postalCode": "T1L1B1", "twitter": "None", "instagram": "None", "facebook": "None", "youtube": "None", "website": "None", "summary": "None", "logo": "None", "latitude": 51.17577900000006, "longitude": -115.57274299999993}, "108084658RR0130": {"name": "St. Mary's Church (North March)", "designationCode": "C", "categoryCode": "30", "address": "3262 TORWOOD DR", "city": "DUNROBIN", "province": "ON", "country": "CA", "postalCode": "K0A1T0", "twitter": "None", "instagram": "None", "facebook": "None", "youtube": "None", "website": "None", "summary": "None", "logo": "None", "latitude": 45.465186254284376, "longitude": -76.00512349200817}, "806638037RR0001": {"name": "St. Mary's Jacobite Syriac Orthodox Church, Edmonton", "designationCode": "C", "categoryCode": "39", "address": "PO BOX 32070 RPO MILLWOODS", "city": "EDMONTON", "province": "AB", "country": "CA", "postalCode": "T6K4C2", "twitter": "None", "instagram": "None", "facebook": "None", "youtube": "None", "website": "None", "summary": "None", "logo": "None", "latitude": 53.47319689456373, "longitude": -113.45567051511836}, "848259636RR0001": {"name": "St. Mary's Malankara Orthodox Syrian Church of Toronto", "designationCode": "C", "categoryCode": "39", "address": "9 - 170 FULLER RD", "city": "AJAX", "province": "ON", "country": "CA", "postalCode": "L1S7G8", "twitter": "None", "instagram": "None", "facebook": "None", "youtube": "None", "website": "None", "summary": "None", "logo": "None", "latitude": 43.83517551566547, "longitude": -79.03235250007982}, "107910259RR0002": {"name": "St. Mary's Parish", "designationCode": "C", "categoryCode": "38", "address": "63 ELGIN STREET", "city": "COLLINGWOOD", "province": "ON", "country": "CA", "postalCode": "L9Y3L6", "twitter": "None", "instagram": "None", "facebook": "None", "youtube": "None", "website": "None", "summary": "None", "logo": "None", "latitude": 44.49996999511103, "longitude": -80.21453863459202}, "107910259RR0071": {"name": "St. Mary's Parish", "designationCode": "C", "categoryCode": "38", "address": "588 ADELAIDE STREET WEST", "city": "TORONTO", "province": "ON", "country": "CA", "postalCode": "M6J3P8", "twitter": "None", "instagram": "None", "facebook": "None", "youtube": "None", "website": "None", "summary": "None", "logo": "None", "latitude": 43.644754172369936, "longitude": -79.40379806869981}, "107910259RR0072": {"name": "St. Mary's Parish", "designationCode": "C", "categoryCode": "38", "address": "1996 DAVENPORT ROAD", "city": "TORONTO", "province": "ON", "country": "CA", "postalCode": "M6N1C4", "twitter": "None", "instagram": "None", "facebook": "None", "youtube": "None", "website": "None", "summary": "None", "logo": "None", "latitude": 43.67015947489747, "longitude": -79.45776185942636}, "107910259RR0112": {"name": "St. Mary's Parish", "designationCode": "C", "categoryCode": "38", "address": "65 AMELIA ST", "city": "BARRIE", "province": "ON", "country": "CA", "postalCode": "L4M1M7", "twitter": "None", "instagram": "None", "facebook": "None", "youtube": "None", "website": "None", "summary": "None", "logo": "None", "latitude": 44.39402576796129, "longitude": -79.67850257118133}, "107910259RR0117": {"name": "St. Mary's Parish", "designationCode": "C", "categoryCode": "38", "address": "66 A MAIN ST S", "city": "BRAMPTON", "province": "ON", "country": "CA", "postalCode": "L6W2C6", "twitter": "None", "instagram": "None", "facebook": "None", "youtube": "None", "website": "None", "summary": "None", "logo": "None", "latitude": 43.68309586955272, "longitude": -79.7560431913131}, "107910259RR0149": {"name": "St. Mary's Parish", "designationCode": "C", "categoryCode": "38", "address": "BOX 10", "city": "VICTORIA HARBOUR", "province": "ON", "country": "CA", "postalCode": "L0K2A0", "twitter": "None", "instagram": "None", "facebook": "None", "youtube": "None", "website": "None", "summary": "None", "logo": "None", "latitude": 44.434325545288004, "longitude": -79.16397063592676}, "757966320RR0011": {"name": "St. Mary's Syro-Malabar Catholic Church, London", "designationCode": "C", "categoryCode": "39", "address": "89 CHARLES STREET", "city": "LONDON", "province": "ON", "country": "CA", "postalCode": "N6H1H1", "twitter": "None", "instagram": "None", "facebook": "None", "youtube": "None", "website": "None", "summary": "None", "logo": "None", "latitude": 42.9839004657222, "longitude": -81.2668275121181}, "119188944RR0001": {"name": "St. Mary's University", "designationCode": "C", "categoryCode": "20", "address": "14500 BANNISTER RD SE", "city": "CALGARY", "province": "AB", "country": "CA", "postalCode": "T2X1Z4", "twitter": "None", "instagram": "None", "facebook": "None", "youtube": "None", "website": "None", "summary": "None", "logo": "None"}, "842879504RR0001": {"name": "St. Matthew the Apostle", "designationCode": "C", "categoryCode": "39", "address": "1317 CHATTAWAY AVENUE", "city": "OTTAWA", "province": "ON", "country": "CA", "postalCode": "K1H7S2", "twitter": "None", "instagram": "None", "facebook": "None", "youtube": "None", "website": "None", "summary": "None", "logo": "None", "latitude": 45.38136943493553, "longitude": -75.66595452997862}, "108031386RR0001": {"name": "St. Matthew Evangelical Lutheran Church of Stony Plain, Alberta", "designationCode": "C", "categoryCode": "32", "address": "5021 - 52 AVENUE", "city": "STONY PLAIN", "province": "AB", "country": "CA", "postalCode": "T7Z1C1", "twitter": "None", "instagram": "None", "facebook": "None", "youtube": "None", "website": "None", "summary": "None", "logo": "None", "latitude": 53.52764451154118, "longitude": -114.00956302706443}, "801231366RR0001": {"name": "St. Matthew Syriac Orthodox Church", "designationCode": "C", "categoryCode": "39", "address": "4280 PROVIDENCE CRESCENT,", "city": "WINDSOR", "province": "ON", "country": "CA", "postalCode": "N9G2V2", "twitter": "None", "instagram": "None", "facebook": "None", "youtube": "None", "website": "None", "summary": "None", "logo": "None", "latitude": 42.249321282820716, "longitude": -82.98476629874797}, "107910259RR0074": {"name": "St. Matthew's Parish", "designationCode": "C", "categoryCode": "38", "address": "706 OLDWESTON RD", "city": "TORONTO", "province": "ON", "country": "CA", "postalCode": "M6N3B8", "twitter": "None", "instagram": "None", "facebook": "None", "youtube": "None", "website": "None", "summary": "None", "logo": "None", "latitude": 43.68111900000005, "longitude": -79.46703799999993}, "804941698RR0001": {"name": "St. Matthias and St. Luke Church", "designationCode": "C", "categoryCode": "39", "address": "PO BOX 37056 RPO GORDON PARK", "city": "VANCOUVER", "province": "BC", "country": "CA", "postalCode": "V5P4W7", "twitter": "None", "instagram": "None", "facebook": "None", "youtube": "None", "website": "None", "summary": "None", "logo": "None", "latitude": 49.22521000000006, "longitude": -123.07079999999996}, "822165015RR0001": {"name": "St. Maurice & St. Verena Coptic Orthodox Church", "designationCode": "C", "categoryCode": "39", "address": "3300 HIGHWAY 7 E", "city": "MARKHAM", "province": "ON", "country": "CA", "postalCode": "L3R5N9", "twitter": "None", "instagram": "None", "facebook": "None", "youtube": "None", "website": "None", "summary": "None", "logo": "None", "latitude": 43.852219752266215, "longitude": -79.34817416150922}, "107910259RR0185": {"name": "St. Maximilian Kolbe Parish", "designationCode": "C", "categoryCode": "38", "address": "4260 CAWTHRA ROAD", "city": "MISSISSAUGA", "province": "ON", "country": "CA", "postalCode": "L4Z1V8", "twitter": "None", "instagram": "None", "facebook": "None", "youtube": "None", "website": "None", "summary": "None", "logo": "None", "latitude": 43.613463073778384, "longitude": -79.62584976666227}, "119191948RR0001": {"name": "St. Michael the Archangel Anglican Church of Canada", "designationCode": "C", "categoryCode": "39", "address": "410 GOLDHAWK TRAIL", "city": "SCARBOROUGH", "province": "ON", "country": "CA", "postalCode": "M1V4E7", "twitter": "None", "instagram": "None", "facebook": "None", "youtube": "None", "website": "None", "summary": "None", "logo": "None", "latitude": 43.82626404827183, "longitude": -79.27868345686406}, "827462599RR0001": {"name": "St. Michael, St. John & St. Anthony Christian Orthodox Youth Evangelism & Service Center", "designationCode": "C", "categoryCode": "39", "address": "46 MCLEOD CRES", "city": "LEDUC", "province": "AB", "country": "CA", "postalCode": "T9E6N9", "twitter": "None", "instagram": "None", "facebook": "None", "youtube": "None", "website": "None", "summary": "None", "logo": "None", "latitude": 53.24642874161801, "longitude": -113.52025260661296}, "815508494RR0001": {"name": "St. Michael's Anglican Catholic Church, Inc.", "designationCode": "C", "categoryCode": "39", "address": "206 GORE ROAD", "city": "FREDERICTON JUNCTION", "province": "NB", "country": "CA", "postalCode": "E5L1T9", "twitter": "None", "instagram": "None", "facebook": "None", "youtube": "None", "website": "None", "summary": "None", "logo": "None", "latitude": 45.636928497035456, "longitude": -66.60611793405315}, "107910259RR0024": {"name": "St. Michael's Cathedral Basilica", "designationCode": "C", "categoryCode": "38", "address": "200 CHURCH ST", "city": "TORONTO", "province": "ON", "country": "CA", "postalCode": "M5B1Z2", "twitter": "None", "instagram": "None", "facebook": "None", "youtube": "None", "website": "None", "summary": "None", "logo": "None", "latitude": 43.655508377459775, "longitude": -79.37675449252683}, "848512810RR0001": {"name": "St. Michael's Choir School Foundation", "designationCode": "A", "categoryCode": "23", "address": "66 BOND STREET", "city": "TORONTO", "province": "ON", "country": "CA", "postalCode": "M5B1X2", "twitter": "None", "instagram": "None", "facebook": "None", "youtube": "None", "website": "None", "summary": "None", "logo": "None", "latitude": 43.655084905909185, "longitude": -79.37785591883535}, "834219131RR0001": {"name": "St. Michael's Church (Non-Denominational) Victoria Beach Inc.", "designationCode": "C", "categoryCode": "39", "address": "PO BOX 304", "city": "VICTORIA BEACH", "province": "MB", "country": "CA", "postalCode": "R0E2C0", "twitter": "None", "instagram": "None", "facebook": "None", "youtube": "None", "website": "None", "summary": "None", "logo": "None", "latitude": 50.69768737686306, "longitude": -96.55575829762454}, "858327661RR0001": {"name": "St. Michael's Haven Corporation", "designationCode": "C", "categoryCode": "09", "address": "619 5TH AVENUE", "city": "CUDWORTH", "province": "SK", "country": "CA", "postalCode": "S0K1B0", "twitter": "None", "instagram": "None", "facebook": "None", "youtube": "None", "website": "None", "summary": "None", "logo": "None", "latitude": 52.48706639864569, "longitude": -105.7373557195735}, "837172063RR0001": {"name": "St. Michael's Hospital Academic Family Health Team", "designationCode": "C", "categoryCode": "11", "address": "30 BOND STREET,               ROOM 01-045 BOND", "city": "TORONTO", "province": "ON", "country": "CA", "postalCode": "M5B1W8", "twitter": "None", "instagram": "None", "facebook": "None", "youtube": "None", "website": "None", "summary": "None", "logo": "None", "latitude": 43.653711971406366, "longitude": -79.37730546658757}, "888738598RR0001": {"name": "St. Michael's Ukrainian Catholic Parish, Sarto/Leonard Petryk", "designationCode": "C", "categoryCode": "38", "address": "BOX 62", "city": "SARTO", "province": "MB", "country": "CA", "postalCode": "R0A1J0", "twitter": "None", "instagram": "None", "facebook": "None", "youtube": "None", "website": "None", "summary": "None", "logo": "None", "latitude": 49.39936000000006, "longitude": -96.74359999999996}, "835359118RR0001": {"name": "St. Mina and St. Anthony Coptic Orthodox Church Inc.", "designationCode": "C", "categoryCode": "39", "address": "3360 VICTORIA AVENUE          POST OFFICE BOX 21016", "city": "BRANDON", "province": "MB", "country": "CA", "postalCode": "R7B0N2", "twitter": "None", "instagram": "None", "facebook": "None", "youtube": "None", "website": "None", "summary": "None", "logo": "None", "latitude": 49.84207008651779, "longitude": -99.9833013089461}, "107910259RR0075": {"name": "St. Monica's Parish", "designationCode": "C", "categoryCode": "38", "address": "44 BROADWAY AVENUE", "city": "TORONTO", "province": "ON", "country": "CA", "postalCode": "M4P1T4", "twitter": "None", "instagram": "None", "facebook": "None", "youtube": "None", "website": "None", "summary": "None", "logo": "None", "latitude": 43.710115239020936, "longitude": -79.39632636499495}, "833324841RR0001": {"name": "St. Moses & St. Katherine Coptic Orthodox Church", "designationCode": "C", "categoryCode": "39", "address": "557 BATHURST ST", "city": "TORONTO", "province": "ON", "country": "CA", "postalCode": "M5S2P8", "twitter": "None", "instagram": "None", "facebook": "None", "youtube": "None", "website": "None", "summary": "None", "logo": "None", "latitude": 43.65806780267176, "longitude": -79.40830979638203}, "757966320RR0010": {"name": "St. Mother Teresa Syro-Malabar Catholic Church, Niagara", "designationCode": "C", "categoryCode": "39", "address": "4673 VICTORIA AVENUE", "city": "NIAGARA FALLS", "province": "ON", "country": "CA", "postalCode": "L2E4B8", "twitter": "None", "instagram": "None", "facebook": "None", "youtube": "None", "website": "None", "summary": "None", "logo": "None", "latitude": 43.106409366639724, "longitude": -79.07327012147236}, "757966320RR0004": {"name": "St. Mother Teresa Syro-Malabar Catholic Church, North Battleford", "designationCode": "C", "categoryCode": "39", "address": "1301 112TH ST", "city": "NORTH BATTLEFORD", "province": "SK", "country": "CA", "postalCode": "S9A2L6", "twitter": "None", "instagram": "None", "facebook": "None", "youtube": "None", "website": "None", "summary": "None", "logo": "None", "latitude": 52.77710758673322, "longitude": -108.2814169055338}, "757966320RR0012": {"name": "St. Mother Teresa Syro-Malabar Catholic Church, Ottawa", "designationCode": "C", "categoryCode": "39", "address": "952 GREEN VALLEY CRESCENT", "city": "OTTAWA", "province": "ON", "country": "CA", "postalCode": "K2C3K7", "twitter": "None", "instagram": "None", "facebook": "None", "youtube": "None", "website": "None", "summary": "None", "logo": "None", "latitude": 45.37649246350052, "longitude": -75.7035333718912}, "107910259RR0156": {"name": "St. Nicholas of Bari Parish", "designationCode": "C", "categoryCode": "38", "address": "1277 ST CLAIR AVE W", "city": "TORONTO", "province": "ON", "country": "CA", "postalCode": "M6E1B8", "twitter": "None", "instagram": "None", "facebook": "None", "youtube": "None", "website": "None", "summary": "None", "logo": "None", "latitude": 43.67699488923211, "longitude": -79.44687704942567}, "863248514RR0001": {"name": "St. Nikola Macedonian Orthodox Church", "designationCode": "B", "categoryCode": "39", "address": "507 - 100 PRUDENTIAL DR", "city": "SCARBOROUGH", "province": "ON", "country": "CA", "postalCode": "M1P4V4", "twitter": "None", "instagram": "None", "facebook": "None", "youtube": "None", "website": "None", "summary": "None", "logo": "None", "latitude": 43.74923220569542, "longitude": -79.26669768916257}, "831608534RR0001": {"name": "St. Ninian Parish Foundation", "designationCode": "A", "categoryCode": "43", "address": "121 S. NINIAN STREET          POST OFFICE BOX 1021", "city": "ANTIGONISH", "province": "NS", "country": "CA", "postalCode": "B2G2L8", "twitter": "None", "instagram": "None", "facebook": "None", "youtube": "None", "website": "None", "summary": "None", "logo": "None", "latitude": 45.62082950894505, "longitude": -61.99364003843274}, "107910259RR0164": {"name": "St. Norbert's Parish", "designationCode": "C", "categoryCode": "38", "address": "100 REGENT ROAD", "city": "NORTH YORK", "province": "ON", "country": "CA", "postalCode": "M3K1H3", "twitter": "None", "instagram": "None", "facebook": "None", "youtube": "None", "website": "None", "summary": "None", "logo": "None", "latitude": 43.731936176265066, "longitude": -79.46539844783302}, "815786132RR0001": {"name": "St. Paraskevia Ukrainian Catholic Church", "designationCode": "C", "categoryCode": "38", "address": "81 WOODLAKE ROAD", "city": "SHERWOOD PARK", "province": "AB", "country": "CA", "postalCode": "T8A4B9", "twitter": "None", "instagram": "None", "facebook": "None", "youtube": "None", "website": "None", "summary": "None", "logo": "None", "latitude": 53.532662300046056, "longitude": -113.32842533207348}, "107910259RR0104": {"name": "St. Paschal Baylon Parish", "designationCode": "C", "categoryCode": "38", "address": "92 STEELES AVE W", "city": "THORNHILL", "province": "ON", "country": "CA", "postalCode": "L4J1A1", "twitter": "None", "instagram": "None", "facebook": "None", "youtube": "None", "website": "None", "summary": "None", "logo": "None", "latitude": 43.79730219631767, "longitude": -79.42357979909376}, "828362582RR0001": {"name": "St. Patrick's Church & Shrine Merlin", "designationCode": "C", "categoryCode": "38", "address": "5767 TENTH LINE               P.O. BOX 203", "city": "MERLIN", "province": "ON", "country": "CA", "postalCode": "N0P1W0", "twitter": "None", "instagram": "None", "facebook": "None", "youtube": "None", "website": "None", "summary": "None", "logo": "None", "latitude": 42.26629857066171, "longitude": -82.24293820278123}, "107910259RR0015": {"name": "St. Patrick's Parish", "designationCode": "C", "categoryCode": "38", "address": "131 MCCAUL STREET", "city": "TORONTO", "province": "ON", "country": "CA", "postalCode": "M5T1W3", "twitter": "None", "instagram": "None", "facebook": "None", "youtube": "None", "website": "None", "summary": "None", "logo": "None", "latitude": 43.65454465390385, "longitude": -79.39150782734161}, "107910259RR0121": {"name": "St. Patrick's Parish", "designationCode": "C", "categoryCode": "38", "address": "921 FLAGSHIP DR", "city": "MISSISSAUGA", "province": "ON", "country": "CA", "postalCode": "L4Y2J6", "twitter": "None", "instagram": "None", "facebook": "None", "youtube": "None", "website": "None", "summary": "None", "logo": "None", "latitude": 43.60440806191914, "longitude": -79.60095371556318}}