{"118811132RR0001": {"name": "BLAINE LAKE SENIOR CITIZENS CENTRE", "designationCode": "C", "categoryCode": "56", "address": "BOX 66", "city": "BLAINE LAKE", "province": "SK", "country": "CA", "postalCode": "S0J0J0", "twitter": "None", "instagram": "None", "facebook": "None", "youtube": "None", "website": "None", "summary": "None", "logo": "None", "latitude": 54.27596858551914, "longitude": -107.4281867350292}, "118811157RR0001": {"name": "BLAIR PRESBYTERIAN CHURCH", "designationCode": "C", "categoryCode": "37", "address": "3649 SUNNYBRAE-EDEN ROAD", "city": "GARDEN OF EDEN", "province": "NS", "country": "CA", "postalCode": "B2H5C8", "twitter": "None", "instagram": "None", "facebook": "None", "youtube": "None", "website": "None", "summary": "None", "logo": "None", "latitude": 45.42890279571821, "longitude": -62.312439115067065}, "118811165RR0001": {"name": "BLAIR PRESBYTERIAN WOMEN", "designationCode": "C", "categoryCode": "37", "address": "ST DAVID'S CHURCH PO BOX 235", "city": "CAMPBELLVILLE", "province": "ON", "country": "CA", "postalCode": "L0P1B0", "twitter": "None", "instagram": "None", "facebook": "None", "youtube": "None", "website": "None", "summary": "None", "logo": "None", "latitude": 43.530693000000056, "longitude": -80.04475699999993}, "136748167RR0001": {"name": "BLAKE BOULTBEE YOUTH OUTREACH SERVICE", "designationCode": "C", "categoryCode": "09", "address": "41 BLAKE ST", "city": "TORONTO", "province": "ON", "country": "CA", "postalCode": "M4J3E2", "twitter": "None", "instagram": "None", "facebook": "None", "youtube": "None", "website": "None", "summary": "None", "logo": "None", "latitude": 43.67291986678397, "longitude": -79.33834716400273}, "118886100RR0001": {"name": "BLANDFORD AND AREA FIRE RESCUE", "designationCode": "C", "categoryCode": "59", "address": "30A FIRE HALL RD", "city": "HUBBARDS", "province": "NS", "country": "CA", "postalCode": "B0J1T0", "twitter": "None", "instagram": "None", "facebook": "None", "youtube": "None", "website": "None", "summary": "None", "logo": "None", "latitude": 44.505565401656696, "longitude": -64.1213721602405}, "884869108RR0001": {"name": "BLANKETING MANITOBA", "designationCode": "C", "categoryCode": "59", "address": "4 TARA LEE COVE", "city": "WINNIPEG", "province": "MB", "country": "CA", "postalCode": "R2G3A6", "twitter": "None", "instagram": "None", "facebook": "None", "youtube": "None", "website": "None", "summary": "None", "logo": "None", "latitude": 49.924781904812676, "longitude": -97.0533750831552}, "877170225RR0001": {"name": "BLANKETS FOR CANADA SOCIETY", "designationCode": "C", "categoryCode": "09", "address": "217-210A 12A ST N", "city": "LETHBRIDGE", "province": "AB", "country": "CA", "postalCode": "T1H2J1", "twitter": "None", "instagram": "None", "facebook": "None", "youtube": "None", "website": "None", "summary": "None", "logo": "None", "latitude": 49.70237400000001, "longitude": -112.8284865}, "846381549RR0001": {"name": "BLANKETS OF LOVE FOUNDATION FOR MENTAL HEALTH", "designationCode": "C", "categoryCode": "11", "address": "23 MONTCALM CRESCENT", "city": "ST. ALBERT", "province": "AB", "country": "CA", "postalCode": "T8N2C8", "twitter": "None", "instagram": "None", "facebook": "None", "youtube": "None", "website": "None", "summary": "None", "logo": "None", "latitude": 53.63503052207276, "longitude": -113.63993771195649}, "119288918RR0297": {"name": "BLANTYRE PARK CONGREGATION OF JEHOVAH'S WITNESSES, TORONTO, ONTARIO", "designationCode": "C", "categoryCode": "61", "address": "65 HARRIS AVENUE", "city": "TORONTO", "province": "ON", "country": "CA", "postalCode": "M4C1P5", "twitter": "None", "instagram": "None", "facebook": "None", "youtube": "None", "website": "None", "summary": "None", "logo": "None", "latitude": 43.68825782763009, "longitude": -79.30483639563741}, "882323603RR0001": {"name": "BLEAK HOUSE CENTRE INC.", "designationCode": "C", "categoryCode": "56", "address": "1637 MAIN ST", "city": "WINNIPEG", "province": "MB", "country": "CA", "postalCode": "R2V1Y8", "twitter": "None", "instagram": "None", "facebook": "None", "youtube": "None", "website": "None", "summary": "None", "logo": "None", "latitude": 49.933031973339595, "longitude": -97.120688006752}, "891149742RR0001": {"name": "BLEAK HOUSE MUSEUM ASSOCIATION INC", "designationCode": "C", "categoryCode": "50", "address": "32-36 NORTH SIDE RD PO BOX 57", "city": "FOGO", "province": "NL", "country": "CA", "postalCode": "A0G2B0", "twitter": "None", "instagram": "None", "facebook": "None", "youtube": "None", "website": "None", "summary": "None", "logo": "None", "latitude": 48.65774079194133, "longitude": -53.763090630051536}, "118811223RR0001": {"name": "BLENHEIM AND COMMUNITY SENIOR CITIZENS GROUP", "designationCode": "C", "categoryCode": "56", "address": "55 JANE ST.                   P.O. BOX 1621", "city": "BLENHEIM", "province": "ON", "country": "CA", "postalCode": "N0P1A0", "twitter": "None", "instagram": "None", "facebook": "None", "youtube": "None", "website": "None", "summary": "None", "logo": "None", "latitude": 42.33381232944774, "longitude": -81.99693714351648}, "887382265RR0001": {"name": "BLENHEIM AND DISTRICT MINISTERIAL ASSOCIATION", "designationCode": "C", "categoryCode": "49", "address": "PO BOX 1579", "city": "BLENHEIM", "province": "ON", "country": "CA", "postalCode": "N0P1A0", "twitter": "None", "instagram": "None", "facebook": "None", "youtube": "None", "website": "None", "summary": "None", "logo": "None", "latitude": 42.335210000000075, "longitude": -81.99768999999998}, "106797715RR0001": {"name": "BLENHEIM BAPTIST CHURCH", "designationCode": "C", "categoryCode": "31", "address": "PO BOX 612                    24 TALBOT ST E", "city": "BLENHEIM", "province": "ON", "country": "CA", "postalCode": "N0P1A0", "twitter": "None", "instagram": "None", "facebook": "None", "youtube": "None", "website": "None", "summary": "None", "logo": "None", "latitude": 42.33582427531887, "longitude": -81.99703274891827}, "850637398RR0001": {"name": "BLENHEIM BOBCAT BOOSTER ATHLETIC CLUB", "designationCode": "C", "categoryCode": "56", "address": "163 CHATHAM STREET SOUTH", "city": "BLENHEIM", "province": "ON", "country": "CA", "postalCode": "N0P1A0", "twitter": "None", "instagram": "None", "facebook": "None", "youtube": "None", "website": "None", "summary": "None", "logo": "None", "latitude": 42.333325981158545, "longitude": -81.99269066691691}, "106919970RR0001": {"name": "BLENHEIM CHRISTIAN REFORMED CHURCH", "designationCode": "C", "categoryCode": "39", "address": "3 PLANTATION PLACE", "city": "CHATHAM", "province": "ON", "country": "CA", "postalCode": "N7M6G7", "twitter": "None", "instagram": "None", "facebook": "None", "youtube": "None", "website": "None", "summary": "None", "logo": "None", "latitude": 42.39922026285406, "longitude": -82.20533483654553}, "898810908RR0001": {"name": "BLENHEIM DISTRICT FREEDOM LIBRARY AND MUSEUM", "designationCode": "C", "categoryCode": "50", "address": "27 GEORGE ST                  BOX 2309", "city": "BLENHEIM", "province": "ON", "country": "CA", "postalCode": "N0P1A0", "twitter": "None", "instagram": "None", "facebook": "None", "youtube": "None", "website": "None", "summary": "None", "logo": "None", "latitude": 42.33526907161401, "longitude": -81.99878111933756}, "871070405RR0001": {"name": "BLENHEIM ECUMENICAL HOUSE CHURCH", "designationCode": "C", "categoryCode": "49", "address": "403 ALBERT STREET", "city": "WATERLOO", "province": "ON", "country": "CA", "postalCode": "N2L3V2", "twitter": "None", "instagram": "None", "facebook": "None", "youtube": "None", "website": "None", "summary": "None", "logo": "None", "latitude": 43.48084579765147, "longitude": -80.5368891440934}, "119288918RR1326": {"name": "BLENHEIM ONTARIO CONGREGATION OF JEHOVAH'S WITNESSES", "designationCode": "C", "categoryCode": "61", "address": "11104 KNIGHTS LINE RR#7", "city": "BLENHEIM", "province": "ON", "country": "CA", "postalCode": "N0P1A0", "twitter": "None", "instagram": "None", "facebook": "None", "youtube": "None", "website": "None", "summary": "None", "logo": "None", "latitude": 42.40741149151724, "longitude": -81.98250315901106}, "106797749RR0001": {"name": "BLENHEIM PASTORAL CHARGE,", "designationCode": "C", "categoryCode": "44", "address": "49 GEORGE STREET              P.O. BOX 668", "city": "BLENHEIM", "province": "ON", "country": "CA", "postalCode": "N0P1A0", "twitter": "None", "instagram": "None", "facebook": "None", "youtube": "None", "website": "None", "summary": "None", "logo": "None", "latitude": 42.33559304997393, "longitude": -81.9994891337643}, "118811306RR0001": {"name": "BLENHEIM UNITED CHURCH ENDOWMENT FUND", "designationCode": "C", "categoryCode": "45", "address": "PO BOX 668                    49 GEORGE STREET", "city": "BLENHEIM", "province": "ON", "country": "CA", "postalCode": "N0P1A0", "twitter": "None", "instagram": "None", "facebook": "None", "youtube": "None", "website": "None", "summary": "None", "logo": "None", "latitude": 42.33559304997393, "longitude": -81.9994891337643}, "872587571RR0001": {"name": "BLENHEIM WORD OF LIFE CHURCH", "designationCode": "C", "categoryCode": "39", "address": "P.O. BOX 2035", "city": "BLENHEIM", "province": "ON", "country": "CA", "postalCode": "N0P1A0", "twitter": "None", "instagram": "None", "facebook": "None", "youtube": "None", "website": "None", "summary": "None", "logo": "None", "latitude": 42.335210000000075, "longitude": -81.99768999999998}, "855580403RR0001": {"name": "BLESSED CHRISTIAN CHURCH SOCIETY", "designationCode": "C", "categoryCode": "46", "address": "1212-1 STREET NW", "city": "CALGARY", "province": "AB", "country": "CA", "postalCode": "T2M2S3", "twitter": "None", "instagram": "None", "facebook": "None", "youtube": "None", "website": "None", "summary": "None", "logo": "None", "latitude": 51.06276941909516, "longitude": -114.06491977531887}, "883166431RR0001": {"name": "BLESSED HOPE BAPTIST CHURCH", "designationCode": "C", "categoryCode": "31", "address": "100 HIGH ST", "city": "BRIDGEWATER", "province": "NS", "country": "CA", "postalCode": "B4V1V9", "twitter": "None", "instagram": "None", "facebook": "None", "youtube": "None", "website": "None", "summary": "None", "logo": "None", "latitude": 44.37203031141435, "longitude": -64.52841014568085}, "130091135RR0055": {"name": "BLESSED KATERI TEKAKWITHA CHURCH", "designationCode": "C", "categoryCode": "49", "address": "110 ISLAND DRIVE", "city": "INDIAN ISLAND", "province": "NB", "country": "CA", "postalCode": "E4W1T3", "twitter": "None", "instagram": "None", "facebook": "None", "youtube": "None", "website": "None", "summary": "None", "logo": "None", "latitude": 46.69058536371427, "longitude": -64.79467765468688}, "106797830RR0001": {"name": "BLESSED SACRAMENT CHURCH", "designationCode": "C", "categoryCode": "38", "address": "2049 SCARTH ST", "city": "REGINA", "province": "SK", "country": "CA", "postalCode": "S4P2H5", "twitter": "None", "instagram": "None", "facebook": "None", "youtube": "None", "website": "None", "summary": "None", "logo": "None", "latitude": 50.44638566472386, "longitude": -104.61079834589462}, "118811389RR0001": {"name": "BLESSED SACRAMENT PARISH", "designationCode": "C", "categoryCode": "38", "address": "12 - 10TH STREET", "city": "NORANDA", "province": "QC", "country": "CA", "postalCode": "J9X2C4", "twitter": "None", "instagram": "None", "facebook": "None", "youtube": "None", "website": "None", "summary": "None", "logo": "None", "latitude": 48.24448768942239, "longitude": -79.02202315927086}, "118849470RR0046": {"name": "BLESSED SACRAMENT PARISH", "designationCode": "C", "categoryCode": "38", "address": "3040 HEATHER ST", "city": "VANCOUVER", "province": "BC", "country": "CA", "postalCode": "V5Z3K3", "twitter": "None", "instagram": "None", "facebook": "None", "youtube": "None", "website": "None", "summary": "None", "logo": "None", "latitude": 49.257961040798676, "longitude": -123.11998215093232}, "119109817RR0038": {"name": "BLESSED SACRAMENT PARISH", "designationCode": "C", "categoryCode": "38", "address": "145 VICTORIA AVE", "city": "CHATHAM", "province": "ON", "country": "CA", "postalCode": "N7L3A7", "twitter": "None", "instagram": "None", "facebook": "None", "youtube": "None", "website": "None", "summary": "None", "logo": "None", "latitude": 42.4117625942637, "longitude": -82.19008386588993}, "119110450RR0075": {"name": "BLESSED SACRAMENT PARISH", "designationCode": "C", "categoryCode": "38", "address": "181 KING STREET, P.O. BOX 219", "city": "BURFORD", "province": "ON", "country": "CA", "postalCode": "N0E1A0", "twitter": "None", "instagram": "None", "facebook": "None", "youtube": "None", "website": "None", "summary": "None", "logo": "None", "latitude": 43.101703568169434, "longitude": -80.43826670621749}, "119110450RR0111": {"name": "BLESSED SACRAMENT PARISH", "designationCode": "C", "categoryCode": "38", "address": "305 EAST 37TH ST", "city": "HAMILTON", "province": "ON", "country": "CA", "postalCode": "L8V4B5", "twitter": "None", "instagram": "None", "facebook": "None", "youtube": "None", "website": "None", "summary": "None", "logo": "None", "latitude": 43.22839064849852, "longitude": -79.84166168056875}, "119122778RR0032": {"name": "BLESSED SACRAMENT PARISH", "designationCode": "C", "categoryCode": "38", "address": "321 TOLGATE ROAD EAST", "city": "CORNWALL", "province": "ON", "country": "CA", "postalCode": "K6H5R6", "twitter": "None", "instagram": "None", "facebook": "None", "youtube": "None", "website": "None", "summary": "None", "logo": "None", "latitude": 45.04873666556059, "longitude": -74.74219015029715}, "132004094RR0001": {"name": "BLESSED SACRAMENT PARISH", "designationCode": "C", "categoryCode": "38", "address": "PO BOX 144", "city": "ELIE", "province": "MB", "country": "CA", "postalCode": "R0H0H0", "twitter": "None", "instagram": "None", "facebook": "None", "youtube": "None", "website": "None", "summary": "None", "logo": "None", "latitude": 49.90010894942103, "longitude": -97.75774884595309}, "119110443RR0047": {"name": "BLESSED SACRAMENT ROMAN CATHOLIC CHURCH", "designationCode": "C", "categoryCode": "38", "address": "3 BRISCOE ST.", "city": "AMHERSTVIEW", "province": "ON", "country": "CA", "postalCode": "K7N1X2", "twitter": "None", "instagram": "None", "facebook": "None", "youtube": "None", "website": "None", "summary": "None", "logo": "None", "latitude": 44.22323437284509, "longitude": -76.64316756308615}, "128967353RR0092": {"name": "BLESSED SACRAMENT'S PARISH", "designationCode": "C", "categoryCode": "38", "address": "194 FOURTH  AVE", "city": "OTTAWA", "province": "ON", "country": "CA", "postalCode": "K1S2L6", "twitter": "None", "instagram": "None", "facebook": "None", "youtube": "None", "website": "None", "summary": "None", "logo": "None", "latitude": 45.400205589214735, "longitude": -75.69311936551455}, "140664087RR0001": {"name": "BLESSED SAINT XENIA OF PETERSBURG RUSSIAN ORTHODOX CHURCH", "designationCode": "C", "categoryCode": "39", "address": "4 COLCHESTER SQUARE", "city": "KANATA", "province": "ON", "country": "CA", "postalCode": "K2K2W9", "twitter": "None", "instagram": "None", "facebook": "None", "youtube": "None", "website": "None", "summary": "None", "logo": "None", "latitude": 45.321832236193664, "longitude": -75.89061219395269}, "131690232RR0001": {"name": "BLESSED VIRGIN MARY UKRAINIAN CATHOLIC PARISH", "designationCode": "C", "categoryCode": "38", "address": "965 BOYD AVE", "city": "WINNIPEG", "province": "MB", "country": "CA", "postalCode": "R2X0Z9", "twitter": "None", "instagram": "None", "facebook": "None", "youtube": "None", "website": "None", "summary": "None", "logo": "None", "latitude": 49.926796888164255, "longitude": -97.15780523506847}, "840836142RR0001": {"name": "BLESSING CHRISTIAN FELLOWSHIP", "designationCode": "C", "categoryCode": "39", "address": "220 - 7398 YONGE ST", "city": "THORNHILL", "province": "ON", "country": "CA", "postalCode": "L4J8J2", "twitter": "None", "instagram": "None", "facebook": "None", "youtube": "None", "website": "None", "summary": "None", "logo": "None", "latitude": 43.8096387418778, "longitude": -79.42304982032981}, "843378910RR0001": {"name": "BLESSING WIDOWS MINISTRY SOCIETY", "designationCode": "C", "categoryCode": "09", "address": "331 TROY VIEW", "city": "EDMONTON", "province": "AB", "country": "CA", "postalCode": "T6R3A7", "twitter": "None", "instagram": "None", "facebook": "None", "youtube": "None", "website": "None", "summary": "None", "logo": "None", "latitude": 53.45168100000005, "longitude": -113.56877149999994}, "857443600RR0001": {"name": "BLESSINGS BAPTIST CHURCH", "designationCode": "C", "categoryCode": "32", "address": "1160 LANSDOWNE DR", "city": "COQUITLAM", "province": "BC", "country": "CA", "postalCode": "V3B5V8", "twitter": "None", "instagram": "None", "facebook": "None", "youtube": "None", "website": "None", "summary": "None", "logo": "None", "latitude": 49.281173025535224, "longitude": -122.8083651044199}, "898700554RR0001": {"name": "BLESSINGS COMMUNITY STORE", "designationCode": "C", "categoryCode": "09", "address": "P.O. BOX 160", "city": "ZURICH", "province": "ON", "country": "CA", "postalCode": "N0M2T0", "twitter": "None", "instagram": "None", "facebook": "None", "youtube": "None", "website": "None", "summary": "None", "logo": "None", "latitude": 37.181580000000054, "longitude": -118.26139999999998}, "867769465RR0001": {"name": "BLESSINGS EVANGELICAL BIBLE CHURCH", "designationCode": "C", "categoryCode": "47", "address": "406-1055 WEST BROADWAY", "city": "VANCOUVER", "province": "BC", "country": "CA", "postalCode": "V6H1E2", "twitter": "None", "instagram": "None", "facebook": "None", "youtube": "None", "website": "None", "summary": "None", "logo": "None", "latitude": 49.2634524532574, "longitude": -123.1278027485429}, "118841584RR0001": {"name": "BLESSINGS FOR OBEDIENCE CANADA SOCIETY", "designationCode": "C", "categoryCode": "47", "address": "3706-207B STREET", "city": "LANGLEY", "province": "BC", "country": "CA", "postalCode": "V3A2G4", "twitter": "None", "instagram": "None", "facebook": "None", "youtube": "None", "website": "None", "summary": "None", "logo": "None", "latitude": 49.069322832361934, "longitude": -122.64897004994526}, "889166377RR0001": {"name": "BLESSINGSKINGDOM MINISTRIES", "designationCode": "C", "categoryCode": "39", "address": "8 CEDARVALLEY BLVD", "city": "BRAMPTON", "province": "ON", "country": "CA", "postalCode": "L7A1N7", "twitter": "None", "instagram": "None", "facebook": "None", "youtube": "None", "website": "None", "summary": "None", "logo": "None", "latitude": 43.7095283269376, "longitude": -79.81247999345047}, "867652414RR0001": {"name": "BLF CANADA", "designationCode": "C", "categoryCode": "21", "address": "PO BOX 640", "city": "LANDMARK", "province": "MB", "country": "CA", "postalCode": "R0A0X0", "twitter": "None", "instagram": "None", "facebook": "None", "youtube": "None", "website": "None", "summary": "None", "logo": "None", "latitude": 49.66416000000004, "longitude": -96.81997999999999}, "890140775RR0001": {"name": "BLIND RIVER & AREA ROTARY CLUB TRUST", "designationCode": "C", "categoryCode": "09", "address": "PO BOX 1568", "city": "BLIND RIVER", "province": "ON", "country": "CA", "postalCode": "P0R1B0", "twitter": "None", "instagram": "None", "facebook": "None", "youtube": "None", "website": "None", "summary": "None", "logo": "None", "latitude": 46.18674000000004, "longitude": -82.95378999999997}, "869163741RR0001": {"name": "BLIND RIVER EMERGENCY FOOD BANK, INC.", "designationCode": "C", "categoryCode": "09", "address": "P O BOX 1448", "city": "BLIND RIVER", "province": "ON", "country": "CA", "postalCode": "P0R1B0", "twitter": "None", "instagram": "None", "facebook": "None", "youtube": "None", "website": "None", "summary": "None", "logo": "None", "latitude": 46.18674000000004, "longitude": -82.95378999999997}, "132496688RR0001": {"name": "BLIND RIVER PASTORAL CHARGE,", "designationCode": "C", "categoryCode": "44", "address": "BOX 118", "city": "BLIND RIVER", "province": "ON", "country": "CA", "postalCode": "P0R1B0", "twitter": "None", "instagram": "None", "facebook": "None", "youtube": "None", "website": "None", "summary": "None", "logo": "None", "latitude": 46.18674000000004, "longitude": -82.95378999999997}, "119288918RR0017": {"name": "BLIND RIVER,ONTARIO, CONGREGATION OF JEHOVAH'S WITNESSES", "designationCode": "C", "categoryCode": "61", "address": "LOT #9 CONCESSION #1          20A OAK DR.", "city": "BLIND RIVER", "province": "ON", "country": "CA", "postalCode": "P0R1B0", "twitter": "None", "instagram": "None", "facebook": "None", "youtube": "None", "website": "None", "summary": "None", "logo": "None", "latitude": 46.18512928124827, "longitude": -82.91139501630181}, "864299425RR0001": {"name": "BLIND SAILING ASSOCIATION OF CANADA", "designationCode": "C", "categoryCode": "56", "address": "B - 7 PLEASANT BLVD", "city": "TORONTO", "province": "ON", "country": "CA", "postalCode": "M4T1K2", "twitter": "None", "instagram": "None", "facebook": "None", "youtube": "None", "website": "None", "summary": "None", "logo": "None", "latitude": 43.68722687148718, "longitude": -79.39314711434592}, "120631635RR0001": {"name": "BLINDMAN HANDI-VAN SOCIETY", "designationCode": "C", "categoryCode": "09", "address": "POST OFFICE BOX 982", "city": "RIMBEY", "province": "AB", "country": "CA", "postalCode": "T0C2J0", "twitter": "None", "instagram": "None", "facebook": "None", "youtube": "None", "website": "None", "summary": "None", "logo": "None", "latitude": 52.63970000000006, "longitude": -114.23827999999997}, "118811579RR0001": {"name": "BLISSVILLE UNITED BAPTIST CHURCH", "designationCode": "C", "categoryCode": "31", "address": "221 DUPLISEA RD", "city": "CENTRAL BLISSVILLE", "province": "NB", "country": "CA", "postalCode": "E5L1T4", "twitter": "None", "instagram": "None", "facebook": "None", "youtube": "None", "website": "None", "summary": "None", "logo": "None", "latitude": 45.609695876738634, "longitude": -66.573481678055}, "118811587RR0001": {"name": "BLISSYMBOLICS COMMUNICATION INTERNATIONAL", "designationCode": "C", "categoryCode": "21", "address": "296 GLENCAIRN AVENUE", "city": "TORONTO", "province": "ON", "country": "CA", "postalCode": "M5N1T9", "twitter": "None", "instagram": "None", "facebook": "None", "youtube": "None", "website": "None", "summary": "None", "logo": "None", "latitude": 43.715266248975595, "longitude": -79.41606851041601}, "118811678RR0001": {"name": "BLOCK PARENTS (SAULT STE. MARIE) INCORPORATED", "designationCode": "C", "categoryCode": "59", "address": "139 SACKVILLE RD", "city": "SAULT STE MARIE", "province": "ON", "country": "CA", "postalCode": "P6B4T5", "twitter": "None", "instagram": "None", "facebook": "None", "youtube": "None", "website": "None", "summary": "None", "logo": "None", "latitude": 46.543336335340456, "longitude": -84.3298090091239}, "118811660RR0001": {"name": "BLOCK PARENTS OF WINNIPEG INC.", "designationCode": "C", "categoryCode": "59", "address": "466 GERTRUDE AVE", "city": "WINNIPEG", "province": "MB", "country": "CA", "postalCode": "R3L0M8", "twitter": "None", "instagram": "None", "facebook": "None", "youtube": "None", "website": "None", "summary": "None", "logo": "None", "latitude": 49.875845093513895, "longitude": -97.14410204910854}, "140614769RR0001": {"name": "BLOCK WATCH SOCIETY OF BRITISH COLUMBIA", "designationCode": "C", "categoryCode": "59", "address": "120-12414-82ND AVENUE", "city": "SURREY", "province": "BC", "country": "CA", "postalCode": "V3W3E9", "twitter": "None", "instagram": "None", "facebook": "None", "youtube": "None", "website": "None", "summary": "None", "logo": "None", "latitude": 49.152024525102526, "longitude": -122.87852052844941}, "131692170RR0001": {"name": "BLOCKHOUSE VOLUNTARY FIRE DEPARTMENT", "designationCode": "C", "categoryCode": "59", "address": "PO BOX 27", "city": "BLOCKHOUSE", "province": "NS", "country": "CA", "postalCode": "B0J1E0", "twitter": "None", "instagram": "None", "facebook": "None", "youtube": "None", "website": "None", "summary": "None", "logo": "None", "latitude": 44.37696638346857, "longitude": -64.30372742452168}, "871640033RR0001": {"name": "BLOMIDON CEMETERY COMMISSION", "designationCode": "C", "categoryCode": "59", "address": "PO BOX 530", "city": "CANNING KINGS CO", "province": "NS", "country": "CA", "postalCode": "B0P1H0", "twitter": "None", "instagram": "None", "facebook": "None", "youtube": "None", "website": "None", "summary": "None", "logo": "None", "latitude": 45.15691000000004, "longitude": -64.43166999999994}, "118811686RR0001": {"name": "BLOMIDON NATURALISTS SOCIETY", "designationCode": "C", "categoryCode": "29", "address": "107 CANAAN AVE", "city": "KENTVILLE", "province": "NS", "country": "CA", "postalCode": "B4N2A7", "twitter": "None", "instagram": "None", "facebook": "None", "youtube": "None", "website": "None", "summary": "None", "logo": "None", "latitude": 45.071343451007024, "longitude": -64.48992313408141}, "136052834RR0001": {"name": "BLOOD TIES FOUR DIRECTIONS CENTRE SOCIETY", "designationCode": "C", "categoryCode": "11", "address": "405 OGILVIE ST", "city": "WHITEHORSE", "province": "YT", "country": "CA", "postalCode": "Y1A2S5", "twitter": "None", "instagram": "None", "facebook": "None", "youtube": "None", "website": "None", "summary": "None", "logo": "None", "latitude": 60.72535064556529, "longitude": -135.06347509893826}, "765720099RR0001": {"name": "BLOOMFIELD BAPTIST CHURCH INC.", "designationCode": "C", "categoryCode": "31", "address": "435 ROUTE 121", "city": "BLOOMFIELD KINGS CO", "province": "NB", "country": "CA", "postalCode": "E5N4T3", "twitter": "None", "instagram": "None", "facebook": "None", "youtube": "None", "website": "None", "summary": "None", "logo": "None", "latitude": 45.58523351637083, "longitude": -65.77333366270963}, "818332314RR0001": {"name": "BLOOMFIELD CENTRE FOR CREATIVITY INC.", "designationCode": "C", "categoryCode": "22", "address": "336 MAIN STREET               POST OFFICE BOX 465", "city": "BLOOMFIELD", "province": "ON", "country": "CA", "postalCode": "K0K1G0", "twitter": "None", "instagram": "None", "facebook": "None", "youtube": "None", "website": "None", "summary": "None", "logo": "None", "latitude": 43.98604014175094, "longitude": -77.23160371794728}, "873240840RR0001": {"name": "BLOOMFIELD CHARITABLE TRUST", "designationCode": "B", "categoryCode": "39", "address": "780 SASKATCHEWAN AVE W", "city": "PORTAGE LA PRAIRIE", "province": "MB", "country": "CA", "postalCode": "R1N0M7", "twitter": "None", "instagram": "None", "facebook": "None", "youtube": "None", "website": "None", "summary": "None", "logo": "None", "latitude": 49.97373494820344, "longitude": -98.30132080652011}, "106798390RR0001": {"name": "BLOOMFIELD UNITED CHURCH", "designationCode": "C", "categoryCode": "44", "address": "ATTN: TREASURER               PO BOX 251", "city": "BLOOMFIELD", "province": "ON", "country": "CA", "postalCode": "K0K1G0", "twitter": "None", "instagram": "None", "facebook": "None", "youtube": "None", "website": "None", "summary": "None", "logo": "None", "latitude": 44.02306500000006, "longitude": -77.36586199999994}, "858013121RR0001": {"name": "BLOOMING ACRES RESIDENTIAL CARE HOMES", "designationCode": "B", "categoryCode": "11", "address": "2446 SNOW VALLEY RD           RR #3", "city": "MINESING", "province": "ON", "country": "CA", "postalCode": "L9X1K1", "twitter": "None", "instagram": "None", "facebook": "None", "youtube": "None", "website": "None", "summary": "None", "logo": "None", "latitude": 44.40846538135493, "longitude": -79.80977296586643}, "894806652RR0001": {"name": "BLOOMING FOREST BHIKKHUNI BUDDHIST ASSOCIATION", "designationCode": "C", "categoryCode": "35", "address": "236 RHODES AVE", "city": "TORONTO", "province": "ON", "country": "CA", "postalCode": "M4L3A1", "twitter": "None", "instagram": "None", "facebook": "None", "youtube": "None", "website": "None", "summary": "None", "logo": "None", "latitude": 43.67159277101972, "longitude": -79.3199933205896}, "118811728RR0001": {"name": "BLOOMINGDALE & DISTRICT RECREATION AND COMMUNITY CLUB", "designationCode": "C", "categoryCode": "56", "address": "5 SALISBURY CRES", "city": "BLOOMINGDALE", "province": "ON", "country": "CA", "postalCode": "N0B1K0", "twitter": "None", "instagram": "None", "facebook": "None", "youtube": "None", "website": "None", "summary": "None", "logo": "None", "latitude": 43.51010011496685, "longitude": -80.45980212261402}, "118811736RR0001": {"name": "BLOOMINGDALE MENNONITE CHURCH", "designationCode": "C", "categoryCode": "34", "address": "1151 SNYDER'S FLATS RD", "city": "BLOOMINGDALE", "province": "ON", "country": "CA", "postalCode": "N0B1K0", "twitter": "None", "instagram": "None", "facebook": "None", "youtube": "None", "website": "None", "summary": "None", "logo": "None", "latitude": 43.509364457152515, "longitude": -80.4710815567546}, "118811744RR0001": {"name": "BLOOMINGDALE UNITED CHURCH", "designationCode": "C", "categoryCode": "44", "address": "860 SAWMILL ROAD", "city": "BLOOMINGDALE", "province": "ON", "country": "CA", "postalCode": "N0B1K0", "twitter": "None", "instagram": "None", "facebook": "None", "youtube": "None", "website": "None", "summary": "None", "logo": "None", "latitude": 43.509996186665006, "longitude": -80.46265471534961}, "106798424RR0001": {"name": "BLOOMINGTON GOSPEL CHURCH", "designationCode": "C", "categoryCode": "39", "address": "13660 NINTH LINE", "city": "STOUFFVILLE", "province": "ON", "country": "CA", "postalCode": "L4A3C7", "twitter": "None", "instagram": "None", "facebook": "None", "youtube": "None", "website": "None", "summary": "None", "logo": "None", "latitude": 44.00377749042071, "longitude": -79.2636373203298}, "118811751RR0001": {"name": "BLOOMSBURG BAPTIST CHURCH", "designationCode": "C", "categoryCode": "31", "address": "114 POWERLINE RD.             RR#6", "city": "BRANTFORD", "province": "ON", "country": "CA", "postalCode": "N3T5L8", "twitter": "None", "instagram": "None", "facebook": "None", "youtube": "None", "website": "None", "summary": "None", "logo": "None", "latitude": 43.197376534725336, "longitude": -80.2092811393747}, "875667016RR0001": {"name": "BLOOR COMMUNITY CHURCH", "designationCode": "C", "categoryCode": "39", "address": "191 WESTMORELAND AVENUE", "city": "TORONTO", "province": "ON", "country": "CA", "postalCode": "M6H3A1", "twitter": "None", "instagram": "None", "facebook": "None", "youtube": "None", "website": "None", "summary": "None", "logo": "None", "latitude": 43.66598298335158, "longitude": -79.43247876614362}, "118811793RR0001": {"name": "BLOOR INFORMATION AND LIFE SKILLS CENTRE", "designationCode": "C", "categoryCode": "59", "address": "307-672 DUPONT ST", "city": "TORONTO", "province": "ON", "country": "CA", "postalCode": "M6G1Z6", "twitter": "None", "instagram": "None", "facebook": "None", "youtube": "None", "website": "None", "summary": "None", "logo": "None", "latitude": 43.67156421680393, "longitude": -79.42200896032651}, "106925738RR0001": {"name": "BLOOR LANSDOWNE CHRISTIAN FELLOWSHIP", "designationCode": "C", "categoryCode": "39", "address": "1307 BLOOR ST W", "city": "TORONTO", "province": "ON", "country": "CA", "postalCode": "M6H1P1", "twitter": "None", "instagram": "None", "facebook": "None", "youtube": "None", "website": "None", "summary": "None", "logo": "None", "latitude": 43.65815581320336, "longitude": -79.44347422370016}, "106798549RR0001": {"name": "BLOOR STREET UNITED CHURCH", "designationCode": "C", "categoryCode": "44", "address": "300 BLOOR STREET W", "city": "TORONTO", "province": "ON", "country": "CA", "postalCode": "M5S1W3", "twitter": "None", "instagram": "None", "facebook": "None", "youtube": "None", "website": "None", "summary": "None", "logo": "None", "latitude": 43.667105194586945, "longitude": -79.40184838954923}, "106798598RR0001": {"name": "BLOOR WEST NURSERY SCHOOL", "designationCode": "C", "categoryCode": "20", "address": "432 RUNNYMEDE ROAD", "city": "TORONTO", "province": "ON", "country": "CA", "postalCode": "M6S2Y8", "twitter": "None", "instagram": "None", "facebook": "None", "youtube": "None", "website": "None", "summary": "None", "logo": "None", "latitude": 43.656882339431085, "longitude": -79.47865475858355}, "118811835RR0001": {"name": "BLOOR WEST VILLAGE PLAYERS THEATRE COMPANY INC.", "designationCode": "C", "categoryCode": "22", "address": "2190 E BLOOR ST W", "city": "TORONTO", "province": "ON", "country": "CA", "postalCode": "M6S1N3", "twitter": "None", "instagram": "None", "facebook": "None", "youtube": "None", "website": "None", "summary": "None", "logo": "None", "latitude": 43.651513256188956, "longitude": -79.47471518235324}, "106798457RR0001": {"name": "BLOORDALE UNITED CHURCH", "designationCode": "C", "categoryCode": "44", "address": "4258 BLOOR ST W", "city": "ETOBICOKE", "province": "ON", "country": "CA", "postalCode": "M9C1Z7", "twitter": "None", "instagram": "None", "facebook": "None", "youtube": "None", "website": "None", "summary": "None", "logo": "None", "latitude": 43.634176100236324, "longitude": -79.56858745464235}, "876063116RR0001": {"name": "BLOORVIEW MACMILLAN SCHOOL AUTHORITY", "designationCode": "C", "categoryCode": "20", "address": "150 KILGOUR RD", "city": "TORONTO", "province": "ON", "country": "CA", "postalCode": "M4G1R8", "twitter": "None", "instagram": "None", "facebook": "None", "youtube": "None", "website": "None", "summary": "None", "logo": "None", "latitude": 43.71784623902094, "longitude": -79.37268689053018}, "822372348RR0001": {"name": "BLOSSOM FOUNDATION", "designationCode": "B", "categoryCode": "03", "address": "130 KING STREET WEST, 20TH FLOBOX 430, STN FIRST CANADIAN PL", "city": "TORONTO", "province": "ON", "country": "CA", "postalCode": "M5X1K1", "twitter": "None", "instagram": "None", "facebook": "None", "youtube": "None", "website": "None", "summary": "None", "logo": "None", "latitude": 43.64868300000006, "longitude": -79.38544399999994}, "119288918RR0404": {"name": "BLOSSOM PARK CONGREGATION OF JEHOVAH'S WITNESSES", "designationCode": "C", "categoryCode": "61", "address": "5287 NINTH LINE RD", "city": "CARLSBAD SPRINGS", "province": "ON", "country": "CA", "postalCode": "K0A1K0", "twitter": "None", "instagram": "None", "facebook": "None", "youtube": "None", "website": "None", "summary": "None", "logo": "None", "latitude": 45.37248000000005, "longitude": -75.52522249999993}, "133141846RR0001": {"name": "BLOW THE TRUMPET INTERNATIONAL", "designationCode": "C", "categoryCode": "47", "address": "547 OAKRIDGE DRIVE", "city": "LONDON", "province": "ON", "country": "CA", "postalCode": "N6H3E8", "twitter": "None", "instagram": "None", "facebook": "None", "youtube": "None", "website": "None", "summary": "None", "logo": "None", "latitude": 42.976330626983625, "longitude": -81.29436100080805}, "121975809RR0001": {"name": "BLUE CLAY CHARITABLE TRUST", "designationCode": "B", "categoryCode": "39", "address": "2500 - 201 PORTAGE AVENUE", "city": "WINNIPEG", "province": "MB", "country": "CA", "postalCode": "R3B3K6", "twitter": "None", "instagram": "None", "facebook": "None", "youtube": "None", "website": "None", "summary": "None", "logo": "None", "latitude": 49.895359615067065, "longitude": -97.13919299627776}, "130571896RR0001": {"name": "BLUE DOOR SHELTERS", "designationCode": "C", "categoryCode": "01", "address": "18838 HIGHWAY 11", "city": "EAST GWILLIMBURY", "province": "ON", "country": "CA", "postalCode": "L9N0C5", "twitter": "None", "instagram": "None", "facebook": "None", "youtube": "None", "website": "None", "summary": "None", "logo": "None", "latitude": 44.08572984565593, "longitude": -79.49313850584463}, "858635808RR0001": {"name": "BLUE DOOR SOUP KITCHEN", "designationCode": "C", "categoryCode": "09", "address": "230 - 469 BOUCHARD ST", "city": "SUDBURY", "province": "ON", "country": "CA", "postalCode": "P3E2K8", "twitter": "None", "instagram": "None", "facebook": "None", "youtube": "None", "website": "None", "summary": "None", "logo": "None", "latitude": 46.46091754284748, "longitude": -81.01174325007212}, "106798804RR0001": {"name": "BLUE HERON SUPPORT SERVICES ASSOCIATION", "designationCode": "C", "categoryCode": "20", "address": "PO BOX 4238", "city": "BARRHEAD", "province": "AB", "country": "CA", "postalCode": "T7N1A2", "twitter": "None", "instagram": "None", "facebook": "None", "youtube": "None", "website": "None", "summary": "None", "logo": "None", "latitude": 54.12098400000005, "longitude": -114.40600999999992}, "106798796RR0001": {"name": "BLUE HERON VOCATIONAL TRAINING CENTRE ASSOCIATION - ATHABASCA 1987", "designationCode": "C", "categoryCode": "01", "address": "PO BOX 537", "city": "ATHABASCA", "province": "AB", "country": "CA", "postalCode": "T9S2A5", "twitter": "None", "instagram": "None", "facebook": "None", "youtube": "None", "website": "None", "summary": "None", "logo": "None", "latitude": 54.721284000000054, "longitude": -113.28321049999994}, "130624778RR0001": {"name": "BLUE HILLS ACADEMY", "designationCode": "C", "categoryCode": "01", "address": "402 BLOOMINGTON RD", "city": "AURORA", "province": "ON", "country": "CA", "postalCode": "L4G0L9", "twitter": "None", "instagram": "None", "facebook": "None", "youtube": "None", "website": "None", "summary": "None", "logo": "None", "latitude": 43.96000913082053, "longitude": -79.47252792247069}, "874379951RR0001": {"name": "BLUE HILLS ACADEMY RESIDENCES", "designationCode": "A", "categoryCode": "03", "address": "402 BLOOMINGTON ROAD", "city": "AURORA", "province": "ON", "country": "CA", "postalCode": "L4G3G8", "twitter": "None", "instagram": "None", "facebook": "None", "youtube": "None", "website": "None", "summary": "None", "logo": "None", "latitude": 43.96000913082053, "longitude": -79.47252792247069}, "119288918RR0351": {"name": "BLUE HILLS CONGREGATION OF JEHOVAH'S WITNESSES, BRANDON, MANITOBA", "designationCode": "C", "categoryCode": "61", "address": "31 WAKOMMA DR", "city": "BRANDON", "province": "MB", "country": "CA", "postalCode": "R7B3A5", "twitter": "None", "instagram": "None", "facebook": "None", "youtube": "None", "website": "None", "summary": "None", "logo": "None", "latitude": 49.82619300000006, "longitude": -99.97471249999994}, "897763140RR0001": {"name": "BLUE LAKE FOREST EDUCATION SOCIETY", "designationCode": "C", "categoryCode": "52", "address": "PO BOX 759 STN MAIN", "city": "CRANBROOK", "province": "BC", "country": "CA", "postalCode": "V1C4J5", "twitter": "None", "instagram": "None", "facebook": "None", "youtube": "None", "website": "None", "summary": "None", "logo": "None", "latitude": 49.513515000000055, "longitude": -115.76875399999994}, "872419098RR0001": {"name": "BLUE LINE RACING ASSOCIATION", "designationCode": "C", "categoryCode": "59", "address": "51 - 55000 LAMOUREUX DR", "city": "STURGEON COUNTY", "province": "AB", "country": "CA", "postalCode": "T8L5A7", "twitter": "None", "instagram": "None", "facebook": "None", "youtube": "None", "website": "None", "summary": "None", "logo": "None", "latitude": 53.71348928173353, "longitude": -113.22658590080368}, "885168948RR0001": {"name": "BLUE METROPOLIS FOUNDATION / FONDATION METROPOLIS BLEU", "designationCode": "C", "categoryCode": "22", "address": "661, RUE ROSE-DE-LIMA", "city": "MONTREAL", "province": "QC", "country": "CA", "postalCode": "H4C2L7", "twitter": "None", "instagram": "None", "facebook": "None", "youtube": "None", "website": "None", "summary": "None", "logo": "None", "latitude": 45.48043994783305, "longitude": -73.58141004411688}, "118811884RR0001": {"name": "BLUE MOUNTAIN & DISTRICT VOLUNTEER FIRE DEPARTMENT", "designationCode": "C", "categoryCode": "59", "address": "1687 TOWER RD", "city": "BLUE MOUNTAIN PICTOU CO.", "province": "NS", "country": "CA", "postalCode": "B2H5C8", "twitter": "None", "instagram": "None", "facebook": "None", "youtube": "None", "website": "None", "summary": "None", "logo": "None", "latitude": 45.48693463615888, "longitude": -62.440238873333485}, "118811892RR0001": {"name": "BLUE MOUNTAIN BAPTIST CHURCH", "designationCode": "C", "categoryCode": "31", "address": "450 BLUE MOUNTAIN ST", "city": "COQUITLAM", "province": "BC", "country": "CA", "postalCode": "V3K4K5", "twitter": "None", "instagram": "None", "facebook": "None", "youtube": "None", "website": "None", "summary": "None", "logo": "None", "latitude": 49.2485380088868, "longitude": -122.86972352513119}, "890982267RR0001": {"name": "BLUE MOUNTAIN BIBLE BAPTIST CHURCH", "designationCode": "C", "categoryCode": "31", "address": "RR#1 (158182 7TH LINE)", "city": "MEAFORD", "province": "ON", "country": "CA", "postalCode": "N4L1W5", "twitter": "None", "instagram": "None", "facebook": "None", "youtube": "None", "website": "None", "summary": "None", "logo": "None", "latitude": 44.61422993560662, "longitude": -80.62249640362724}, "867427577RR0001": {"name": "BLUE MOUNTAIN CEMETERY", "designationCode": "C", "categoryCode": "59", "address": "RR 5 NEW GLASGOW", "city": "PICTOU COUNTY", "province": "NS", "country": "CA", "postalCode": "B2H5C8", "twitter": "None", "instagram": "None", "facebook": "None", "youtube": "None", "website": "None", "summary": "None", "logo": "None", "latitude": 45.39144300000005, "longitude": -62.16826849999994}, "118931682RR0001": {"name": "BLUE MOUNTAIN COMMUNITY CHURCH", "designationCode": "C", "categoryCode": "39", "address": "219 BRUCE STREET              PO BOX 428", "city": "THORNBURY", "province": "ON", "country": "CA", "postalCode": "N0H2P0", "twitter": "None", "instagram": "None", "facebook": "None", "youtube": "None", "website": "None", "summary": "None", "logo": "None", "latitude": 44.55232714360698, "longitude": -80.46287664564981}, "890798259RR0001": {"name": "BLUE MOUNTAIN WATERSHED TRUST FOUNDATION", "designationCode": "C", "categoryCode": "59", "address": "PO BOX 605", "city": "COLLINGWOOD", "province": "ON", "country": "CA", "postalCode": "L9Y4E8", "twitter": "None", "instagram": "None", "facebook": "None", "youtube": "None", "website": "None", "summary": "None", "logo": "None", "latitude": 44.49987600000006, "longitude": -80.21683249999994}, "891071805RR0001": {"name": "BLUE PLANET LINKS", "designationCode": "B", "categoryCode": "03", "address": "4465 W. 3RD AVENUE", "city": "VANCOUVER", "province": "BC", "country": "CA", "postalCode": "V6R1M9", "twitter": "None", "instagram": "None", "facebook": "None", "youtube": "None", "website": "None", "summary": "None", "logo": "None", "latitude": 49.27050943963873, "longitude": -123.20773884583637}}