{"108197633RR0001": {"name": "WESLEY UNITED CHURCH", "designationCode": "C", "categoryCode": "44", "address": "286 ADAMS STREET", "city": "FREDERICTON", "province": "NB", "country": "CA", "postalCode": "E3B9L5", "twitter": "None", "instagram": "None", "facebook": "None", "youtube": "None", "website": "None", "summary": "None", "logo": "None", "latitude": 45.90736364501703, "longitude": -66.59104285316529}, "119291706RR0001": {"name": "WESLEY UNITED CHURCH", "designationCode": "C", "categoryCode": "44", "address": "124 VALLEY RD RR1", "city": "AMELIASBURG", "province": "ON", "country": "CA", "postalCode": "K0K1A0", "twitter": "None", "instagram": "None", "facebook": "None", "youtube": "None", "website": "None", "summary": "None", "logo": "None", "latitude": 44.078769187600976, "longitude": -77.3853632651016}, "119291813RR0001": {"name": "WESLEY UNITED CHURCH", "designationCode": "C", "categoryCode": "44", "address": "RR 2                          11 STAGECOACH RD", "city": "COLDWATER", "province": "ON", "country": "CA", "postalCode": "L0K1E0", "twitter": "None", "instagram": "None", "facebook": "None", "youtube": "None", "website": "None", "summary": "None", "logo": "None", "latitude": 44.67604277906978, "longitude": -79.6161713052975}, "119291896RR0001": {"name": "WESLEY UNITED CHURCH", "designationCode": "C", "categoryCode": "44", "address": "BOX 358", "city": "ROCKGLEN", "province": "SK", "country": "CA", "postalCode": "S0H3R0", "twitter": "None", "instagram": "None", "facebook": "None", "youtube": "None", "website": "None", "summary": "None", "logo": "None", "latitude": 49.180150000000026, "longitude": -105.94999999999999}, "873236442RR0001": {"name": "WESLEY UNITED CHURCH", "designationCode": "C", "categoryCode": "44", "address": "PO BOX 424", "city": "QUILL LAKE", "province": "SK", "country": "CA", "postalCode": "S0A3E0", "twitter": "None", "instagram": "None", "facebook": "None", "youtube": "None", "website": "None", "summary": "None", "logo": "None", "latitude": 51.6962132372117, "longitude": -103.71097337442652}, "884418427RR0001": {"name": "WESLEY UNITED CHURCH", "designationCode": "C", "categoryCode": "44", "address": "BOX 26010", "city": "ST JOHN'S", "province": "NL", "country": "CA", "postalCode": "A1E0A5", "twitter": "None", "instagram": "None", "facebook": "None", "youtube": "None", "website": "None", "summary": "None", "logo": "None", "latitude": 47.56082100000006, "longitude": -52.71219349999993}, "119291714RR0001": {"name": "WESLEY UNITED CHURCH OF CANADA,", "designationCode": "C", "categoryCode": "44", "address": "863 FELTZEN SOUTH ROAD", "city": "LUN.CO.", "province": "NS", "country": "CA", "postalCode": "B0J2X0", "twitter": "None", "instagram": "None", "facebook": "None", "youtube": "None", "website": "None", "summary": "None", "logo": "None", "latitude": 44.33224158670457, "longitude": -64.28737674730216}, "119291763RR0001": {"name": "WESLEY UNITED CHURCH,", "designationCode": "C", "categoryCode": "44", "address": "801 NORTHWEST RD", "city": "EXMOOR", "province": "NB", "country": "CA", "postalCode": "E9E1L4", "twitter": "None", "instagram": "None", "facebook": "None", "youtube": "None", "website": "None", "summary": "None", "logo": "None", "latitude": 47.002032150441764, "longitude": -65.82648355199522}, "119291771RR0001": {"name": "WESLEY UNITED CHURCH,", "designationCode": "C", "categoryCode": "44", "address": "77 WILLAM STREET", "city": "ST ANDREWS", "province": "NB", "country": "CA", "postalCode": "E5B1W8", "twitter": "None", "instagram": "None", "facebook": "None", "youtube": "None", "website": "None", "summary": "None", "logo": "None", "latitude": 45.07559324311856, "longitude": -67.05322677474196}, "119291839RR0001": {"name": "WESLEY UNITED CHURCH,", "designationCode": "C", "categoryCode": "44", "address": "244 FIRST AVE", "city": "WELLAND", "province": "ON", "country": "CA", "postalCode": "L3C1Y8", "twitter": "None", "instagram": "None", "facebook": "None", "youtube": "None", "website": "None", "summary": "None", "logo": "None", "latitude": 43.00582046365618, "longitude": -79.26000535289468}, "119291847RR0001": {"name": "WESLEY UNITED CHURCH,", "designationCode": "C", "categoryCode": "44", "address": "18735 KENNEDY RD", "city": "SHARON", "province": "ON", "country": "CA", "postalCode": "L0G1V0", "twitter": "None", "instagram": "None", "facebook": "None", "youtube": "None", "website": "None", "summary": "None", "logo": "None", "latitude": 44.11173149376759, "longitude": -79.36619703543256}, "119291862RR0001": {"name": "WESLEY UNITED CHURCH,", "designationCode": "C", "categoryCode": "44", "address": "6 CAMBRIDGE ST", "city": "CAMBRIDGE", "province": "ON", "country": "CA", "postalCode": "N1R3R6", "twitter": "None", "instagram": "None", "facebook": "None", "youtube": "None", "website": "None", "summary": "None", "logo": "None", "latitude": 43.360623000000004, "longitude": -80.31272882849545}, "130188519RR0001": {"name": "WESLEY UNITED CHURCH,", "designationCode": "C", "categoryCode": "44", "address": "275, PEMBROKE ST. EAST", "city": "PEMBROKE", "province": "ON", "country": "CA", "postalCode": "K8A3J9", "twitter": "None", "instagram": "None", "facebook": "None", "youtube": "None", "website": "None", "summary": "None", "logo": "None", "latitude": 45.82710942772215, "longitude": -77.10755583833455}, "889553848RR0001": {"name": "WESLEY UNITED CHURCH,", "designationCode": "C", "categoryCode": "44", "address": "65-11TH ST E", "city": "PRINCE ALBERT", "province": "SK", "country": "CA", "postalCode": "S6V0Z8", "twitter": "None", "instagram": "None", "facebook": "None", "youtube": "None", "website": "None", "summary": "None", "logo": "None", "latitude": 53.2029772825345, "longitude": -105.75245196971183}, "119291946RR0001": {"name": "WESLEY URBAN MINISTRIES INC.", "designationCode": "C", "categoryCode": "09", "address": "52 CATHARINE ST. N.", "city": "HAMILTON", "province": "ON", "country": "CA", "postalCode": "L8R1J1", "twitter": "None", "instagram": "None", "facebook": "None", "youtube": "None", "website": "None", "summary": "None", "logo": "None", "latitude": 43.25706795253624, "longitude": -79.86455042518334}, "898634290RR0001": {"name": "WESLEY-ROBINS RETIREMENT VILLAGE INC.", "designationCode": "C", "categoryCode": "01", "address": "242 FIRST AVE N", "city": "WELLAND", "province": "ON", "country": "CA", "postalCode": "L3C7J2", "twitter": "None", "instagram": "None", "facebook": "None", "youtube": "None", "website": "None", "summary": "None", "logo": "None", "latitude": 43.00576757756436, "longitude": -79.26000645468827}, "119291672RR0001": {"name": "WESLEY-ST. MATTHEW'S UNITED CHURCH", "designationCode": "C", "categoryCode": "44", "address": "P.O. BOX 375", "city": "PUGWASH", "province": "NS", "country": "CA", "postalCode": "B0K1L0", "twitter": "None", "instagram": "None", "facebook": "None", "youtube": "None", "website": "None", "summary": "None", "logo": "None", "latitude": 45.80128373751312, "longitude": -63.63643739508734}, "119291227RR0001": {"name": "WESLEYAN BURIAL GROUND", "designationCode": "C", "categoryCode": "59", "address": "50 NEWPORT CRES", "city": "SAINT JOHN", "province": "NB", "country": "CA", "postalCode": "E2K1Y5", "twitter": "None", "instagram": "None", "facebook": "None", "youtube": "None", "website": "None", "summary": "None", "logo": "None", "latitude": 45.282950337429305, "longitude": -66.08198563771619}, "889751574RR0001": {"name": "WESLEYAN CEMETERY FUND", "designationCode": "C", "categoryCode": "59", "address": "39 SCHOFIELDROAD", "city": "SUMMERFIELD", "province": "NB", "country": "CA", "postalCode": "E4G4J1", "twitter": "None", "instagram": "None", "facebook": "None", "youtube": "None", "website": "None", "summary": "None", "logo": "None"}, "135574119RR0001": {"name": "WESLEYAN CHURCH OF BLISSFIELD", "designationCode": "C", "categoryCode": "39", "address": "10758 ROUTE 8", "city": "BLISSFIELD", "province": "NB", "country": "CA", "postalCode": "E9C1Y9", "twitter": "None", "instagram": "None", "facebook": "None", "youtube": "None", "website": "None", "summary": "None", "logo": "None", "latitude": 46.611719377589154, "longitude": -65.89644492448217}, "119291292RR0001": {"name": "WESLEYAN CHURCH OF DIGBY", "designationCode": "C", "categoryCode": "39", "address": "PO BOX 1326", "city": "DIGBY", "province": "NS", "country": "CA", "postalCode": "B0V1A0", "twitter": "None", "instagram": "None", "facebook": "None", "youtube": "None", "website": "None", "summary": "None", "logo": "None", "latitude": 44.39616000000005, "longitude": -66.20374249999993}, "107470742RR0001": {"name": "WESLEYAN CHURCH OF HAVELOCK", "designationCode": "C", "categoryCode": "39", "address": "4473 HIGHWAY 340              RR 2", "city": "WEYMOUTH", "province": "NS", "country": "CA", "postalCode": "B0W3T0", "twitter": "None", "instagram": "None", "facebook": "None", "youtube": "None", "website": "None", "summary": "None", "logo": "None", "latitude": 44.30491408457767, "longitude": -65.92048297545573}, "135574697RR0001": {"name": "WESLEYAN CHURCH OF LOWER BRIGHTON", "designationCode": "C", "categoryCode": "39", "address": "5860 ROUTE 105", "city": "LOWER BRIGHTON", "province": "NB", "country": "CA", "postalCode": "E7P1A3", "twitter": "None", "instagram": "None", "facebook": "None", "youtube": "None", "website": "None", "summary": "None", "logo": "None", "latitude": 46.22388939228138, "longitude": -67.50273988649491}, "119291334RR0001": {"name": "WESLEYAN CHURCH OF LOWER HAINESVILLE", "designationCode": "C", "categoryCode": "39", "address": "459 CENTRAL HAINESVILLE RD", "city": "LOWER HAINESVILLE", "province": "NB", "country": "CA", "postalCode": "E6E1B9", "twitter": "None", "instagram": "None", "facebook": "None", "youtube": "None", "website": "None", "summary": "None", "logo": "None", "latitude": 46.10049653987018, "longitude": -67.04944300663456}, "119291342RR0001": {"name": "WESLEYAN CHURCH OF MAPLE RIDGE", "designationCode": "C", "categoryCode": "39", "address": "1167, ROUTE 605", "city": "MAPLE RIDGE", "province": "NB", "country": "CA", "postalCode": "E6E1W5", "twitter": "None", "instagram": "None", "facebook": "None", "youtube": "None", "website": "None", "summary": "None", "logo": "None", "latitude": 46.10263536259273, "longitude": -67.21317525193655}, "119291359RR0001": {"name": "WESLEYAN CHURCH OF MILLSTREAM", "designationCode": "C", "categoryCode": "39", "address": "876 ROUTE 880", "city": "BERWICK", "province": "NB", "country": "CA", "postalCode": "E5P3H6", "twitter": "None", "instagram": "None", "facebook": "None", "youtube": "None", "website": "None", "summary": "None", "logo": "None", "latitude": 45.77375684189719, "longitude": -65.59958969272783}, "107717357RR0001": {"name": "WESLEYAN CHURCH OF MONCTON", "designationCode": "C", "categoryCode": "39", "address": "945 ST. GEORGE BLVD.", "city": "MONCTON", "province": "NB", "country": "CA", "postalCode": "E1E2C9", "twitter": "None", "instagram": "None", "facebook": "None", "youtube": "None", "website": "None", "summary": "None", "logo": "None", "latitude": 46.082694224017295, "longitude": -64.82264965641399}, "119291383RR0001": {"name": "WESLEYAN CHURCH OF NORTH HEAD", "designationCode": "C", "categoryCode": "39", "address": "172 ROUTE 776", "city": "GRAND MANAN", "province": "NB", "country": "CA", "postalCode": "E5G1A3", "twitter": "None", "instagram": "None", "facebook": "None", "youtube": "None", "website": "None", "summary": "None", "logo": "None", "latitude": 44.76465027666925, "longitude": -66.7628619843439}, "133347930RR0001": {"name": "WESLEYAN CHURCH OF NORTON", "designationCode": "C", "categoryCode": "39", "address": "676 ROUTE 124", "city": "NORTON", "province": "NB", "country": "CA", "postalCode": "E5T1R5", "twitter": "None", "instagram": "None", "facebook": "None", "youtube": "None", "website": "None", "summary": "None", "logo": "None", "latitude": 45.65511133174292, "longitude": -65.71503947733676}, "119291409RR0001": {"name": "WESLEYAN CHURCH OF PORT MAITLAND", "designationCode": "C", "categoryCode": "39", "address": "3276 HIGHWAY 1", "city": "PORT MAITLAND", "province": "NS", "country": "CA", "postalCode": "B5A5T3", "twitter": "None", "instagram": "None", "facebook": "None", "youtube": "None", "website": "None", "summary": "None", "logo": "None", "latitude": 43.98524525561928, "longitude": -66.14742006457105}, "119291417RR0001": {"name": "WESLEYAN CHURCH OF ROYALTON", "designationCode": "C", "categoryCode": "39", "address": "3470 WOODSTOCK ROAD", "city": "FREDERICTON", "province": "NB", "country": "CA", "postalCode": "E3E1A5", "twitter": "None", "instagram": "None", "facebook": "None", "youtube": "None", "website": "None", "summary": "None", "logo": "None", "latitude": 45.967114751024425, "longitude": -66.77760493089615}, "119291425RR0001": {"name": "WESLEYAN CHURCH OF SEAL COVE", "designationCode": "C", "categoryCode": "39", "address": "1900 ROUTE 776", "city": "GRAND MANAN", "province": "NB", "country": "CA", "postalCode": "E5G3H2", "twitter": "None", "instagram": "None", "facebook": "None", "youtube": "None", "website": "None", "summary": "None", "logo": "None", "latitude": 44.65125858426198, "longitude": -66.84315207728996}, "119291441RR0001": {"name": "WESLEYAN CHURCH OF WESTCHESTER", "designationCode": "C", "categoryCode": "39", "address": "4609 WENTWORTH COLLINGWOOD RD", "city": "WESTCHESTER STATION", "province": "NS", "country": "CA", "postalCode": "B0M2A0", "twitter": "None", "instagram": "None", "facebook": "None", "youtube": "None", "website": "None", "summary": "None", "logo": "None", "latitude": 45.618546456575615, "longitude": -63.665315088262425}, "108221193RR0001": {"name": "WESLEYAN CHURCH OF WOODSTOCK", "designationCode": "C", "categoryCode": "39", "address": "340 LOCKHART MILL ROAD", "city": "JACKSONVILLE", "province": "NB", "country": "CA", "postalCode": "E7M3S4", "twitter": "None", "instagram": "None", "facebook": "None", "youtube": "None", "website": "None", "summary": "None", "logo": "None", "latitude": 46.18808443784167, "longitude": -67.60522213080951}, "119291474RR0001": {"name": "WESLEYAN CHURCH OF YARMOUTH", "designationCode": "C", "categoryCode": "39", "address": "PO BOX 337, 70 HALEY RD", "city": "YARMOUTH", "province": "NS", "country": "CA", "postalCode": "B5A4B3", "twitter": "None", "instagram": "None", "facebook": "None", "youtube": "None", "website": "None", "summary": "None", "logo": "None", "latitude": 43.832687280050735, "longitude": -66.09763786412863}, "130002645RR0001": {"name": "WESLEYAN CHURCH PERTH-ANDOVER", "designationCode": "C", "categoryCode": "39", "address": "1177 WEST RIVERSIDE DR", "city": "PERTH ANDOVER", "province": "NB", "country": "CA", "postalCode": "E7H5G6", "twitter": "None", "instagram": "None", "facebook": "None", "youtube": "None", "website": "None", "summary": "None", "logo": "None", "latitude": 46.74195317498852, "longitude": -67.70076755497848}, "108003211RR0001": {"name": "WESLEYAN STANDARD CHURCH OF CANADA", "designationCode": "C", "categoryCode": "39", "address": "BOX 38", "city": "NEWBROOK", "province": "AB", "country": "CA", "postalCode": "T0A2P0", "twitter": "None", "instagram": "None", "facebook": "None", "youtube": "None", "website": "None", "summary": "None", "logo": "None", "latitude": 54.326100000000054, "longitude": -112.94303999999994}, "119291599RR0001": {"name": "WESLEYAN WOMEN INTERNATIONAL, CENTRAL CANADA DISTRICT", "designationCode": "C", "categoryCode": "47", "address": "#906-100 SPRUCEWOOD COURT", "city": "TORONTO", "province": "ON", "country": "CA", "postalCode": "M1W2P2", "twitter": "None", "instagram": "None", "facebook": "None", "youtube": "None", "website": "None", "summary": "None", "logo": "None", "latitude": 43.79379328925465, "longitude": -79.32346773749171}, "884432824RR0001": {"name": "WESLEYVILLE VALLEYFIELD PASTORAL CHARGE", "designationCode": "C", "categoryCode": "44", "address": "PO BOX 250", "city": "VALLEYFIELD", "province": "NL", "country": "CA", "postalCode": "A0G1B0", "twitter": "None", "instagram": "None", "facebook": "None", "youtube": "None", "website": "None", "summary": "None", "logo": "None", "latitude": 49.12384000000003, "longitude": -53.60585999999995}, "898708243RR0001": {"name": "WEST ABBOTSFORD COMMUNITY SCHOOL SOCIETY", "designationCode": "C", "categoryCode": "21", "address": "33771 GEORGE FERGUSON WAY", "city": "ABBOTSFORD", "province": "BC", "country": "CA", "postalCode": "V2S2M5", "twitter": "None", "instagram": "None", "facebook": "None", "youtube": "None", "website": "None", "summary": "None", "logo": "None", "latitude": 49.050185489324186, "longitude": -122.28991102553522}, "108197856RR0001": {"name": "WEST BANK BIBLE CAMP", "designationCode": "C", "categoryCode": "56", "address": "PO BOX 1841 STN MAIL", "city": "SWIFT CURRENT", "province": "SK", "country": "CA", "postalCode": "S9H4M6", "twitter": "None", "instagram": "None", "facebook": "None", "youtube": "None", "website": "None", "summary": "None", "logo": "None", "latitude": 50.292744000000056, "longitude": -107.80056349999994}, "108197948RR0001": {"name": "WEST BAY PASTORAL CHARGE", "designationCode": "C", "categoryCode": "44", "address": "60 MANSE RD.", "city": "WEST BAY", "province": "NS", "country": "CA", "postalCode": "B0E3K0", "twitter": "None", "instagram": "None", "facebook": "None", "youtube": "None", "website": "None", "summary": "None", "logo": "None", "latitude": 45.70840886282329, "longitude": -61.169866510875465}, "119292076RR0001": {"name": "WEST BAY ROAD & DISTRICT VOLUNTARY FIRE DEPARTMENT", "designationCode": "C", "categoryCode": "59", "address": "644 CENOTAPH ROAD", "city": "WEST BAY ROAD", "province": "NS", "country": "CA", "postalCode": "B0E3L0", "twitter": "None", "instagram": "None", "facebook": "None", "youtube": "None", "website": "None", "summary": "None", "logo": "None", "latitude": 45.73071138129972, "longitude": -61.252570621908326}, "872159165RR0001": {"name": "WEST BENCH CHARITABLE TRUST", "designationCode": "B", "categoryCode": "03", "address": "50 1ST AVE NE", "city": "SWIFT CURRENT", "province": "SK", "country": "CA", "postalCode": "S9H4W4", "twitter": "None", "instagram": "None", "facebook": "None", "youtube": "None", "website": "None", "summary": "None", "logo": "None", "latitude": 50.282664378132, "longitude": -107.79863205289816}, "882742927RR0001": {"name": "WEST BOUNDARY SENIOR HOUSING SOCIETY", "designationCode": "C", "categoryCode": "09", "address": "670 - 9TH AVE BOX # 427", "city": "MIDWAY", "province": "BC", "country": "CA", "postalCode": "V0H1M0", "twitter": "None", "instagram": "None", "facebook": "None", "youtube": "None", "website": "None", "summary": "None", "logo": "None", "latitude": 49.00914291483711, "longitude": -118.77839308596701}, "866751878RR0001": {"name": "WEST BRAMPTON COMMUNITY CHURCH OF GOD INC.", "designationCode": "C", "categoryCode": "39", "address": "183 QUEEN ST. EAST", "city": "BRAMPTON", "province": "ON", "country": "CA", "postalCode": "L6W2B3", "twitter": "None", "instagram": "None", "facebook": "None", "youtube": "None", "website": "None", "summary": "None", "logo": "None", "latitude": 43.693073759911215, "longitude": -79.75228074796598}, "119292159RR0001": {"name": "WEST BRANCH AND AREA COMMUNITY ASSOCIATION", "designationCode": "C", "categoryCode": "56", "address": "20 WEST BRANCH RD", "city": "SCOTSBURN", "province": "NS", "country": "CA", "postalCode": "B0K1R0", "twitter": "None", "instagram": "None", "facebook": "None", "youtube": "None", "website": "None", "summary": "None", "logo": "None", "latitude": 45.64139371717931, "longitude": -63.038803738790726}, "119292142RR0001": {"name": "WEST BRANCH CEMETERY COMPANY", "designationCode": "C", "categoryCode": "59", "address": "RR#1", "city": "SCOTSBURN", "province": "NS", "country": "CA", "postalCode": "B0K1R0", "twitter": "None", "instagram": "None", "facebook": "None", "youtube": "None", "website": "None", "summary": "None", "logo": "None", "latitude": 45.658211365424286, "longitude": -62.81245543993171}, "105627103RR0001": {"name": "WEST BROADWAY COMMUNITY SERVICES, INC.", "designationCode": "C", "categoryCode": "09", "address": "102 222 FURBY STREET", "city": "WINNIPEG", "province": "MB", "country": "CA", "postalCode": "R3C2A7", "twitter": "None", "instagram": "None", "facebook": "None", "youtube": "None", "website": "None", "summary": "None", "logo": "None", "latitude": 49.88546240383172, "longitude": -97.15789484808673}, "887364032RR0001": {"name": "WEST BROADWAY DEVELOPMENT CORPORATION", "designationCode": "C", "categoryCode": "09", "address": "608 BROADWAY", "city": "WINNIPEG", "province": "MB", "country": "CA", "postalCode": "R3C0W8", "twitter": "None", "instagram": "None", "facebook": "None", "youtube": "None", "website": "None", "summary": "None", "logo": "None", "latitude": 49.88560050678068, "longitude": -97.1548324730798}, "105627145RR0001": {"name": "WEST BROADWAY YOUTH OUTREACH INC.", "designationCode": "C", "categoryCode": "09", "address": "646 PORTAGE AVE", "city": "WINNIPEG", "province": "MB", "country": "CA", "postalCode": "R3C0G6", "twitter": "None", "instagram": "None", "facebook": "None", "youtube": "None", "website": "None", "summary": "None", "logo": "None", "latitude": 49.88835590034062, "longitude": -97.15886505063774}, "119292191RR0001": {"name": "WEST BROOK MEMORIAL CEMETERY COMPANY", "designationCode": "C", "categoryCode": "59", "address": "RR 3", "city": "SOUTHAMPTON", "province": "NS", "country": "CA", "postalCode": "B0M1W0", "twitter": "None", "instagram": "None", "facebook": "None", "youtube": "None", "website": "None", "summary": "None", "logo": "None", "latitude": 45.60256000000004, "longitude": -64.24633999999998}, "119292183RR0001": {"name": "WEST BROOKLYN BAPTIST CHURCH", "designationCode": "C", "categoryCode": "31", "address": "4 WEST BROOKLYN MTN ROAD      R.R.#3", "city": "WOLFVILLE", "province": "NS", "country": "CA", "postalCode": "B4P2R3", "twitter": "None", "instagram": "None", "facebook": "None", "youtube": "None", "website": "None", "summary": "None", "logo": "None", "latitude": 45.08895668458305, "longitude": -64.28221638591904}, "134112366RR0001": {"name": "WEST BROOKLYN COMMUNITY ASSOCIATION", "designationCode": "C", "categoryCode": "56", "address": "410 WEST BROOKLYN MOUNTAIN RD.24 WEST BROOKLYN ROAD", "city": "WOLFVILLE", "province": "NS", "country": "CA", "postalCode": "B4P2R3", "twitter": "None", "instagram": "None", "facebook": "None", "youtube": "None", "website": "None", "summary": "None", "logo": "None", "latitude": 45.076874608344646, "longitude": -64.2668099203359}, "108198201RR0001": {"name": "WEST CALGARY FULL GOSPEL CHURCH", "designationCode": "C", "categoryCode": "39", "address": "8339 BOWNESS RD N W", "city": "CALGARY", "province": "AB", "country": "CA", "postalCode": "T3B0H5", "twitter": "None", "instagram": "None", "facebook": "None", "youtube": "None", "website": "None", "summary": "None", "logo": "None"}, "889395398RR0001": {"name": "WEST CALGARY ROTARY CLUB - COMMUNITY SERVICE FUND", "designationCode": "A", "categoryCode": "65", "address": "123 RIVERBEND DR SE", "city": "CALGARY", "province": "AB", "country": "CA", "postalCode": "T2C3V6", "twitter": "None", "instagram": "None", "facebook": "None", "youtube": "None", "website": "None", "summary": "None", "logo": "None", "latitude": 50.97459365251886, "longitude": -114.02246636190786}, "119292274RR0001": {"name": "WEST CARLETON NON-PROFIT HOUSING CORPORATION", "designationCode": "C", "categoryCode": "09", "address": "518 DONALD B MUNRO DRIVE", "city": "CARP", "province": "ON", "country": "CA", "postalCode": "K0A1L0", "twitter": "None", "instagram": "None", "facebook": "None", "youtube": "None", "website": "None", "summary": "None", "logo": "None", "latitude": 45.343695883749504, "longitude": -76.04162219311503}, "119292308RR0001": {"name": "WEST CENTRAL ABILITIES INC.", "designationCode": "C", "categoryCode": "22", "address": "BOX 1626", "city": "KINDERSLEY", "province": "SK", "country": "CA", "postalCode": "S0L1S0", "twitter": "None", "instagram": "None", "facebook": "None", "youtube": "None", "website": "None", "summary": "None", "logo": "None", "latitude": 51.46791900000005, "longitude": -109.15522999999993}, "119292282RR0001": {"name": "WEST CENTRAL COMMUNITY PROGRAM INCORPORATED", "designationCode": "C", "categoryCode": "56", "address": "103-365 MCGEE ST", "city": "WINNIPEG", "province": "MB", "country": "CA", "postalCode": "R3G3M5", "twitter": "None", "instagram": "None", "facebook": "None", "youtube": "None", "website": "None", "summary": "None", "logo": "None", "latitude": 49.8919252319479, "longitude": -97.16091659268253}, "130375850RR0001": {"name": "WEST CENTRAL CRISIS & FAMILY SUPPORT CENTRE INC", "designationCode": "C", "categoryCode": "09", "address": "PO BOX 2235", "city": "KINDERSLEY", "province": "SK", "country": "CA", "postalCode": "S0L1S0", "twitter": "None", "instagram": "None", "facebook": "None", "youtube": "None", "website": "None", "summary": "None", "logo": "None", "latitude": 51.46791900000005, "longitude": -109.15522999999993}, "108198276RR0001": {"name": "WEST CENTRAL EARLY CHILDHOOD INTERVENTION PROGRAM INC.", "designationCode": "C", "categoryCode": "20", "address": "BOX 775", "city": "KINDERSLEY", "province": "SK", "country": "CA", "postalCode": "S0L1S0", "twitter": "None", "instagram": "None", "facebook": "None", "youtube": "None", "website": "None", "summary": "None", "logo": "None", "latitude": 51.46791900000005, "longitude": -109.15522999999993}, "119292332RR0001": {"name": "WEST CHURCH CEMETERY BOARD", "designationCode": "C", "categoryCode": "59", "address": "635424 PRETTY RIVER ROAD      RR#1", "city": "NOTTAWA", "province": "ON", "country": "CA", "postalCode": "L0M1P0", "twitter": "None", "instagram": "None", "facebook": "None", "youtube": "None", "website": "None", "summary": "None", "logo": "None", "latitude": 44.45875500000005, "longitude": -80.19813499999994}, "119292357RR0001": {"name": "WEST COAST AMATEUR MUSICIANS SOCIETY", "designationCode": "C", "categoryCode": "22", "address": "5468 WALTER PL", "city": "BURNABY", "province": "BC", "country": "CA", "postalCode": "V5G4K3", "twitter": "None", "instagram": "None", "facebook": "None", "youtube": "None", "website": "None", "summary": "None", "logo": "None", "latitude": 49.25429152510254, "longitude": -122.98399102553523}, "889978995RR0001": {"name": "WEST COAST ANIMALS FOR COMMUNITY CARE AND EMOTIONAL SUPPORT SOCIETY", "designationCode": "C", "categoryCode": "59", "address": "10544 CROWTHER ROAD", "city": "POWELL RIVER", "province": "BC", "country": "CA", "postalCode": "V8A0G4", "twitter": "None", "instagram": "None", "facebook": "None", "youtube": "None", "website": "None", "summary": "None", "logo": "None", "latitude": 50.00337435114042, "longitude": -124.72805181454939}, "856137799RR0001": {"name": "WEST COAST CHAMBER MUSIC", "designationCode": "C", "categoryCode": "22", "address": "472 EAST 44TH AVENUE", "city": "VANCOUVER", "province": "BC", "country": "CA", "postalCode": "V5W1W3", "twitter": "None", "instagram": "None", "facebook": "None", "youtube": "None", "website": "None", "summary": "None", "logo": "None", "latitude": 49.23015549567217, "longitude": -123.09500186081135}, "863808440RR0001": {"name": "WEST COAST CHILDREN'S CHORAL SOCIETY", "designationCode": "C", "categoryCode": "22", "address": "P.O. BOX 42074                2200 OAK BAY AVENUE", "city": "VICTORIA", "province": "BC", "country": "CA", "postalCode": "V8R6T4", "twitter": "None", "instagram": "None", "facebook": "None", "youtube": "None", "website": "None", "summary": "None", "logo": "None", "latitude": 48.426545460470756, "longitude": -123.3158007783773}, "121938005RR0001": {"name": "WEST COAST CHRISTIAN FELLOWSHIP", "designationCode": "C", "categoryCode": "39", "address": "3198 E GEORGIA ST", "city": "VANCOUVER", "province": "BC", "country": "CA", "postalCode": "V5K2L1", "twitter": "None", "instagram": "None", "facebook": "None", "youtube": "None", "website": "None", "summary": "None", "logo": "None", "latitude": 49.27817044213834, "longitude": -123.03622105786165}, "893048736RR0001": {"name": "WEST COAST ENVIRONMENTAL EDUCATION SOCIETY", "designationCode": "C", "categoryCode": "53", "address": "332 KING RD", "city": "COMOX", "province": "BC", "country": "CA", "postalCode": "V9M3L8", "twitter": "None", "instagram": "None", "facebook": "None", "youtube": "None", "website": "None", "summary": "None", "logo": "None", "latitude": 49.67720983995281, "longitude": -124.90647080705324}, "119292415RR0001": {"name": "WEST COAST ENVIRONMENTAL LAW RESEARCH FOUNDATION", "designationCode": "C", "categoryCode": "59", "address": "200-2006 WEST 10 AVE", "city": "VANCOUVER", "province": "BC", "country": "CA", "postalCode": "V6J2B3", "twitter": "None", "instagram": "None", "facebook": "None", "youtube": "None", "website": "None", "summary": "None", "logo": "None", "latitude": 49.26280554674261, "longitude": -123.15105305398464}, "890806243RR0001": {"name": "WEST COAST GENERAL HOSPITAL FOUNDATION", "designationCode": "A", "categoryCode": "13", "address": "3949 PORT ALBERNI HIGHWAY", "city": "PORT ALBERNI", "province": "BC", "country": "CA", "postalCode": "V9Y4S1", "twitter": "None", "instagram": "None", "facebook": "None", "youtube": "None", "website": "None", "summary": "None", "logo": "None", "latitude": 49.24910905906761, "longitude": -124.78351993084566}, "861455442RR0001": {"name": "WEST COAST INSTITUTE FOR STUDIES IN ANTHROPOSOPHY", "designationCode": "C", "categoryCode": "20", "address": "PO BOX 163", "city": "SECHELT", "province": "BC", "country": "CA", "postalCode": "V0N3A0", "twitter": "None", "instagram": "None", "facebook": "None", "youtube": "None", "website": "None", "summary": "None", "logo": "None", "latitude": 49.473460000000046, "longitude": -123.75460999999996}, "119292456RR0001": {"name": "WEST COAST ISLANDS' STEWARDSHIP AND CONSERVANCY SOCIETY OF BRITISH COLUMBIA", "designationCode": "C", "categoryCode": "52", "address": "FULFORD HARBOR BOX 98", "city": "SALT SPRING ISLAND", "province": "BC", "country": "CA", "postalCode": "V8K2P2", "twitter": "None", "instagram": "None", "facebook": "None", "youtube": "None", "website": "None", "summary": "None", "logo": "None", "latitude": 48.76927000000006, "longitude": -123.45020999999997}, "119292464RR0001": {"name": "WEST COAST LEAF ASSOCIATION", "designationCode": "C", "categoryCode": "21", "address": "555-409 GRANVILLE ST", "city": "VANCOUVER", "province": "BC", "country": "CA", "postalCode": "V6C1T2", "twitter": "None", "instagram": "None", "facebook": "None", "youtube": "None", "website": "None", "summary": "None", "logo": "None", "latitude": 49.28514383654554, "longitude": -123.11419112049143}, "871218129RR0001": {"name": "WEST COAST MENTAL HEALTH NETWORK SOCIETY", "designationCode": "C", "categoryCode": "11", "address": "163 WEST PENDER STREET", "city": "VANCOUVER", "province": "BC", "country": "CA", "postalCode": "V6B1S4", "twitter": "None", "instagram": "None", "facebook": "None", "youtube": "None", "website": "None", "summary": "None", "logo": "None", "latitude": 49.28143431089032, "longitude": -123.10915342377699}, "894233543RR0001": {"name": "WEST COAST MONTESSORI SOCIETY", "designationCode": "C", "categoryCode": "20", "address": "21488 OLD YALE RD", "city": "LANGLEY", "province": "BC", "country": "CA", "postalCode": "V3A4M8", "twitter": "None", "instagram": "None", "facebook": "None", "youtube": "None", "website": "None", "summary": "None", "logo": "None", "latitude": 49.090848657453186, "longitude": -122.62788464380495}, "886120120RR0001": {"name": "WEST COAST PROSTATE AWARENESS SOCIETY", "designationCode": "C", "categoryCode": "11", "address": "920 ASH STREET", "city": "CAMPBELL RIVER", "province": "BC", "country": "CA", "postalCode": "V9W1G5", "twitter": "None", "instagram": "None", "facebook": "None", "youtube": "None", "website": "None", "summary": "None", "logo": "None", "latitude": 49.98974516429119, "longitude": -125.22989252019686}, "119292480RR0001": {"name": "WEST COAST RAILWAY ASSOCIATION", "designationCode": "C", "categoryCode": "50", "address": "PO BOX 2790", "city": "VANCOUVER", "province": "BC", "country": "CA", "postalCode": "V6B3X2", "twitter": "None", "instagram": "None", "facebook": "None", "youtube": "None", "website": "None", "summary": "None", "logo": "None", "latitude": 49.28024400000005, "longitude": -123.11294749999993}, "136121795RR0001": {"name": "WEST COAST SPAY & NEUTER SOCIETY", "designationCode": "C", "categoryCode": "54", "address": "5685 BLACKWATER RD", "city": "QUESNEL", "province": "BC", "country": "CA", "postalCode": "V2J7E1", "twitter": "None", "instagram": "None", "facebook": "None", "youtube": "None", "website": "None", "summary": "None", "logo": "None", "latitude": 53.26896666588612, "longitude": -123.1487233327758}, "891599367RR0001": {"name": "WEST COAST SYMPHONY SOCIETY", "designationCode": "C", "categoryCode": "22", "address": "3448 POINT GREY ROAD", "city": "VANCOUVER", "province": "BC", "country": "CA", "postalCode": "V6R1A5", "twitter": "None", "instagram": "None", "facebook": "None", "youtube": "None", "website": "None", "summary": "None", "logo": "None", "latitude": 49.27186253231589, "longitude": -123.18078389370416}, "898571906RR0001": {"name": "WEST COAST TAP DANCE COLLECTIVE", "designationCode": "C", "categoryCode": "22", "address": "P.O BOX 72095", "city": "BURNABY", "province": "BC", "country": "CA", "postalCode": "V5H4P9", "twitter": "None", "instagram": "None", "facebook": "None", "youtube": "None", "website": "None", "summary": "None", "logo": "None", "latitude": 49.23084300000005, "longitude": -123.00196399999993}, "119292530RR0001": {"name": "WEST COLCHESTER RECREATION ASSOCIATION", "designationCode": "C", "categoryCode": "56", "address": "PRESIDENT                     BOX 171", "city": "DEBERT COLCHESTER CO", "province": "NS", "country": "CA", "postalCode": "B0M1G0", "twitter": "None", "instagram": "None", "facebook": "None", "youtube": "None", "website": "None", "summary": "None", "logo": "None", "latitude": 45.430480000000045, "longitude": -63.44773999999995}, "119288918RR0715": {"name": "WEST CONGREGATION OF JEHOVAH'S WITNESSES", "designationCode": "C", "categoryCode": "61", "address": "44727 RIVERWOOD CRESCENT", "city": "CHILLIWACK", "province": "BC", "country": "CA", "postalCode": "V2R5S9", "twitter": "None", "instagram": "None", "facebook": "None", "youtube": "None", "website": "None", "summary": "None", "logo": "None", "latitude": 49.102363507646054, "longitude": -121.9870622514571}, "119288918RR0792": {"name": "WEST CONGREGATION OF JEHOVAH'S WITNESSES", "designationCode": "C", "categoryCode": "61", "address": "151 5TH ST E", "city": "OWEN SOUND", "province": "ON", "country": "CA", "postalCode": "N4K1C4", "twitter": "None", "instagram": "None", "facebook": "None", "youtube": "None", "website": "None", "summary": "None", "logo": "None", "latitude": 44.558774572277855, "longitude": -80.94212866457964}, "119288918RR0876": {"name": "WEST CONGREGATION OF JEHOVAH'S WITNESSES", "designationCode": "C", "categoryCode": "61", "address": "900 NORTH SERVICE ROAD", "city": "WINDSOR", "province": "ON", "country": "CA", "postalCode": "N8X5B1", "twitter": "None", "instagram": "None", "facebook": "None", "youtube": "None", "website": "None", "summary": "None", "logo": "None", "latitude": 42.28063611192175, "longitude": -82.99924832073383}, "119288918RR1158": {"name": "WEST CONGREGATION OF JEHOVAH'S WITNESSES COWANSVILLE", "designationCode": "C", "categoryCode": "61", "address": "233 RUE DES GOLFEUSES", "city": "BROMONT", "province": "QC", "country": "CA", "postalCode": "J2L3H8", "twitter": "None", "instagram": "None", "facebook": "None", "youtube": "None", "website": "None", "summary": "None", "logo": "None", "latitude": 45.31256249792255, "longitude": -72.66863870938901}, "119288918RR0135": {"name": "WEST CONGREGATION OF JEHOVAH'S WITNESSES MAPLE RIDGE BRITISH COLUMBIA", "designationCode": "C", "categoryCode": "61", "address": "20277 TELEP AVE", "city": "MAPLE RIDGE", "province": "BC", "country": "CA", "postalCode": "V2X3Z3", "twitter": "None", "instagram": "None", "facebook": "None", "youtube": "None", "website": "None", "summary": "None", "logo": "None", "latitude": 49.225456526544846, "longitude": -122.65903349999999}, "119288918RR0730": {"name": "WEST CONGREGATION OF JEHOVAH'S WITNESSES NEWMARKET, ONTARIO", "designationCode": "C", "categoryCode": "61", "address": "68 GOLDSMITH CRES", "city": "NEWMARKET", "province": "ON", "country": "CA", "postalCode": "L3X1R5", "twitter": "None", "instagram": "None", "facebook": "None", "youtube": "None", "website": "None", "summary": "None", "logo": "None", "latitude": 44.03112294644804, "longitude": -79.47184998990112}, "119288918RR0209": {"name": "WEST CONGREGATION OF JEHOVAH'S WITNESSES, BELLEVILLE, ONTARIO", "designationCode": "C", "categoryCode": "61", "address": "5 SIMCOE DRIVE", "city": "BELLEVILLE", "province": "ON", "country": "CA", "postalCode": "K8N4Z5", "twitter": "None", "instagram": "None", "facebook": "None", "youtube": "None", "website": "None", "summary": "None", "logo": "None", "latitude": 44.2085781295807, "longitude": -77.39545539451221}, "119288918RR0146": {"name": "WEST CONGREGATION OF JEHOVAH'S WITNESSES, BRADFORD, ONTARIO", "designationCode": "C", "categoryCode": "61", "address": "47 VICTORIA ST E", "city": "COOKSTOWN", "province": "ON", "country": "CA", "postalCode": "L0L1L0", "twitter": "None", "instagram": "None", "facebook": "None", "youtube": "None", "website": "None", "summary": "None", "logo": "None", "latitude": 44.18899570289264, "longitude": -79.69547354609576}, "119288918RR1353": {"name": "WEST CONGREGATION OF JEHOVAH'S WITNESSES, MIDLAND, ONTARIO", "designationCode": "C", "categoryCode": "61", "address": "339 NOREEN STREET", "city": "MIDLAND", "province": "ON", "country": "CA", "postalCode": "L4R4C3", "twitter": "None", "instagram": "None", "facebook": "None", "youtube": "None", "website": "None", "summary": "None", "logo": "None", "latitude": 44.74350279734558, "longitude": -79.89682049185497}, "119288918RR1023": {"name": "WEST CONGREGATION OF JEHOVAH'S WITNESSES, MISSION BRITISH COLUMBIA", "designationCode": "C", "categoryCode": "61", "address": "32625-ANTELOPE AVENUE", "city": "MISSION", "province": "BC", "country": "CA", "postalCode": "V2V5J4", "twitter": "None", "instagram": "None", "facebook": "None", "youtube": "None", "website": "None", "summary": "None", "logo": "None", "latitude": 49.1483940426416, "longitude": -122.31894388752114}, "119288918RR0525": {"name": "WEST CONGREGATION OF JEHOVAH'S WITNESSES, NAPANEE, ONTARIO", "designationCode": "C", "categoryCode": "61", "address": "P.O. BOX #2", "city": "DESERONTON", "province": "ON", "country": "CA", "postalCode": "K0K1X0", "twitter": "None", "instagram": "None", "facebook": "None", "youtube": "None", "website": "None", "summary": "None", "logo": "None", "latitude": 44.190758986599484, "longitude": -77.08173709434307}, "119288918RR0252": {"name": "WEST CONGREGATION OF JEHOVAH'S WITNESSES, OAKVILLE, ONTARIO", "designationCode": "C", "categoryCode": "61", "address": "1287 LAKESHORE RD W", "city": "OAKVILLE", "province": "ON", "country": "CA", "postalCode": "L6L1G3", "twitter": "None", "instagram": "None", "facebook": "None", "youtube": "None", "website": "None", "summary": "None", "logo": "None", "latitude": 43.414004189566604, "longitude": -79.69137713630312}, "119288918RR0408": {"name": "WEST CONGREGATION OF JEHOVAH'S WITNESSES, ORLEANS, ONTARIO", "designationCode": "C", "categoryCode": "61", "address": "510 LEITA PL", "city": "ORLEANS", "province": "ON", "country": "CA", "postalCode": "K1W0E3", "twitter": "None", "instagram": "None", "facebook": "None", "youtube": "None", "website": "None", "summary": "None", "logo": "None", "latitude": 45.429369023053724, "longitude": -75.52431948641}, "119288918RR0863": {"name": "WEST CONGREGATION OF JEHOVAH'S WITNESSES, ROCKLAND, ONTARIO", "designationCode": "C", "categoryCode": "61", "address": "1527 BRAZEAU ROAD", "city": "CLARENCE-ROCKLAND", "province": "ON", "country": "CA", "postalCode": "K0A1N0", "twitter": "None", "instagram": "None", "facebook": "None", "youtube": "None", "website": "None", "summary": "None", "logo": "None", "latitude": 45.51663012129947, "longitude": -75.20610130997204}, "869375923RR0001": {"name": "WEST COUNTRY HISTORICAL SOCIETY INC", "designationCode": "C", "categoryCode": "50", "address": "784 BIDEFORD RD.,RTE.166", "city": "ELLERSLIE-BIDEFORD", "province": "PE", "country": "CA", "postalCode": "C0B1J0", "twitter": "None", "instagram": "None", "facebook": "None", "youtube": "None", "website": "None", "summary": "None", "logo": "None", "latitude": 46.60998434000799, "longitude": -63.915828788793306}, "119292621RR0001": {"name": "WEST COVEHEAD CEMETERY FUND,", "designationCode": "C", "categoryCode": "59", "address": "2727 RTE 6", "city": "YORK", "province": "PE", "country": "CA", "postalCode": "C0A1P0", "twitter": "None", "instagram": "None", "facebook": "None", "youtube": "None", "website": "None", "summary": "None", "logo": "None", "latitude": 46.40580062151777, "longitude": -63.10838695588117}, "866808553RR0001": {"name": "WEST CRESTON COMMUNITY HALL SOCIETY", "designationCode": "C", "categoryCode": "56", "address": "1350 WEST CRESTON RD.         RR 7", "city": "CRESTON", "province": "BC", "country": "CA", "postalCode": "V0B1G7", "twitter": "None", "instagram": "None", "facebook": "None", "youtube": "None", "website": "None", "summary": "None", "logo": "None", "latitude": 49.08958065939832, "longitude": -116.61977538820416}, "848979944RR0001": {"name": "WEST CRESTON FIRE PROTECTION SOCIETY", "designationCode": "C", "categoryCode": "59", "address": "1348 WEST CRESTON ROAD", "city": "WEST CRESTON", "province": "BC", "country": "CA", "postalCode": "V0B1G7", "twitter": "None", "instagram": "None", "facebook": "None", "youtube": "None", "website": "None", "summary": "None", "logo": "None", "latitude": 49.089601046471834, "longitude": -116.61917623476594}, "890982242RR0001": {"name": "WEST DALHOUSIE COMMUNITY HALL ASSOCIATION", "designationCode": "C", "categoryCode": "56", "address": "4868 WEST DALHOUSIE ROAD      RURAL ROUTE 5", "city": "BRIDGETOWN", "province": "NS", "country": "CA", "postalCode": "B0S1C0", "twitter": "None", "instagram": "None", "facebook": "None", "youtube": "None", "website": "None", "summary": "None", "logo": "None", "latitude": 44.71479496915601, "longitude": -65.20909979713186}}