{"119023703RR0001": {"name": "LONDON COUNCIL FOR ADULT EDUCATION", "designationCode": "C", "categoryCode": "21", "address": "PO BOX 51024 STONEYBROOK RO   1593 ADELAIDE ST", "city": "LONDON", "province": "ON", "country": "CA", "postalCode": "N5X4P9", "twitter": "None", "instagram": "None", "facebook": "None", "youtube": "None", "website": "None", "summary": "None", "logo": "None", "latitude": 43.03734308491557, "longitude": -81.25617318281459}, "119023711RR0001": {"name": "LONDON CRIMESTOPPERS INC.", "designationCode": "C", "categoryCode": "59", "address": "PO BOX 24140", "city": "LONDON", "province": "ON", "country": "CA", "postalCode": "N6H5C4", "twitter": "None", "instagram": "None", "facebook": "None", "youtube": "None", "website": "None", "summary": "None", "logo": "None", "latitude": 42.98689500000006, "longitude": -81.24624349999993}, "135875649RR0001": {"name": "LONDON CRISIS PREGNANCY CENTRE", "designationCode": "C", "categoryCode": "09", "address": "261 PICCADILLY ST", "city": "LONDON", "province": "ON", "country": "CA", "postalCode": "N6A1S3", "twitter": "None", "instagram": "None", "facebook": "None", "youtube": "None", "website": "None", "summary": "None", "logo": "None", "latitude": 42.99477606076532, "longitude": -81.25130592685679}, "132270364RR0001": {"name": "LONDON DAY NURSERY", "designationCode": "C", "categoryCode": "01", "address": "550 FANSHAWE PARK RD", "city": "LONDON", "province": "ON", "country": "CA", "postalCode": "N5X1L1", "twitter": "None", "instagram": "None", "facebook": "None", "youtube": "None", "website": "None", "summary": "None", "logo": "None", "latitude": 43.03397376487072, "longitude": -81.25807853470894}, "867827537RR0001": {"name": "LONDON DISTRICT CATHOLIC SCHOOL BOARD", "designationCode": "C", "categoryCode": "20", "address": "5200 WELLINGTON ROAD SOUTH", "city": "LONDON", "province": "ON", "country": "CA", "postalCode": "N6E3X8", "twitter": "None", "instagram": "None", "facebook": "None", "youtube": "None", "website": "None", "summary": "None", "logo": "None", "latitude": 42.897315712440296, "longitude": -81.20449444427352}, "866942493RR0001": {"name": "LONDON DOWN SYNDROME ASSOCIATION (L D S A)", "designationCode": "C", "categoryCode": "09", "address": "PO BOX 52022 RPO COMMISSIONERS", "city": "LONDON", "province": "ON", "country": "CA", "postalCode": "N6C0A1", "twitter": "None", "instagram": "None", "facebook": "None", "youtube": "None", "website": "None", "summary": "None", "logo": "None", "latitude": 42.95789184861807, "longitude": -81.23937020553693}, "129915153RR0001": {"name": "LONDON FAMILY COURT CLINIC INCORPORATED", "designationCode": "C", "categoryCode": "09", "address": "200 - 254 PALL MALL ST", "city": "LONDON", "province": "ON", "country": "CA", "postalCode": "N6A5P6", "twitter": "None", "instagram": "None", "facebook": "None", "youtube": "None", "website": "None", "summary": "None", "logo": "None", "latitude": 42.993331971983274, "longitude": -81.24841079615089}, "119023786RR0001": {"name": "LONDON FANSHAWE SYMPHONIC CHORUS", "designationCode": "C", "categoryCode": "22", "address": "336 SOVEREIGN RD", "city": "LONDON", "province": "ON", "country": "CA", "postalCode": "N6M1A8", "twitter": "None", "instagram": "None", "facebook": "None", "youtube": "None", "website": "None", "summary": "None", "logo": "None", "latitude": 42.99084992091283, "longitude": -81.14010389961945}, "119023794RR0001": {"name": "LONDON FIRST CHURCH OF THE NAZARENE", "designationCode": "C", "categoryCode": "39", "address": "176 WELLINGTON ST", "city": "LONDON", "province": "ON", "country": "CA", "postalCode": "N6B2L1", "twitter": "None", "instagram": "None", "facebook": "None", "youtube": "None", "website": "None", "summary": "None", "logo": "None", "latitude": 42.97801134277794, "longitude": -81.24176132927485}, "119023802RR0001": {"name": "LONDON FIRST KOREAN PRESBYTERIAN CHURCH", "designationCode": "C", "categoryCode": "37", "address": "1844 HAMILTON ROAD", "city": "LONDON", "province": "ON", "country": "CA", "postalCode": "N6M1G3", "twitter": "None", "instagram": "None", "facebook": "None", "youtube": "None", "website": "None", "summary": "None", "logo": "None", "latitude": 42.96400505637924, "longitude": -81.13897978991848}, "870488624RR0001": {"name": "LONDON FRINGE THEATRE FESTIVAL", "designationCode": "C", "categoryCode": "22", "address": "207 KING ST", "city": "LONDON", "province": "ON", "country": "CA", "postalCode": "N6A1C9", "twitter": "None", "instagram": "None", "facebook": "None", "youtube": "None", "website": "None", "summary": "None", "logo": "None", "latitude": 42.98296708630055, "longitude": -81.24737450346244}, "804093474RR0001": {"name": "LONDON FULL GOSPEL CHURCH", "designationCode": "C", "categoryCode": "39", "address": "8 - 600 SARNIA RD", "city": "LONDON", "province": "ON", "country": "CA", "postalCode": "N6G5M4", "twitter": "None", "instagram": "None", "facebook": "None", "youtube": "None", "website": "None", "summary": "None", "logo": "None", "latitude": 42.992946053551954, "longitude": -81.30749628475394}, "891107146RR0001": {"name": "LONDON GOODENOUGH ASSOCIATION OF CANADA", "designationCode": "C", "categoryCode": "21", "address": "6 - 340 SPADINA RD", "city": "TORONTO", "province": "ON", "country": "CA", "postalCode": "M5R2V8", "twitter": "None", "instagram": "None", "facebook": "None", "youtube": "None", "website": "None", "summary": "None", "logo": "None", "latitude": 43.68432490008082, "longitude": -79.41107611339362}, "853642346RR0001": {"name": "LONDON GOSPEL CHURCH INC.", "designationCode": "C", "categoryCode": "39", "address": "27 - 1220 RIVERBEND RD", "city": "LONDON", "province": "ON", "country": "CA", "postalCode": "N6K0G5", "twitter": "None", "instagram": "None", "facebook": "None", "youtube": "None", "website": "None", "summary": "None", "logo": "None", "latitude": 42.96449906083084, "longitude": -81.36070361569463}, "119023844RR0001": {"name": "LONDON GOSPEL TEMPLE - PENTECOSTAL BENEVOLENT CORPORATION", "designationCode": "C", "categoryCode": "20", "address": "288 COMMISSIONERS RD W", "city": "LONDON", "province": "ON", "country": "CA", "postalCode": "N6J1Y3", "twitter": "None", "instagram": "None", "facebook": "None", "youtube": "None", "website": "None", "summary": "None", "logo": "None", "latitude": 42.956160501731695, "longitude": -81.27487048306311}, "107641987RR0001": {"name": "LONDON GOSPEL TEMPLE INC.", "designationCode": "C", "categoryCode": "36", "address": "288 COMMISSIONERS RD W.", "city": "LONDON", "province": "ON", "country": "CA", "postalCode": "N6J1Y3", "twitter": "None", "instagram": "None", "facebook": "None", "youtube": "None", "website": "None", "summary": "None", "logo": "None", "latitude": 42.956160501731695, "longitude": -81.27487048306311}, "887657153RR0001": {"name": "LONDON HEALTH SCIENCES CENTRE", "designationCode": "C", "categoryCode": "10", "address": "339 WINDERMERE RD             PO BOX 5339", "city": "LONDON", "province": "ON", "country": "CA", "postalCode": "N6A5A5", "twitter": "None", "instagram": "None", "facebook": "None", "youtube": "None", "website": "None", "summary": "None", "logo": "None", "latitude": 43.01529855146883, "longitude": -81.2752906138789}, "119261550RR0001": {"name": "LONDON HEALTH SCIENCES CENTRE AUXILIARY", "designationCode": "C", "categoryCode": "19", "address": "339 WINDERMERE RD", "city": "LONDON", "province": "ON", "country": "CA", "postalCode": "N6A5A5", "twitter": "None", "instagram": "None", "facebook": "None", "youtube": "None", "website": "None", "summary": "None", "logo": "None", "latitude": 43.01529855146883, "longitude": -81.2752906138789}, "894781475RR0001": {"name": "LONDON HEALTH SCIENCES FOUNDATION", "designationCode": "A", "categoryCode": "13", "address": "747 BASELINE ROAD EAST", "city": "LONDON", "province": "ON", "country": "CA", "postalCode": "N6C2R6", "twitter": "None", "instagram": "None", "facebook": "None", "youtube": "None", "website": "None", "summary": "None", "logo": "None", "latitude": 42.96201056116935, "longitude": -81.22754969302906}, "119119022RR0001": {"name": "LONDON HERITAGE FARM SOCIETY", "designationCode": "C", "categoryCode": "50", "address": "6511 DYKE RD", "city": "RICHMOND", "province": "BC", "country": "CA", "postalCode": "V7E3R3", "twitter": "None", "instagram": "None", "facebook": "None", "youtube": "None", "website": "None", "summary": "None", "logo": "None", "latitude": 49.11441384626907, "longitude": -123.1523483445383}, "892379447RR0001": {"name": "LONDON HOUSING REGISTRY", "designationCode": "C", "categoryCode": "59", "address": "203 - 379 DUNDAS ST", "city": "LONDON", "province": "ON", "country": "CA", "postalCode": "N6B1V5", "twitter": "None", "instagram": "None", "facebook": "None", "youtube": "None", "website": "None", "summary": "None", "logo": "None", "latitude": 42.98620505629325, "longitude": -81.24068580249889}, "119023869RR0001": {"name": "LONDON HUMANE SOCIETY", "designationCode": "C", "categoryCode": "54", "address": "624 CLARKE SIDE ROAD", "city": "LONDON", "province": "ON", "country": "CA", "postalCode": "N5V3K5", "twitter": "None", "instagram": "None", "facebook": "None", "youtube": "None", "website": "None", "summary": "None", "logo": "None", "latitude": 43.01515398139928, "longitude": -81.18092969212775}, "890869571RR0001": {"name": "LONDON HYDRO EMPLOYEES' CHARITIES CHEST FUND", "designationCode": "B", "categoryCode": "75", "address": "PO BOX 2700", "city": "LONDON", "province": "ON", "country": "CA", "postalCode": "N6A4H6", "twitter": "None", "instagram": "None", "facebook": "None", "youtube": "None", "website": "None", "summary": "None", "logo": "None", "latitude": 42.98689500000006, "longitude": -81.24624349999993}, "129464905RR0001": {"name": "LONDON INTERCOMMUNITY HEALTH CENTRE", "designationCode": "C", "categoryCode": "11", "address": "659 DUNDAS STREET", "city": "LONDON", "province": "ON", "country": "CA", "postalCode": "N5W2Z1", "twitter": "None", "instagram": "None", "facebook": "None", "youtube": "None", "website": "None", "summary": "None", "logo": "None", "latitude": 42.98931604633859, "longitude": -81.22977475200535}, "892748088RR0001": {"name": "LONDON INTERNATIOAL FOLKDANCE EXPERIENCE", "designationCode": "C", "categoryCode": "22", "address": "184 BASE LINE RD E", "city": "LONDON", "province": "ON", "country": "CA", "postalCode": "N6C2N9", "twitter": "None", "instagram": "None", "facebook": "None", "youtube": "None", "website": "None", "summary": "None", "logo": "None", "latitude": 42.96018043493553, "longitude": -81.25086436525474}, "107642043RR0001": {"name": "LONDON JEWISH COMMUNITY CENTRE", "designationCode": "C", "categoryCode": "49", "address": "536 HURON STREET", "city": "LONDON", "province": "ON", "country": "CA", "postalCode": "N5Y4J5", "twitter": "None", "instagram": "None", "facebook": "None", "youtube": "None", "website": "None", "summary": "None", "logo": "None", "latitude": 43.011370433369336, "longitude": -81.244859759368}, "855652376RR0001": {"name": "LONDON KNIGHTS ALUMNI FOUNDATION", "designationCode": "A", "categoryCode": "03", "address": "145 WHARNCLIFFE ROAD SOUTH", "city": "LONDON", "province": "ON", "country": "CA", "postalCode": "N6J2K4", "twitter": "None", "instagram": "None", "facebook": "None", "youtube": "None", "website": "None", "summary": "None", "logo": "None", "latitude": 42.973000459893825, "longitude": -81.26207140608209}, "119023919RR0001": {"name": "LONDON KOREAN CHRISTIAN CHURCH THE PRESBYTERIAN CHURCH IN CANADA", "designationCode": "C", "categoryCode": "37", "address": "530 TOPPING LANE", "city": "LONDON", "province": "ON", "country": "CA", "postalCode": "N6J3M7", "twitter": "None", "instagram": "None", "facebook": "None", "youtube": "None", "website": "None", "summary": "None", "logo": "None", "latitude": 42.95801669553922, "longitude": -81.28368838628926}, "893338731RR0001": {"name": "LONDON MANDARIN ALLIANCE CHURCH OF THE CHRISTIAN AND MISSIONARY ALLIANCE IN CANADA", "designationCode": "C", "categoryCode": "39", "address": "PO BOX 24015 RPO WESTOWN", "city": "LONDON", "province": "ON", "country": "CA", "postalCode": "N6H5C4", "twitter": "None", "instagram": "None", "facebook": "None", "youtube": "None", "website": "None", "summary": "None", "logo": "None", "latitude": 42.98689500000006, "longitude": -81.24624349999993}, "840187124RR0001": {"name": "LONDON MEETING ROOMS TRUST", "designationCode": "C", "categoryCode": "39", "address": "6907 LAMBETH WALK", "city": "LONDON", "province": "ON", "country": "CA", "postalCode": "N6P1A5", "twitter": "None", "instagram": "None", "facebook": "None", "youtube": "None", "website": "None", "summary": "None", "logo": "None", "latitude": 42.91258895141105, "longitude": -81.30079687440136}, "863045654RR0001": {"name": "LONDON MUSLIM MOSQUE", "designationCode": "C", "categoryCode": "60", "address": "151 OXFORD ST WEST", "city": "LONDON", "province": "ON", "country": "CA", "postalCode": "N6H1S3", "twitter": "None", "instagram": "None", "facebook": "None", "youtube": "None", "website": "None", "summary": "None", "logo": "None", "latitude": 42.99053189205937, "longitude": -81.26995145227643}, "134251396RR0001": {"name": "LONDON NON-PROFIT MULTICULTURAL RESIDENCES", "designationCode": "C", "categoryCode": "01", "address": "924 OXFORD STREET EAST        M.F. ARNSBY PROPERTY MANAG. LT", "city": "LONDON", "province": "ON", "country": "CA", "postalCode": "N5Y3J9", "twitter": "None", "instagram": "None", "facebook": "None", "youtube": "None", "website": "None", "summary": "None", "logo": "None", "latitude": 43.003761000000054, "longitude": -81.22516099999993}, "119023984RR0001": {"name": "LONDON NORTH PARK COMMUNITY CHURCH INCORPORATED", "designationCode": "C", "categoryCode": "39", "address": "1510 FANSHAWE PARK RD E", "city": "LONDON", "province": "ON", "country": "CA", "postalCode": "N5X4A3", "twitter": "None", "instagram": "None", "facebook": "None", "youtube": "None", "website": "None", "summary": "None", "logo": "None", "latitude": 43.043977975145495, "longitude": -81.22429847931826}, "139697353RR0001": {"name": "LONDON NORTH ROTARY CLUB FOUNDATION", "designationCode": "A", "categoryCode": "65", "address": "1006 HUNT CLUB MEWS", "city": "LONDON", "province": "ON", "country": "CA", "postalCode": "N6H4R7", "twitter": "None", "instagram": "None", "facebook": "None", "youtube": "None", "website": "None", "summary": "None", "logo": "None", "latitude": 42.97397024813887, "longitude": -81.33498651001197}, "891476392RR0001": {"name": "LONDON PENTECOSTAL HOUSE OF GOD", "designationCode": "C", "categoryCode": "36", "address": "1587 CALEDONIA ST", "city": "LONDON", "province": "ON", "country": "CA", "postalCode": "N5W2W8", "twitter": "None", "instagram": "None", "facebook": "None", "youtube": "None", "website": "None", "summary": "None", "logo": "None", "latitude": 42.998781060765324, "longitude": -81.19280584303775}, "119024057RR0001": {"name": "LONDON POLONIA TOWERS INC.", "designationCode": "C", "categoryCode": "01", "address": "UNITE 456 SOUTHDALE RD. EAST", "city": "LONDON", "province": "ON", "country": "CA", "postalCode": "N6E1A3", "twitter": "None", "instagram": "None", "facebook": "None", "youtube": "None", "website": "None", "summary": "None", "logo": "None", "latitude": 42.94206946826104, "longitude": -81.24213594186043}, "119024065RR0001": {"name": "LONDON PUBLIC LIBRARY BOARD", "designationCode": "C", "categoryCode": "50", "address": "251 DUNDAS STREET", "city": "LONDON", "province": "ON", "country": "CA", "postalCode": "N6A6H9", "twitter": "None", "instagram": "None", "facebook": "None", "youtube": "None", "website": "None", "summary": "None", "logo": "None", "latitude": 42.984609067978674, "longitude": -81.24632662724342}, "108087263RR0001": {"name": "LONDON REGIONAL CHILDREN'S MUSEUM", "designationCode": "C", "categoryCode": "50", "address": "21 WHARNCLIFFE RD S", "city": "LONDON", "province": "ON", "country": "CA", "postalCode": "N6J4G5", "twitter": "None", "instagram": "None", "facebook": "None", "youtube": "None", "website": "None", "summary": "None", "logo": "None", "latitude": 42.979003292255754, "longitude": -81.2624608516934}, "107642266RR0001": {"name": "LONDON ROAD WEST UNITED CHURCH", "designationCode": "C", "categoryCode": "44", "address": "2092 LONDON RD                RR 1", "city": "SARNIA", "province": "ON", "country": "CA", "postalCode": "N7T7H2", "twitter": "None", "instagram": "None", "facebook": "None", "youtube": "None", "website": "None", "summary": "None", "logo": "None", "latitude": 42.97798917037937, "longitude": -82.39084292655521}, "107797383RR0009": {"name": "LONDON SEVENTH-DAY ADVENTIST CHURCH", "designationCode": "C", "categoryCode": "41", "address": "805 SHELBORNE ST.", "city": "LONDON", "province": "ON", "country": "CA", "postalCode": "N5Z5C6", "twitter": "None", "instagram": "None", "facebook": "None", "youtube": "None", "website": "None", "summary": "None", "logo": "None", "latitude": 42.96295635553123, "longitude": -81.20008867863099}, "119024156RR0001": {"name": "LONDON SIKH SOCIETY", "designationCode": "C", "categoryCode": "62", "address": "37 CLARKE ROAD", "city": "LONDON", "province": "ON", "country": "CA", "postalCode": "N5W5W5", "twitter": "None", "instagram": "None", "facebook": "None", "youtube": "None", "website": "None", "summary": "None", "logo": "None", "latitude": 42.97558432982795, "longitude": -81.16119104570586}, "873708515RR0001": {"name": "LONDON SPANISH PENTECOSTAL CHURCH", "designationCode": "C", "categoryCode": "39", "address": "130 FALCON STREET", "city": "LONDON", "province": "ON", "country": "CA", "postalCode": "N5W4Z1", "twitter": "None", "instagram": "None", "facebook": "None", "youtube": "None", "website": "None", "summary": "None", "logo": "None", "latitude": 42.98877186401401, "longitude": -81.17537080275869}, "119024164RR0001": {"name": "LONDON SPIRITUALIST CHURCH", "designationCode": "C", "categoryCode": "39", "address": "76 DOULTON ST", "city": "LONDON", "province": "ON", "country": "CA", "postalCode": "N5W2P7", "twitter": "None", "instagram": "None", "facebook": "None", "youtube": "None", "website": "None", "summary": "None", "logo": "None", "latitude": 42.995475877632664, "longitude": -81.19792119360598}, "895232072RR0001": {"name": "LONDON TRACK 3 SKI SCHOOL", "designationCode": "C", "categoryCode": "56", "address": "P.O. BOX 20040 RPO BYRON      431 BOLER ROAD", "city": "LONDON", "province": "ON", "country": "CA", "postalCode": "N6K4G6", "twitter": "None", "instagram": "None", "facebook": "None", "youtube": "None", "website": "None", "summary": "None", "logo": "None", "latitude": 42.952255523169285, "longitude": -81.33096624138686}, "809785843RR0001": {"name": "LONDON UBF CHURCH", "designationCode": "C", "categoryCode": "39", "address": "525 LEYTON CRESCENT", "city": "LONDON", "province": "ON", "country": "CA", "postalCode": "N6G1S9", "twitter": "None", "instagram": "None", "facebook": "None", "youtube": "None", "website": "None", "summary": "None", "logo": "None", "latitude": 42.997515851520525, "longitude": -81.29263233080405}, "130396617RR0001": {"name": "LONDON UNEMPLOYMENT HELP CENTRE", "designationCode": "C", "categoryCode": "59", "address": "100 - 150 DUFFERIN AVE", "city": "LONDON", "province": "ON", "country": "CA", "postalCode": "N6A5N6", "twitter": "None", "instagram": "None", "facebook": "None", "youtube": "None", "website": "None", "summary": "None", "logo": "None", "latitude": 42.98664594644804, "longitude": -81.25122002207277}, "890668981RR0001": {"name": "LONDON VIETNAMESE ALLIANCE CHURCH", "designationCode": "C", "categoryCode": "39", "address": "52-1318 HIGHBURY AVE. N.", "city": "LONDON", "province": "ON", "country": "CA", "postalCode": "N5Y5E5", "twitter": "None", "instagram": "None", "facebook": "None", "youtube": "None", "website": "None", "summary": "None", "logo": "None", "latitude": 43.01533770719025, "longitude": -81.21299919103677}, "129951299RR0001": {"name": "LONDON WALDORF SCHOOL", "designationCode": "C", "categoryCode": "20", "address": "7 BEAUFORT STREET", "city": "LONDON", "province": "ON", "country": "CA", "postalCode": "N6G1A5", "twitter": "None", "instagram": "None", "facebook": "None", "youtube": "None", "website": "None", "summary": "None", "logo": "None", "latitude": 42.99611102305373, "longitude": -81.26310771233186}, "133194969RR0001": {"name": "LONDON WHEELCHAIR BASKETBALL ASSOCIATION", "designationCode": "C", "categoryCode": "56", "address": "22934 WONDERLAND ROAD N, RR3", "city": "ILDERTON", "province": "ON", "country": "CA", "postalCode": "N0M2A0", "twitter": "None", "instagram": "None", "facebook": "None", "youtube": "None", "website": "None", "summary": "None", "logo": "None", "latitude": 43.10119549721349, "longitude": -81.35345745280524}, "119024222RR0001": {"name": "LONDON YOUTH FOR CHRIST", "designationCode": "C", "categoryCode": "47", "address": "254 ADELAIDE ST S", "city": "LONDON", "province": "ON", "country": "CA", "postalCode": "N5Z3L1", "twitter": "None", "instagram": "None", "facebook": "None", "youtube": "None", "website": "None", "summary": "None", "logo": "None", "latitude": 42.961967275347554, "longitude": -81.21922478417702}, "888007044RR0001": {"name": "LONDON YOUTH SYMPHONY", "designationCode": "C", "categoryCode": "22", "address": "BOX 553 STATION B", "city": "LONDON", "province": "ON", "country": "CA", "postalCode": "N6A4W8", "twitter": "None", "instagram": "None", "facebook": "None", "youtube": "None", "website": "None", "summary": "None", "logo": "None", "latitude": 42.98689500000006, "longitude": -81.24624349999993}, "891343246RR0001": {"name": "LONDON-MIDDLESEX SUICIDE PREVENTION COUNCIL", "designationCode": "C", "categoryCode": "09", "address": "P.O. BOX 25114                LONDON BUSINESS CENTRE", "city": "LONDON", "province": "ON", "country": "CA", "postalCode": "N6C6A8", "twitter": "None", "instagram": "None", "facebook": "None", "youtube": "None", "website": "None", "summary": "None", "logo": "None", "latitude": 42.9625099705697, "longitude": -81.2312900566963}, "107641789RR0001": {"name": "LONDONDERRY CHILD DEVELOPMENT SOCIETY", "designationCode": "C", "categoryCode": "20", "address": "13931 140 STREET NW", "city": "EDMONTON", "province": "AB", "country": "CA", "postalCode": "T6V1J7", "twitter": "None", "instagram": "None", "facebook": "None", "youtube": "None", "website": "None", "summary": "None", "logo": "None", "latitude": 53.60160956052277, "longitude": -113.56241966383085}, "870276961RR0001": {"name": "LONDONDERRY STATION COMMUNITY CHURCH ASSOCIATION", "designationCode": "C", "categoryCode": "39", "address": "2201 FOLLY MTN. HWY 4", "city": "LONDONDERRY", "province": "NS", "country": "CA", "postalCode": "B0M1M0", "twitter": "None", "instagram": "None", "facebook": "None", "youtube": "None", "website": "None", "summary": "None", "logo": "None", "latitude": 45.48057000000006, "longitude": -63.610248499999926}, "893073171RR0001": {"name": "LONE BUTTE HISTORICAL ASSOCIATION", "designationCode": "C", "categoryCode": "50", "address": "BOX 143", "city": "LONE BUTTE", "province": "BC", "country": "CA", "postalCode": "V0K1X0", "twitter": "None", "instagram": "None", "facebook": "None", "youtube": "None", "website": "None", "summary": "None", "logo": "None", "latitude": 53.052639000000056, "longitude": -122.09298199999994}, "119024255RR0001": {"name": "LONE ROCK UNITED CHURCH", "designationCode": "C", "categoryCode": "44", "address": "4726 46 ST", "city": "LLOYDMINSTER", "province": "SK", "country": "CA", "postalCode": "S9V2A9", "twitter": "None", "instagram": "None", "facebook": "None", "youtube": "None", "website": "None", "summary": "None", "logo": "None", "latitude": 53.27983950764604, "longitude": -109.99967310935426}, "119024248RR0001": {"name": "LONERGAN RESEARCH INSTITUTE", "designationCode": "C", "categoryCode": "21", "address": "100 WELLSLEY STREET WEST", "city": "TORONTO", "province": "ON", "country": "CA", "postalCode": "M5S2Z5", "twitter": "None", "instagram": "None", "facebook": "None", "youtube": "None", "website": "None", "summary": "None", "logo": "None", "latitude": 43.66379514351649, "longitude": -79.38977972482535}, "119024263RR0001": {"name": "LONG BRANCH BAPTIST CHURCH", "designationCode": "C", "categoryCode": "31", "address": "3381 LAKESHORE BLVD W", "city": "TORONTO", "province": "ON", "country": "CA", "postalCode": "M8W1N1", "twitter": "None", "instagram": "None", "facebook": "None", "youtube": "None", "website": "None", "summary": "None", "logo": "None", "latitude": 43.59588089644548, "longitude": -79.5272738845289}, "119288918RR1362": {"name": "LONG ISLAND CONGREGATION OF JEHOVAH'S WITNESSES, OTTAWA, ONTARIO", "designationCode": "C", "categoryCode": "61", "address": "17 AVONHURST AVE", "city": "OTTAWA", "province": "ON", "country": "CA", "postalCode": "K2J4K9", "twitter": "None", "instagram": "None", "facebook": "None", "youtube": "None", "website": "None", "summary": "None", "logo": "None", "latitude": 45.28481980405677, "longitude": -75.72689770771558}, "119024289RR0001": {"name": "LONG ISLAND LAKE SOCIETY", "designationCode": "C", "categoryCode": "56", "address": "9824 222 ST NW", "city": "EDMONTON", "province": "AB", "country": "CA", "postalCode": "T5T7B9", "twitter": "None", "instagram": "None", "facebook": "None", "youtube": "None", "website": "None", "summary": "None", "logo": "None", "latitude": 53.53574100000006, "longitude": -113.69799349999994}, "140756032RR0001": {"name": "LONG LAKE VALLEY HEALTH FOUNDATION INC", "designationCode": "C", "categoryCode": "19", "address": "BOX 88", "city": "IMPERIAL", "province": "SK", "country": "CA", "postalCode": "S0G2J0", "twitter": "None", "instagram": "None", "facebook": "None", "youtube": "None", "website": "None", "summary": "None", "logo": "None", "latitude": 51.34433000000007, "longitude": -105.43451999999996}, "891135493RR0001": {"name": "LONG POINT BASIN LAND TRUST", "designationCode": "C", "categoryCode": "59", "address": "PO BOX 468", "city": "PORT ROWAN", "province": "ON", "country": "CA", "postalCode": "N0E1M0", "twitter": "None", "instagram": "None", "facebook": "None", "youtube": "None", "website": "None", "summary": "None", "logo": "None", "latitude": 42.62403000000006, "longitude": -80.45044999999999}, "107642670RR0001": {"name": "LONG POINT REGION CONSERVATION AUTHORITY", "designationCode": "C", "categoryCode": "52", "address": "4 ELM STREET", "city": "TILLSONBURG", "province": "ON", "country": "CA", "postalCode": "N4G0C4", "twitter": "None", "instagram": "None", "facebook": "None", "youtube": "None", "website": "None", "summary": "None", "logo": "None", "latitude": 42.85546533276596, "longitude": -80.71795756460219}, "897560165RR0001": {"name": "LONG POINT WORLD BIOSPHERE RESERVE FOUNDATION", "designationCode": "C", "categoryCode": "52", "address": "PO BOX 338", "city": "PORT ROWAN", "province": "ON", "country": "CA", "postalCode": "N0E1M0", "twitter": "None", "instagram": "None", "facebook": "None", "youtube": "None", "website": "None", "summary": "None", "logo": "None", "latitude": 42.62403000000006, "longitude": -80.45044999999999}, "872546072RR0001": {"name": "LONG SAULT PENTECOSTAL CHURCH", "designationCode": "C", "categoryCode": "36", "address": "PO BOX 2", "city": "LONG SAULT", "province": "ON", "country": "CA", "postalCode": "K0C1P0", "twitter": "None", "instagram": "None", "facebook": "None", "youtube": "None", "website": "None", "summary": "None", "logo": "None", "latitude": 45.01324451560865, "longitude": -74.89606844091028}, "877619528RR0001": {"name": "LONG-RUN THOROUGHBRED RETIREMENT SOCIETY", "designationCode": "C", "categoryCode": "54", "address": "555 REXDALE BLVD", "city": "ETOBICOKE", "province": "ON", "country": "CA", "postalCode": "M9W5L2", "twitter": "None", "instagram": "None", "facebook": "None", "youtube": "None", "website": "None", "summary": "None", "logo": "None", "latitude": 43.719061489783854, "longitude": -79.6035760049786}, "107642480RR0001": {"name": "LONGBOW LAKE VOLUNTEER FIRE BRIGADE", "designationCode": "C", "categoryCode": "59", "address": "LONGBOW LAKE PO", "city": "LONGBOW LAKE", "province": "ON", "country": "CA", "postalCode": "P0X1H0", "twitter": "None", "instagram": "None", "facebook": "None", "youtube": "None", "website": "None", "summary": "None", "logo": "None", "latitude": 49.73967000000005, "longitude": -94.36699999999996}, "887880920RR0001": {"name": "LONGFIELDS COMMUNITY CHURCH", "designationCode": "C", "categoryCode": "39", "address": "3376 WOODROFFE AVE", "city": "NEPEAN", "province": "ON", "country": "CA", "postalCode": "K2J4A9", "twitter": "None", "instagram": "None", "facebook": "None", "youtube": "None", "website": "None", "summary": "None", "logo": "None", "latitude": 45.27041680930823, "longitude": -75.7156329535745}, "894169465RR0001": {"name": "LONGLAC HISTORICAL SOCIETY", "designationCode": "C", "categoryCode": "50", "address": "PO BOX 210                    118 BIRCHCREST ROAD", "city": "LONGLAC", "province": "ON", "country": "CA", "postalCode": "P0T2A0", "twitter": "None", "instagram": "None", "facebook": "None", "youtube": "None", "website": "None", "summary": "None", "logo": "None", "latitude": 49.77331918987176, "longitude": -86.54421976403465}, "107642597RR0001": {"name": "LONGLAC PENTECOSTAL ASSEMBLY", "designationCode": "C", "categoryCode": "36", "address": "BOX 607", "city": "LONGLAC", "province": "ON", "country": "CA", "postalCode": "P0T2A0", "twitter": "None", "instagram": "None", "facebook": "None", "youtube": "None", "website": "None", "summary": "None", "logo": "None", "latitude": 49.780530000000056, "longitude": -86.53504999999996}, "869530865RR0001": {"name": "LONGO'S FAMILY CHARITABLE FOUNDATION", "designationCode": "B", "categoryCode": "03", "address": "8800 HUNTINGTON ROAD", "city": "VAUGHAN", "province": "ON", "country": "CA", "postalCode": "L4H3M6", "twitter": "None", "instagram": "None", "facebook": "None", "youtube": "None", "website": "None", "summary": "None", "logo": "None", "latitude": 43.79401109800492, "longitude": -79.65290512694908}, "891007197RR0001": {"name": "LONGWOOD CEMETERY BOARD", "designationCode": "C", "categoryCode": "59", "address": "22403 SPRINGFIELD ROAD", "city": "NELBOURNE", "province": "ON", "country": "CA", "postalCode": "N0L1T0", "twitter": "None", "instagram": "None", "facebook": "None", "youtube": "None", "website": "None", "summary": "None", "logo": "None", "latitude": 42.815865100924896, "longitude": -81.59326310869207}, "107642845RR0001": {"name": "LONSDALE CREEK DAY CARE CENTRE SOCIETY", "designationCode": "A", "categoryCode": "01", "address": "240 W - 21ST STREET", "city": "NORTH VANCOUVER", "province": "BC", "country": "CA", "postalCode": "V7M1Z4", "twitter": "None", "instagram": "None", "facebook": "None", "youtube": "None", "website": "None", "summary": "None", "logo": "None", "latitude": 49.32843738509633, "longitude": -123.077617271264}, "119024370RR0001": {"name": "LONSET NON-PROFIT HOUSING CORPORATION INC.", "designationCode": "C", "categoryCode": "09", "address": "200-90 BASELINE ROAD W", "city": "LONDON", "province": "ON", "country": "CA", "postalCode": "N6J1V2", "twitter": "None", "instagram": "None", "facebook": "None", "youtube": "None", "website": "None", "summary": "None", "logo": "None", "latitude": 42.959214, "longitude": -81.26187525}, "863814042RR0001": {"name": "LOOKING GLASS FOUNDATION FOR EATING DISORDERS", "designationCode": "C", "categoryCode": "11", "address": "4116 ANGUS DR", "city": "VANCOUVER", "province": "BC", "country": "CA", "postalCode": "V6J4H9", "twitter": "None", "instagram": "None", "facebook": "None", "youtube": "None", "website": "None", "summary": "None", "logo": "None", "latitude": 49.249122789341584, "longitude": -123.14604017704447}, "825756406RR0001": {"name": "LOOKOUT FOUNDATION", "designationCode": "A", "categoryCode": "03", "address": "544 COLUMBIA ST", "city": "NEW WESTMINSTER", "province": "BC", "country": "CA", "postalCode": "V3L1B1", "twitter": "None", "instagram": "None", "facebook": "None", "youtube": "None", "website": "None", "summary": "None", "logo": "None", "latitude": 49.20341004105846, "longitude": -122.90741876031524}, "896595808RR0001": {"name": "LOON LAKE HEALTH CARE FOUNDATION INC.", "designationCode": "C", "categoryCode": "13", "address": "P.O. BOX 583", "city": "LOON LAKE", "province": "SK", "country": "CA", "postalCode": "S0M1L0", "twitter": "None", "instagram": "None", "facebook": "None", "youtube": "None", "website": "None", "summary": "None", "logo": "None", "latitude": 53.8842735, "longitude": -109.57983525}, "133785329RR0001": {"name": "LOON LAKE SENIOR CITIZENS 48 INC", "designationCode": "C", "categoryCode": "56", "address": "BOX 61", "city": "LOON LAKE", "province": "SK", "country": "CA", "postalCode": "S0M1L0", "twitter": "None", "instagram": "None", "facebook": "None", "youtube": "None", "website": "None", "summary": "None", "logo": "None", "latitude": 53.8842735, "longitude": -109.57983525}, "898909569RR0001": {"name": "LORD BEAVERBROOK MUSIC PARENTS ASSOCIATION", "designationCode": "C", "categoryCode": "22", "address": "9019 FAIRMOUNT DR SE", "city": "CALGARY", "province": "AB", "country": "CA", "postalCode": "T2H0Z4", "twitter": "None", "instagram": "None", "facebook": "None", "youtube": "None", "website": "None", "summary": "None", "logo": "None", "latitude": 50.9726630641122, "longitude": -114.05932524675389}, "890812142RR0001": {"name": "LORD BYNG ELEMENTARY PARENT ADVISORY COUNCIL", "designationCode": "C", "categoryCode": "21", "address": "3711 GEORGIA ST.", "city": "RICHMOND", "province": "BC", "country": "CA", "postalCode": "V7E3M3", "twitter": "None", "instagram": "None", "facebook": "None", "youtube": "None", "website": "None", "summary": "None", "logo": "None", "latitude": 49.130253511541184, "longitude": -123.18351219317329}, "119024453RR0001": {"name": "LORD DUFFERIN COMMUNITY DAY CARE CENTRE", "designationCode": "C", "categoryCode": "01", "address": "350 PARLIAMENT ST", "city": "TORONTO", "province": "ON", "country": "CA", "postalCode": "M5A2Z7", "twitter": "None", "instagram": "None", "facebook": "None", "youtube": "None", "website": "None", "summary": "None", "logo": "None", "latitude": 43.660874410208365, "longitude": -79.36663608745437}, "107643199RR0001": {"name": "LORD OF ALL LUTHERAN CHURCH", "designationCode": "C", "categoryCode": "32", "address": "112 LAKESIDE BLVD", "city": "STRATHMORE", "province": "AB", "country": "CA", "postalCode": "T1P1A1", "twitter": "None", "instagram": "None", "facebook": "None", "youtube": "None", "website": "None", "summary": "None", "logo": "None", "latitude": 51.044808615038406, "longitude": -113.39477099321932}, "896894557RR0001": {"name": "LORD OF GLORY LUTHERAN CHURCH", "designationCode": "C", "categoryCode": "32", "address": "BOX 1617", "city": "LAC LA BICHE", "province": "AB", "country": "CA", "postalCode": "T0A2C0", "twitter": "None", "instagram": "None", "facebook": "None", "youtube": "None", "website": "None", "summary": "None", "logo": "None", "latitude": 54.768200000000036, "longitude": -111.98244999999997}, "728090929RR0001": {"name": "LORD OF HARVEST", "designationCode": "C", "categoryCode": "39", "address": "1210-1440 LAWRENCE AVENUE WEST", "city": "NORTH YORK", "province": "ON", "country": "CA", "postalCode": "M6L1B4", "twitter": "None", "instagram": "None", "facebook": "None", "youtube": "None", "website": "None", "summary": "None", "logo": "None", "latitude": 43.70851200473676, "longitude": -79.47837558035906}, "886098797RR0001": {"name": "LORD OF LIFE COMMUNITY CHURCH", "designationCode": "C", "categoryCode": "32", "address": "P.O. BOX 188", "city": "SANDSPIT", "province": "BC", "country": "CA", "postalCode": "V0T1T0", "twitter": "None", "instagram": "None", "facebook": "None", "youtube": "None", "website": "None", "summary": "None", "logo": "None", "latitude": 53.24940000000004, "longitude": -131.82153999999997}, "107643207RR0001": {"name": "LORD OF LIFE LUTHERAN CHURCH", "designationCode": "C", "categoryCode": "32", "address": "2710 79 ST NW", "city": "EDMONTON", "province": "AB", "country": "CA", "postalCode": "T6K3Z1", "twitter": "None", "instagram": "None", "facebook": "None", "youtube": "None", "website": "None", "summary": "None", "logo": "None", "latitude": 53.458152171244734, "longitude": -113.45368644217754}, "119024495RR0001": {"name": "LORD OF LIFE LUTHERAN CHURCH", "designationCode": "C", "categoryCode": "32", "address": "2481 SUNSET DRIVE", "city": "KAMLOOPS", "province": "BC", "country": "CA", "postalCode": "V2C4K1", "twitter": "None", "instagram": "None", "facebook": "None", "youtube": "None", "website": "None", "summary": "None", "logo": "None", "latitude": 50.67488476934628, "longitude": -120.24751970358929}, "103386694RR0001": {"name": "LORD ROBERTS CHILDREN'S PROGRAMS INC.", "designationCode": "C", "categoryCode": "20", "address": "725 KYLEMORE AVE.", "city": "WINNIPEG", "province": "MB", "country": "CA", "postalCode": "R3L1B8", "twitter": "None", "instagram": "None", "facebook": "None", "youtube": "None", "website": "None", "summary": "None", "logo": "None", "latitude": 49.85974417568815, "longitude": -97.14434653456625}, "107643462RR0001": {"name": "LORD STRATHCONA'S HORSE (ROYAL CANADIANS) REGIMENTAL SOCIETY", "designationCode": "C", "categoryCode": "52", "address": "PO BOX 10500 STN FORCES", "city": "EDMONTON", "province": "AB", "country": "CA", "postalCode": "T5J4J5", "twitter": "None", "instagram": "None", "facebook": "None", "youtube": "None", "website": "None", "summary": "None", "logo": "None", "latitude": 53.54623500000005, "longitude": -113.49037249999994}, "869723296RR0001": {"name": "LORD TENNYSON OUT OF SCHOOL CARE SOCIETY", "designationCode": "C", "categoryCode": "01", "address": "P.O. BOX 14066                DELAMONT PO", "city": "VANCOUVER", "province": "BC", "country": "CA", "postalCode": "V6J0B9", "twitter": "None", "instagram": "None", "facebook": "None", "youtube": "None", "website": "None", "summary": "None", "logo": "None", "latitude": 49.26077700000006, "longitude": -123.14626099999992}, "871539599RR0001": {"name": "LORD TWEEDSMUIR ALUMNI SCHOLARSHIP ORGANIZATION", "designationCode": "C", "categoryCode": "21", "address": "6151 180TH STREET", "city": "SURREY", "province": "BC", "country": "CA", "postalCode": "V3S4L5", "twitter": "None", "instagram": "None", "facebook": "None", "youtube": "None", "website": "None", "summary": "None", "logo": "None", "latitude": 49.11444958673323, "longitude": -122.7238624683766}, "119024560RR0001": {"name": "LORD WOLSELEY NURSERY SCHOOL INCORPORATED", "designationCode": "C", "categoryCode": "20", "address": "939 HENDERSON HWY", "city": "WINNIPEG", "province": "MB", "country": "CA", "postalCode": "R2K2M2", "twitter": "None", "instagram": "None", "facebook": "None", "youtube": "None", "website": "None", "summary": "None", "logo": "None", "latitude": 49.93288885551624, "longitude": -97.09873069964624}, "127573673RR0001": {"name": "LOREBURN HAWARDEN PASTORAL CHARGE", "designationCode": "C", "categoryCode": "44", "address": "PO BOX 9", "city": "HAWARDEN", "province": "SK", "country": "CA", "postalCode": "S0H1Y0", "twitter": "None", "instagram": "None", "facebook": "None", "youtube": "None", "website": "None", "summary": "None", "logo": "None", "latitude": 51.41652000000005, "longitude": -106.60070999999999}, "119024594RR0001": {"name": "LOREBURN TOWN AND COUNTRY CLUB", "designationCode": "C", "categoryCode": "56", "address": "BOX 144", "city": "LOREBURN", "province": "SK", "country": "CA", "postalCode": "S0H2S0", "twitter": "None", "instagram": "None", "facebook": "None", "youtube": "None", "website": "None", "summary": "None", "logo": "None", "latitude": 51.216770000000054, "longitude": -106.60125}, "119024651RR0001": {"name": "LORING PASTORAL CHARGE", "designationCode": "C", "categoryCode": "44", "address": "PO 203", "city": "LORING", "province": "ON", "country": "CA", "postalCode": "P0H1S0", "twitter": "None", "instagram": "None", "facebook": "None", "youtube": "None", "website": "None", "summary": "None", "logo": "None", "latitude": 45.93285000000003, "longitude": -79.99535999999995}, "122300049RR0001": {"name": "LORNE & EVELYN JOHNSON FOUNDATION", "designationCode": "B", "categoryCode": "23", "address": "3934 GORDON ROAD", "city": "REGINA", "province": "SK", "country": "CA", "postalCode": "S4S6Y3", "twitter": "None", "instagram": "None", "facebook": "None", "youtube": "None", "website": "None", "summary": "None", "logo": "None", "latitude": 50.40558080040141, "longitude": -104.63744333055406}, "887992048RR0001": {"name": "LORNE AVENUE BIBLE CHAPEL", "designationCode": "C", "categoryCode": "39", "address": "67 LAFFERY RD.                RR 4", "city": "TRENTON", "province": "ON", "country": "CA", "postalCode": "K8V5P7", "twitter": "None", "instagram": "None", "facebook": "None", "youtube": "None", "website": "None", "summary": "None", "logo": "None", "latitude": 44.08232293308919, "longitude": -77.64777540714994}, "868374612RR0001": {"name": "LORNE COMMUNITY HANDIVAN INC.", "designationCode": "C", "categoryCode": "09", "address": "PO BOX 172", "city": "SWAN LAKE", "province": "MB", "country": "CA", "postalCode": "R0G2S0", "twitter": "None", "instagram": "None", "facebook": "None", "youtube": "None", "website": "None", "summary": "None", "logo": "None", "latitude": 49.41136000000006, "longitude": -98.79357999999996}, "884891987RR0001": {"name": "LORNE MEMORIAL HEALTH FOUNDATION INC.", "designationCode": "A", "categoryCode": "13", "address": "BOX 40", "city": "SWAN LAKE", "province": "MB", "country": "CA", "postalCode": "R0G2S0", "twitter": "None", "instagram": "None", "facebook": "None", "youtube": "None", "website": "None", "summary": "None", "logo": "None", "latitude": 49.41136000000006, "longitude": -98.79357999999996}, "895148534RR0001": {"name": "LORNE PARK FOUNDATION", "designationCode": "C", "categoryCode": "20", "address": "PO BOX 871", "city": "PETERBOROUGH", "province": "ON", "country": "CA", "postalCode": "K9J7A2", "twitter": "None", "instagram": "None", "facebook": "None", "youtube": "None", "website": "None", "summary": "None", "logo": "None", "latitude": 44.30591700000005, "longitude": -78.31950199999993}}