{"870530417RR0001": {"name": "EDMONTON SPIRITUAL LIVING CENTRE COMMUNITY CHURCH", "designationCode": "C", "categoryCode": "59", "address": "1229-5328 CALGARY TRAIL", "city": "EDMONTON", "province": "AB", "country": "CA", "postalCode": "T6H4J8", "twitter": "None", "instagram": "None", "facebook": "None", "youtube": "None", "website": "None", "summary": "None", "logo": "None", "latitude": 53.49123769080735, "longitude": -113.49539595798925}, "866461809RR0001": {"name": "EDMONTON SPORT MUSEUM AND HALLS OF FAME SOCIETY", "designationCode": "C", "categoryCode": "50", "address": "13707 - 87 AVENUE", "city": "EDMONTON", "province": "AB", "country": "CA", "postalCode": "T5R4C8", "twitter": "None", "instagram": "None", "facebook": "None", "youtube": "None", "website": "None", "summary": "None", "logo": "None", "latitude": 53.519327466818716, "longitude": -113.55902983236193}, "889784591RR0001": {"name": "EDMONTON SUZUKI PIANO SCHOOL", "designationCode": "C", "categoryCode": "22", "address": "5820 168 AVE NW", "city": "EDMONTON", "province": "AB", "country": "CA", "postalCode": "T5Y0K6", "twitter": "None", "instagram": "None", "facebook": "None", "youtube": "None", "website": "None", "summary": "None", "logo": "None", "latitude": 53.630105812683766, "longitude": -113.42433442174955}, "118894203RR0001": {"name": "EDMONTON SYMPHONY SOCIETY", "designationCode": "C", "categoryCode": "22", "address": "9720 102 AVENUE NW", "city": "EDMONTON", "province": "AB", "country": "CA", "postalCode": "T5J4B2", "twitter": "None", "instagram": "None", "facebook": "None", "youtube": "None", "website": "None", "summary": "None", "logo": "None", "latitude": 53.54367228561932, "longitude": -113.48764807550914}, "131799157RR0001": {"name": "EDMONTON TALMUD TORAH,", "designationCode": "C", "categoryCode": "20", "address": "10260 112 STREET", "city": "EDMONTON", "province": "AB", "country": "CA", "postalCode": "T5K1M4", "twitter": "None", "instagram": "None", "facebook": "None", "youtube": "None", "website": "None", "summary": "None", "logo": "None", "latitude": 53.544429838190325, "longitude": -113.51396019654882}, "119258820RR0001": {"name": "EDMONTON THEOSOPHICAL SOCIETY", "designationCode": "C", "categoryCode": "49", "address": "PO BOX 4587", "city": "EDMONTON", "province": "AB", "country": "CA", "postalCode": "T6E5G4", "twitter": "None", "instagram": "None", "facebook": "None", "youtube": "None", "website": "None", "summary": "None", "logo": "None", "latitude": 53.499354000000054, "longitude": -113.46577549999994}, "877902981RR0001": {"name": "EDMONTON UNITED SERVICES INSTITUTE", "designationCode": "C", "categoryCode": "51", "address": "11035 163 AVE NW", "city": "EDMONTON", "province": "AB", "country": "CA", "postalCode": "T5X2A2", "twitter": "None", "instagram": "None", "facebook": "None", "youtube": "None", "website": "None", "summary": "None", "logo": "None", "latitude": 53.62352545268046, "longitude": -113.5119505194757}, "862123346RR0001": {"name": "EDMONTON URBAN NATIVE MINISTRY", "designationCode": "C", "categoryCode": "37", "address": "8715 118 AVE NW", "city": "EDMONTON", "province": "AB", "country": "CA", "postalCode": "T5B0T2", "twitter": "None", "instagram": "None", "facebook": "None", "youtube": "None", "website": "None", "summary": "None", "logo": "None", "latitude": 53.57035448124545, "longitude": -113.47535152553523}, "889634978RR0001": {"name": "EDMONTON VEDIC CONGREGATION", "designationCode": "C", "categoryCode": "39", "address": "1043 JAMES CRESCENT", "city": "EDMONTON", "province": "AB", "country": "CA", "postalCode": "T6L6P6", "twitter": "None", "instagram": "None", "facebook": "None", "youtube": "None", "website": "None", "summary": "None", "logo": "None", "latitude": 53.48247246681874, "longitude": -113.41360304111578}, "895535045RR0001": {"name": "EDMONTON VIETNAMESE MENNONITE CHURCH", "designationCode": "C", "categoryCode": "34", "address": "10324-107 AVENUE", "city": "EDMONTON", "province": "AB", "country": "CA", "postalCode": "T5H0V8", "twitter": "None", "instagram": "None", "facebook": "None", "youtube": "None", "website": "None", "summary": "None", "logo": "None", "latitude": 53.551441486005956, "longitude": -113.49854991618096}, "107283285RR0001": {"name": "EDMONTON VIETS ASSOCIATION", "designationCode": "C", "categoryCode": "59", "address": "#102, 10534-109 STREET", "city": "EDMONTON", "province": "AB", "country": "CA", "postalCode": "T5H3B2", "twitter": "None", "instagram": "None", "facebook": "None", "youtube": "None", "website": "None", "summary": "None", "logo": "None", "latitude": 53.54868647155058, "longitude": -113.50848925483263}, "877009274RR0001": {"name": "EDMONTON VOCAL MINORITY MUSIC SOCIETY", "designationCode": "C", "categoryCode": "22", "address": "PO BOX 12091 MAIN POST OFFICE", "city": "EDMONTON", "province": "AB", "country": "CA", "postalCode": "T5J3L2", "twitter": "None", "instagram": "None", "facebook": "None", "youtube": "None", "website": "None", "summary": "None", "logo": "None", "latitude": 53.54623500000005, "longitude": -113.49037249999994}, "107283301RR0001": {"name": "EDMONTON WOMENS' SHELTER LTD.", "designationCode": "C", "categoryCode": "09", "address": "PO BOX 20088                  RPO BEVERLY", "city": "EDMONTON", "province": "AB", "country": "CA", "postalCode": "T5W5E6", "twitter": "None", "instagram": "None", "facebook": "None", "youtube": "None", "website": "None", "summary": "None", "logo": "None", "latitude": 53.57172085808644, "longitude": -113.37534064551632}, "891941726RR0001": {"name": "EDMONTON WORD OF FAITH FELLOWSHIP", "designationCode": "C", "categoryCode": "39", "address": "3904-91 STREET", "city": "EDMONTON", "province": "AB", "country": "CA", "postalCode": "T6E5K7", "twitter": "None", "instagram": "None", "facebook": "None", "youtube": "None", "website": "None", "summary": "None", "logo": "None", "latitude": 53.474940000000004, "longitude": -113.46693720217472}, "108228362RR0001": {"name": "EDMONTON YOUTH FOR CHRIST SOCIETY", "designationCode": "C", "categoryCode": "47", "address": "BOX 42051", "city": "MILLBOURNE RPO", "province": "AB", "country": "CA", "postalCode": "T6K4C4", "twitter": "None", "instagram": "None", "facebook": "None", "youtube": "None", "website": "None", "summary": "None", "logo": "None", "latitude": 53.46036600000005, "longitude": -113.44548049999993}, "898067848RR0001": {"name": "EDMONTON YOUTH JUSTICE COMMITTEE SOCIETY", "designationCode": "C", "categoryCode": "59", "address": "110-6203 28 AVE", "city": "EDMONTON", "province": "AB", "country": "CA", "postalCode": "T6L6K3", "twitter": "None", "instagram": "None", "facebook": "None", "youtube": "None", "website": "None", "summary": "None", "logo": "None", "latitude": 53.45855221626255, "longitude": -113.42872253250113}, "118894278RR0001": {"name": "EDMONTON YOUTH ORCHESTRA ASSOCIATION", "designationCode": "C", "categoryCode": "22", "address": "PO BOX 66041  RPO HERITAGE", "city": "EDMONTON", "province": "AB", "country": "CA", "postalCode": "T6J6T4", "twitter": "None", "instagram": "None", "facebook": "None", "youtube": "None", "website": "None", "summary": "None", "logo": "None", "latitude": 53.4746100372207, "longitude": -113.50513994777566}, "132902834RR0001": {"name": "EDMONTON, ALBERTA, CONGREGATION OF JEHOVAH'S WITNESSES, ROSSLYN UNIT", "designationCode": "C", "categoryCode": "61", "address": "11503 84 ST NW", "city": "EDMONTON", "province": "AB", "country": "CA", "postalCode": "T5B3B6", "twitter": "None", "instagram": "None", "facebook": "None", "youtube": "None", "website": "None", "summary": "None", "logo": "None", "latitude": 53.56593933527614, "longitude": -113.47028523074064}, "118894286RR0001": {"name": "EDMUNDS JAMES MEMORIAL SCHOLARSHIP FUND", "designationCode": "C", "categoryCode": "21", "address": "6454 KILLARNEY ST", "city": "VANCOUVER", "province": "BC", "country": "CA", "postalCode": "V5S2X7", "twitter": "None", "instagram": "None", "facebook": "None", "youtube": "None", "website": "None", "summary": "None", "logo": "None", "latitude": 49.22561581626179, "longitude": -123.04558243672547}, "119288918RR0394": {"name": "EDMUNDSTON N B CONGREGATION OF JEHOVAH'S WITNESSES", "designationCode": "C", "categoryCode": "61", "address": "204 MARTIN STREET", "city": "EDMUNSTON", "province": "NB", "country": "CA", "postalCode": "E3V2N5", "twitter": "None", "instagram": "None", "facebook": "None", "youtube": "None", "website": "None", "summary": "None", "logo": "None", "latitude": 47.36925127947382, "longitude": -68.31685162865708}, "870355922RR0001": {"name": "EDO FRIENDS OF BRITISH COLUMBIA ASSOCIATION", "designationCode": "C", "categoryCode": "09", "address": "13028 109 AVENUE", "city": "SURREY", "province": "BC", "country": "CA", "postalCode": "V3T2N5", "twitter": "None", "instagram": "None", "facebook": "None", "youtube": "None", "website": "None", "summary": "None", "logo": "None", "latitude": 49.20082551067582, "longitude": -122.86127194463037}, "865419642RR0001": {"name": "EDO STATE MULTICULTURAL SERVICES", "designationCode": "C", "categoryCode": "09", "address": "20555-2901 SHEPPARD AVENUE E", "city": "TORONTO", "province": "ON", "country": "CA", "postalCode": "M1T3J3", "twitter": "None", "instagram": "None", "facebook": "None", "youtube": "None", "website": "None", "summary": "None", "logo": "None", "latitude": 43.775408936407416, "longitude": -79.32221703093091}, "131762460RR0001": {"name": "EDRANS CHURCH, INC.", "designationCode": "C", "categoryCode": "39", "address": "BOX 1 GROUP 15 RR 1", "city": "AUSTIN", "province": "MB", "country": "CA", "postalCode": "R0H0C0", "twitter": "None", "instagram": "None", "facebook": "None", "youtube": "None", "website": "None", "summary": "None", "logo": "None", "latitude": 49.949061200013205, "longitude": -98.93344119984813}, "891491987RR0001": {"name": "EDSON & DISTRICT OLDTIMERS RECREATION CENTRE SOCIETY", "designationCode": "C", "categoryCode": "09", "address": "4836 7 AVE", "city": "EDSON", "province": "AB", "country": "CA", "postalCode": "T7E1K8", "twitter": "None", "instagram": "None", "facebook": "None", "youtube": "None", "website": "None", "summary": "None", "logo": "None", "latitude": 53.58698511740433, "longitude": -116.43096064585374}, "892537044RR0001": {"name": "EDSON ALBERTA CONGREGATION OF JEHOVAH'S WITNESSES", "designationCode": "C", "categoryCode": "61", "address": "4307 5TH AVE", "city": "EDSON", "province": "AB", "country": "CA", "postalCode": "T7E1B7", "twitter": "None", "instagram": "None", "facebook": "None", "youtube": "None", "website": "None", "summary": "None", "logo": "None", "latitude": 53.58870890755398, "longitude": -116.41709297833124}, "895643534RR0001": {"name": "EDSON ALLIANCE CHURCH", "designationCode": "C", "categoryCode": "39", "address": "5525 2 AVENUE", "city": "EDSON", "province": "AB", "country": "CA", "postalCode": "T7E1L7", "twitter": "None", "instagram": "None", "facebook": "None", "youtube": "None", "website": "None", "summary": "None", "logo": "None", "latitude": 53.57756788201874, "longitude": -116.44384564596932}, "889967972RR0001": {"name": "EDSON AND DISTRICT HEALTH CARE CENTRE AUXILIARY", "designationCode": "C", "categoryCode": "19", "address": "3827 6 AVE", "city": "EDSON", "province": "AB", "country": "CA", "postalCode": "T7E0C5", "twitter": "None", "instagram": "None", "facebook": "None", "youtube": "None", "website": "None", "summary": "None", "logo": "None", "latitude": 53.592589649640566, "longitude": -116.40703948964725}, "898287982RR0001": {"name": "EDSON AND DISTRICT VICTIM SERVICES SOCIETY", "designationCode": "C", "categoryCode": "09", "address": "PO BOX 6028 STN MAIN", "city": "EDSON", "province": "AB", "country": "CA", "postalCode": "T7E1T6", "twitter": "None", "instagram": "None", "facebook": "None", "youtube": "None", "website": "None", "summary": "None", "logo": "None", "latitude": 53.58212700000006, "longitude": -116.43412399999994}, "889855045RR0001": {"name": "EDSON BAPTIST CHURCH,", "designationCode": "C", "categoryCode": "31", "address": "4717 9TH AVE", "city": "EDSON", "province": "AB", "country": "CA", "postalCode": "T7E1E2", "twitter": "None", "instagram": "None", "facebook": "None", "youtube": "None", "website": "None", "summary": "None", "logo": "None", "latitude": 53.58947293308918, "longitude": -116.42980467150454}, "886091990RR0001": {"name": "EDSON FOOD BANK SOCIETY", "designationCode": "C", "categoryCode": "09", "address": "4511 - 5 AVENUE", "city": "EDSON", "province": "AB", "country": "CA", "postalCode": "T7E1C7", "twitter": "None", "instagram": "None", "facebook": "None", "youtube": "None", "website": "None", "summary": "None", "logo": "None", "latitude": 53.58741290755398, "longitude": -116.42157603661508}, "886568195RR0001": {"name": "EDSON INTERCHURCH ASSISTANCE ASSOCIATION", "designationCode": "C", "categoryCode": "09", "address": "4827 - 5 AVE.", "city": "EDSON", "province": "AB", "country": "CA", "postalCode": "T7E1N8", "twitter": "None", "instagram": "None", "facebook": "None", "youtube": "None", "website": "None", "summary": "None", "logo": "None", "latitude": 53.58507193308921, "longitude": -116.42963570425313}, "131019416RR0001": {"name": "EDSON MENNONITE CHURCH,", "designationCode": "C", "categoryCode": "34", "address": "6212 13 AVE", "city": "EDSON", "province": "AB", "country": "CA", "postalCode": "T7E1S2", "twitter": "None", "instagram": "None", "facebook": "None", "youtube": "None", "website": "None", "summary": "None", "logo": "None", "latitude": 53.58996421816827, "longitude": -116.45653603033654}, "141041095RR0001": {"name": "EDSON PARKLAND LODGE AUXILIARY SOCIETY", "designationCode": "C", "categoryCode": "19", "address": "4619-9TH AVENUE", "city": "EDSON", "province": "AB", "country": "CA", "postalCode": "T7E1R7", "twitter": "None", "instagram": "None", "facebook": "None", "youtube": "None", "website": "None", "summary": "None", "logo": "None", "latitude": 53.59009988807827, "longitude": -116.4276020793183}, "107283863RR0001": {"name": "EDSON PUBLIC LIBRARY", "designationCode": "C", "categoryCode": "50", "address": "4726-8 AVE", "city": "EDSON", "province": "AB", "country": "CA", "postalCode": "T7E1E3", "twitter": "None", "instagram": "None", "facebook": "None", "youtube": "None", "website": "None", "summary": "None", "logo": "None", "latitude": 53.58845109965939, "longitude": -116.42972169360597}, "118894401RR0001": {"name": "EDSON SENIORS TRANSPORTATION SOCIETY", "designationCode": "C", "categoryCode": "09", "address": "PO BOX 6097 STN MAIN", "city": "EDSON", "province": "AB", "country": "CA", "postalCode": "T7E1T6", "twitter": "None", "instagram": "None", "facebook": "None", "youtube": "None", "website": "None", "summary": "None", "logo": "None", "latitude": 53.58212700000006, "longitude": -116.43412399999994}, "106693047RR0006": {"name": "EDSON SEVENTH-DAY ADVENTIST CHURCH", "designationCode": "C", "categoryCode": "41", "address": "5816 HIGHWAY, 2A", "city": "LACOMBE", "province": "AB", "country": "CA", "postalCode": "T4L2G5", "twitter": "None", "instagram": "None", "facebook": "None", "youtube": "None", "website": "None", "summary": "None", "logo": "None", "latitude": 52.474063600197404, "longitude": -113.71692568401835}, "118894427RR0001": {"name": "EDSON TRAIL PASTORAL CHARGE", "designationCode": "C", "categoryCode": "44", "address": "BOX 513", "city": "VALLEYVIEW", "province": "AB", "country": "CA", "postalCode": "T0H3N0", "twitter": "None", "instagram": "None", "facebook": "None", "youtube": "None", "website": "None", "summary": "None", "logo": "None", "latitude": 55.05383002553526, "longitude": -117.28028991776837}, "107283905RR0001": {"name": "EDSON UNITED CHURCH", "designationCode": "C", "categoryCode": "44", "address": "1214 EDSON DRIVE", "city": "EDSON", "province": "AB", "country": "CA", "postalCode": "T7E1H6", "twitter": "None", "instagram": "None", "facebook": "None", "youtube": "None", "website": "None", "summary": "None", "logo": "None", "latitude": 53.58987667177129, "longitude": -116.4405712173092}, "868210030RR0001": {"name": "EDUCALOI", "designationCode": "C", "categoryCode": "59", "address": "CP 55032  CFP NOTRE-DAME      11, RUE NOTRE-DAME OUEST", "city": "MONTREAL", "province": "QC", "country": "CA", "postalCode": "H2Y4A7", "twitter": "None", "instagram": "None", "facebook": "None", "youtube": "None", "website": "None", "summary": "None", "logo": "None", "latitude": 45.505854481274106, "longitude": -73.55594617043668}, "859096190RR0001": {"name": "EDUCATION BEYOND BORDERS SOCIETY", "designationCode": "C", "categoryCode": "21", "address": "1541 MAHON AVE", "city": "NORTH VANCOUVER", "province": "BC", "country": "CA", "postalCode": "V7M2S6", "twitter": "None", "instagram": "None", "facebook": "None", "youtube": "None", "website": "None", "summary": "None", "logo": "None", "latitude": 49.32280917346645, "longitude": -123.078595103843}, "849045877RR0001": {"name": "EDUCATION FOR PEACE - CANADA", "designationCode": "C", "categoryCode": "20", "address": "101 - 1001 WEST BROADWAY      SUITE 900", "city": "VANCOUVER", "province": "BC", "country": "CA", "postalCode": "V6H4E4", "twitter": "None", "instagram": "None", "facebook": "None", "youtube": "None", "website": "None", "summary": "None", "logo": "None", "latitude": 49.26346495784378, "longitude": -123.13234208304314}, "890037997RR0001": {"name": "EDUCATION FOR QUALITY ACCESSIBILITY CANADA", "designationCode": "C", "categoryCode": "09", "address": "PO BOX 883", "city": "BROCKVILLE", "province": "ON", "country": "CA", "postalCode": "K6V5W1", "twitter": "None", "instagram": "None", "facebook": "None", "youtube": "None", "website": "None", "summary": "None", "logo": "None", "latitude": 44.59037100000006, "longitude": -75.68301049999994}, "864306626RR0001": {"name": "EDUCATION FOUNDATION OF CHINESE PROFESSIONALS ASSOCIATION OF CANADA", "designationCode": "B", "categoryCode": "21", "address": "4150 FINCH AVENUE EAST", "city": "SCARBOROUGH", "province": "ON", "country": "CA", "postalCode": "M1S3T9", "twitter": "None", "instagram": "None", "facebook": "None", "youtube": "None", "website": "None", "summary": "None", "logo": "None", "latitude": 43.803062965346825, "longitude": -79.28926968347842}, "119057586RR0001": {"name": "EDUCATION FOUNDATION OF NIAGARA", "designationCode": "C", "categoryCode": "20", "address": "191 CARLTON ST", "city": "ST CATHARINES", "province": "ON", "country": "CA", "postalCode": "L2R7P4", "twitter": "None", "instagram": "None", "facebook": "None", "youtube": "None", "website": "None", "summary": "None", "logo": "None", "latitude": 43.173255698309184, "longitude": -79.24710213021493}, "823738349RR0001": {"name": "EDUCATION FOUNDATION OF OTTAWA", "designationCode": "A", "categoryCode": "23", "address": "133 GREENBANK ROAD", "city": "OTTAWA", "province": "ON", "country": "CA", "postalCode": "K2H6L3", "twitter": "None", "instagram": "None", "facebook": "None", "youtube": "None", "website": "None", "summary": "None", "logo": "None", "latitude": 45.33188703650506, "longitude": -75.78261959165043}, "875270589RR0001": {"name": "EDUCATION TRUST WEST CANADA SECTION OF THE NINETY-NINES", "designationCode": "C", "categoryCode": "21", "address": "18 - 5999 ANDREWS ROAD", "city": "RICHMOND", "province": "BC", "country": "CA", "postalCode": "V7E6V1", "twitter": "None", "instagram": "None", "facebook": "None", "youtube": "None", "website": "None", "summary": "None", "logo": "None", "latitude": 49.12194381384054, "longitude": -123.15899824294003}, "873013718RR0001": {"name": "EDUCATION WITHOUT BORDERS FOUNDATION", "designationCode": "C", "categoryCode": "21", "address": "4490 WEST 1ST  AVENUE", "city": "VANCOUVER", "province": "BC", "country": "CA", "postalCode": "V6R4J4", "twitter": "None", "instagram": "None", "facebook": "None", "youtube": "None", "website": "None", "summary": "None", "logo": "None", "latitude": 49.27206451399405, "longitude": -123.20836136081135}, "872014923RR0001": {"name": "EDUCATION WITHOUT BOUNDARIES", "designationCode": "C", "categoryCode": "39", "address": "171 SALTER CRESCENT", "city": "KANATA", "province": "ON", "country": "CA", "postalCode": "K2K1Y9", "twitter": "None", "instagram": "None", "facebook": "None", "youtube": "None", "website": "None", "summary": "None", "logo": "None", "latitude": 45.32463981066454, "longitude": -75.88955500559723}, "120782701RR0001": {"name": "EDUCATION 3E AGE DU COLLEGE DE MAISONNEUVE", "designationCode": "C", "categoryCode": "21", "address": "3800 RUE SHERBROOKE EST", "city": "MONTREAL", "province": "QC", "country": "CA", "postalCode": "H1X2A2", "twitter": "None", "instagram": "None", "facebook": "None", "youtube": "None", "website": "None", "summary": "None", "logo": "None", "latitude": 45.55086089425243, "longitude": -73.5549014015527}, "892149964RR0001": {"name": "EDUCATIONAL PROGRAM INNOVATIONS CHARITY SOCIETY", "designationCode": "C", "categoryCode": "21", "address": "PO BOX 1897", "city": "NORTH SYDNEY", "province": "NS", "country": "CA", "postalCode": "B2A3S9", "twitter": "None", "instagram": "None", "facebook": "None", "youtube": "None", "website": "None", "summary": "None", "logo": "None", "latitude": 46.20710400000006, "longitude": -60.25146199999993}, "889483178RR0001": {"name": "EDUCATIONAL SOCIETY OF STELLARTON JUNIOR-SENIOR HIGH SCHOOL", "designationCode": "C", "categoryCode": "21", "address": "P.O. BOX 1023", "city": "STELLARTON", "province": "NS", "country": "CA", "postalCode": "B0K1S0", "twitter": "None", "instagram": "None", "facebook": "None", "youtube": "None", "website": "None", "summary": "None", "logo": "None", "latitude": 45.56177000000008, "longitude": -62.65966999999995}, "898887005RR0001": {"name": "EDUCATIONMATTERS", "designationCode": "A", "categoryCode": "25", "address": "MAIN FL, DR. CARL SAFRAN CTR  1221 8 ST SW", "city": "CALGARY", "province": "AB", "country": "CA", "postalCode": "T2R0L4", "twitter": "None", "instagram": "None", "facebook": "None", "youtube": "None", "website": "None", "summary": "None", "logo": "None", "latitude": 51.04143237829649, "longitude": -114.08160383501632}, "801021478RR0001": {"name": "EDUCHAT", "designationCode": "C", "categoryCode": "54", "address": "18 CHEMIN DES CAPS", "city": "BREBEUF", "province": "QC", "country": "CA", "postalCode": "J0T1B0", "twitter": "None", "instagram": "None", "facebook": "None", "youtube": "None", "website": "None", "summary": "None", "logo": "None", "latitude": 46.1170724643659, "longitude": -74.68621338787578}, "118894518RR0001": {"name": "EDUCO SCHOOL", "designationCode": "C", "categoryCode": "20", "address": "PO BOX 1978", "city": "100 MILE HOUSE", "province": "BC", "country": "CA", "postalCode": "V0K2E0", "twitter": "None", "instagram": "None", "facebook": "None", "youtube": "None", "website": "None", "summary": "None", "logo": "None", "latitude": 51.62931000000003, "longitude": -121.30063999999999}, "889459970RR0001": {"name": "EDUDEO MINISTRIES", "designationCode": "C", "categoryCode": "21", "address": "PO BOX 47646 RPO CENTRE MALL", "city": "HAMILTON", "province": "ON", "country": "CA", "postalCode": "L8H7S7", "twitter": "None", "instagram": "None", "facebook": "None", "youtube": "None", "website": "None", "summary": "None", "logo": "None", "latitude": 43.25093997388791, "longitude": -79.81053008223152}, "894849710RR0001": {"name": "EDWARD A. KRUCKER CHARITABLE FOUNDATION", "designationCode": "B", "categoryCode": "03", "address": "782 HWY 52, RR#2", "city": "LYNDEN", "province": "ON", "country": "CA", "postalCode": "L0R1T0", "twitter": "None", "instagram": "None", "facebook": "None", "youtube": "None", "website": "None", "summary": "None", "logo": "None", "latitude": 43.2348376684086, "longitude": -80.05379282813182}, "893349761RR0001": {"name": "EDWARD AND FERN COHEN FOUNDATION", "designationCode": "B", "categoryCode": "05", "address": "134 RODEO DRIVE", "city": "THORNHILL", "province": "ON", "country": "CA", "postalCode": "L4J4Y6", "twitter": "None", "instagram": "None", "facebook": "None", "youtube": "None", "website": "None", "summary": "None", "logo": "None", "latitude": 43.807565125194635, "longitude": -79.44731973203871}, "864675392RR0001": {"name": "EDWARD E. STAWNICHY CHARITABLE FOUNDATION", "designationCode": "C", "categoryCode": "56", "address": "BOX 18", "city": "MUNDARE", "province": "AB", "country": "CA", "postalCode": "T0B3H0", "twitter": "None", "instagram": "None", "facebook": "None", "youtube": "None", "website": "None", "summary": "None", "logo": "None", "latitude": 53.594760000000065, "longitude": -112.33641999999998}, "118894534RR0001": {"name": "EDWARD J. FREELAND FOUNDATION", "designationCode": "B", "categoryCode": "03", "address": "ATTN. JAMES DAVEY             4741 QUEEN STREET", "city": "NIAGARA FALLS", "province": "ON", "country": "CA", "postalCode": "L2E2M2", "twitter": "None", "instagram": "None", "facebook": "None", "youtube": "None", "website": "None", "summary": "None", "logo": "None", "latitude": 43.106681516165075, "longitude": -79.07223223955201}, "118894567RR0001": {"name": "EDWARD MILNE COMMUNITY SCHOOL SOCIETY", "designationCode": "C", "categoryCode": "20", "address": "BOX 1010", "city": "SOOKE", "province": "BC", "country": "CA", "postalCode": "V9Z1J1", "twitter": "None", "instagram": "None", "facebook": "None", "youtube": "None", "website": "None", "summary": "None", "logo": "None", "latitude": 48.381873000000056, "longitude": -123.73120249999994}, "889988598RR0001": {"name": "EDWARDS CHARITABLE FOUNDATION", "designationCode": "B", "categoryCode": "03", "address": "196 FINCHAM AVE.", "city": "MARKHAM", "province": "ON", "country": "CA", "postalCode": "L3P4B5", "twitter": "None", "instagram": "None", "facebook": "None", "youtube": "None", "website": "None", "summary": "None", "logo": "None", "latitude": 43.889735125194626, "longitude": -79.25001706440064}, "888795440RR0001": {"name": "EDWIN PARR COMPOSITE SCHOOL LIBRARY MEMORIAL FUND", "designationCode": "C", "categoryCode": "20", "address": "4510 48ST ST", "city": "ATHABASCA", "province": "AB", "country": "CA", "postalCode": "T9S1H6", "twitter": "None", "instagram": "None", "facebook": "None", "youtube": "None", "website": "None", "summary": "None", "logo": "None", "latitude": 54.71346299688324, "longitude": -113.2822327148741}, "137253902RR0001": {"name": "EDWORTHY PARK HERITAGE SOCIETY", "designationCode": "C", "categoryCode": "52", "address": "351 WILDWOOD DR S.W.", "city": "CALGARY", "province": "AB", "country": "CA", "postalCode": "T3C3E4", "twitter": "None", "instagram": "None", "facebook": "None", "youtube": "None", "website": "None", "summary": "None", "logo": "None", "latitude": 51.05701749708581, "longitude": -114.15705770304103}, "874040066RR0002": {"name": "EECOM: THE CANADIAN NETWORK FOR ENVIRONMENTAL EDUCATION AND COMMUNICATION/EECOM: RESEAU CANADIEN D'EDUCATION ET DE COMMUNICATION RELATIVES A L'ENVIRONNEMENT", "designationCode": "C", "categoryCode": "23", "address": "4648 CARNARVON ST", "city": "VANCOUVER", "province": "BC", "country": "CA", "postalCode": "V6L2S4", "twitter": "None", "instagram": "None", "facebook": "None", "youtube": "None", "website": "None", "summary": "None", "logo": "None", "latitude": 49.24481460087896, "longitude": -123.17289871245062}, "118894633RR0001": {"name": "EEL RIVER LAKE UNITED BAPTIST CHURCH", "designationCode": "C", "categoryCode": "31", "address": "39 FARRELL LANE", "city": "NORTH LAKE", "province": "NB", "country": "CA", "postalCode": "E6H2E3", "twitter": "None", "instagram": "None", "facebook": "None", "youtube": "None", "website": "None", "summary": "None", "logo": "None", "latitude": 45.835460052522286, "longitude": -67.72576241076767}, "869042549RR0001": {"name": "EENOU-EEYOU COMMUNITY FOUNDATION / FONDATION COMMUNAUTAIRE EENOU-EEYOU", "designationCode": "A", "categoryCode": "23", "address": "205 OPEMISKA MESKINO", "city": "OUJE-BOUGOUMOU", "province": "QC", "country": "CA", "postalCode": "G0W3C0", "twitter": "None", "instagram": "None", "facebook": "None", "youtube": "None", "website": "None", "summary": "None", "logo": "None", "latitude": 49.92398038349551, "longitude": -74.82159905604586}, "892497777RR0001": {"name": "EFBC NON-PROFIT HOUSING CORPORATION", "designationCode": "C", "categoryCode": "01", "address": "200 BURWELL RD, UNIT 1", "city": "ST THOMAS", "province": "ON", "country": "CA", "postalCode": "N5P4G6", "twitter": "None", "instagram": "None", "facebook": "None", "youtube": "None", "website": "None", "summary": "None", "logo": "None", "latitude": 42.793385082332414, "longitude": -81.1647921725019}, "891208662RR0001": {"name": "EFFET V", "designationCode": "C", "categoryCode": "22", "address": "51 RUE CROWN", "city": "DANVILLE", "province": "QC", "country": "CA", "postalCode": "J0A1A0", "twitter": "None", "instagram": "None", "facebook": "None", "youtube": "None", "website": "None", "summary": "None", "logo": "None", "latitude": 45.78534372912453, "longitude": -72.01161014764276}, "888561065RR0001": {"name": "EGALE CANADA - HUMAN RIGHTS TRUST/ FONDS EGALE CANADA POUR LES DROITS DE LA PERSONNE", "designationCode": "C", "categoryCode": "21", "address": "185 CARLTON ST", "city": "TORONTO", "province": "ON", "country": "CA", "postalCode": "M5A2K7", "twitter": "None", "instagram": "None", "facebook": "None", "youtube": "None", "website": "None", "summary": "None", "logo": "None", "latitude": 43.66358275102441, "longitude": -79.37110529211152}, "137412912RR0001": {"name": "EGANVILLE AND AREA LONG TERM CARE CORPORATION", "designationCode": "C", "categoryCode": "09", "address": "30 BELL ST UNIT 138", "city": "EGANVILLE", "province": "ON", "country": "CA", "postalCode": "K0J1T0", "twitter": "None", "instagram": "None", "facebook": "None", "youtube": "None", "website": "None", "summary": "None", "logo": "None", "latitude": 45.532210211702534, "longitude": -77.09599247132877}, "107967465RR0001": {"name": "EGANVILLE AND DISTRICT SENIOR CITIZEN'S NEEDS ASSOCIATION", "designationCode": "C", "categoryCode": "09", "address": "30 BELL STREET", "city": "EGANVILLE", "province": "ON", "country": "CA", "postalCode": "K0J1T0", "twitter": "None", "instagram": "None", "facebook": "None", "youtube": "None", "website": "None", "summary": "None", "logo": "None", "latitude": 45.532210211702534, "longitude": -77.09599247132877}, "127347946RR0001": {"name": "EGANVILLE BAPTIST CHURCH,", "designationCode": "C", "categoryCode": "31", "address": "326 BONNECHERE STREET WEST    RR 6", "city": "EGANVILLE", "province": "ON", "country": "CA", "postalCode": "K0J1T0", "twitter": "None", "instagram": "None", "facebook": "None", "youtube": "None", "website": "None", "summary": "None", "logo": "None", "latitude": 45.54626085499659, "longitude": -77.1077595194001}, "869674358RR0001": {"name": "EGBE OMO IFE", "designationCode": "C", "categoryCode": "09", "address": "126 SAINT LUCIE DRIVE", "city": "NORTH YORK", "province": "ON", "country": "CA", "postalCode": "M9M1T3", "twitter": "None", "instagram": "None", "facebook": "None", "youtube": "None", "website": "None", "summary": "None", "logo": "None", "latitude": 43.740294349702864, "longitude": -79.5446953705062}, "118894708RR0001": {"name": "EGERTON STREET BAPTIST CHURCH", "designationCode": "C", "categoryCode": "31", "address": "209 EGERTON ST", "city": "LONDON", "province": "ON", "country": "CA", "postalCode": "N5Z2G8", "twitter": "None", "instagram": "None", "facebook": "None", "youtube": "None", "website": "None", "summary": "None", "logo": "None", "latitude": 42.980653572018056, "longitude": -81.2122554794851}, "118894724RR0001": {"name": "EGLINTON AVENUE GOSPEL HALL", "designationCode": "C", "categoryCode": "39", "address": "503 EGLINTON AVE E", "city": "TORONTO", "province": "ON", "country": "CA", "postalCode": "M4P1N4", "twitter": "None", "instagram": "None", "facebook": "None", "youtube": "None", "website": "None", "summary": "None", "logo": "None", "latitude": 43.71039079819971, "longitude": -79.38032846404877}, "108019399RR0001": {"name": "EGLINTON ST. GEORGE'S UNITED CHURCH", "designationCode": "C", "categoryCode": "44", "address": "35 LYTTON BLVD", "city": "TORONTO", "province": "ON", "country": "CA", "postalCode": "M4R1L2", "twitter": "None", "instagram": "None", "facebook": "None", "youtube": "None", "website": "None", "summary": "None", "logo": "None", "latitude": 43.71579480151795, "longitude": -79.4030772270184}, "118793074RR0006": {"name": "EGLISE ADVENTISTE DU SEPTIEME JOUR DE BETHESDA", "designationCode": "C", "categoryCode": "41", "address": "2523 CHARLAND", "city": "MONTREAL", "province": "QC", "country": "CA", "postalCode": "H1Z1C4", "twitter": "None", "instagram": "None", "facebook": "None", "youtube": "None", "website": "None", "summary": "None", "logo": "None", "latitude": 45.572271421605336, "longitude": -73.63838667280261}, "118793074RR0002": {"name": "EGLISE ADVENTISTE DU SEPTIEME JOUR DE MONTREAL-NORD", "designationCode": "C", "categoryCode": "41", "address": "9570 BOUL. MAURICE DUPLESSIS", "city": "MONTREAL", "province": "QC", "country": "CA", "postalCode": "H1E1N2", "twitter": "None", "instagram": "None", "facebook": "None", "youtube": "None", "website": "None", "summary": "None", "logo": "None", "latitude": 45.64995107380707, "longitude": -73.56288976322942}, "118793074RR0003": {"name": "EGLISE ADVENTISTE DU SEPTIEME JOUR DE ST-HENRI", "designationCode": "C", "categoryCode": "41", "address": "106 - 860 RUE TREMOY", "city": "QUEBEC", "province": "QC", "country": "CA", "postalCode": "G1X3Z2", "twitter": "None", "instagram": "None", "facebook": "None", "youtube": "None", "website": "None", "summary": "None", "logo": "None", "latitude": 46.761394287235454, "longitude": -71.32675907761528}, "118793074RR0020": {"name": "EGLISE ADVENTISTE DU SEPTIEME JOUR DE ST-HUBERT", "designationCode": "C", "categoryCode": "41", "address": "7350 CH CHAMBLY", "city": "ST HUBERT", "province": "QC", "country": "CA", "postalCode": "J3Y3R9", "twitter": "None", "instagram": "None", "facebook": "None", "youtube": "None", "website": "None", "summary": "None", "logo": "None", "latitude": 45.49221412657961, "longitude": -73.39302970356063}, "118793074RR0004": {"name": "EGLISE ADVENTISTE DU SEPTIEME JOUR DE ST-LEONARD", "designationCode": "C", "categoryCode": "41", "address": "7250, RUE VALDOMBRE", "city": "ST LEONARD", "province": "QC", "country": "CA", "postalCode": "H1S1X1", "twitter": "None", "instagram": "None", "facebook": "None", "youtube": "None", "website": "None", "summary": "None", "logo": "None", "latitude": 45.58562319175966, "longitude": -73.57492228325339}, "107797383RR0087": {"name": "EGLISE ADVENTISTE DU SEPTIEME JOUR FRANCOPHONE D'OTTAWA", "designationCode": "C", "categoryCode": "41", "address": "375 KING EDWARD AVE", "city": "OTTAWA", "province": "ON", "country": "CA", "postalCode": "K1N7M5", "twitter": "None", "instagram": "None", "facebook": "None", "youtube": "None", "website": "None", "summary": "None", "logo": "None", "latitude": 45.42945396254821, "longitude": -75.68619860889291}, "118793074RR0047": {"name": "EGLISE ADVENTISTE DU SEPTIEME JOUR PHILADELPHIE", "designationCode": "C", "categoryCode": "41", "address": "12275 CHEMIN SOMERSET", "city": "MONTREAL", "province": "QC", "country": "CA", "postalCode": "H4K1S1", "twitter": "None", "instagram": "None", "facebook": "None", "youtube": "None", "website": "None", "summary": "None", "logo": "None", "latitude": 45.528119076894136, "longitude": -73.72469754105846}, "891335564RR0001": {"name": "EGLISE ADVENTISTE DU SEPTIEME JOUR-BETHEL", "designationCode": "C", "categoryCode": "41", "address": "475 BROADWAY", "city": "MONTREAL EST", "province": "QC", "country": "CA", "postalCode": "H1B5A9", "twitter": "None", "instagram": "None", "facebook": "None", "youtube": "None", "website": "None", "summary": "None", "logo": "None", "latitude": 45.63317232558126, "longitude": -73.51363676949049}, "118793074RR0001": {"name": "EGLISE ADVENTISTE DU SEPTIEME JOUR-FEDERATION DU QUEBEC/SEVENTH-DAY ADVENTIST CHURCH-QUEBEC CONFERENCE", "designationCode": "C", "categoryCode": "41", "address": "940 CH DE CHAMBLY", "city": "LONGUEUIL", "province": "QC", "country": "CA", "postalCode": "J4H3M3", "twitter": "None", "instagram": "None", "facebook": "None", "youtube": "None", "website": "None", "summary": "None", "logo": "None", "latitude": 45.53508763639002, "longitude": -73.49540467404336}, "118793074RR0039": {"name": "EGLISE ADVENTISTE DU SEPTIEME JOUR-MAHANAIM", "designationCode": "C", "categoryCode": "41", "address": "200 RUE DE GENTILLY O", "city": "LONGUEUIL", "province": "QC", "country": "CA", "postalCode": "J4H1Z6", "twitter": "None", "instagram": "None", "facebook": "None", "youtube": "None", "website": "None", "summary": "None", "logo": "None", "latitude": 45.53348936551456, "longitude": -73.49870511708721}, "118793074RR0008": {"name": "EGLISE ADVENTISTE DU SEPTIEME JOUR-MONTREAL SPANISH", "designationCode": "C", "categoryCode": "41", "address": "4141 BANNANTYNE", "city": "VERDUN", "province": "QC", "country": "CA", "postalCode": "H4G1C4", "twitter": "None", "instagram": "None", "facebook": "None", "youtube": "None", "website": "None", "summary": "None", "logo": "None", "latitude": 45.46269061809684, "longitude": -73.57582060742101}, "118793074RR0017": {"name": "EGLISE ADVENTISTE DU 7E JOUR DE QUEBEC", "designationCode": "C", "categoryCode": "41", "address": "356 SEIGNEURIALE", "city": "BEAUPORT", "province": "QC", "country": "CA", "postalCode": "G1C3P9", "twitter": "None", "instagram": "None", "facebook": "None", "youtube": "None", "website": "None", "summary": "None", "logo": "None", "latitude": 46.87884006607415, "longitude": -71.20071994777567}, "118793074RR0021": {"name": "EGLISE ADVENTISTE DU 7E JOUR MONT-SION / MOUNT ZION SEVENTH-DAY ADVENTIST CHURCH", "designationCode": "C", "categoryCode": "41", "address": "2020 WELLINGTON STREET", "city": "MONTREAL", "province": "QC", "country": "CA", "postalCode": "H3K1W8", "twitter": "None", "instagram": "None", "facebook": "None", "youtube": "None", "website": "None", "summary": "None", "logo": "None", "latitude": 45.479021437965294, "longitude": -73.55884328417702}, "118793074RR0035": {"name": "EGLISE ADVENTISTE DU 7EME JOUR DE GRANBY", "designationCode": "C", "categoryCode": "41", "address": "405 RUE CHURCHILL", "city": "GRANBY", "province": "QC", "country": "CA", "postalCode": "J2G6Y2", "twitter": "None", "instagram": "None", "facebook": "None", "youtube": "None", "website": "None", "summary": "None", "logo": "None", "latitude": 45.389162304201, "longitude": -72.73364555202274}, "118793074RR0031": {"name": "EGLISE ADVENTISTE DU 7EME JOUR DE L'OUTAOUAIS QUEBECOIS", "designationCode": "C", "categoryCode": "41", "address": "3-176 CHEMIN DE LA COTE", "city": "VAL-DES-MONTS", "province": "QC", "country": "CA", "postalCode": "J8N4E4", "twitter": "None", "instagram": "None", "facebook": "None", "youtube": "None", "website": "None", "summary": "None", "logo": "None", "latitude": 45.65197213010364, "longitude": -75.73008442552364}, "118793074RR0033": {"name": "EGLISE ADVENTISTE DU 7EME JOUR DE LAVAL EST", "designationCode": "C", "categoryCode": "41", "address": "4112 DOUBLET", "city": "LAVAL", "province": "QC", "country": "CA", "postalCode": "H7B1G3", "twitter": "None", "instagram": "None", "facebook": "None", "youtube": "None", "website": "None", "summary": "None", "logo": "None", "latitude": 45.68619712101102, "longitude": -73.6219217793296}, "118793074RR0019": {"name": "EGLISE ADVENTISTE DU 7EME JOUR DE SALEM", "designationCode": "C", "categoryCode": "41", "address": "163, RUE DE BELLECHASSE", "city": "MONTR\u00c9AL", "province": "QC", "country": "CA", "postalCode": "H2S1W3", "twitter": "None", "instagram": "None", "facebook": "None", "youtube": "None", "website": "None", "summary": "None", "logo": "None", "latitude": 45.53023593173288, "longitude": -73.60403621414953}, "118793074RR0028": {"name": "EGLISE ADVENTISTE DU 7EME JOUR DE ST-GEORGES-DE-BEAUCE", "designationCode": "C", "categoryCode": "41", "address": "450 RANG CHAUSSEGROS", "city": "SAINT-SIMON-LES-MINES", "province": "QC", "country": "CA", "postalCode": "G0M1K0", "twitter": "None", "instagram": "None", "facebook": "None", "youtube": "None", "website": "None", "summary": "None", "logo": "None", "latitude": 46.214977216295146, "longitude": -70.66695196734803}, "118793074RR0026": {"name": "EGLISE ADVENTISTE DU 7EME JOUR DE TROIS-RIVIERES", "designationCode": "C", "categoryCode": "41", "address": "2465 SAGITTAIRE BECANCOUR", "city": "BECANCOUR", "province": "QC", "country": "CA", "postalCode": "G9H4J4", "twitter": "None", "instagram": "None", "facebook": "None", "youtube": "None", "website": "None", "summary": "None", "logo": "None", "latitude": 46.39905861062366, "longitude": -72.26443433524747}, "118793074RR0018": {"name": "EGLISE ADVENTISTE DU 7EME JOUR-D'ABITIBI", "designationCode": "C", "categoryCode": "41", "address": "940 CH DE CHAMBLY", "city": "LONGUEUIL", "province": "QC", "country": "CA", "postalCode": "J4H3M3", "twitter": "None", "instagram": "None", "facebook": "None", "youtube": "None", "website": "None", "summary": "None", "logo": "None", "latitude": 45.53508763639002, "longitude": -73.49540467404336}, "118782630RR0015": {"name": "EGLISE ALLIANCE CHRETIENNE", "designationCode": "C", "categoryCode": "39", "address": "4424 RUE KING", "city": "PIERREFONDS", "province": "QC", "country": "CA", "postalCode": "H9H2G1", "twitter": "None", "instagram": "None", "facebook": "None", "youtube": "None", "website": "None", "summary": "None", "logo": "None", "latitude": 45.48294807853891, "longitude": -73.85446941191046}, "118782630RR0011": {"name": "EGLISE ALLIANCE CHRETIENNE ET MISSIONNAIRE DE LEVIS", "designationCode": "C", "categoryCode": "49", "address": "528-A CHEMIN PINTENDRE", "city": "LEVIS", "province": "QC", "country": "CA", "postalCode": "G6V9M7", "twitter": "None", "instagram": "None", "facebook": "None", "youtube": "None", "website": "None", "summary": "None", "logo": "None", "latitude": 46.773909230365284, "longitude": -71.15006147677245}, "107286130RR0001": {"name": "EGLISE AMBASSADEUR POUR CHRIST INC.", "designationCode": "C", "categoryCode": "39", "address": "C.P. 181 SUCC. BUREAU-CHEF", "city": "SHAWINIGAN", "province": "QC", "country": "CA", "postalCode": "G9N6T9", "twitter": "None", "instagram": "None", "facebook": "None", "youtube": "None", "website": "None", "summary": "None", "logo": "None", "latitude": 46.54257900000006, "longitude": -72.75195349999993}, "858637309RR0001": {"name": "EGLISE AMMANUEL MONTREAL EVANGELIQUE / AMMANUEL MONTREAL EVANGELICAL CHURCH", "designationCode": "C", "categoryCode": "39", "address": "5991 HADLEY STREET", "city": "MONTREAL", "province": "QC", "country": "CA", "postalCode": "H4E3P2", "twitter": "None", "instagram": "None", "facebook": "None", "youtube": "None", "website": "None", "summary": "None", "logo": "None", "latitude": 45.45866021065842, "longitude": -73.59281293646472}}