{"129144549RR0004": {"name": "ST MICHAEL AND ALL ANGELS CHURCH", "designationCode": "C", "categoryCode": "30", "address": "701 WARD STREET", "city": "NELSON", "province": "BC", "country": "CA", "postalCode": "V1L1T3", "twitter": "None", "instagram": "None", "facebook": "None", "youtube": "None", "website": "None", "summary": "None", "logo": "None", "latitude": 49.49044508531762, "longitude": -117.29252354801812}, "139606875RR0002": {"name": "ST MICHAEL AND ALL ANGELS CHURCH", "designationCode": "C", "categoryCode": "30", "address": "397 SPRINGBANK DR", "city": "LONDON", "province": "ON", "country": "CA", "postalCode": "N6J1G7", "twitter": "None", "instagram": "None", "facebook": "None", "youtube": "None", "website": "None", "summary": "None", "logo": "None", "latitude": 42.96865192676987, "longitude": -81.28277560675718}, "891330391RR0001": {"name": "ST MICHAEL AND ALL ANGELS CHURCH", "designationCode": "C", "categoryCode": "30", "address": "BOX 338", "city": "BEECHY", "province": "SK", "country": "CA", "postalCode": "S0L0C0", "twitter": "None", "instagram": "None", "facebook": "None", "youtube": "None", "website": "None", "summary": "None", "logo": "None", "latitude": 50.87650000000008, "longitude": -107.38328999999999}, "891819468RR0001": {"name": "ST MICHAEL AND ALL ANGELS CHURCH SOCIETY", "designationCode": "C", "categoryCode": "39", "address": "58 - 33133 BOURQUIN CRES W", "city": "ABBOTSFORD", "province": "BC", "country": "CA", "postalCode": "V2S6B1", "twitter": "None", "instagram": "None", "facebook": "None", "youtube": "None", "website": "None", "summary": "None", "logo": "None", "latitude": 49.046961453834314, "longitude": -122.30593939203074}, "119191088RR0001": {"name": "ST MICHAEL AND ALL ANGELS' MISSION", "designationCode": "C", "categoryCode": "30", "address": "BOX 1614", "city": "HIGH LEVEL", "province": "AB", "country": "CA", "postalCode": "T0H1Z0", "twitter": "None", "instagram": "None", "facebook": "None", "youtube": "None", "website": "None", "summary": "None", "logo": "None", "latitude": 58.52077909031678, "longitude": -117.13094845132863}, "119191112RR0001": {"name": "ST MICHAEL CHURCH", "designationCode": "C", "categoryCode": "39", "address": "", "city": "CHEVERY", "province": "QC", "country": "CA", "postalCode": "G0G1G0", "twitter": "None", "instagram": "None", "facebook": "None", "youtube": "None", "website": "None", "summary": "None", "logo": "None", "latitude": 50.68358000000006, "longitude": -59.24160999999998}, "119191120RR0001": {"name": "ST MICHAEL COMMUNITY AND DISTRICT AGRICULTURAL SOCIETY", "designationCode": "C", "categoryCode": "56", "address": "BOX 162", "city": "ST. MICHAEL", "province": "AB", "country": "CA", "postalCode": "T0B4B0", "twitter": "None", "instagram": "None", "facebook": "None", "youtube": "None", "website": "None", "summary": "None", "logo": "None", "latitude": 53.63428098014435, "longitude": -113.6236432175782}, "869925222RR0001": {"name": "ST MICHAEL ETHIOPIAN ORTHODOX TEWAHIDO CHURCH", "designationCode": "C", "categoryCode": "39", "address": "586 PANAMOUNT BLVD. NW", "city": "CALGARY", "province": "AB", "country": "CA", "postalCode": "T3K0H5", "twitter": "None", "instagram": "None", "facebook": "None", "youtube": "None", "website": "None", "summary": "None", "logo": "None", "latitude": 51.15665647489748, "longitude": -114.08875105689883}, "873768279RR0001": {"name": "ST MICHAEL SCHOOL COUNCIL ASSOCIATION", "designationCode": "C", "categoryCode": "21", "address": "4511 8TH AVE SW", "city": "CALGARY", "province": "AB", "country": "CA", "postalCode": "T3C0G9", "twitter": "None", "instagram": "None", "facebook": "None", "youtube": "None", "website": "None", "summary": "None", "logo": "None", "latitude": 51.045012503462445, "longitude": -114.15147252844942}, "139095509RR0001": {"name": "ST MICHAEL THE ARCHANGEL UKRAINIAN CATHOLIC CHURCH", "designationCode": "C", "categoryCode": "39", "address": "4017 VICTORIA AVE", "city": "NANAIMO", "province": "BC", "country": "CA", "postalCode": "V9T2A5", "twitter": "None", "instagram": "None", "facebook": "None", "youtube": "None", "website": "None", "summary": "None", "logo": "None", "latitude": 49.20826384009491, "longitude": -124.01617295314182}, "866418221RR0001": {"name": "ST MICHAEL UKRAINIAN CATHOLIC CHURCH OF VENLAW", "designationCode": "C", "categoryCode": "39", "address": "BOX 206                       224 FINDLATER AVE LOT A", "city": "GILBERT PLAINS", "province": "MB", "country": "CA", "postalCode": "R0L0X0", "twitter": "None", "instagram": "None", "facebook": "None", "youtube": "None", "website": "None", "summary": "None", "logo": "None", "latitude": 51.148130542530225, "longitude": -100.48284062932625}, "119191161RR0001": {"name": "ST MICHAEL'S AND ALL ANGELS", "designationCode": "C", "categoryCode": "30", "address": "BOX 343", "city": "MCCREARY", "province": "MB", "country": "CA", "postalCode": "R0J1B0", "twitter": "None", "instagram": "None", "facebook": "None", "youtube": "None", "website": "None", "summary": "None", "logo": "None", "latitude": 50.772380000000055, "longitude": -99.49212999999997}, "119191187RR0001": {"name": "ST MICHAEL'S ANGLICAN CHURCH", "designationCode": "C", "categoryCode": "30", "address": "709 7TH ST", "city": "CANMORE", "province": "AB", "country": "CA", "postalCode": "T1W2C3", "twitter": "None", "instagram": "None", "facebook": "None", "youtube": "None", "website": "None", "summary": "None", "logo": "None", "latitude": 51.08817506937714, "longitude": -115.35866122766404}, "889950796RR0001": {"name": "ST MICHAEL'S CATHOLIC PUBLIC SCHOOL FOUNDATION", "designationCode": "C", "categoryCode": "21", "address": "205 - 1199 BAY AVE", "city": "TRAIL", "province": "BC", "country": "CA", "postalCode": "V1R4A4", "twitter": "None", "instagram": "None", "facebook": "None", "youtube": "None", "website": "None", "summary": "None", "logo": "None", "latitude": 49.097252052743904, "longitude": -117.7092426130765}, "119191211RR0001": {"name": "ST MICHAEL'S CENTRE FOUNDATION", "designationCode": "A", "categoryCode": "13", "address": "4865 HEATHER STREET", "city": "VANCOUVER", "province": "BC", "country": "CA", "postalCode": "V5Z0B3", "twitter": "None", "instagram": "None", "facebook": "None", "youtube": "None", "website": "None", "summary": "None", "logo": "None", "latitude": 49.24184697412038, "longitude": -123.12067587898831}, "119191229RR0001": {"name": "ST MICHAEL'S CENTRE HOSPITAL SOCIETY", "designationCode": "C", "categoryCode": "10", "address": "7451 SUSSEX AVENUE", "city": "BURNABY", "province": "BC", "country": "CA", "postalCode": "V5J5C2", "twitter": "None", "instagram": "None", "facebook": "None", "youtube": "None", "website": "None", "summary": "None", "logo": "None", "latitude": 49.21620689700389, "longitude": -123.00501478463002}, "119191401RR0002": {"name": "ST MICHAEL'S CHURCH", "designationCode": "C", "categoryCode": "30", "address": "BOX 97", "city": "GROSSE ISLE", "province": "MB", "country": "CA", "postalCode": "R0C1G0", "twitter": "None", "instagram": "None", "facebook": "None", "youtube": "None", "website": "None", "summary": "None", "logo": "None", "latitude": 50.79198409358606, "longitude": -96.9861434146833}, "119191419RR0001": {"name": "ST MICHAEL'S CHURCH", "designationCode": "C", "categoryCode": "38", "address": "PO BOX 278", "city": "LEMBERG", "province": "SK", "country": "CA", "postalCode": "S0A2B0", "twitter": "None", "instagram": "None", "facebook": "None", "youtube": "None", "website": "None", "summary": "None", "logo": "None", "latitude": 50.725130000000036, "longitude": -103.20305999999994}, "119191427RR0001": {"name": "ST MICHAEL'S CHURCH", "designationCode": "C", "categoryCode": "30", "address": "BOX 202", "city": "QUILL LAKE", "province": "SK", "country": "CA", "postalCode": "S0A3E0", "twitter": "None", "instagram": "None", "facebook": "None", "youtube": "None", "website": "None", "summary": "None", "logo": "None", "latitude": 51.6962132372117, "longitude": -103.71097337442652}, "125103762RR0001": {"name": "ST MICHAEL'S CHURCH", "designationCode": "C", "categoryCode": "38", "address": "2388 RUE D'IBERVILLE", "city": "MONTREAL", "province": "QC", "country": "CA", "postalCode": "H2K3C6", "twitter": "None", "instagram": "None", "facebook": "None", "youtube": "None", "website": "None", "summary": "None", "logo": "None", "latitude": 45.53474068024712, "longitude": -73.55861221400531}, "119191492RR0001": {"name": "ST MICHAEL'S COLLEGE FOUNDATION", "designationCode": "A", "categoryCode": "21", "address": "81 ST. MARY ST", "city": "TORONTO", "province": "ON", "country": "CA", "postalCode": "M5S1J4", "twitter": "None", "instagram": "None", "facebook": "None", "youtube": "None", "website": "None", "summary": "None", "logo": "None", "latitude": 43.66710080094103, "longitude": -79.38988605118602}, "892545989RR0001": {"name": "ST MICHAEL'S HOSPITAL (TORONTO) RESEARCH INSTITUTE", "designationCode": "B", "categoryCode": "11", "address": "120 ADELAIDE STREET WEST      SUITE 2150", "city": "TORONTO", "province": "ON", "country": "CA", "postalCode": "M5H1T1", "twitter": "None", "instagram": "None", "facebook": "None", "youtube": "None", "website": "None", "summary": "None", "logo": "None", "latitude": 43.649477136880044, "longitude": -79.38292947726339}, "122963663RR0001": {"name": "ST MICHAEL'S HOSPITAL FOUNDATION", "designationCode": "A", "categoryCode": "13", "address": "30 BOND ST", "city": "TORONTO", "province": "ON", "country": "CA", "postalCode": "M5B1W8", "twitter": "None", "instagram": "None", "facebook": "None", "youtube": "None", "website": "None", "summary": "None", "logo": "None", "latitude": 43.653711971406366, "longitude": -79.37730546658757}, "119191740RR0001": {"name": "ST MICHAEL'S PARISH", "designationCode": "C", "categoryCode": "38", "address": "PO BOX 266", "city": "GIMLI", "province": "MB", "country": "CA", "postalCode": "R0C1B0", "twitter": "None", "instagram": "None", "facebook": "None", "youtube": "None", "website": "None", "summary": "None", "logo": "None", "latitude": 50.30677349294383, "longitude": -96.92898988377391}, "119191757RR0001": {"name": "ST MICHAEL'S PARISH", "designationCode": "C", "categoryCode": "39", "address": "BOX 23", "city": "GOODEVE", "province": "SK", "country": "CA", "postalCode": "S0A1C0", "twitter": "None", "instagram": "None", "facebook": "None", "youtube": "None", "website": "None", "summary": "None", "logo": "None", "latitude": 51.060470000000066, "longitude": -103.18616999999995}, "128967353RR0040": {"name": "ST MICHAEL'S PARISH", "designationCode": "C", "categoryCode": "38", "address": "166 KEDEY ST.", "city": "FITZROY HARBOUR", "province": "ON", "country": "CA", "postalCode": "K0A1X0", "twitter": "None", "instagram": "None", "facebook": "None", "youtube": "None", "website": "None", "summary": "None", "logo": "None", "latitude": 45.47211996560662, "longitude": -76.21610334814497}, "131950784RR0001": {"name": "ST MICHAEL'S PARISH", "designationCode": "C", "categoryCode": "38", "address": "4609 50 AVE", "city": "ST PAUL", "province": "AB", "country": "CA", "postalCode": "T0A3A3", "twitter": "None", "instagram": "None", "facebook": "None", "youtube": "None", "website": "None", "summary": "None", "logo": "None", "latitude": 53.99135148730496, "longitude": -111.28695202553523}, "891543548RR0001": {"name": "ST MICHAEL'S PROTESTANT CHAPEL", "designationCode": "C", "categoryCode": "39", "address": "BOX 5000", "city": "MOOSE JAW", "province": "SK", "country": "CA", "postalCode": "S6H7Z8", "twitter": "None", "instagram": "None", "facebook": "None", "youtube": "None", "website": "None", "summary": "None", "logo": "None", "latitude": 50.39688300000006, "longitude": -105.53701399999993}, "119191815RR0001": {"name": "ST MICHAEL'S R C CHURCH", "designationCode": "C", "categoryCode": "38", "address": "221-3RD AVE E                 P.O. BOX 345", "city": "BENGOUGH", "province": "SK", "country": "CA", "postalCode": "S0C0K0", "twitter": "None", "instagram": "None", "facebook": "None", "youtube": "None", "website": "None", "summary": "None", "logo": "None", "latitude": 49.39595023212768, "longitude": -105.12400683787337}, "119221380RR0005": {"name": "ST MICHAEL'S SCHOOL", "designationCode": "C", "categoryCode": "20", "address": "3665 BENVOULIN RD.", "city": "KELOWNA", "province": "BC", "country": "CA", "postalCode": "V1W4M7", "twitter": "None", "instagram": "None", "facebook": "None", "youtube": "None", "website": "None", "summary": "None", "logo": "None", "latitude": 49.85056104631423, "longitude": -119.46776856721908}, "119191856RR0001": {"name": "ST MICHAEL'S SLOVAK GREEK-CATHOLIC CHURCH", "designationCode": "C", "categoryCode": "38", "address": "2120 BYNG RD", "city": "WINDSOR", "province": "ON", "country": "CA", "postalCode": "N8W3E2", "twitter": "None", "instagram": "None", "facebook": "None", "youtube": "None", "website": "None", "summary": "None", "logo": "None", "latitude": 42.301620700819335, "longitude": -82.99639210972963}, "119191864RR0001": {"name": "ST MICHAEL'S UKRAINIAN CATHOLIC CHURCH", "designationCode": "C", "categoryCode": "38", "address": "PO BOX 1142", "city": "WYNYARD", "province": "SK", "country": "CA", "postalCode": "S0A4T0", "twitter": "None", "instagram": "None", "facebook": "None", "youtube": "None", "website": "None", "summary": "None", "logo": "None", "latitude": 51.76523000000003, "longitude": -104.18008999999995}, "892253246RR0001": {"name": "ST MICHAEL'S UKRAINIAN CATHOLIC CHURCH", "designationCode": "C", "categoryCode": "38", "address": "BOX 14", "city": "OLHA", "province": "MB", "country": "CA", "postalCode": "R0J1K0", "twitter": "None", "instagram": "None", "facebook": "None", "youtube": "None", "website": "None", "summary": "None", "logo": "None", "latitude": 50.66955000000007, "longitude": -100.55498999999998}, "119191872RR0001": {"name": "ST MICHAEL'S UKRAINIAN CATHOLIC PARISH", "designationCode": "C", "categoryCode": "38", "address": "RR #2", "city": "ROBLIN", "province": "MB", "country": "CA", "postalCode": "R0L1P0", "twitter": "None", "instagram": "None", "facebook": "None", "youtube": "None", "website": "None", "summary": "None", "logo": "None"}, "119191914RR0001": {"name": "ST MICHAEL'S UKRANIAN ORTHODOX CHURCH", "designationCode": "C", "categoryCode": "39", "address": "86 CALDWELL DR.", "city": "YORKTON", "province": "SK", "country": "CA", "postalCode": "S3N4A4", "twitter": "None", "instagram": "None", "facebook": "None", "youtube": "None", "website": "None", "summary": "None", "logo": "None", "latitude": 51.21320336081135, "longitude": -102.42863616596462}, "119191617RR0001": {"name": "ST MICHAELS LUTHERAN CHURCH", "designationCode": "C", "categoryCode": "32", "address": "SITE 4 BOX 89 RR2", "city": "BARRHEAD", "province": "AB", "country": "CA", "postalCode": "T7N1A3", "twitter": "None", "instagram": "None", "facebook": "None", "youtube": "None", "website": "None", "summary": "None", "logo": "None", "latitude": 54.12098400000005, "longitude": -114.40600999999992}, "890161599RR0001": {"name": "ST MICHAELS MANFRED HERITAGE SOCIETY", "designationCode": "C", "categoryCode": "52", "address": "BOX 35 SITE 7 RR 1", "city": "BASHAW", "province": "AB", "country": "CA", "postalCode": "T0B0H0", "twitter": "None", "instagram": "None", "facebook": "None", "youtube": "None", "website": "None", "summary": "None", "logo": "None", "latitude": 52.58377500000006, "longitude": -112.97088349999993}, "892713645RR0001": {"name": "ST MICHAELS MUSEUM ASSOCIATION INC", "designationCode": "C", "categoryCode": "50", "address": "10 HOWARD ST", "city": "MIRAMICHI", "province": "NB", "country": "CA", "postalCode": "E1N0C4", "twitter": "None", "instagram": "None", "facebook": "None", "youtube": "None", "website": "None", "summary": "None", "logo": "None", "latitude": 47.02621962894553, "longitude": -65.46676712663785}, "131802159RR0001": {"name": "ST MONICA CATHOLIC CHURCH", "designationCode": "C", "categoryCode": "38", "address": "#2-1118 2ND STREET", "city": "ESTEVAN", "province": "SK", "country": "CA", "postalCode": "S4A0L9", "twitter": "None", "instagram": "None", "facebook": "None", "youtube": "None", "website": "None", "summary": "None", "logo": "None", "latitude": 49.13810460306563, "longitude": -102.99475603219491}, "890770191RR0001": {"name": "ST MONICA'S CHURCH", "designationCode": "C", "categoryCode": "30", "address": "470 WOODBINE AVE", "city": "TORONTO", "province": "ON", "country": "CA", "postalCode": "M4E2H6", "twitter": "None", "instagram": "None", "facebook": "None", "youtube": "None", "website": "None", "summary": "None", "logo": "None", "latitude": 43.6750191515379, "longitude": -79.3083963393155}, "122418601RR0012": {"name": "ST MONICA'S PARISH", "designationCode": "C", "categoryCode": "38", "address": "PO BOX 429", "city": "MIDDLETON", "province": "NS", "country": "CA", "postalCode": "B0S1P0", "twitter": "None", "instagram": "None", "facebook": "None", "youtube": "None", "website": "None", "summary": "None", "logo": "None", "latitude": 45.01449600000005, "longitude": -65.06449099999993}, "128967353RR0047": {"name": "ST MONICA'S PARISH", "designationCode": "C", "categoryCode": "38", "address": "2080 MERIVALE ROAD", "city": "OTTAWA", "province": "ON", "country": "CA", "postalCode": "K2C3H1", "twitter": "None", "instagram": "None", "facebook": "None", "youtube": "None", "website": "None", "summary": "None", "logo": "None", "latitude": 45.316415828767575, "longitude": -75.71369047133891}, "119192052RR0001": {"name": "ST MUNGOS UNITED CHURCH", "designationCode": "C", "categoryCode": "44", "address": "1535 ROUTE DES OUTAOUAIS", "city": "GRENVILLE-SUR-LA-ROUGE", "province": "QC", "country": "CA", "postalCode": "J0V1B0", "twitter": "None", "instagram": "None", "facebook": "None", "youtube": "None", "website": "None", "summary": "None", "logo": "None", "latitude": 45.61106642612577, "longitude": -74.5626798764623}, "888003464RR0001": {"name": "ST NEDELA MACEDONIAN ORTHODOX CHURCH, DURHAM, CANADA", "designationCode": "C", "categoryCode": "39", "address": "35 - 5160 EXPLORER DR", "city": "MISSISSAUGA", "province": "ON", "country": "CA", "postalCode": "L4W4T7", "twitter": "None", "instagram": "None", "facebook": "None", "youtube": "None", "website": "None", "summary": "None", "logo": "None", "latitude": 43.66230239601279, "longitude": -79.59771749145897}, "119192078RR0001": {"name": "ST NEKTARIOS GREEK ORTHODOX CHURCH", "designationCode": "C", "categoryCode": "39", "address": "1223 DOVERCOURT RD.", "city": "TORONTO", "province": "ON", "country": "CA", "postalCode": "M6H2Y1", "twitter": "None", "instagram": "None", "facebook": "None", "youtube": "None", "website": "None", "summary": "None", "logo": "None", "latitude": 43.674209423538564, "longitude": -79.4345700710371}, "140614801RR0001": {"name": "ST NICHOLAS ANGLICAN CHURCH", "designationCode": "C", "categoryCode": "30", "address": "29 WESTWOOD BLVD", "city": "UPPER TANTALLON", "province": "NS", "country": "CA", "postalCode": "B3Z1H4", "twitter": "None", "instagram": "None", "facebook": "None", "youtube": "None", "website": "None", "summary": "None", "logo": "None", "latitude": 44.706797677736965, "longitude": -63.859915748831355}, "119192086RR0001": {"name": "ST NICHOLAS CHURCH BIRCH CLIFF", "designationCode": "C", "categoryCode": "30", "address": "1512 KINGSTON RD", "city": "SCARBOROUGH", "province": "ON", "country": "CA", "postalCode": "M1N1R7", "twitter": "None", "instagram": "None", "facebook": "None", "youtube": "None", "website": "None", "summary": "None", "logo": "None", "latitude": 43.68924900807873, "longitude": -79.268738408448}, "890105091RR0001": {"name": "ST NICHOLAS ROMANIAN ORTHODOX CHURCH INC.", "designationCode": "C", "categoryCode": "39", "address": "PO BOX 36 STN MAIN", "city": "REGINA", "province": "SK", "country": "CA", "postalCode": "S4P2Z5", "twitter": "None", "instagram": "None", "facebook": "None", "youtube": "None", "website": "None", "summary": "None", "logo": "None", "latitude": 50.448246000000054, "longitude": -104.59517299999993}, "119192193RR0001": {"name": "ST NICHOLAS RUSSIAN ORTHODOX CHURCH SOCIETY OF VANCOUVER", "designationCode": "C", "categoryCode": "39", "address": "810 13TH AVE E", "city": "VANCOUVER", "province": "BC", "country": "CA", "postalCode": "V5T2L5", "twitter": "None", "instagram": "None", "facebook": "None", "youtube": "None", "website": "None", "summary": "None", "logo": "None", "latitude": 49.258758532315895, "longitude": -123.08704119317329}, "132533290RR0001": {"name": "ST NICHOLAS SERBIAN ORTHODOX CATHEDRAL", "designationCode": "C", "categoryCode": "39", "address": "157 NASH RD S", "city": "HAMILTON", "province": "ON", "country": "CA", "postalCode": "L8K4J4", "twitter": "None", "instagram": "None", "facebook": "None", "youtube": "None", "website": "None", "summary": "None", "logo": "None", "latitude": 43.22375116288663, "longitude": -79.77648345921024}, "131376196RR0001": {"name": "ST NICHOLAS UKRAINIAN CATHOLIC CHURCH", "designationCode": "C", "categoryCode": "38", "address": "4 BELLWOODS AVE", "city": "TORONTO", "province": "ON", "country": "CA", "postalCode": "M6J2P4", "twitter": "None", "instagram": "None", "facebook": "None", "youtube": "None", "website": "None", "summary": "None", "logo": "None", "latitude": 43.646329938657786, "longitude": -79.41100492994386}, "870970548RR0001": {"name": "ST NICHOLAS UKRAINIAN CATHOLIC CHURCH OF KELD", "designationCode": "C", "categoryCode": "39", "address": "R.R.#1                        COMP 29", "city": "ASHVILLE", "province": "MB", "country": "CA", "postalCode": "R0L0A0", "twitter": "None", "instagram": "None", "facebook": "None", "youtube": "None", "website": "None", "summary": "None", "logo": "None", "latitude": 51.179790000000025, "longitude": -100.29925999999995}, "127261519RR0001": {"name": "ST NICHOLAS UKRAINIAN CATHOLIC PARISH", "designationCode": "C", "categoryCode": "38", "address": "737 BANNERMAN AVE", "city": "WINNIPEG", "province": "MB", "country": "CA", "postalCode": "R2X1J9", "twitter": "None", "instagram": "None", "facebook": "None", "youtube": "None", "website": "None", "summary": "None", "logo": "None", "latitude": 49.93193091038124, "longitude": -97.14750228945714}, "889470571RR0001": {"name": "ST NICHOLAS UKRAINIAN CATHOLIC RELIGIOUS ASSOCIATION", "designationCode": "A", "categoryCode": "43", "address": "4 BELLWOODS AVE", "city": "TORONTO", "province": "ON", "country": "CA", "postalCode": "M6J2P4", "twitter": "None", "instagram": "None", "facebook": "None", "youtube": "None", "website": "None", "summary": "None", "logo": "None", "latitude": 43.646329938657786, "longitude": -79.41100492994386}, "119192276RR0001": {"name": "ST NINIAN PARISH CONFERENCE, ST VINCENT DE PAUL SOCIETY", "designationCode": "C", "categoryCode": "49", "address": "P.O. BOX 1628", "city": "ANTIGONISH", "province": "NS", "country": "CA", "postalCode": "B2G2L8", "twitter": "None", "instagram": "None", "facebook": "None", "youtube": "None", "website": "None", "summary": "None", "logo": "None", "latitude": 45.62219400000005, "longitude": -61.99427149999994}, "119192284RR0001": {"name": "ST NINIAN'S CHURCH SCARBOROUGH", "designationCode": "C", "categoryCode": "39", "address": "930 BELLAMY ROAD NORTH", "city": "SCARBOROUGH", "province": "ON", "country": "CA", "postalCode": "M1H1G9", "twitter": "None", "instagram": "None", "facebook": "None", "youtube": "None", "website": "None", "summary": "None", "logo": "None", "latitude": 43.76655023146179, "longitude": -79.23882594261022}, "119192334RR0001": {"name": "ST NORBERT COMMUNITY CLUB", "designationCode": "C", "categoryCode": "56", "address": "3450 PEMBINA HWY", "city": "WINNIPEG", "province": "MB", "country": "CA", "postalCode": "R3V1A1", "twitter": "None", "instagram": "None", "facebook": "None", "youtube": "None", "website": "None", "summary": "None", "logo": "None", "latitude": 49.76818049878792, "longitude": -97.1560755247281}, "878503283RR0001": {"name": "ST NORBERT IMMERSION ADVISORY COUNCIL", "designationCode": "C", "categoryCode": "29", "address": "900 STE THERESE AVE", "city": "WINNIPEG", "province": "MB", "country": "CA", "postalCode": "R3V1H8", "twitter": "None", "instagram": "None", "facebook": "None", "youtube": "None", "website": "None", "summary": "None", "logo": "None", "latitude": 49.76358325257958, "longitude": -97.14776106171207}, "119192425RR0001": {"name": "ST OLAF LUTHERAN CHURCH OF KINDERSLEY INC", "designationCode": "C", "categoryCode": "32", "address": "P.O. BOX 716", "city": "KINDERSLEY", "province": "SK", "country": "CA", "postalCode": "S0L1S0", "twitter": "None", "instagram": "None", "facebook": "None", "youtube": "None", "website": "None", "summary": "None", "logo": "None", "latitude": 51.46791900000005, "longitude": -109.15522999999993}, "119192458RR0001": {"name": "ST OLAF'S PARISH", "designationCode": "C", "categoryCode": "38", "address": "PO BOX 704", "city": "LUNDAR", "province": "MB", "country": "CA", "postalCode": "R0C1Y0", "twitter": "None", "instagram": "None", "facebook": "None", "youtube": "None", "website": "None", "summary": "None", "logo": "None", "latitude": 50.697610000000054, "longitude": -98.03051999999997}, "119192466RR0001": {"name": "ST OLAF'S PIONEER CEMETERY CORPORATION", "designationCode": "C", "categoryCode": "59", "address": "BOX 272", "city": "NOKOMIS", "province": "SK", "country": "CA", "postalCode": "S0G3R0", "twitter": "None", "instagram": "None", "facebook": "None", "youtube": "None", "website": "None", "summary": "None", "logo": "None", "latitude": 51.50703000000004, "longitude": -105.01040999999998}, "888200797RR0001": {"name": "ST OLAVE'S CHURCH", "designationCode": "C", "categoryCode": "30", "address": "360 WINDERMERE AVE", "city": "TORONTO", "province": "ON", "country": "CA", "postalCode": "M6S3L4", "twitter": "None", "instagram": "None", "facebook": "None", "youtube": "None", "website": "None", "summary": "None", "logo": "None", "latitude": 43.649682569796354, "longitude": -79.48030716518521}, "135010775RR0001": {"name": "ST OLGA UKRAINIAN CATHOLIC CHURCH", "designationCode": "C", "categoryCode": "38", "address": "4504-49TH AVENUE", "city": "VERMILION", "province": "AB", "country": "CA", "postalCode": "T9X1P7", "twitter": "None", "instagram": "None", "facebook": "None", "youtube": "None", "website": "None", "summary": "None", "logo": "None", "latitude": 53.353093493219326, "longitude": -110.83777208381903}, "119264174RR0021": {"name": "ST PATRICK CHURCH", "designationCode": "C", "categoryCode": "38", "address": "P O BOX 160", "city": "ATIKOKAN", "province": "ON", "country": "CA", "postalCode": "P0T1C0", "twitter": "None", "instagram": "None", "facebook": "None", "youtube": "None", "website": "None", "summary": "None", "logo": "None", "latitude": 48.78243202695454, "longitude": -91.62784818644623}, "119264174RR0011": {"name": "ST PATRICK'S CATHEDRAL", "designationCode": "C", "categoryCode": "38", "address": "211 SOUTH ARCHIBALD ST", "city": "THUNDERBAY", "province": "ON", "country": "CA", "postalCode": "P7E1G4", "twitter": "None", "instagram": "None", "facebook": "None", "youtube": "None", "website": "None", "summary": "None", "logo": "None", "latitude": 48.38216332944776, "longitude": -89.2489428161462}, "132017666RR0001": {"name": "ST PATRICK'S CHURCH", "designationCode": "C", "categoryCode": "38", "address": "BOX 370", "city": "CUPAR", "province": "SK", "country": "CA", "postalCode": "S0G0Y0", "twitter": "None", "instagram": "None", "facebook": "None", "youtube": "None", "website": "None", "summary": "None", "logo": "None", "latitude": 50.95008000000007, "longitude": -104.21777999999995}, "132081910RR0001": {"name": "ST PATRICK'S CHURCH", "designationCode": "C", "categoryCode": "38", "address": "BOX 629", "city": "STURGIS", "province": "SK", "country": "CA", "postalCode": "S0A4A0", "twitter": "None", "instagram": "None", "facebook": "None", "youtube": "None", "website": "None", "summary": "None", "logo": "None", "latitude": 51.940030000000036, "longitude": -102.54296999999997}, "133552034RR0001": {"name": "ST PATRICK'S CHURCH", "designationCode": "C", "categoryCode": "38", "address": "168 WORTH ST", "city": "WINNIPEG", "province": "MB", "country": "CA", "postalCode": "R3E3A7", "twitter": "None", "instagram": "None", "facebook": "None", "youtube": "None", "website": "None", "summary": "None", "logo": "None", "latitude": 49.91832098418829, "longitude": -97.19161919028775}, "850807124RR0001": {"name": "ST PATRICK'S CHURCH", "designationCode": "C", "categoryCode": "38", "address": "BOX 252", "city": "EASTEND", "province": "SK", "country": "CA", "postalCode": "S0N0T0", "twitter": "None", "instagram": "None", "facebook": "None", "youtube": "None", "website": "None", "summary": "None", "logo": "None", "latitude": 49.51367000000005, "longitude": -108.82889999999998}, "886303395RR0001": {"name": "ST PATRICK'S CHURCH", "designationCode": "C", "categoryCode": "38", "address": "PO BOX 33", "city": "PINEWOOD", "province": "ON", "country": "CA", "postalCode": "P0W1K0", "twitter": "None", "instagram": "None", "facebook": "None", "youtube": "None", "website": "None", "summary": "None", "logo": "None", "latitude": 48.713010000000054, "longitude": -94.30547999999999}, "888604196RR0001": {"name": "ST PATRICK'S COUNCIL NO 7689 CHARITABLE TRUST", "designationCode": "A", "categoryCode": "65", "address": "5633 HIGHWAY NO 7", "city": "MARKHAM", "province": "ON", "country": "CA", "postalCode": "L3P1B6", "twitter": "None", "instagram": "None", "facebook": "None", "youtube": "None", "website": "None", "summary": "None", "logo": "None", "latitude": 43.92940200000005, "longitude": -79.27345249999993}, "888970399RR0001": {"name": "ST PATRICK'S HOME OF OTTAWA FOUNDATION", "designationCode": "A", "categoryCode": "03", "address": "2865 RIVERSIDE DR", "city": "OTTAWA", "province": "ON", "country": "CA", "postalCode": "K1V8N5", "twitter": "None", "instagram": "None", "facebook": "None", "youtube": "None", "website": "None", "summary": "None", "logo": "None", "latitude": 45.370453745224694, "longitude": -75.69029592316411}, "119193514RR0001": {"name": "ST PATRICK'S MERCY HOME", "designationCode": "C", "categoryCode": "01", "address": "146 ELIZABETH AVENUE", "city": "ST. JOHN'S", "province": "NL", "country": "CA", "postalCode": "A1B1S5", "twitter": "None", "instagram": "None", "facebook": "None", "youtube": "None", "website": "None", "summary": "None", "logo": "None", "latitude": 47.57860530211334, "longitude": -52.71965862648085}, "876242025RR0001": {"name": "ST PATRICK'S MERCY HOME FOUNDATION INCORPORATED", "designationCode": "A", "categoryCode": "03", "address": "P O BOX 21191                 146 ELIZABETH AVE", "city": "ST JOHN'S", "province": "NL", "country": "CA", "postalCode": "A1A5B2", "twitter": "None", "instagram": "None", "facebook": "None", "youtube": "None", "website": "None", "summary": "None", "logo": "None", "latitude": 47.58199519925235, "longitude": -52.71313613201979}, "119193522RR0001": {"name": "ST PATRICK'S MISSION RIO GRANDE", "designationCode": "C", "categoryCode": "38", "address": "RR#1 SITE 3 BOX 8", "city": "BEAVERLODGE", "province": "AB", "country": "CA", "postalCode": "T0H0C0", "twitter": "None", "instagram": "None", "facebook": "None", "youtube": "None", "website": "None", "summary": "None", "logo": "None", "latitude": 55.209100000000035, "longitude": -119.42957999999999}, "119193688RR0001": {"name": "ST PATRICK'S PARISH", "designationCode": "C", "categoryCode": "38", "address": "BOX 462", "city": "NOKOMIS", "province": "SK", "country": "CA", "postalCode": "S0G3R0", "twitter": "None", "instagram": "None", "facebook": "None", "youtube": "None", "website": "None", "summary": "None", "logo": "None", "latitude": 51.50703000000004, "longitude": -105.01040999999998}, "119193704RR0001": {"name": "ST PATRICK'S PARISH", "designationCode": "C", "categoryCode": "38", "address": "4609 50 AVE", "city": "ST PAUL", "province": "AB", "country": "CA", "postalCode": "T0A3A3", "twitter": "None", "instagram": "None", "facebook": "None", "youtube": "None", "website": "None", "summary": "None", "logo": "None", "latitude": 53.99135148730496, "longitude": -111.28695202553523}, "122418601RR0009": {"name": "ST PATRICK'S PARISH", "designationCode": "C", "categoryCode": "38", "address": "110 QUEEN STREET              PO BOX 190", "city": "DIGBY", "province": "NS", "country": "CA", "postalCode": "B0V1A0", "twitter": "None", "instagram": "None", "facebook": "None", "youtube": "None", "website": "None", "summary": "None", "logo": "None", "latitude": 44.620715713024346, "longitude": -65.7571150096662}, "128967353RR0080": {"name": "ST PATRICK'S PARISH", "designationCode": "C", "categoryCode": "38", "address": "15 STEEPLE HILL CRESCENT", "city": "NEPEAN", "province": "ON", "country": "CA", "postalCode": "K2R1G2", "twitter": "None", "instagram": "None", "facebook": "None", "youtube": "None", "website": "None", "summary": "None", "logo": "None", "latitude": 45.26758885544433, "longitude": -75.82836317617908}, "129950804RR0027": {"name": "ST PATRICK'S PARISH", "designationCode": "C", "categoryCode": "38", "address": "2060 HAULTAIN STREET", "city": "VICTORIA", "province": "BC", "country": "CA", "postalCode": "V8R2L7", "twitter": "None", "instagram": "None", "facebook": "None", "youtube": "None", "website": "None", "summary": "None", "logo": "None", "latitude": 48.43587210075653, "longitude": -123.32025060075651}, "129950804RR0032": {"name": "ST PATRICK'S PARISH", "designationCode": "C", "categoryCode": "38", "address": "34 SOUTH ALDER STREET", "city": "CAMPBELL RIVER", "province": "BC", "country": "CA", "postalCode": "V9W2M8", "twitter": "None", "instagram": "None", "facebook": "None", "youtube": "None", "website": "None", "summary": "None", "logo": "None", "latitude": 50.00687833776288, "longitude": -125.23947008697834}, "130599442RR0017": {"name": "ST PATRICK'S PARISH", "designationCode": "C", "categoryCode": "38", "address": "BOX 293", "city": "COBALT", "province": "ON", "country": "CA", "postalCode": "P0J1C0", "twitter": "None", "instagram": "None", "facebook": "None", "youtube": "None", "website": "None", "summary": "None", "logo": "None", "latitude": 47.395081709725446, "longitude": -79.68712898233666}, "890178841RR0001": {"name": "ST PATRICK'S PARISH", "designationCode": "C", "categoryCode": "38", "address": "BOX 276", "city": "SPYHILL", "province": "SK", "country": "CA", "postalCode": "S0A3W0", "twitter": "None", "instagram": "None", "facebook": "None", "youtube": "None", "website": "None", "summary": "None", "logo": "None", "latitude": 50.60238900000006, "longitude": -101.68678249999994}, "873547046RR0001": {"name": "ST PATRICK'S PARISH, WANHAM ALBERTA", "designationCode": "C", "categoryCode": "38", "address": "BOX 242", "city": "WANHAM", "province": "AB", "country": "CA", "postalCode": "T0H3P0", "twitter": "None", "instagram": "None", "facebook": "None", "youtube": "None", "website": "None", "summary": "None", "logo": "None", "latitude": 55.736980000000074, "longitude": -118.38859999999994}, "129930228RR0033": {"name": "ST PATRICK'S PASTORAL COUNCIL", "designationCode": "C", "categoryCode": "38", "address": "2154 ROUTE 130", "city": "DSL GRAND FALLS", "province": "NB", "country": "CA", "postalCode": "E3Z1N3", "twitter": "None", "instagram": "None", "facebook": "None", "youtube": "None", "website": "None", "summary": "None", "logo": "None", "latitude": 47.0425617156029, "longitude": -67.74409741359062}, "130650195RR0001": {"name": "ST PATRICK'S RESTORATION FOUNDATION/FONDATION DE RESTAURATION \"ST PATRICK'S\"", "designationCode": "A", "categoryCode": "45", "address": "460 RENE-LEVESQUE BLVD W", "city": "MONTREAL", "province": "QC", "country": "CA", "postalCode": "H2Z1A7", "twitter": "None", "instagram": "None", "facebook": "None", "youtube": "None", "website": "None", "summary": "None", "logo": "None", "latitude": 45.503745299440475, "longitude": -73.56571412314673}, "119193068RR0001": {"name": "ST PATRICKS ANGLICAN CHURCH", "designationCode": "C", "categoryCode": "30", "address": "PO BOX 274", "city": "HUDSON BAY", "province": "SK", "country": "CA", "postalCode": "S0E0Y0", "twitter": "None", "instagram": "None", "facebook": "None", "youtube": "None", "website": "None", "summary": "None", "logo": "None", "latitude": 52.862685000000056, "longitude": -102.38924149999994}, "892743667RR0001": {"name": "ST PATRICKS SOCIETY OF MONTREAL BENEVOLENT TRUST FUND", "designationCode": "C", "categoryCode": "05", "address": "6767 COTE ST. LUC ROAD", "city": "MONTREAL", "province": "QC", "country": "CA", "postalCode": "H4V2Z6", "twitter": "None", "instagram": "None", "facebook": "None", "youtube": "None", "website": "None", "summary": "None", "logo": "None", "latitude": 45.469302317242736, "longitude": -73.65002501904301}, "899987267RR0001": {"name": "ST PAUL & DISTRICT AMBULANCE SERVICE SOCIETY", "designationCode": "C", "categoryCode": "11", "address": "5015 49 AVENUE", "city": "ST PAUL", "province": "AB", "country": "CA", "postalCode": "T0A3A4", "twitter": "None", "instagram": "None", "facebook": "None", "youtube": "None", "website": "None", "summary": "None", "logo": "None", "latitude": 53.990217347691434, "longitude": -111.29752504863181}, "119193837RR0001": {"name": "ST PAUL ALBERTA CONGREGATION OF JEHOVAH'S WITNESSES", "designationCode": "C", "categoryCode": "61", "address": "4505 57 ST", "city": "ST PAUL", "province": "AB", "country": "CA", "postalCode": "T0A3A1", "twitter": "None", "instagram": "None", "facebook": "None", "youtube": "None", "website": "None", "summary": "None", "logo": "None", "latitude": 53.995477501181085, "longitude": -111.31652200839343}, "886427996RR0001": {"name": "ST PAUL ALLIANCE CHURCH", "designationCode": "C", "categoryCode": "39", "address": "PO BOX 1058", "city": "ST PAUL", "province": "AB", "country": "CA", "postalCode": "T0A3A0", "twitter": "None", "instagram": "None", "facebook": "None", "youtube": "None", "website": "None", "summary": "None", "logo": "None", "latitude": 53.99207006217902, "longitude": -111.26834992613558}, "119193860RR0001": {"name": "ST PAUL AND DISTRICT CRISIS ASSOCIATION", "designationCode": "C", "categoryCode": "09", "address": "P O BOX 1237", "city": "ST PAUL", "province": "AB", "country": "CA", "postalCode": "T0A3A0", "twitter": "None", "instagram": "None", "facebook": "None", "youtube": "None", "website": "None", "summary": "None", "logo": "None"}, "119193886RR0001": {"name": "ST PAUL CHURCH", "designationCode": "C", "categoryCode": "30", "address": "PO BOX 8", "city": "RIVI\u00c8RE-SAINT-PAUL", "province": "QC", "country": "CA", "postalCode": "G0G2P0", "twitter": "None", "instagram": "None", "facebook": "None", "youtube": "None", "website": "None", "summary": "None", "logo": "None", "latitude": 51.47442600000005, "longitude": -57.70250449999993}, "119193894RR0001": {"name": "ST PAUL COMMUNITY ARENA PROJECT ASSOCIATION", "designationCode": "C", "categoryCode": "56", "address": "P O BOX 1452", "city": "ST PAUL", "province": "AB", "country": "CA", "postalCode": "T0A3A0", "twitter": "None", "instagram": "None", "facebook": "None", "youtube": "None", "website": "None", "summary": "None", "logo": "None", "latitude": 53.99207006217902, "longitude": -111.26834992613558}, "140639436RR0001": {"name": "ST PAUL EDUCATION REGIONAL DIV NO 1", "designationCode": "C", "categoryCode": "20", "address": "4313 48TH AVE", "city": "ST. PAUL", "province": "AB", "country": "CA", "postalCode": "T0A3A3", "twitter": "None", "instagram": "None", "facebook": "None", "youtube": "None", "website": "None", "summary": "None", "logo": "None", "latitude": 53.98925587000123, "longitude": -111.2765276130424}, "891334161RR0001": {"name": "ST PAUL EVANGELICAL LUTHERAN CHURCH VERNON B C", "designationCode": "C", "categoryCode": "32", "address": "5287 SILVER STAR ROAD", "city": "VERNON", "province": "BC", "country": "CA", "postalCode": "V1B3K4", "twitter": "None", "instagram": "None", "facebook": "None", "youtube": "None", "website": "None", "summary": "None", "logo": "None", "latitude": 50.28208272088787, "longitude": -119.2399098129445}, "873772073RR0001": {"name": "ST PAUL EXTENDICARE RESIDENTS' COUNCIL ASSOCIATION", "designationCode": "C", "categoryCode": "09", "address": "4614 47 AVE", "city": "ST PAUL", "province": "AB", "country": "CA", "postalCode": "T0A3A3", "twitter": "None", "instagram": "None", "facebook": "None", "youtube": "None", "website": "None", "summary": "None", "logo": "None", "latitude": 53.98838652986307, "longitude": -111.28645294463038}, "119193928RR0001": {"name": "ST PAUL LUTHERAN CHURCH", "designationCode": "C", "categoryCode": "32", "address": "PO BOX 100", "city": "RADISSON", "province": "SK", "country": "CA", "postalCode": "S0K3L0", "twitter": "None", "instagram": "None", "facebook": "None", "youtube": "None", "website": "None", "summary": "None", "logo": "None", "latitude": 52.46097000000003, "longitude": -107.39552999999995}, "890573199RR0001": {"name": "ST PAUL LUTHERAN CHURCH", "designationCode": "C", "categoryCode": "32", "address": "PO BOX 357", "city": "HERBERT", "province": "SK", "country": "CA", "postalCode": "S0H2A0", "twitter": "None", "instagram": "None", "facebook": "None", "youtube": "None", "website": "None", "summary": "None", "logo": "None", "latitude": 50.42651921542417, "longitude": -107.22535903213169}, "129404786RR0001": {"name": "ST PAUL LUTHERAN CHURCH OF YORKTON", "designationCode": "C", "categoryCode": "32", "address": "73 SMITH STREET EAST", "city": "YORKTON", "province": "SK", "country": "CA", "postalCode": "S3N0H6", "twitter": "None", "instagram": "None", "facebook": "None", "youtube": "None", "website": "None", "summary": "None", "logo": "None", "latitude": 51.21215147100234, "longitude": -102.45809249999999}}