{"871095956RR0001": {"name": "THOROLD SANTA CLAUS PARADE COMMITTEE", "designationCode": "C", "categoryCode": "09", "address": "3540 SCHMON PARKWAY           PO BOX 1044 THOROLD CITY HALL", "city": "THOROLD", "province": "ON", "country": "CA", "postalCode": "L2V4A7", "twitter": "None", "instagram": "None", "facebook": "None", "youtube": "None", "website": "None", "summary": "None", "logo": "None", "latitude": 43.1174200489061, "longitude": -79.2402499371008}, "119263853RR0001": {"name": "THOROLD SOUTH GOSPEL CHAPEL,", "designationCode": "C", "categoryCode": "39", "address": "319 DAVIS STREET", "city": "THOROLD", "province": "ON", "country": "CA", "postalCode": "L2V1G2", "twitter": "None", "instagram": "None", "facebook": "None", "youtube": "None", "website": "None", "summary": "None", "logo": "None", "latitude": 43.09961383236194, "longitude": -79.19306959925535}, "888412269RR0001": {"name": "THOUSAND AND ONE CLUB CHARITABLE TRUST", "designationCode": "A", "categoryCode": "05", "address": "25 SHIREFIELD LANE", "city": "NEW HAMBURG", "province": "ON", "country": "CA", "postalCode": "N3A4L8", "twitter": "None", "instagram": "None", "facebook": "None", "youtube": "None", "website": "None", "summary": "None", "logo": "None", "latitude": 43.368863702201956, "longitude": -80.70059393209223}, "892059049RR0001": {"name": "THOUSAND ISLANDS ASSOCIATION FOR THE PRESERVATION OF RIVER QUALITY INC", "designationCode": "C", "categoryCode": "56", "address": "PO BOX 274", "city": "GANANOQUE", "province": "ON", "country": "CA", "postalCode": "K7G2T8", "twitter": "None", "instagram": "None", "facebook": "None", "youtube": "None", "website": "None", "summary": "None", "logo": "None", "latitude": 44.328480000000056, "longitude": -76.16426299999993}, "119263903RR0001": {"name": "THOUSAND ISLANDS BAPTIST CHURCH,", "designationCode": "C", "categoryCode": "31", "address": "PO BOX 1356", "city": "BROCKVILLE", "province": "ON", "country": "CA", "postalCode": "K6V5Y6", "twitter": "None", "instagram": "None", "facebook": "None", "youtube": "None", "website": "None", "summary": "None", "logo": "None", "latitude": 44.59037100000006, "longitude": -75.68301049999994}, "825536980RR0001": {"name": "THOUSAND ISLANDS BOAT MUSEUM", "designationCode": "C", "categoryCode": "50", "address": "125 WATER ST", "city": "GANANOQUE", "province": "ON", "country": "CA", "postalCode": "K7G3E3", "twitter": "None", "instagram": "None", "facebook": "None", "youtube": "None", "website": "None", "summary": "None", "logo": "None", "latitude": 44.32526273131809, "longitude": -76.15976819101601}, "119288918RR0751": {"name": "THOUSAND ISLANDS CONGREGATION OF JEHOVAH'S WITNESSES", "designationCode": "C", "categoryCode": "61", "address": "405-44 CETNRAL AVENUE EAST", "city": "BROCKVILLE", "province": "ON", "country": "CA", "postalCode": "K6V1W6", "twitter": "None", "instagram": "None", "facebook": "None", "youtube": "None", "website": "None", "summary": "None", "logo": "None", "latitude": 44.594635215782056, "longitude": -75.67879889124791}, "888156247RR0001": {"name": "THOUSAND ISLANDS FOUNDATION FOR THE PERFORMING ARTS", "designationCode": "C", "categoryCode": "22", "address": "P.O. BOX 241", "city": "GANANOQUE", "province": "ON", "country": "CA", "postalCode": "K7G2T8", "twitter": "None", "instagram": "None", "facebook": "None", "youtube": "None", "website": "None", "summary": "None", "logo": "None", "latitude": 44.328480000000056, "longitude": -76.16426299999993}, "132478215RR0001": {"name": "THOUSAND OAKS MINISTRIES INC", "designationCode": "C", "categoryCode": "47", "address": "BOX 1395", "city": "WINKLER", "province": "MB", "country": "CA", "postalCode": "R6W4B4", "twitter": "None", "instagram": "None", "facebook": "None", "youtube": "None", "website": "None", "summary": "None", "logo": "None", "latitude": 49.17773400000006, "longitude": -97.93841299999994}, "850958349RR0001": {"name": "THRANGU MONASTERY ASSOCIATION", "designationCode": "A", "categoryCode": "35", "address": "208-8678 GREENALL AVE.", "city": "BURNABY", "province": "BC", "country": "CA", "postalCode": "V5J3M6", "twitter": "None", "instagram": "None", "facebook": "None", "youtube": "None", "website": "None", "summary": "None", "logo": "None", "latitude": 49.20612299999999, "longitude": -123.01785995775903}, "876093709RR0001": {"name": "THRANGU VAJRA VIDHYA BUDDHIST ASSOCIATION", "designationCode": "C", "categoryCode": "35", "address": "208-8678 GREENALL AVE", "city": "BURNABY", "province": "BC", "country": "CA", "postalCode": "V5J3M6", "twitter": "None", "instagram": "None", "facebook": "None", "youtube": "None", "website": "None", "summary": "None", "logo": "None", "latitude": 49.20612299999999, "longitude": -123.01785995775903}, "886770999RR0001": {"name": "THREE AND TWO ARE ONE INC", "designationCode": "C", "categoryCode": "49", "address": "1053 EAGLE LAKE RD            BOX 67", "city": "WEST GUILFORD", "province": "ON", "country": "CA", "postalCode": "K0M2S0", "twitter": "None", "instagram": "None", "facebook": "None", "youtube": "None", "website": "None", "summary": "None", "logo": "None", "latitude": 45.10907140608209, "longitude": -78.59781533250616}, "896749132RR0001": {"name": "THREE ANGELS CHRISTIAN COMMUNICATIONS", "designationCode": "C", "categoryCode": "41", "address": "PO BOX 1335", "city": "FERNIE", "province": "BC", "country": "CA", "postalCode": "V0B1M0", "twitter": "None", "instagram": "None", "facebook": "None", "youtube": "None", "website": "None", "summary": "None", "logo": "None", "latitude": 49.499960000000044, "longitude": -115.06870999999995}, "892537085RR0001": {"name": "THREE FISHES CHRISTIAN ELEMENTARY SCHOOL", "designationCode": "C", "categoryCode": "20", "address": "105A WEXFORD BLVD.", "city": "SCARBOROUGH", "province": "ON", "country": "CA", "postalCode": "M1R1L7", "twitter": "None", "instagram": "None", "facebook": "None", "youtube": "None", "website": "None", "summary": "None", "logo": "None", "latitude": 43.74236568291093, "longitude": -79.3006404015729}, "132497116RR0001": {"name": "THREE HARBOURS PASTORAL CHARGE", "designationCode": "C", "categoryCode": "44", "address": "PO BOX 153", "city": "WALLACE", "province": "NS", "country": "CA", "postalCode": "B0K1Y0", "twitter": "None", "instagram": "None", "facebook": "None", "youtube": "None", "website": "None", "summary": "None", "logo": "None", "latitude": 45.52877866223628, "longitude": -62.73566833776373}, "899231500RR0001": {"name": "THREE HILLS & DISTRICT PALLIATIVE CARE SOCIETY", "designationCode": "C", "categoryCode": "11", "address": "BOX 1595", "city": "THREE HILLS", "province": "AB", "country": "CA", "postalCode": "T0M2A0", "twitter": "None", "instagram": "None", "facebook": "None", "youtube": "None", "website": "None", "summary": "None", "logo": "None", "latitude": 52.38329400000001, "longitude": -114.606927}, "889490405RR0001": {"name": "THREE HILLS AREA FOOD BANK SOCIETY", "designationCode": "C", "categoryCode": "09", "address": "P. O. BOX 1695", "city": "THREE HILLS", "province": "AB", "country": "CA", "postalCode": "T0M2A0", "twitter": "None", "instagram": "None", "facebook": "None", "youtube": "None", "website": "None", "summary": "None", "logo": "None", "latitude": 52.38329400000001, "longitude": -114.606927}, "889945358RR0001": {"name": "THREE HILLS ARTS ACADEMY SOCIETY", "designationCode": "C", "categoryCode": "20", "address": "PO BOX 2870", "city": "THREE HILLS", "province": "AB", "country": "CA", "postalCode": "T0M2A0", "twitter": "None", "instagram": "None", "facebook": "None", "youtube": "None", "website": "None", "summary": "None", "logo": "None", "latitude": 52.38329400000001, "longitude": -114.606927}, "818725285RR0001": {"name": "THREE HILLS BETHEL EVANGELICAL MISSIONARY CHURCH SOCIETY", "designationCode": "C", "categoryCode": "39", "address": "BOX 1268", "city": "THREE HILLS", "province": "AB", "country": "CA", "postalCode": "T0M2A0", "twitter": "None", "instagram": "None", "facebook": "None", "youtube": "None", "website": "None", "summary": "None", "logo": "None", "latitude": 52.38329400000001, "longitude": -114.606927}, "839566569RR0001": {"name": "THREE HILLS CHARITABLE TRUST", "designationCode": "B", "categoryCode": "39", "address": "3425 - 2ND AVENUE SOUTH       MEYERS NORRIS PENNY LLP", "city": "LETHBRIDGE", "province": "AB", "country": "CA", "postalCode": "T1J4V1", "twitter": "None", "instagram": "None", "facebook": "None", "youtube": "None", "website": "None", "summary": "None", "logo": "None", "latitude": 49.696839530439966, "longitude": -112.78914308381903}, "119263978RR0001": {"name": "THREE HILLS COMMUNITY MEMORIAL CENTRE", "designationCode": "C", "categoryCode": "56", "address": "BOX 829", "city": "THREE HILLS", "province": "AB", "country": "CA", "postalCode": "T0M2A0", "twitter": "None", "instagram": "None", "facebook": "None", "youtube": "None", "website": "None", "summary": "None", "logo": "None", "latitude": 52.38329400000001, "longitude": -114.606927}, "898979380RR0001": {"name": "THREE HILLS HEALTH CARE CENTRE AUXILIARY SOCIETY", "designationCode": "A", "categoryCode": "13", "address": "P.O. BOX 939", "city": "THREE HILLS", "province": "AB", "country": "CA", "postalCode": "T0M2A0", "twitter": "None", "instagram": "None", "facebook": "None", "youtube": "None", "website": "None", "summary": "None", "logo": "None", "latitude": 52.38329400000001, "longitude": -114.606927}, "831832340RR0001": {"name": "THREE HILLS VICTIM SERVICES ASSOCIATION", "designationCode": "C", "categoryCode": "09", "address": "BOX 414", "city": "TROCHU", "province": "AB", "country": "CA", "postalCode": "T0M2C0", "twitter": "None", "instagram": "None", "facebook": "None", "youtube": "None", "website": "None", "summary": "None", "logo": "None", "latitude": 51.82281000000001, "longitude": -113.23290741784133}, "803131077RR0001": {"name": "THREE LAKES FIRST RESPONDERS INC.", "designationCode": "C", "categoryCode": "11", "address": "BOX 182", "city": "MIDDLE LAKE", "province": "SK", "country": "CA", "postalCode": "S0K2X0", "twitter": "None", "instagram": "None", "facebook": "None", "youtube": "None", "website": "None", "summary": "None", "logo": "None", "latitude": 52.48227000000003, "longitude": -105.30166999999994}, "867083859RR0001": {"name": "THREE LEFT FEET MOVEMENT CREATIONS", "designationCode": "C", "categoryCode": "29", "address": "2 - 1709 8 AVE NE", "city": "CALGARY", "province": "AB", "country": "CA", "postalCode": "T2E0S9", "twitter": "None", "instagram": "None", "facebook": "None", "youtube": "None", "website": "None", "summary": "None", "logo": "None", "latitude": 51.05946880930823, "longitude": -114.019696074788}, "865142251RR0001": {"name": "THREE LINKS CARE FOUNDATION", "designationCode": "A", "categoryCode": "03", "address": "1443 8TH AVE W", "city": "VANCOUVER", "province": "BC", "country": "CA", "postalCode": "V6H1C9", "twitter": "None", "instagram": "None", "facebook": "None", "youtube": "None", "website": "None", "summary": "None", "logo": "None", "latitude": 49.26451746047076, "longitude": -123.13695197155059}, "119263994RR0001": {"name": "THREE MILE PLAINS COMMUNITY SOCIETY", "designationCode": "C", "categoryCode": "56", "address": "4436 HWY #1 RR2", "city": "WINDSOR", "province": "NS", "country": "CA", "postalCode": "B0N2T0", "twitter": "None", "instagram": "None", "facebook": "None", "youtube": "None", "website": "None", "summary": "None", "logo": "None", "latitude": 44.96540654845462, "longitude": -64.1013542961672}, "888215647RR0001": {"name": "THREE MOUNTAIN FOUNDATION", "designationCode": "C", "categoryCode": "59", "address": "2420 PARKVIEW DR", "city": "KAMLOOPS", "province": "BC", "country": "CA", "postalCode": "V2B7J1", "twitter": "None", "instagram": "None", "facebook": "None", "youtube": "None", "website": "None", "summary": "None", "logo": "None", "latitude": 50.74288569885745, "longitude": -120.35886898600597}, "108108119RR0001": {"name": "THREE OAKS FOUNDATION", "designationCode": "C", "categoryCode": "09", "address": "PO BOX 22162                  RPO BELLEVILLE CTR", "city": "BELLEVILLE", "province": "ON", "country": "CA", "postalCode": "K8N5V7", "twitter": "None", "instagram": "None", "facebook": "None", "youtube": "None", "website": "None", "summary": "None", "logo": "None", "latitude": 44.16104400000006, "longitude": -77.38183249999993}, "870122504RR0001": {"name": "THREE RIVERS KIDS FOUNDATION", "designationCode": "C", "categoryCode": "09", "address": "1531 KENMUIR AVENUE", "city": "MISSISSAUGA", "province": "ON", "country": "CA", "postalCode": "L5G4B6", "twitter": "None", "instagram": "None", "facebook": "None", "youtube": "None", "website": "None", "summary": "None", "logo": "None", "latitude": 43.57521149737428, "longitude": -79.58593321827583}, "856734686RR0001": {"name": "THREE RIVERS ROMA INC.", "designationCode": "C", "categoryCode": "52", "address": "P. O. BOX 758", "city": "MONTAGUE", "province": "PE", "country": "CA", "postalCode": "C0A1R0", "twitter": "None", "instagram": "None", "facebook": "None", "youtube": "None", "website": "None", "summary": "None", "logo": "None", "latitude": 46.14343222329997, "longitude": -62.75594020244682}, "119264034RR0001": {"name": "THREE TRILLIUMS COMMUNITY PLACE INCORPORATED", "designationCode": "C", "categoryCode": "01", "address": "25 ELM STREET  SUITE 404", "city": "TORONTO", "province": "ON", "country": "CA", "postalCode": "M5G2G5", "twitter": "None", "instagram": "None", "facebook": "None", "youtube": "None", "website": "None", "summary": "None", "logo": "None", "latitude": 43.657535893127246, "longitude": -79.38301781903172}, "892678962RR0001": {"name": "THREE VALLEYS COMMUNITY SCHOOL ASSOCIATION", "designationCode": "C", "categoryCode": "21", "address": "76 THREE VALLEYS DRIVE", "city": "NORTH YORK", "province": "ON", "country": "CA", "postalCode": "M3A3B7", "twitter": "None", "instagram": "None", "facebook": "None", "youtube": "None", "website": "None", "summary": "None", "logo": "None", "latitude": 43.75057170832116, "longitude": -79.33713448436119}, "873072599RR0001": {"name": "THREE VOICES OF HEALING SOCIETY", "designationCode": "C", "categoryCode": "09", "address": "PO BOX 325", "city": "INVERMERE", "province": "BC", "country": "CA", "postalCode": "V0A1K0", "twitter": "None", "instagram": "None", "facebook": "None", "youtube": "None", "website": "None", "summary": "None", "logo": "None", "latitude": 50.50916700000006, "longitude": -116.03037049999993}, "106905482RR0001": {"name": "THREE WILLOWS UNITED CHURCH", "designationCode": "C", "categoryCode": "44", "address": "577 WILLOW RD", "city": "GUELPH", "province": "ON", "country": "CA", "postalCode": "N1H7H3", "twitter": "None", "instagram": "None", "facebook": "None", "youtube": "None", "website": "None", "summary": "None", "logo": "None", "latitude": 43.531511487679424, "longitude": -80.29047466423293}, "805246741RR0001": {"name": "THREE-FOLD MINISTRIES", "designationCode": "C", "categoryCode": "47", "address": "393 FORESTLAWN RD", "city": "WATERLOO", "province": "ON", "country": "CA", "postalCode": "N2K2J5", "twitter": "None", "instagram": "None", "facebook": "None", "youtube": "None", "website": "None", "summary": "None", "logo": "None", "latitude": 43.50012743323343, "longitude": -80.49982490755397}, "876673369RR0001": {"name": "THRESHOLD HOUSING SOCIETY", "designationCode": "C", "categoryCode": "09", "address": "900 VANCOUVER ST.", "city": "VICTORIA", "province": "BC", "country": "CA", "postalCode": "V8V3V7", "twitter": "None", "instagram": "None", "facebook": "None", "youtube": "None", "website": "None", "summary": "None", "logo": "None", "latitude": 48.42170864599994, "longitude": -123.35749388759996}, "119223006RR0001": {"name": "THRESHOLD MINISTRIES", "designationCode": "C", "categoryCode": "49", "address": "105 MOUNTAIN VIEW DRIVE", "city": "SAINT JOHN", "province": "NB", "country": "CA", "postalCode": "E2J5B5", "twitter": "None", "instagram": "None", "facebook": "None", "youtube": "None", "website": "None", "summary": "None", "logo": "None", "latitude": 45.30794684929883, "longitude": -66.00438741955651}, "875130619RR0001": {"name": "THRESHOLD SCHOOL OF BUILDING", "designationCode": "C", "categoryCode": "20", "address": "110 CATHARINE STREET NORTH", "city": "HAMILTON", "province": "ON", "country": "CA", "postalCode": "L8R1J4", "twitter": "None", "instagram": "None", "facebook": "None", "youtube": "None", "website": "None", "summary": "None", "logo": "None", "latitude": 43.25854765139368, "longitude": -79.86384116025181}, "846280956RR0001": {"name": "THRESHOLD THEATRE GROUP OF KINGSTON", "designationCode": "C", "categoryCode": "22", "address": "109 ATLAS AVE", "city": "TORONTO", "province": "ON", "country": "CA", "postalCode": "M6C3P2", "twitter": "None", "instagram": "None", "facebook": "None", "youtube": "None", "website": "None", "summary": "None", "logo": "None", "latitude": 43.6849192872641, "longitude": -79.43240775601608}, "893261727RR0001": {"name": "THRIVE Child and Youth Trauma Services", "designationCode": "C", "categoryCode": "09", "address": "P.O. BOX 5189, LCD 1", "city": "HAMILTON", "province": "ON", "country": "CA", "postalCode": "L8L8G1", "twitter": "None", "instagram": "None", "facebook": "None", "youtube": "None", "website": "None", "summary": "None", "logo": "None", "latitude": 43.261962000000054, "longitude": -79.88800399999994}, "872143904RR0001": {"name": "THRONE OF GRACE-REDEEMED CHRISTIAN CHURCH OF GOD", "designationCode": "C", "categoryCode": "39", "address": "405 VICTORIA AVE", "city": "WINDSOR", "province": "ON", "country": "CA", "postalCode": "N9A4N1", "twitter": "None", "instagram": "None", "facebook": "None", "youtube": "None", "website": "None", "summary": "None", "logo": "None", "latitude": 42.31558793836931, "longitude": -83.04022100781894}, "119264059RR0001": {"name": "THRU THE BIBLE RADIO NETWORK", "designationCode": "C", "categoryCode": "47", "address": "PO BOX 25325", "city": "LONDON", "province": "ON", "country": "CA", "postalCode": "N6C6B1", "twitter": "None", "instagram": "None", "facebook": "None", "youtube": "None", "website": "None", "summary": "None", "logo": "None", "latitude": 42.98689500000006, "longitude": -81.24624349999993}, "135667822RR0001": {"name": "THS SOCIETY OF TRANSITION HOUSES", "designationCode": "C", "categoryCode": "59", "address": "325 119 PENDER ST W", "city": "VANCOUVER", "province": "BC", "country": "CA", "postalCode": "V6B1S5", "twitter": "None", "instagram": "None", "facebook": "None", "youtube": "None", "website": "None", "summary": "None", "logo": "None", "latitude": 49.28123126729745, "longitude": -123.10816513168683}, "107797383RR0031": {"name": "THUNDER BAY ADVENTIST ACADEMY", "designationCode": "C", "categoryCode": "41", "address": "1110 KING STREET EAST", "city": "OSHAWA", "province": "ON", "country": "CA", "postalCode": "L1H1H8", "twitter": "None", "instagram": "None", "facebook": "None", "youtube": "None", "website": "None", "summary": "None", "logo": "None", "latitude": 43.90572443551245, "longitude": -78.82349944878531}, "893657007RR0001": {"name": "THUNDER BAY AND AREA VICTIM SERVICES", "designationCode": "C", "categoryCode": "59", "address": "1200 BALMORAL STREET", "city": "THUNDER BAY", "province": "ON", "country": "CA", "postalCode": "P7B5Z5", "twitter": "None", "instagram": "None", "facebook": "None", "youtube": "None", "website": "None", "summary": "None", "logo": "None", "latitude": 48.41282694754457, "longitude": -89.25830283230368}, "894330273RR0001": {"name": "THUNDER BAY AND DISTRICT HUMANE SOCIETY", "designationCode": "C", "categoryCode": "54", "address": "1535 ROSSLYN RD", "city": "THUNDER BAY", "province": "ON", "country": "CA", "postalCode": "P7E6W2", "twitter": "None", "instagram": "None", "facebook": "None", "youtube": "None", "website": "None", "summary": "None", "logo": "None", "latitude": 48.362555522649686, "longitude": -89.3297115}, "119264075RR0001": {"name": "THUNDER BAY BOYS' AND GIRLS' CLUB", "designationCode": "C", "categoryCode": "09", "address": "270 WINDSOR ST", "city": "THUNDER BAY", "province": "ON", "country": "CA", "postalCode": "P7B1V6", "twitter": "None", "instagram": "None", "facebook": "None", "youtube": "None", "website": "None", "summary": "None", "logo": "None", "latitude": 48.443007402475395, "longitude": -89.25732890166827}, "119264091RR0001": {"name": "THUNDER BAY CHILDREN'S SERVICES FOUNDATION", "designationCode": "A", "categoryCode": "03", "address": "1110 JADE COURT", "city": "THUNDER BAY", "province": "ON", "country": "CA", "postalCode": "P7B6M7", "twitter": "None", "instagram": "None", "facebook": "None", "youtube": "None", "website": "None", "summary": "None", "logo": "None", "latitude": 48.41056630435799, "longitude": -89.260677609983}, "119264117RR0001": {"name": "THUNDER BAY CHRISTIAN SCHOOL SOCIETY", "designationCode": "C", "categoryCode": "20", "address": "3327 HIGHWAY 61", "city": "SLATE RIVER", "province": "ON", "country": "CA", "postalCode": "P7J0G9", "twitter": "None", "instagram": "None", "facebook": "None", "youtube": "None", "website": "None", "summary": "None", "logo": "None", "latitude": 48.30739611527709, "longitude": -89.43050840468756}, "131691792RR0001": {"name": "THUNDER BAY CHRISTMAS CHEER FUND", "designationCode": "C", "categoryCode": "09", "address": "PO BOX 10297", "city": "THUNDER BAY", "province": "ON", "country": "CA", "postalCode": "P7B6T7", "twitter": "None", "instagram": "None", "facebook": "None", "youtube": "None", "website": "None", "summary": "None", "logo": "None", "latitude": 48.38168400000005, "longitude": -89.24550199999993}, "877262675RR0001": {"name": "THUNDER BAY COMMUNITY AUDITORIUM FOUNDATION", "designationCode": "A", "categoryCode": "03", "address": "1100 MEMORIAL AVENUE          PO BOX 373", "city": "THUNDER BAY", "province": "ON", "country": "CA", "postalCode": "P7B4A3", "twitter": "None", "instagram": "None", "facebook": "None", "youtube": "None", "website": "None", "summary": "None", "logo": "None"}, "119264133RR0001": {"name": "THUNDER BAY COMMUNITY AUDITORIUM INC", "designationCode": "C", "categoryCode": "22", "address": "1 PAUL SHAFFER DRIVE", "city": "THUNDER BAY", "province": "ON", "country": "CA", "postalCode": "P7B6C7", "twitter": "None", "instagram": "None", "facebook": "None", "youtube": "None", "website": "None", "summary": "None", "logo": "None", "latitude": 48.42322188947525, "longitude": -89.24219270287855}, "119264224RR0001": {"name": "THUNDER BAY COMMUNITY FOUNDATION", "designationCode": "A", "categoryCode": "19", "address": "101 NORTH SYNDICATE AVENUE    SUITE 312", "city": "THUNDER BAY", "province": "ON", "country": "CA", "postalCode": "P7C3V4", "twitter": "None", "instagram": "None", "facebook": "None", "youtube": "None", "website": "None", "summary": "None", "logo": "None", "latitude": 48.38586003497028, "longitude": -89.24782392979964}, "108108432RR0001": {"name": "THUNDER BAY COUNSELLING CENTRE", "designationCode": "C", "categoryCode": "09", "address": "544 WINNIPEG AVENUE", "city": "THUNDER BAY", "province": "ON", "country": "CA", "postalCode": "P7B3S7", "twitter": "None", "instagram": "None", "facebook": "None", "youtube": "None", "website": "None", "summary": "None", "logo": "None", "latitude": 48.418182, "longitude": -89.2408333600033}, "890539042RR0001": {"name": "THUNDER BAY DRUG AWARENESS COMMITEE", "designationCode": "C", "categoryCode": "09", "address": "807 HUDSON AVE", "city": "THUNDER BAY", "province": "ON", "country": "CA", "postalCode": "P7A6J3", "twitter": "None", "instagram": "None", "facebook": "None", "youtube": "None", "website": "None", "summary": "None", "logo": "None", "latitude": 48.463751474032094, "longitude": -89.2100832485429}, "119264190RR0001": {"name": "THUNDER BAY EMERGENCY SHELTER INC.", "designationCode": "C", "categoryCode": "01", "address": "420 GEORGE STREET", "city": "THUNDER BAY", "province": "ON", "country": "CA", "postalCode": "P7E5Y8", "twitter": "None", "instagram": "None", "facebook": "None", "youtube": "None", "website": "None", "summary": "None", "logo": "None", "latitude": 48.38327152510252, "longitude": -89.24427972300768}, "802634865RR0001": {"name": "THUNDER BAY FAMILY NETWORK", "designationCode": "C", "categoryCode": "09", "address": "210 - 1205 AMBER DR", "city": "THUNDER BAY", "province": "ON", "country": "CA", "postalCode": "P7B6M4", "twitter": "None", "instagram": "None", "facebook": "None", "youtube": "None", "website": "None", "summary": "None", "logo": "None", "latitude": 48.409811795928704, "longitude": -89.2618528767845}, "119264216RR0001": {"name": "THUNDER BAY FIELD NATURALISTS CLUB", "designationCode": "C", "categoryCode": "52", "address": "PO BOX 10037", "city": "THUNDER BAY", "province": "ON", "country": "CA", "postalCode": "P7B6T6", "twitter": "None", "instagram": "None", "facebook": "None", "youtube": "None", "website": "None", "summary": "None", "logo": "None", "latitude": 48.38168400000005, "longitude": -89.24550199999993}, "892109778RR0001": {"name": "THUNDER BAY FINNISH LANGUAGE SCHOOL/THUNDER BAYN SUOMEN KIELEN KOULU", "designationCode": "C", "categoryCode": "20", "address": "314 BAY ST", "city": "THUNDER BAY", "province": "ON", "country": "CA", "postalCode": "P7B1S1", "twitter": "None", "instagram": "None", "facebook": "None", "youtube": "None", "website": "None", "summary": "None", "logo": "None", "latitude": 48.43215228310916, "longitude": -89.23012849166146}, "891450181RR0001": {"name": "THUNDER BAY FOOD BANK INC", "designationCode": "C", "categoryCode": "09", "address": "129 MILES STREET E", "city": "THUNDER BAY", "province": "ON", "country": "CA", "postalCode": "P7C1J5", "twitter": "None", "instagram": "None", "facebook": "None", "youtube": "None", "website": "None", "summary": "None", "logo": "None", "latitude": 48.38549668056425, "longitude": -89.24375102885344}, "107406316RR0031": {"name": "THUNDER BAY FREE METHODIST CHURCH", "designationCode": "C", "categoryCode": "39", "address": "920 SPRAGUE ST", "city": "THUNDER BAY", "province": "ON", "country": "CA", "postalCode": "P7E1V7", "twitter": "None", "instagram": "None", "facebook": "None", "youtube": "None", "website": "None", "summary": "None", "logo": "None", "latitude": 48.37076977990651, "longitude": -89.26134066553193}, "131689143RR0001": {"name": "THUNDER BAY LITERACY GROUP", "designationCode": "C", "categoryCode": "09", "address": "PO BOX 10508", "city": "THUNDER BAY", "province": "ON", "country": "CA", "postalCode": "P7B6T9", "twitter": "None", "instagram": "None", "facebook": "None", "youtube": "None", "website": "None", "summary": "None", "logo": "None", "latitude": 48.38168400000005, "longitude": -89.24550199999993}, "893257139RR0001": {"name": "THUNDER BAY MUSLIM RELIGIOUS ASSOCIATION", "designationCode": "C", "categoryCode": "60", "address": "591 JOHN STREET", "city": "THUNDER BAY", "province": "ON", "country": "CA", "postalCode": "P7B1Y5", "twitter": "None", "instagram": "None", "facebook": "None", "youtube": "None", "website": "None", "summary": "None", "logo": "None", "latitude": 48.43217097694627, "longitude": -89.24776023356792}, "119264174RR0018": {"name": "THUNDER BAY NATIVE APOSTOLATE", "designationCode": "C", "categoryCode": "38", "address": "451 SYNDICATE AVENUE NORTH", "city": "THUNDER BAY", "province": "ON", "country": "CA", "postalCode": "P7C3W9", "twitter": "None", "instagram": "None", "facebook": "None", "youtube": "None", "website": "None", "summary": "None", "logo": "None", "latitude": 48.391902419095175, "longitude": -89.24829137443001}, "896100658RR0001": {"name": "THUNDER BAY REGIONAL HEALTH SCIENCES CENTRE", "designationCode": "C", "categoryCode": "10", "address": "980 OLIVER ROAD", "city": "THUNDER BAY", "province": "ON", "country": "CA", "postalCode": "P7B6V4", "twitter": "None", "instagram": "None", "facebook": "None", "youtube": "None", "website": "None", "summary": "None", "logo": "None", "latitude": 48.42191106431444, "longitude": -89.26741731368831}, "888314648RR0001": {"name": "THUNDER BAY REGIONAL HEALTH SCIENCES FOUNDATION", "designationCode": "A", "categoryCode": "13", "address": "980 OLIVER ROAD", "city": "THUNDER BAY", "province": "ON", "country": "CA", "postalCode": "P7B6V4", "twitter": "None", "instagram": "None", "facebook": "None", "youtube": "None", "website": "None", "summary": "None", "logo": "None", "latitude": 48.42191106431444, "longitude": -89.26741731368831}, "859861460RR0001": {"name": "THUNDER BAY SAFE COMMUNITIES", "designationCode": "C", "categoryCode": "59", "address": "426 BALMORAL ST", "city": "THUNDER BAY", "province": "ON", "country": "CA", "postalCode": "P7C5G8", "twitter": "None", "instagram": "None", "facebook": "None", "youtube": "None", "website": "None", "summary": "None", "logo": "None", "latitude": 48.39063300000001, "longitude": -89.25816161388457}, "107797383RR0019": {"name": "THUNDER BAY SEVENTH-DAY ADVENTIST CHURCH", "designationCode": "C", "categoryCode": "41", "address": "1770 OLIVER RD", "city": "THUNDER BAY", "province": "ON", "country": "CA", "postalCode": "P7G1K6", "twitter": "None", "instagram": "None", "facebook": "None", "youtube": "None", "website": "None", "summary": "None", "logo": "None", "latitude": 48.41708745383431, "longitude": -89.31800177699232}, "105278352RR0001": {"name": "THUNDER BAY SEXUAL ASSAULT/SEXUAL ABUSE COUNSELLING AND CRISIS CENTRE", "designationCode": "C", "categoryCode": "09", "address": "385 MOONEY ST", "city": "THUNDER BAY", "province": "ON", "country": "CA", "postalCode": "P7B5L5", "twitter": "None", "instagram": "None", "facebook": "None", "youtube": "None", "website": "None", "summary": "None", "logo": "None", "latitude": 48.408290435840186, "longitude": -89.23941103478653}, "119264323RR0001": {"name": "THUNDER BAY SOCIETY OF BALLET AND DANCE", "designationCode": "C", "categoryCode": "22", "address": "418 VICTORIA AVE W", "city": "THUNDER BAY", "province": "ON", "country": "CA", "postalCode": "P7C1G7", "twitter": "None", "instagram": "None", "facebook": "None", "youtube": "None", "website": "None", "summary": "None", "logo": "None", "latitude": 48.38408648124544, "longitude": -89.286372}, "119264331RR0001": {"name": "THUNDER BAY SYMPHONY ORCHESTRA ASSOCIATION INC.", "designationCode": "C", "categoryCode": "22", "address": "P.O.BOX 29192", "city": "THUNDER BAY", "province": "ON", "country": "CA", "postalCode": "P7B6P9", "twitter": "None", "instagram": "None", "facebook": "None", "youtube": "None", "website": "None", "summary": "None", "logo": "None", "latitude": 48.38168400000005, "longitude": -89.24550199999993}, "891775918RR0001": {"name": "THUNDER BAY SYMPHONY YOUTH ORCHESTRA ASSOCIATION", "designationCode": "C", "categoryCode": "22", "address": "701-1184 ROLAND ST.", "city": "THUNDER BAY", "province": "ON", "country": "CA", "postalCode": "P7B5M4", "twitter": "None", "instagram": "None", "facebook": "None", "youtube": "None", "website": "None", "summary": "None", "logo": "None", "latitude": 48.400767, "longitude": -89.2569113605802}, "140614504RR0001": {"name": "THUNDER BAY THERAPEUTIC RIDING ASSOCIATION", "designationCode": "C", "categoryCode": "56", "address": "PO BOX 10583", "city": "THUNDER BAY", "province": "ON", "country": "CA", "postalCode": "P7B6T9", "twitter": "None", "instagram": "None", "facebook": "None", "youtube": "None", "website": "None", "summary": "None", "logo": "None", "latitude": 48.38168400000005, "longitude": -89.24550199999993}, "887271393RR0001": {"name": "THUNDER BAY UNITED CHURCH CAMPS, INCORPORATED", "designationCode": "C", "categoryCode": "56", "address": "234 MCCOMBER CRES", "city": "THUNDER BAY", "province": "ON", "country": "CA", "postalCode": "P7A7E8", "twitter": "None", "instagram": "None", "facebook": "None", "youtube": "None", "website": "None", "summary": "None", "logo": "None", "latitude": 48.452320581193305, "longitude": -89.24275453370088}, "108108630RR0001": {"name": "THUNDER BAY UNITED PENTECOSTAL CHURCH", "designationCode": "C", "categoryCode": "39", "address": "376 HALLAM ST", "city": "THUNDER BAY", "province": "ON", "country": "CA", "postalCode": "P7A1M3", "twitter": "None", "instagram": "None", "facebook": "None", "youtube": "None", "website": "None", "summary": "None", "logo": "None", "latitude": 48.46979550043268, "longitude": -89.186823}, "867099848RR0001": {"name": "THUNDER BAY WEAVERS & SPINNERS GUILD", "designationCode": "C", "categoryCode": "22", "address": "RR 2-732 RIVER ROAD", "city": "KAMINISTIQUIA", "province": "ON", "country": "CA", "postalCode": "P0T1X0", "twitter": "None", "instagram": "None", "facebook": "None", "youtube": "None", "website": "None", "summary": "None", "logo": "None", "latitude": 49.78827164883325, "longitude": -87.68909788888163}, "806702353RR0001": {"name": "THUNDER PLACE - LIVINGWELL HEALING ROOMS", "designationCode": "C", "categoryCode": "49", "address": "212 CAMELOT STREET", "city": "THUNDER BAY", "province": "ON", "country": "CA", "postalCode": "P7A4B1", "twitter": "None", "instagram": "None", "facebook": "None", "youtube": "None", "website": "None", "summary": "None", "logo": "None", "latitude": 48.43694028310915, "longitude": -89.2181503823072}, "888016698RR0001": {"name": "THUNDERBAY BREASTFEEDING COALITION", "designationCode": "C", "categoryCode": "11", "address": "625 REGINA AVE", "city": "THUNDER BAY", "province": "ON", "country": "CA", "postalCode": "P7B5C3", "twitter": "None", "instagram": "None", "facebook": "None", "youtube": "None", "website": "None", "summary": "None", "logo": "None", "latitude": 48.44692864028517, "longitude": -89.26601219926147}, "119264372RR0001": {"name": "THUNDERBIRD GOLF SOCIETY", "designationCode": "A", "categoryCode": "23", "address": "1200-666 BURRARD STREET", "city": "VANCOUVER", "province": "BC", "country": "CA", "postalCode": "V6C2X8", "twitter": "None", "instagram": "None", "facebook": "None", "youtube": "None", "website": "None", "summary": "None", "logo": "None", "latitude": 49.28527682817835, "longitude": -123.11971421339973}, "108108697RR0001": {"name": "THUNDERBIRD NEIGHBOURHOOD ASSOCIATION", "designationCode": "C", "categoryCode": "56", "address": "2311 CASSIAR STREET", "city": "VANCOUVER", "province": "BC", "country": "CA", "postalCode": "V5M3X3", "twitter": "None", "instagram": "None", "facebook": "None", "youtube": "None", "website": "None", "summary": "None", "logo": "None", "latitude": 49.26360566472388, "longitude": -123.03102358725188}, "134835438RR0001": {"name": "THUNDERCREEK REHABILITATION ASSOCIATION", "designationCode": "C", "categoryCode": "01", "address": "BOX 372", "city": "MOOSE JAW", "province": "SK", "country": "CA", "postalCode": "S6H4N9", "twitter": "None", "instagram": "None", "facebook": "None", "youtube": "None", "website": "None", "summary": "None", "logo": "None", "latitude": 50.39688300000006, "longitude": -105.53701399999993}, "119264406RR0001": {"name": "THURSO PROTESTANT CEMETERY,", "designationCode": "C", "categoryCode": "59", "address": "235 LA JEUNESSE", "city": "THURSO", "province": "QC", "country": "CA", "postalCode": "J0X3B0", "twitter": "None", "instagram": "None", "facebook": "None", "youtube": "None", "website": "None", "summary": "None", "logo": "None", "latitude": 45.60335700000006, "longitude": -75.23835199999994}, "897689881RR0001": {"name": "THYRAMAS CORPORATION", "designationCode": "C", "categoryCode": "56", "address": "PO BOX 512", "city": "CHARLOTTETOWN", "province": "PE", "country": "CA", "postalCode": "C1A7L1", "twitter": "None", "instagram": "None", "facebook": "None", "youtube": "None", "website": "None", "summary": "None", "logo": "None", "latitude": 46.23659700000006, "longitude": -63.12815449999994}, "863069464RR0001": {"name": "THYROID CANCER CANADA/CANCER DE LA THYROIDE CANADA", "designationCode": "C", "categoryCode": "11", "address": "308 MAIN ST", "city": "TORONTO", "province": "ON", "country": "CA", "postalCode": "M4C4X7", "twitter": "None", "instagram": "None", "facebook": "None", "youtube": "None", "website": "None", "summary": "None", "logo": "None", "latitude": 43.68847495836463, "longitude": -79.30198321553452}, "136143120RR0001": {"name": "TI AGIA MARIA AND ST DEMIANA THE MARTYR COPTIC ORTHODOX CHURCH OF MISSISSAUGA", "designationCode": "C", "categoryCode": "39", "address": "87 ELMHURST DR.", "city": "ETOBICOKE", "province": "ON", "country": "CA", "postalCode": "M9W2J8", "twitter": "None", "instagram": "None", "facebook": "None", "youtube": "None", "website": "None", "summary": "None", "logo": "None", "latitude": 43.722935100727256, "longitude": -79.5594438502511}, "859446528RR0001": {"name": "TI-LOUP AND THE POULE FOUNDATION IN SUPPORT OF KIDS WITH CANCER / LA FONDATION TI-LOUP ET LA POULE POUR LES ENFANTS ATTEINTS DU CANCER", "designationCode": "C", "categoryCode": "11", "address": "23 CHEMIN SCUVEE", "city": "VAL-DES-MONTS", "province": "QC", "country": "CA", "postalCode": "J8N1E2", "twitter": "None", "instagram": "None", "facebook": "None", "youtube": "None", "website": "None", "summary": "None", "logo": "None", "latitude": 45.72795839884007, "longitude": -75.76089349079608}, "869347740RR0001": {"name": "TIANG LIANG MAITREYA BUDDHA TEMPLE", "designationCode": "C", "categoryCode": "35", "address": "2665 MIDLAND AVENUE", "city": "TORONTO", "province": "ON", "country": "CA", "postalCode": "M1S1R8", "twitter": "None", "instagram": "None", "facebook": "None", "youtube": "None", "website": "None", "summary": "None", "logo": "None", "latitude": 43.791324202060096, "longitude": -79.28096791545983}, "817398472RR0001": {"name": "TIBETAN BON BUDDHIST SOCIETY", "designationCode": "C", "categoryCode": "35", "address": "12-390 COWICHAN AVE", "city": "COURTENAY", "province": "BC", "country": "CA", "postalCode": "V9N7T4", "twitter": "None", "instagram": "None", "facebook": "None", "youtube": "None", "website": "None", "summary": "None", "logo": "None", "latitude": 49.7075928577464, "longitude": -124.96971768351469}, "891715468RR0001": {"name": "TICKLEACE INCORPORATED", "designationCode": "C", "categoryCode": "21", "address": "PO BOX 126", "city": "VICTORIA COVE", "province": "NL", "country": "CA", "postalCode": "A0G4N0", "twitter": "None", "instagram": "None", "facebook": "None", "youtube": "None", "website": "None", "summary": "None", "logo": "None", "latitude": 48.79650150000002, "longitude": -54.2116575}, "861051613RR0001": {"name": "TIDAL ELEMENTS WHOLE SCHOOL SOCIETY", "designationCode": "C", "categoryCode": "20", "address": "LOT 14 TOWHILL RD             PO BOX 936", "city": "MASSET", "province": "BC", "country": "CA", "postalCode": "V0T1M0", "twitter": "None", "instagram": "None", "facebook": "None", "youtube": "None", "website": "None", "summary": "None", "logo": "None", "latitude": 54.0253421135092, "longitude": -132.08379610998227}, "119264455RR0001": {"name": "TIDAL VIEW MANOR", "designationCode": "C", "categoryCode": "01", "address": "339 PLEASANT ST", "city": "YARMOUTH", "province": "NS", "country": "CA", "postalCode": "B5A2K9", "twitter": "None", "instagram": "None", "facebook": "None", "youtube": "None", "website": "None", "summary": "None", "logo": "None", "latitude": 43.85029785672203, "longitude": -66.10497724171815}, "121711725RR0001": {"name": "TIDEMARK THEATRE SOCIETY", "designationCode": "C", "categoryCode": "22", "address": "1220 SHOPPERS ROW", "city": "CAMPBELL RIVER", "province": "BC", "country": "CA", "postalCode": "V9W2C8", "twitter": "None", "instagram": "None", "facebook": "None", "youtube": "None", "website": "None", "summary": "None", "logo": "None", "latitude": 50.026953259766984, "longitude": -125.2453066008419}, "868947797RR0001": {"name": "TIDES CANADA FOUNDATION", "designationCode": "A", "categoryCode": "59", "address": "400, 163 HASTINGS STREET WEST", "city": "VANCOUVER", "province": "BC", "country": "CA", "postalCode": "V6B1H5", "twitter": "None", "instagram": "None", "facebook": "None", "youtube": "None", "website": "None", "summary": "None", "logo": "None", "latitude": 49.28244172052617, "longitude": -123.10931395224776}, "130560188RR0001": {"name": "TIDES CANADA INITIATIVES SOCIETY", "designationCode": "C", "categoryCode": "52", "address": "400-163 HASTINGS ST W", "city": "VANCOUVER", "province": "BC", "country": "CA", "postalCode": "V6B1H5", "twitter": "None", "instagram": "None", "facebook": "None", "youtube": "None", "website": "None", "summary": "None", "logo": "None", "latitude": 49.28244172052617, "longitude": -123.10931395224776}, "119264471RR0001": {"name": "TIDNISH CROSS ROADS COMMUNITY ASSOCIATION", "designationCode": "C", "categoryCode": "56", "address": "4358 HIGHWAY 366", "city": "TIDNISH CROSS ROADS", "province": "NS", "country": "CA", "postalCode": "B4H3X9", "twitter": "None", "instagram": "None", "facebook": "None", "youtube": "None", "website": "None", "summary": "None", "logo": "None", "latitude": 45.98938268306257, "longitude": -64.01015492689216}, "889408977RR0001": {"name": "TIDNISH RIVERSIDE CEMETERY SOCIETY", "designationCode": "C", "categoryCode": "59", "address": "102 TIDNISH HEAD ROAD", "city": "TIONISH BRIDGE", "province": "NS", "country": "CA", "postalCode": "B4H3X9", "twitter": "None", "instagram": "None", "facebook": "None", "youtube": "None", "website": "None", "summary": "None", "logo": "None", "latitude": 45.98258341381505, "longitude": -64.04245132924619}, "119264489RR0001": {"name": "TIEFENGRUND ROSENORT MENNONITE CHURCH", "designationCode": "C", "categoryCode": "34", "address": "PO BOX 57", "city": "LAIRD", "province": "SK", "country": "CA", "postalCode": "S0K2H0", "twitter": "None", "instagram": "None", "facebook": "None", "youtube": "None", "website": "None", "summary": "None", "logo": "None", "latitude": 51.98684384385166, "longitude": -106.06182592132525}, "866263320RR0001": {"name": "TIFERES BAIS YAAKOV", "designationCode": "C", "categoryCode": "20", "address": "85 STORMOUNT AVE", "city": "TORONTO", "province": "ON", "country": "CA", "postalCode": "M5N2C3", "twitter": "None", "instagram": "None", "facebook": "None", "youtube": "None", "website": "None", "summary": "None", "logo": "None", "latitude": 43.71856180209486, "longitude": -79.4287544568354}, "131583932RR0001": {"name": "TIFERES ISRAEL CONGREGATION", "designationCode": "C", "categoryCode": "42", "address": "PO BOX 596", "city": "MONCTON", "province": "NB", "country": "CA", "postalCode": "E1C8L9", "twitter": "None", "instagram": "None", "facebook": "None", "youtube": "None", "website": "None", "summary": "None", "logo": "None", "latitude": 46.08834900000005, "longitude": -64.77824149999994}}