{"869120295RR0001": {"name": "FONDATION PIERRE ET GIS\u00c8LE LABERGE", "designationCode": "B", "categoryCode": "21", "address": "294, RUE BALLANTYNE", "city": "CHICOUTIMI", "province": "QC", "country": "CA", "postalCode": "G7J2L7", "twitter": "None", "instagram": "None", "facebook": "None", "youtube": "None", "website": "None", "summary": "None", "logo": "None", "latitude": 48.40621336329284, "longitude": -71.0800719923826}, "118924562RR0001": {"name": "FONDATION PIERRE JULES CREVIER", "designationCode": "B", "categoryCode": "23", "address": "2-116 RUE PRINCIPALE", "city": "GRANBY", "province": "QC", "country": "CA", "postalCode": "J2G2V2", "twitter": "None", "instagram": "None", "facebook": "None", "youtube": "None", "website": "None", "summary": "None", "logo": "None", "latitude": 45.39873128668718, "longitude": -72.72387335166475}, "119536050RR0001": {"name": "FONDATION PILLENIERE INC.", "designationCode": "B", "categoryCode": "03", "address": "625, VICTORIA", "city": "LONGUEUIL", "province": "QC", "country": "CA", "postalCode": "J4H2K2", "twitter": "None", "instagram": "None", "facebook": "None", "youtube": "None", "website": "None", "summary": "None", "logo": "None", "latitude": 45.50036635239251, "longitude": -73.50913012307883}, "118924596RR0001": {"name": "FONDATION PLACE DU ROYAUME INC.", "designationCode": "B", "categoryCode": "21", "address": "1401 BOUL TALBOT", "city": "CHICOUTIMI", "province": "QC", "country": "CA", "postalCode": "G7H5N6", "twitter": "None", "instagram": "None", "facebook": "None", "youtube": "None", "website": "None", "summary": "None", "logo": "None", "latitude": 48.40508700000001, "longitude": -71.05767662009023}, "896638400RR0001": {"name": "FONDATION PNDA", "designationCode": "A", "categoryCode": "23", "address": "5680, BOULEVARD ROSEMONT", "city": "MONTREAL", "province": "QC", "country": "CA", "postalCode": "H1T2H2", "twitter": "None", "instagram": "None", "facebook": "None", "youtube": "None", "website": "None", "summary": "None", "logo": "None", "latitude": 45.57629038048953, "longitude": -73.56148402905592}, "120270848RR0001": {"name": "FONDATION POLYVALENTE LE TRIOLET (SHERBROOKE) INC", "designationCode": "C", "categoryCode": "21", "address": "2965, BOUL. DE L'UNIVERSIT\u00c9", "city": "SHERBROOKE", "province": "QC", "country": "CA", "postalCode": "J1K2X6", "twitter": "None", "instagram": "None", "facebook": "None", "youtube": "None", "website": "None", "summary": "None", "logo": "None", "latitude": 45.37966006407557, "longitude": -71.94516673085981}, "139371041RR0001": {"name": "FONDATION POORNA-JNANA YOGA INC.", "designationCode": "B", "categoryCode": "39", "address": "1206 BOUL ST-LUC              SUITE 110", "city": "ST-JEAN-SUR-RICHELIEU", "province": "QC", "country": "CA", "postalCode": "J2Y1A5", "twitter": "None", "instagram": "None", "facebook": "None", "youtube": "None", "website": "None", "summary": "None", "logo": "None", "latitude": 45.378062491084364, "longitude": -73.37574283036146}, "856036348RR0001": {"name": "FONDATION PORTEURS D'AVENIR DU CFP DE LEVIS", "designationCode": "C", "categoryCode": "21", "address": "30 RUE VINCENT-CHAGNON", "city": "LEVIS", "province": "QC", "country": "CA", "postalCode": "G6V4V6", "twitter": "None", "instagram": "None", "facebook": "None", "youtube": "None", "website": "None", "summary": "None", "logo": "None", "latitude": 46.80586563636136, "longitude": -71.17222489708062}, "862674991RR0001": {"name": "FONDATION POUR ENFANTS MARC DENIS INC./MARC DENIS CHILDREN FOUNDATION INC.", "designationCode": "C", "categoryCode": "09", "address": "800-255 RUE RACINE EST", "city": "CHICOUTIMI", "province": "QC", "country": "CA", "postalCode": "G7H7L2", "twitter": "None", "instagram": "None", "facebook": "None", "youtube": "None", "website": "None", "summary": "None", "logo": "None"}, "871288429RR0001": {"name": "FONDATION POUR ENFANTS TREVOR WILLIAMS/TREVOR WILLIAMS KIDS FOUNDATION", "designationCode": "C", "categoryCode": "09", "address": "5520 PARE", "city": "MONTREAL", "province": "QC", "country": "CA", "postalCode": "H4P2M1", "twitter": "None", "instagram": "None", "facebook": "None", "youtube": "None", "website": "None", "summary": "None", "logo": "None", "latitude": 45.49243502328487, "longitude": -73.6600713514632}, "891615866RR0001": {"name": "FONDATION POUR L'ACCESSIBILITE DES SERVICES DE STIMULATION PEDAGOGIQUE AU PRESCOLAIRE (PASSPPORT)", "designationCode": "B", "categoryCode": "09", "address": "195 RUE MONT-PLAISANT", "city": "SHERBROOKE", "province": "QC", "country": "CA", "postalCode": "J1E2A5", "twitter": "None", "instagram": "None", "facebook": "None", "youtube": "None", "website": "None", "summary": "None", "logo": "None", "latitude": 45.40764549379627, "longitude": -71.88470510658429}, "134845213RR0001": {"name": "FONDATION POUR L'ART THERAPEUTIQUE ET L'ART BRUT AU QUEBEC", "designationCode": "C", "categoryCode": "09", "address": "4000 - 100 RUE SHERBROOKE E", "city": "MONTREAL", "province": "QC", "country": "CA", "postalCode": "H2X1C3", "twitter": "None", "instagram": "None", "facebook": "None", "youtube": "None", "website": "None", "summary": "None", "logo": "None", "latitude": 45.51470699730257, "longitude": -73.56848157816805}, "885273235RR0001": {"name": "FONDATION POUR L'AUTISME (REGION 03-12)", "designationCode": "A", "categoryCode": "09", "address": "1546 DU VOLT", "city": "QUEBEC", "province": "QC", "country": "CA", "postalCode": "G2L1J3", "twitter": "None", "instagram": "None", "facebook": "None", "youtube": "None", "website": "None", "summary": "None", "logo": "None", "latitude": 46.8921337554678, "longitude": -71.2534381831613}, "118924695RR0001": {"name": "FONDATION POUR L'AVANCEMENT DES \u00c9TUDES JURIDIQUES \u00c0 SHERBROOKE INC.", "designationCode": "B", "categoryCode": "21", "address": "FACULTE DE DROIT              2500 BOUL. DE L'UNIVERSITE", "city": "SHERBROOKE", "province": "QC", "country": "CA", "postalCode": "J1K2R1", "twitter": "None", "instagram": "None", "facebook": "None", "youtube": "None", "website": "None", "summary": "None", "logo": "None", "latitude": 45.381356656245536, "longitude": -71.93111333807403}, "897651022RR0001": {"name": "FONDATION POUR L'AVANCEMENT DU THEATRE FRANCOPHONE AU CANADA", "designationCode": "C", "categoryCode": "22", "address": "450 RUE RIDEAU                BUREAU 405", "city": "OTTAWA", "province": "ON", "country": "CA", "postalCode": "K1N5Z4", "twitter": "None", "instagram": "None", "facebook": "None", "youtube": "None", "website": "None", "summary": "None", "logo": "None", "latitude": 45.4308965636795, "longitude": -75.68052908852223}, "802327270RR0001": {"name": "FONDATION POUR L'AVANCEMENT ET LA RECHERCHE EN ORTHOPEDIE DE QUEBEC", "designationCode": "B", "categoryCode": "23", "address": "1401 18EME RUE                LOCAL B-2408", "city": "QU\u00c9BEC", "province": "QC", "country": "CA", "postalCode": "G1J1Z4", "twitter": "None", "instagram": "None", "facebook": "None", "youtube": "None", "website": "None", "summary": "None", "logo": "None", "latitude": 46.836314064977564, "longitude": -71.22554357949119}, "894123025RR0001": {"name": "FONDATION POUR L'ENCOURAGEMENT SCOLAIRE (FPES)", "designationCode": "C", "categoryCode": "09", "address": "201 DE PARENCH\u00c8RE", "city": "TERREBONNE", "province": "QC", "country": "CA", "postalCode": "J6W5V7", "twitter": "None", "instagram": "None", "facebook": "None", "youtube": "None", "website": "None", "summary": "None", "logo": "None", "latitude": 45.71100902054356, "longitude": -73.61281049497967}, "870876547RR0001": {"name": "FONDATION POUR L'ENSEIGNEMENT MUSICAL DE LA SEIGNEURIE", "designationCode": "C", "categoryCode": "21", "address": "645 RUE DU C\u00c9NACLE", "city": "QU\u00c9BEC", "province": "QC", "country": "CA", "postalCode": "G1E1B3", "twitter": "None", "instagram": "None", "facebook": "None", "youtube": "None", "website": "None", "summary": "None", "logo": "None", "latitude": 46.871654446044026, "longitude": -71.19202333389116}, "891092876RR0001": {"name": "FONDATION POUR LA CONSERVATION DU MONT YAMASKA", "designationCode": "C", "categoryCode": "52", "address": "C.P. 87 MONTAGNE N.", "city": "ST.PAUL D'ABBOTSFORD", "province": "QC", "country": "CA", "postalCode": "J0E1A0", "twitter": "None", "instagram": "None", "facebook": "None", "youtube": "None", "website": "None", "summary": "None", "logo": "None", "latitude": 45.45355448986816, "longitude": -72.88951910660293}, "138083837RR0001": {"name": "FONDATION POUR LA FORMATION PROFESSIONNELLE EN TRANSPORT ROUTIER DES MARCHANDISES DU QU\u00c9BEC", "designationCode": "A", "categoryCode": "23", "address": "200-6450 RUE NOTRE-DAME O", "city": "MONTREAL", "province": "QC", "country": "CA", "postalCode": "H4C1V4", "twitter": "None", "instagram": "None", "facebook": "None", "youtube": "None", "website": "None", "summary": "None", "logo": "None", "latitude": 45.46458845462303, "longitude": -73.60377495523645}, "135311306RR0001": {"name": "FONDATION POUR LA LANGUE FRAN\u00c7AISE", "designationCode": "B", "categoryCode": "23", "address": "82 RUE SHERBROOKE O", "city": "MONTREAL", "province": "QC", "country": "CA", "postalCode": "H2X1X3", "twitter": "None", "instagram": "None", "facebook": "None", "youtube": "None", "website": "None", "summary": "None", "logo": "None", "latitude": 45.511338604766635, "longitude": -73.56993002230392}, "891111197RR0001": {"name": "FONDATION POUR LA PAROISSE ST-PAUL INC.", "designationCode": "A", "categoryCode": "43", "address": "499 6E AVENUE", "city": "GRAND-MERE", "province": "QC", "country": "CA", "postalCode": "G9T5K8", "twitter": "None", "instagram": "None", "facebook": "None", "youtube": "None", "website": "None", "summary": "None", "logo": "None", "latitude": 46.62046643050379, "longitude": -72.68127208481523}, "133552521RR0001": {"name": "FONDATION POUR LA PR\u00c9SERVATION DE LA FAUNE ET DE LA CULTURE DE MONTMAGNY", "designationCode": "C", "categoryCode": "52", "address": "53, RUE DU BASSIN NORD", "city": "MONTMAGNY", "province": "QC", "country": "CA", "postalCode": "G5V4E5", "twitter": "None", "instagram": "None", "facebook": "None", "youtube": "None", "website": "None", "summary": "None", "logo": "None", "latitude": 46.99012736802471, "longitude": -70.5460397302497}, "815162342RR0001": {"name": "FONDATION POUR LA R\u00c9USSITE DES \u00c9L\u00c8VES DE LA COMMISSION SCOLAIRE DES LAURENTIDES", "designationCode": "C", "categoryCode": "21", "address": "13, RUE SAINT-ANTOINE", "city": "SAINTE-AGATHE-DES-MONTS", "province": "QC", "country": "CA", "postalCode": "J8C2C3", "twitter": "None", "instagram": "None", "facebook": "None", "youtube": "None", "website": "None", "summary": "None", "logo": "None", "latitude": 46.04812950207748, "longitude": -74.28743149648024}, "856972872RR0001": {"name": "FONDATION POUR LA RECHERCHE EN CHIRURGIE THORACIQUE DE MONTR\u00c9AL", "designationCode": "A", "categoryCode": "03", "address": "1560 RUE SHERBROOKE EST       SUITE D-8051", "city": "MONTREAL", "province": "QC", "country": "CA", "postalCode": "H2L4M1", "twitter": "None", "instagram": "None", "facebook": "None", "youtube": "None", "website": "None", "summary": "None", "logo": "None", "latitude": 45.52622422730685, "longitude": -73.56444791670056}, "101835163RR0001": {"name": "FONDATION POUR LA SANT\u00c9 DU NORD DE LANAUDI\u00c8RE", "designationCode": "A", "categoryCode": "13", "address": "1000, BOUL. STE-ANNE", "city": "ST CHARLES BORROMEE", "province": "QC", "country": "CA", "postalCode": "J6E6J2", "twitter": "None", "instagram": "None", "facebook": "None", "youtube": "None", "website": "None", "summary": "None", "logo": "None", "latitude": 46.03767297827174, "longitude": -73.45490341639764}, "140913211RR0001": {"name": "FONDATION POUR LA SAUVEGARDE DE LA TRUITE MOUCHET\u00c9E", "designationCode": "C", "categoryCode": "21", "address": "3 RTE TEWKESBURY", "city": "STONEHAM-ET-TEWKESBURY", "province": "QC", "country": "CA", "postalCode": "G3C2K7", "twitter": "None", "instagram": "None", "facebook": "None", "youtube": "None", "website": "None", "summary": "None", "logo": "None", "latitude": 46.98327020237721, "longitude": -71.36714677127951}, "885548222RR0001": {"name": "FONDATION POUR LE SAUMON DU GRAND GASPE - THE GREATER GASPE SALMON FOUNDATION", "designationCode": "C", "categoryCode": "54", "address": "25 BOULEVARD YORK EST", "city": "GASPE", "province": "QC", "country": "CA", "postalCode": "G4X2K9", "twitter": "None", "instagram": "None", "facebook": "None", "youtube": "None", "website": "None", "summary": "None", "logo": "None", "latitude": 48.823566182064795, "longitude": -64.47824499688426}, "889397576RR0001": {"name": "FONDATION POUR LES \u00c9TUDIANTS KHMERS (F.E.K.)", "designationCode": "C", "categoryCode": "09", "address": "3413 RUE ISABELLE", "city": "FABREVILLE", "province": "QC", "country": "CA", "postalCode": "H7P5C1", "twitter": "None", "instagram": "None", "facebook": "None", "youtube": "None", "website": "None", "summary": "None", "logo": "None", "latitude": 45.56686593337764, "longitude": -73.80396689719527}, "118924711RR0001": {"name": "FONDATION POUR LES A\u00ceN\u00c9S DE L'OUTAOUAIS", "designationCode": "A", "categoryCode": "23", "address": "331 BOUL CITE DES JEUNES", "city": "HULL", "province": "QC", "country": "CA", "postalCode": "J8Y6T3", "twitter": "None", "instagram": "None", "facebook": "None", "youtube": "None", "website": "None", "summary": "None", "logo": "None", "latitude": 45.45790048153392, "longitude": -75.76677589266497}, "882044589RR0001": {"name": "FONDATION POUR LES ARTS, LES LETTRES ET LA CULTURE EN OUTAOUAIS", "designationCode": "C", "categoryCode": "22", "address": "432 BOUL. ALEXANDRE-TACH\u00c9", "city": "GATINEAU", "province": "QC", "country": "CA", "postalCode": "J9A1M7", "twitter": "None", "instagram": "None", "facebook": "None", "youtube": "None", "website": "None", "summary": "None", "logo": "None", "latitude": 45.42116122848935, "longitude": -75.74853845992247}, "101836583RR0001": {"name": "FONDATION POUR LES DEFICIENTS MENTAUX (QU\u00c9BEC) INC. FOUNDATION FOR THE MENTALLY RETARDED (QU\u00c9BEC) INC.", "designationCode": "A", "categoryCode": "13", "address": "633 EST RUE CREMAZIE", "city": "MONTREAL", "province": "QC", "country": "CA", "postalCode": "H2M1L9", "twitter": "None", "instagram": "None", "facebook": "None", "youtube": "None", "website": "None", "summary": "None", "logo": "None", "latitude": 45.547439301142575, "longitude": -73.63739688372084}, "865366884RR0001": {"name": "FONDATION POUR LES ENFANTS DE L'EQUATEUR", "designationCode": "C", "categoryCode": "09", "address": "4409 RUE ST-HUBERT", "city": "MONTREAL", "province": "QC", "country": "CA", "postalCode": "H2J2X1", "twitter": "None", "instagram": "None", "facebook": "None", "youtube": "None", "website": "None", "summary": "None", "logo": "None", "latitude": 45.52510531253952, "longitude": -73.58004170938901}, "869435123RR0001": {"name": "FONDATION POUR LES ENFANTS J.P. METAL AMERICA/J.P. METAL AMERICA CHILDREN FOUNDATION", "designationCode": "B", "categoryCode": "03", "address": "7335 HENRI-BOURASSA EST", "city": "MONTREAL", "province": "QC", "country": "CA", "postalCode": "H1E3T5", "twitter": "None", "instagram": "None", "facebook": "None", "youtube": "None", "website": "None", "summary": "None", "logo": "None", "latitude": 45.61885678215686, "longitude": -73.59123100920391}, "118924737RR0001": {"name": "FONDATION POUR LES PERSONNES D\u00c9FICIENTES INTELLECTUELLES DU BAS ST-LAURENT", "designationCode": "C", "categoryCode": "11", "address": "274 RUE POTVIN", "city": "RIMOUSKI", "province": "QC", "country": "CA", "postalCode": "G5L7P5", "twitter": "None", "instagram": "None", "facebook": "None", "youtube": "None", "website": "None", "summary": "None", "logo": "None", "latitude": 48.44466034335487, "longitude": -68.52623443834065}, "118924745RR0001": {"name": "FONDATION POUR LES VOCATIONS DU S\u00c9MINAIRE MARIE-REINE DU CLERG\u00c9 INC.", "designationCode": "B", "categoryCode": "21", "address": "602, RUE RACINE EST", "city": "CHICOUTIMI", "province": "QC", "country": "CA", "postalCode": "G7H1V1", "twitter": "None", "instagram": "None", "facebook": "None", "youtube": "None", "website": "None", "summary": "None", "logo": "None", "latitude": 48.42955548009162, "longitude": -71.04963086081135}, "886981893RR0001": {"name": "FONDATION POUR TOUS LES ENFANTS DU MONDE", "designationCode": "C", "categoryCode": "09", "address": "201 RUE SAINT-ZOTIQUE E", "city": "MONTREAL", "province": "QC", "country": "CA", "postalCode": "H2S1L2", "twitter": "None", "instagram": "None", "facebook": "None", "youtube": "None", "website": "None", "summary": "None", "logo": "None", "latitude": 45.53359187344907, "longitude": -73.61031529075521}, "892909508RR0001": {"name": "FONDATION POUR VIVRE UN HERITAGE / TO LIVE AN HERITAGE FOUNDATION", "designationCode": "C", "categoryCode": "03", "address": "23 RUE LACOMBE", "city": "OKA", "province": "QC", "country": "CA", "postalCode": "J0N1E0", "twitter": "None", "instagram": "None", "facebook": "None", "youtube": "None", "website": "None", "summary": "None", "logo": "None", "latitude": 45.46550870719597, "longitude": -74.07652765762609}, "888189248RR0001": {"name": "FONDATION PR\u00c9VENTION DU SUICIDE DU BAS ST-LAURENT", "designationCode": "A", "categoryCode": "03", "address": "172 ST-JACQUES", "city": "RIMOUSKI", "province": "QC", "country": "CA", "postalCode": "G5L4G8", "twitter": "None", "instagram": "None", "facebook": "None", "youtube": "None", "website": "None", "summary": "None", "logo": "None", "latitude": 48.44588727866577, "longitude": -68.53212192105705}, "857482830RR0001": {"name": "FONDATION PREFONTAINE-HUSHION", "designationCode": "B", "categoryCode": "03", "address": "2407 - 1010 RUE SHERBROOKE O", "city": "MONTREAL", "province": "QC", "country": "CA", "postalCode": "H3A2R7", "twitter": "None", "instagram": "None", "facebook": "None", "youtube": "None", "website": "None", "summary": "None", "logo": "None", "latitude": 45.50420051526984, "longitude": -73.57425178965626}, "810021949RR0001": {"name": "FONDATION QU\u00c9B\u00c9COISE DE LA REL\u00c8VE EN TOURISME", "designationCode": "C", "categoryCode": "21", "address": "1402 - 80 RUE BERLIOZ", "city": "VERDUN", "province": "QC", "country": "CA", "postalCode": "H3E1N9", "twitter": "None", "instagram": "None", "facebook": "None", "youtube": "None", "website": "None", "summary": "None", "logo": "None", "latitude": 45.46476013093702, "longitude": -73.53989762718611}, "875118911RR0001": {"name": "FONDATION QU\u00c9B\u00c9COISE DES MALADIES DE L'ANXI\u00c9T\u00c9 (F.Q.M.A.)", "designationCode": "A", "categoryCode": "13", "address": "232 - 1085 BOUL. STE-FOY", "city": "LONGUEUIL", "province": "QC", "country": "CA", "postalCode": "J4K1W7", "twitter": "None", "instagram": "None", "facebook": "None", "youtube": "None", "website": "None", "summary": "None", "logo": "None", "latitude": 45.51864024424375, "longitude": -73.49738941468043}, "862054111RR0001": {"name": "FONDATION QU\u00c9B\u00c9COISE DU SCOUTISME", "designationCode": "A", "categoryCode": "03", "address": "7331, ST-DENIS", "city": "MONTREAL", "province": "QC", "country": "CA", "postalCode": "H2R2E5", "twitter": "None", "instagram": "None", "facebook": "None", "youtube": "None", "website": "None", "summary": "None", "logo": "None", "latitude": 45.53926088816424, "longitude": -73.6174749822264}, "888046190RR0001": {"name": "FONDATION QU\u00c9B\u00c9COISE ORTHOP\u00c9DIE-OUTREMER", "designationCode": "C", "categoryCode": "19", "address": "C.P. 216 SUCCURSALE DESJARDINS", "city": "MONTREAL", "province": "QC", "country": "CA", "postalCode": "H5B1G8", "twitter": "None", "instagram": "None", "facebook": "None", "youtube": "None", "website": "None", "summary": "None", "logo": "None", "latitude": 45.51239400000006, "longitude": -73.55469049999994}, "118924802RR0001": {"name": "FONDATION QU\u00c9B\u00c9COISE POUR LA PROTECTION DU PATRIMOINE NATUREL", "designationCode": "A", "categoryCode": "53", "address": "C.P. 42", "city": "ST-AUGUSTIN-DE-DESMAURES", "province": "QC", "country": "CA", "postalCode": "G3A1V9", "twitter": "None", "instagram": "None", "facebook": "None", "youtube": "None", "website": "None", "summary": "None", "logo": "None", "latitude": 46.75096500000005, "longitude": -71.44335799999993}, "873129274RR0001": {"name": "FONDATION QU\u00c9B\u00c9COISE POUR LA R\u00c9USSITE ACAD\u00c9MIQUE QU\u00c9BEC FOUNDATION FOR ACADEMIC ACHIEVEMENT", "designationCode": "C", "categoryCode": "21", "address": "4350 WELLINGTON STREET", "city": "VERDUN", "province": "QC", "country": "CA", "postalCode": "H4G1W4", "twitter": "None", "instagram": "None", "facebook": "None", "youtube": "None", "website": "None", "summary": "None", "logo": "None", "latitude": 45.46039270552254, "longitude": -73.56719313624579}, "874181829RR0001": {"name": "FONDATION QU\u00c9B\u00c9COISE POUR LA S\u00c9CURIT\u00c9 ET LE BIEN-\u00caTRE DES ANIMAUX", "designationCode": "C", "categoryCode": "54", "address": "1 PLACE VILLE MARIE,          BUREAU 2500", "city": "MONTR\u00c9AL", "province": "QC", "country": "CA", "postalCode": "H3B1R1", "twitter": "None", "instagram": "None", "facebook": "None", "youtube": "None", "website": "None", "summary": "None", "logo": "None", "latitude": 45.50188724476333, "longitude": -73.56787382018557}, "889367371RR0001": {"name": "FONDATION QU\u00c9BEC JEUNES", "designationCode": "A", "categoryCode": "03", "address": "804 - 55 AV DU MONT-ROYAL O", "city": "MONTREAL", "province": "QC", "country": "CA", "postalCode": "H2T2S6", "twitter": "None", "instagram": "None", "facebook": "None", "youtube": "None", "website": "None", "summary": "None", "logo": "None", "latitude": 45.51880900855456, "longitude": -73.58749603266486}, "838203750RR0001": {"name": "FONDATION QU\u00c9BEC-HA\u00cfTI POUR UNE SCOLARISATION UNIVERSELLE DE QUALIT\u00c9 (QHASUQ)", "designationCode": "C", "categoryCode": "21", "address": "10000 RUE LAJEUNESSE          BUREAU 150", "city": "MONTREAL", "province": "QC", "country": "CA", "postalCode": "H3L2E1", "twitter": "None", "instagram": "None", "facebook": "None", "youtube": "None", "website": "None", "summary": "None", "logo": "None", "latitude": 45.552396060765304, "longitude": -73.65860135013553}, "891975278RR0001": {"name": "FONDATION QUEBEC DANS LE MONDE", "designationCode": "A", "categoryCode": "23", "address": "200 - 511 RUE SAINT-JOSEPH E", "city": "QUEBEC", "province": "QC", "country": "CA", "postalCode": "G1K3B7", "twitter": "None", "instagram": "None", "facebook": "None", "youtube": "None", "website": "None", "summary": "None", "logo": "None", "latitude": 46.814172805930426, "longitude": -71.224582013745}, "891507667RR0001": {"name": "FONDATION QUEBEC-LABRADOR DU CANADA INC QUEBEC-LABRADOR FOUNDATION (CANADA) INC", "designationCode": "A", "categoryCode": "03", "address": "341 - 606 RUE CATHCART", "city": "MONTREAL", "province": "QC", "country": "CA", "postalCode": "H3B1K9", "twitter": "None", "instagram": "None", "facebook": "None", "youtube": "None", "website": "None", "summary": "None", "logo": "None", "latitude": 45.50352944489019, "longitude": -73.56822896984849}, "875263568RR0001": {"name": "FONDATION QUEBECOISE D'AIDE AUX DEFAVORISES FQAD INC./QUEBECFOUNDATION FOR THE UNDERPRIVILEGED QFU INC.", "designationCode": "C", "categoryCode": "09", "address": "5112, RUE BELLECHASSE", "city": "MONTREAL", "province": "QC", "country": "CA", "postalCode": "H1T2A4", "twitter": "None", "instagram": "None", "facebook": "None", "youtube": "None", "website": "None", "summary": "None", "logo": "None", "latitude": 45.57138104134693, "longitude": -73.56717749290222}, "118924760RR0001": {"name": "FONDATION QUEBECOISE DE LA MALADIE COELIAQUE / QUEBEC CELIAC FOUNDATION", "designationCode": "C", "categoryCode": "19", "address": "4837 BOYER                    BUREAU 230", "city": "MONTREAL", "province": "QC", "country": "CA", "postalCode": "H2J3E6", "twitter": "None", "instagram": "None", "facebook": "None", "youtube": "None", "website": "None", "summary": "None", "logo": "None", "latitude": 45.52928927589581, "longitude": -73.58399111114326}, "875855736RR0001": {"name": "FONDATION QUEBECOISE DES ENFANTS TEMOINS DE VIOLENCE CONJUGALE", "designationCode": "C", "categoryCode": "09", "address": "C.P. 34", "city": "CHAMBLY", "province": "QC", "country": "CA", "postalCode": "J3L4B1", "twitter": "None", "instagram": "None", "facebook": "None", "youtube": "None", "website": "None", "summary": "None", "logo": "None", "latitude": 45.44743093518795, "longitude": -73.2683094005233}, "107391963RR0001": {"name": "FONDATION QUEBECOISE DU CANCER INC.", "designationCode": "C", "categoryCode": "11", "address": "2075 RUE DE CHAMPLAIN", "city": "MONTREAL", "province": "QC", "country": "CA", "postalCode": "H2L2T1", "twitter": "None", "instagram": "None", "facebook": "None", "youtube": "None", "website": "None", "summary": "None", "logo": "None", "latitude": 45.525493141006336, "longitude": -73.56079990784242}, "891465593RR0001": {"name": "FONDATION QUEBECOISE DU PATRIMOINE / HERITAGE QUEBEC FOUNDATION", "designationCode": "A", "categoryCode": "52", "address": "82, GRANDE-ALLEE OUEST", "city": "QUEBEC", "province": "QC", "country": "CA", "postalCode": "G1R2G6", "twitter": "None", "instagram": "None", "facebook": "None", "youtube": "None", "website": "None", "summary": "None", "logo": "None", "latitude": 46.802253539846376, "longitude": -71.22368827104837}, "887917664RR0001": {"name": "FONDATION QUEBECOISE POUR L'EDUCATION MUSICALE/QUEBEC MUSICAL EDUCATION FOUNDATION", "designationCode": "C", "categoryCode": "21", "address": "1034 #3 BOUL. FORT ST-LOUIS", "city": "BOUCHERVILLE", "province": "QC", "country": "CA", "postalCode": "J4B0G5", "twitter": "None", "instagram": "None", "facebook": "None", "youtube": "None", "website": "None", "summary": "None", "logo": "None", "latitude": 45.631848240319925, "longitude": -73.44089044936317}, "134698356RR0001": {"name": "FONDATION QUEBECOISE POUR L'ENFANCE F.Q.E.", "designationCode": "C", "categoryCode": "21", "address": "879, BOUL. MANSEAU", "city": "JOLIETTE", "province": "QC", "country": "CA", "postalCode": "J6E3G4", "twitter": "None", "instagram": "None", "facebook": "None", "youtube": "None", "website": "None", "summary": "None", "logo": "None", "latitude": 46.02028310517067, "longitude": -73.44670331554062}, "899119382RR0001": {"name": "FONDATION QUEBECOISE POUR LA SANTE VISUELLE", "designationCode": "A", "categoryCode": "20", "address": "1255 BOUL ROBERT-BOURASSA     BUREAU 217", "city": "MONTREAL", "province": "QC", "country": "CA", "postalCode": "H3B3B2", "twitter": "None", "instagram": "None", "facebook": "None", "youtube": "None", "website": "None", "summary": "None", "logo": "None", "latitude": 45.50299208272252, "longitude": -73.56936952149584}, "885202614RR0001": {"name": "FONDATION QUEBECOISE POUR LE TROUBLE OBSESSIONNEL-COMPULSIF INC./QUEBEC OBSESSIVE COMPULSIVE DISORDER FOUNDATION INC.", "designationCode": "C", "categoryCode": "11", "address": "1035 RUE ETIENNE-DUMETZ", "city": "QUEBEC", "province": "QC", "country": "CA", "postalCode": "G1Y1C3", "twitter": "None", "instagram": "None", "facebook": "None", "youtube": "None", "website": "None", "summary": "None", "logo": "None", "latitude": 46.76603842076859, "longitude": -71.35624293545513}, "861253615RR0001": {"name": "FONDATION R\u00c9AL D'ANJOU", "designationCode": "B", "categoryCode": "03", "address": "2777, CHEMIN GEORGEVILLE      APP. 4", "city": "MAGOG", "province": "QC", "country": "CA", "postalCode": "J1X3W4", "twitter": "None", "instagram": "None", "facebook": "None", "youtube": "None", "website": "None", "summary": "None", "logo": "None", "latitude": 45.194595794280495, "longitude": -72.2033729161296}, "864422738RR0001": {"name": "FONDATION R\u00c9AL-LAVERTU", "designationCode": "C", "categoryCode": "11", "address": "493, RUE PRINCIPALE", "city": "HAM-NORD", "province": "QC", "country": "CA", "postalCode": "G0P1A0", "twitter": "None", "instagram": "None", "facebook": "None", "youtube": "None", "website": "None", "summary": "None", "logo": "None", "latitude": 45.904099643603395, "longitude": -71.64751258301096}, "134154095RR0001": {"name": "FONDATION R\u00c9SIDENCE DENIS-MARCOTTE", "designationCode": "A", "categoryCode": "03", "address": "56, 9\u00c8ME RUE SUD", "city": "THETFORD-MINES", "province": "QC", "country": "CA", "postalCode": "G6G5H6", "twitter": "None", "instagram": "None", "facebook": "None", "youtube": "None", "website": "None", "summary": "None", "logo": "None", "latitude": 46.103923667753634, "longitude": -71.28127639442532}, "803676360RR0001": {"name": "FONDATION R\u00c9SIDENCE RIVIERA", "designationCode": "B", "categoryCode": "09", "address": "2999 BOULEVARD NOTRE-DAME", "city": "LAVAL", "province": "QC", "country": "CA", "postalCode": "H7V4C4", "twitter": "None", "instagram": "None", "facebook": "None", "youtube": "None", "website": "None", "summary": "None", "logo": "None", "latitude": 45.54830920791713, "longitude": -73.73370304030772}, "891124778RR0001": {"name": "FONDATION R\u00c9SIDENCE SAINT-JOSEPH", "designationCode": "C", "categoryCode": "09", "address": "491, BOUL. PERRON             C.P. 10", "city": "MARIA", "province": "QC", "country": "CA", "postalCode": "G0C1Y0", "twitter": "None", "instagram": "None", "facebook": "None", "youtube": "None", "website": "None", "summary": "None", "logo": "None", "latitude": 48.17251650578488, "longitude": -65.98406552313952}, "895954857RR0001": {"name": "FONDATION R\u00c9USSITE JEUNESSE INC.", "designationCode": "C", "categoryCode": "09", "address": "1195 RUE DE LAVIGERIE         BUREAU 170", "city": "SAINTE-FOY", "province": "QC", "country": "CA", "postalCode": "G1V4N3", "twitter": "None", "instagram": "None", "facebook": "None", "youtube": "None", "website": "None", "summary": "None", "logo": "None", "latitude": 46.77846900000006, "longitude": -71.29340449999994}, "891248833RR0001": {"name": "FONDATION R\u00c9VEIL INC.", "designationCode": "A", "categoryCode": "03", "address": "155-P RUE ST-MARCEL", "city": "DRUMMONDVILLE", "province": "QC", "country": "CA", "postalCode": "J2B2E1", "twitter": "None", "instagram": "None", "facebook": "None", "youtube": "None", "website": "None", "summary": "None", "logo": "None", "latitude": 45.874928412401395, "longitude": -72.4883753158864}, "877230003RR0001": {"name": "FONDATION RABBIN YAKOV YITZCHOK NEUMANN / RABBI YAKOV YITZCHOK NEUMANN FOUNDATION", "designationCode": "A", "categoryCode": "23", "address": "5314 RUE HUTCHISON", "city": "OUTREMONT", "province": "QC", "country": "CA", "postalCode": "H2V4B3", "twitter": "None", "instagram": "None", "facebook": "None", "youtube": "None", "website": "None", "summary": "None", "logo": "None", "latitude": 45.520223764066166, "longitude": -73.599965935628}, "141003533RR0001": {"name": "FONDATION RADIO GALILEE", "designationCode": "C", "categoryCode": "29", "address": "3196 CH. SAINTE-FOY", "city": "SAINTE-FOY", "province": "QC", "country": "CA", "postalCode": "G1X1R4", "twitter": "None", "instagram": "None", "facebook": "None", "youtube": "None", "website": "None", "summary": "None", "logo": "None", "latitude": 46.77301237220833, "longitude": -71.31623760202531}, "839588761RR0001": {"name": "FONDATION RAPIDES-DESCH\u00caNES", "designationCode": "C", "categoryCode": "21", "address": "70 RUE GERALD-DUBOIS", "city": "GATINEAU", "province": "QC", "country": "CA", "postalCode": "J9H7C6", "twitter": "None", "instagram": "None", "facebook": "None", "youtube": "None", "website": "None", "summary": "None", "logo": "None", "latitude": 45.38870402775694, "longitude": -75.8142828251199}, "890322076RR0001": {"name": "FONDATION RAYMOND BEAUDET INC.", "designationCode": "A", "categoryCode": "23", "address": "222 RUE SAINT-MARCEL", "city": "DRUMMONDVILLE", "province": "QC", "country": "CA", "postalCode": "J2B2E4", "twitter": "None", "instagram": "None", "facebook": "None", "youtube": "None", "website": "None", "summary": "None", "logo": "None", "latitude": 45.874100543741505, "longitude": -72.4867882833403}, "887387439RR0001": {"name": "FONDATION RAYMOND GAUDREAULT", "designationCode": "B", "categoryCode": "03", "address": "540 RUE VISITATION", "city": "ST-CHARLES BORROMEE", "province": "QC", "country": "CA", "postalCode": "J6E4P3", "twitter": "None", "instagram": "None", "facebook": "None", "youtube": "None", "website": "None", "summary": "None", "logo": "None", "latitude": 46.04835070748443, "longitude": -73.4628798667553}, "878776913RR0001": {"name": "FONDATION RAYMOND ROY INC.", "designationCode": "C", "categoryCode": "03", "address": "91 RUE D'ASTON", "city": "VICTORIAVILLE", "province": "QC", "country": "CA", "postalCode": "G6P9N9", "twitter": "None", "instagram": "None", "facebook": "None", "youtube": "None", "website": "None", "summary": "None", "logo": "None", "latitude": 46.06313956506448, "longitude": -71.96488430988512}, "869150771RR0001": {"name": "FONDATION RAYONS D'ESPOIR", "designationCode": "C", "categoryCode": "19", "address": "10 RUE ALPHONSE", "city": "ST-FABIEN DE PANET", "province": "QC", "country": "CA", "postalCode": "G0R2J0", "twitter": "None", "instagram": "None", "facebook": "None", "youtube": "None", "website": "None", "summary": "None", "logo": "None", "latitude": 46.657337802411966, "longitude": -70.15213772525804}, "118920933RR0001": {"name": "FONDATION REGIONALE POUR LA SANT\u00c9 DE TROIS-RIVI\u00c8RES (RSTR)", "designationCode": "A", "categoryCode": "11", "address": "731 RUE SAINTE-JULIE", "city": "TROIS-RIVIERES", "province": "QC", "country": "CA", "postalCode": "G9A1Y1", "twitter": "None", "instagram": "None", "facebook": "None", "youtube": "None", "website": "None", "summary": "None", "logo": "None", "latitude": 46.347503336344, "longitude": -72.54567383368867}, "892506361RR0001": {"name": "FONDATION REN\u00c9 MALO", "designationCode": "B", "categoryCode": "56", "address": "4446 BOUL. SAINT-LAURENT", "city": "MONTREAL", "province": "QC", "country": "CA", "postalCode": "H2W1Z5", "twitter": "None", "instagram": "None", "facebook": "None", "youtube": "None", "website": "None", "summary": "None", "logo": "None", "latitude": 45.519846822349955, "longitude": -73.58587546116324}, "890854169RR0001": {"name": "FONDATION RENE BUSSIERES", "designationCode": "B", "categoryCode": "03", "address": "2145 JEAN TALON SUD", "city": "SAINTE-FOY", "province": "QC", "country": "CA", "postalCode": "G1N2G2", "twitter": "None", "instagram": "None", "facebook": "None", "youtube": "None", "website": "None", "summary": "None", "logo": "None", "latitude": 46.79511000000005, "longitude": -71.27453599999993}, "118924885RR0001": {"name": "FONDATION RENE PAGEAU INC.", "designationCode": "A", "categoryCode": "23", "address": "44 JUGE GUIBAULT", "city": "ST-CHARLES-BORROMEE", "province": "QC", "country": "CA", "postalCode": "J6E4V6", "twitter": "None", "instagram": "None", "facebook": "None", "youtube": "None", "website": "None", "summary": "None", "logo": "None", "latitude": 46.03682340769821, "longitude": -73.4489596392173}, "856561998RR0001": {"name": "FONDATION RENE PAQUET POUR L'HORTICULTURE ET L'ECOLOGIE", "designationCode": "C", "categoryCode": "56", "address": "270, RUE SOPHIA MELVIN", "city": "QUEBEC", "province": "QC", "country": "CA", "postalCode": "G2M0K2", "twitter": "None", "instagram": "None", "facebook": "None", "youtube": "None", "website": "None", "summary": "None", "logo": "None", "latitude": 46.90256259562001, "longitude": -71.29528793225248}, "868546136RR0001": {"name": "FONDATION RENE VERRIER", "designationCode": "C", "categoryCode": "09", "address": "2200 BOUL ALLARD", "city": "DRUMMONDVILLE", "province": "QC", "country": "CA", "postalCode": "J2B8B5", "twitter": "None", "instagram": "None", "facebook": "None", "youtube": "None", "website": "None", "summary": "None", "logo": "None", "latitude": 45.85958746378896, "longitude": -72.44951005482136}, "845521129RR0001": {"name": "FONDATION RENO-JOUETS", "designationCode": "C", "categoryCode": "09", "address": "2699H AV. WATT", "city": "QUEBEC", "province": "QC", "country": "CA", "postalCode": "G1P3X3", "twitter": "None", "instagram": "None", "facebook": "None", "youtube": "None", "website": "None", "summary": "None", "logo": "None", "latitude": 46.787037893331686, "longitude": -71.30563229742756}, "888055027RR0001": {"name": "FONDATION RESIDENCE PRESCOTT-RUSSELL RESIDENCE FOUNDATION", "designationCode": "A", "categoryCode": "03", "address": "1020, BOULEVARD CARTIER", "city": "HAWKESBURY", "province": "ON", "country": "CA", "postalCode": "K6A1W8", "twitter": "None", "instagram": "None", "facebook": "None", "youtube": "None", "website": "None", "summary": "None", "logo": "None", "latitude": 45.600336106914554, "longitude": -74.61256466117997}, "120598339RR0001": {"name": "FONDATION RICHARD ADAMS INC.", "designationCode": "A", "categoryCode": "53", "address": "C.P. 308", "city": "CAUSAPSCAL", "province": "QC", "country": "CA", "postalCode": "G0J1J0", "twitter": "None", "instagram": "None", "facebook": "None", "youtube": "None", "website": "None", "summary": "None", "logo": "None", "latitude": 48.35813100000006, "longitude": -67.22552599999993}, "118924943RR0001": {"name": "FONDATION RICHELIEU CENTRE MAURICIE", "designationCode": "A", "categoryCode": "03", "address": "700 14E AV", "city": "SHAWINIGAN", "province": "QC", "country": "CA", "postalCode": "G9T1H8", "twitter": "None", "instagram": "None", "facebook": "None", "youtube": "None", "website": "None", "summary": "None", "logo": "None", "latitude": 46.618071044145545, "longitude": -72.6991870057128}, "138697057RR0001": {"name": "FONDATION RICHELIEU DE JOLIETTE INC.", "designationCode": "A", "categoryCode": "03", "address": "160 RUE HELENE-BOULLE         C.P. 630", "city": "JOLIETTE", "province": "QC", "country": "CA", "postalCode": "J6E7N3", "twitter": "None", "instagram": "None", "facebook": "None", "youtube": "None", "website": "None", "summary": "None", "logo": "None", "latitude": 46.03144212796459, "longitude": -73.4407165355472}, "891824641RR0001": {"name": "FONDATION RICHELIEU DE ST-BRUNO", "designationCode": "A", "categoryCode": "09", "address": "1741 RUE MONTARVILLE", "city": "SAINT-BRUNO", "province": "QC", "country": "CA", "postalCode": "J3V3V2", "twitter": "None", "instagram": "None", "facebook": "None", "youtube": "None", "website": "None", "summary": "None", "logo": "None", "latitude": 45.52354813737097, "longitude": -73.33655043686876}, "829327162RR0001": {"name": "FONDATION RICHELIEU KENOGAMI", "designationCode": "A", "categoryCode": "63", "address": "CASE POSTAL 2055", "city": "JONQUI\u00c8RE", "province": "QC", "country": "CA", "postalCode": "G7X7X6", "twitter": "None", "instagram": "None", "facebook": "None", "youtube": "None", "website": "None", "summary": "None", "logo": "None", "latitude": 48.41346300000005, "longitude": -71.25355249999993}, "118924927RR0001": {"name": "FONDATION RICHELIEU MONTREAL", "designationCode": "A", "categoryCode": "03", "address": "CP 32267 CSP SAINT-ANDRE", "city": "MONTREAL", "province": "QC", "country": "CA", "postalCode": "H2L4Y5", "twitter": "None", "instagram": "None", "facebook": "None", "youtube": "None", "website": "None", "summary": "None", "logo": "None", "latitude": 45.518293863210474, "longitude": -73.56232569710893}, "889762308RR0001": {"name": "FONDATION RICHELIEU ST-J\u00c9R\u00d4ME INC.", "designationCode": "A", "categoryCode": "03", "address": "C.P. 71", "city": "ST-JEROME", "province": "QC", "country": "CA", "postalCode": "J7Z5T7", "twitter": "None", "instagram": "None", "facebook": "None", "youtube": "None", "website": "None", "summary": "None", "logo": "None"}, "118924950RR0001": {"name": "FONDATION RICHELIEU TROIS-RIVIERES", "designationCode": "C", "categoryCode": "09", "address": "C.P. 1004", "city": "TROIS-RIVIERES", "province": "QC", "country": "CA", "postalCode": "G9A5K2", "twitter": "None", "instagram": "None", "facebook": "None", "youtube": "None", "website": "None", "summary": "None", "logo": "None", "latitude": 46.34016900000006, "longitude": -72.54503449999993}, "888813045RR0001": {"name": "FONDATION RICHELIEU VERDUN", "designationCode": "A", "categoryCode": "63", "address": "C.P.97531 4061 RUE WELLINGTON", "city": "VERDUN", "province": "QC", "country": "CA", "postalCode": "H4G2M6", "twitter": "None", "instagram": "None", "facebook": "None", "youtube": "None", "website": "None", "summary": "None", "logo": "None", "latitude": 45.46301688121068, "longitude": -73.56706132321533}, "128791449RR0001": {"name": "FONDATION RICHELIEU-INTERNATIONAL", "designationCode": "A", "categoryCode": "03", "address": "1010 RUE POLYTEK              UNITE 25", "city": "OTTAWA", "province": "ON", "country": "CA", "postalCode": "K1J9J1", "twitter": "None", "instagram": "None", "facebook": "None", "youtube": "None", "website": "None", "summary": "None", "logo": "None", "latitude": 45.45644500911796, "longitude": -75.5849551816321}, "870675709RR0001": {"name": "FONDATION RIOPELLE-VACHON", "designationCode": "B", "categoryCode": "53", "address": "210 CHEMIN DU ROI", "city": "ILE-AUX-GRUES", "province": "QC", "country": "CA", "postalCode": "G0R1P0", "twitter": "None", "instagram": "None", "facebook": "None", "youtube": "None", "website": "None", "summary": "None", "logo": "None", "latitude": 47.065480536730625, "longitude": -70.54655032422588}, "136085362RR0001": {"name": "FONDATION RIVIER", "designationCode": "C", "categoryCode": "47", "address": "460 ST-ALFRED", "city": "DRUMMONDVILLE", "province": "QC", "country": "CA", "postalCode": "J2C4A7", "twitter": "None", "instagram": "None", "facebook": "None", "youtube": "None", "website": "None", "summary": "None", "logo": "None", "latitude": 45.88295547902376, "longitude": -72.50111209807287}, "118924976RR0001": {"name": "FONDATION ROBERT CLICHE POUR LA CONSERVATION DU PATRIMOINE DES BEAUCERONS", "designationCode": "A", "categoryCode": "53", "address": "833 AVENUE DU PALAIS", "city": "ST-JOSEPH DE BEAUCE", "province": "QC", "country": "CA", "postalCode": "G0S2V0", "twitter": "None", "instagram": "None", "facebook": "None", "youtube": "None", "website": "None", "summary": "None", "logo": "None", "latitude": 46.30772514516126, "longitude": -70.8801710456461}, "890211170RR0001": {"name": "FONDATION ROBERT LAUZIERE", "designationCode": "C", "categoryCode": "49", "address": "34 ST-LOUIS", "city": "ST-CYRILLE DE WENDOVER", "province": "QC", "country": "CA", "postalCode": "J1Z1S1", "twitter": "None", "instagram": "None", "facebook": "None", "youtube": "None", "website": "None", "summary": "None", "logo": "None", "latitude": 45.93298978740834, "longitude": -72.42471719871321}, "886642297RR0001": {"name": "FONDATION ROBERT LEBEL INC.", "designationCode": "C", "categoryCode": "49", "address": "2053 RUE NADEAU( PONTBRIAND)", "city": "THETFORD-MINES", "province": "QC", "country": "CA", "postalCode": "G6H3K4", "twitter": "None", "instagram": "None", "facebook": "None", "youtube": "None", "website": "None", "summary": "None", "logo": "None", "latitude": 46.16101264530548, "longitude": -71.25555881663713}, "892193962RR0001": {"name": "FONDATION ROBERT LUSSIER", "designationCode": "A", "categoryCode": "23", "address": "100 -46 BOUL BRIEN", "city": "REPENTIGNY", "province": "QC", "country": "CA", "postalCode": "J6A4S2", "twitter": "None", "instagram": "None", "facebook": "None", "youtube": "None", "website": "None", "summary": "None", "logo": "None", "latitude": 45.74147667303377, "longitude": -73.44852552374621}, "834747545RR0001": {"name": "FONDATION ROBERT PICH\u00c9 INC.", "designationCode": "C", "categoryCode": "57", "address": "41 RANG DE LA COTE-DOUBLE", "city": "SAINTE-ANGELE-DE-MONNOIR", "province": "QC", "country": "CA", "postalCode": "J0L1P0", "twitter": "None", "instagram": "None", "facebook": "None", "youtube": "None", "website": "None", "summary": "None", "logo": "None", "latitude": 45.412634639477126, "longitude": -73.08223349956731}, "135517209RR0001": {"name": "FONDATION ROCK GUERTIN", "designationCode": "C", "categoryCode": "01", "address": "1061 RUE DE CHERBOURG", "city": "SHERBROOKE", "province": "QC", "country": "CA", "postalCode": "J1K2P1", "twitter": "None", "instagram": "None", "facebook": "None", "youtube": "None", "website": "None", "summary": "None", "logo": "None", "latitude": 45.38972676963474, "longitude": -71.9251725352874}}