{"887315604RR0001": {"name": "THE LEGACY CHILDREN'S FOUNDATION - ALBERTA", "designationCode": "A", "categoryCode": "03", "address": "228 RANCHRIDGE CRT NW", "city": "CALGARY", "province": "AB", "country": "CA", "postalCode": "T3G1W5", "twitter": "None", "instagram": "None", "facebook": "None", "youtube": "None", "website": "None", "summary": "None", "logo": "None", "latitude": 51.12205242772217, "longitude": -114.18734594575555}, "898283973RR0001": {"name": "THE LEGION OF FRONTIERSMEN OF THE COMMONWEALTH IN CANADA", "designationCode": "C", "categoryCode": "59", "address": "12409  67 STREET", "city": "EDMONTON", "province": "AB", "country": "CA", "postalCode": "T5B1N2", "twitter": "None", "instagram": "None", "facebook": "None", "youtube": "None", "website": "None", "summary": "None", "logo": "None", "latitude": 53.580276, "longitude": -113.44444720520542}, "119241917RR0001": {"name": "THE LEIGHTON FOUNDATION", "designationCode": "C", "categoryCode": "22", "address": "282027 144 ST W", "city": "FOOTHILLS", "province": "AB", "country": "CA", "postalCode": "T1S0Y4", "twitter": "None", "instagram": "None", "facebook": "None", "youtube": "None", "website": "None", "summary": "None", "logo": "None", "latitude": 50.7964052828207, "longitude": -114.20970746225882}, "874070295RR0001": {"name": "THE LEN & EVELYN NOORT FAMILY FOUNDATION", "designationCode": "B", "categoryCode": "03", "address": "101-403 6TH ST", "city": "NEW WESTMINSTER", "province": "BC", "country": "CA", "postalCode": "V3L3B1", "twitter": "None", "instagram": "None", "facebook": "None", "youtube": "None", "website": "None", "summary": "None", "logo": "None", "latitude": 49.21038208371541, "longitude": -122.91674673083386}, "844087361RR0001": {"name": "THE LENDING CUPBOARD SOCIETY OF ALBERTA", "designationCode": "C", "categoryCode": "11", "address": "5406C 43 ST", "city": "RED DEER", "province": "AB", "country": "CA", "postalCode": "T4N1C9", "twitter": "None", "instagram": "None", "facebook": "None", "youtube": "None", "website": "None", "summary": "None", "logo": "None", "latitude": 52.262445312694084, "longitude": -113.82381768256829}, "835323528RR0001": {"name": "THE LEO & BINA KOHN FOUNDATION INC./FONDATION LEO & BINA KOHN INC.", "designationCode": "B", "categoryCode": "03", "address": "1250 RENE-LEVESQUE WEST       SUITE 220", "city": "MONTREAL", "province": "QC", "country": "CA", "postalCode": "H3B4W8", "twitter": "None", "instagram": "None", "facebook": "None", "youtube": "None", "website": "None", "summary": "None", "logo": "None", "latitude": 45.497635797911244, "longitude": -73.57123025818045}, "130976814RR0001": {"name": "THE LEO BAECK DAY SCHOOL", "designationCode": "C", "categoryCode": "20", "address": "501 ARLINGTON AVENUE", "city": "TORONTO", "province": "ON", "country": "CA", "postalCode": "M6C3A4", "twitter": "None", "instagram": "None", "facebook": "None", "youtube": "None", "website": "None", "summary": "None", "logo": "None", "latitude": 43.692205389405, "longitude": -79.43331777376102}, "888949146RR0001": {"name": "THE LEO GOLDHAR FAMILY FOUNDATION", "designationCode": "B", "categoryCode": "03", "address": "4100 YONGE STR                SUITE 414", "city": "TORONTO", "province": "ON", "country": "CA", "postalCode": "M2P2B5", "twitter": "None", "instagram": "None", "facebook": "None", "youtube": "None", "website": "None", "summary": "None", "logo": "None", "latitude": 43.74631222895164, "longitude": -79.40812495432525}, "119388387RR0001": {"name": "THE LEO J. KRYSA FAMILY FOUNDATION", "designationCode": "B", "categoryCode": "03", "address": "100 - 24925 117 AVE", "city": "ACHESON", "province": "AB", "country": "CA", "postalCode": "T7X6C2", "twitter": "None", "instagram": "None", "facebook": "None", "youtube": "None", "website": "None", "summary": "None", "logo": "None", "latitude": 53.5556450000002, "longitude": -113.83640879143013}, "119241982RR0001": {"name": "THE LEON S YOLLES AND DORA YOLLES CHARITABLE FOUNDATION", "designationCode": "B", "categoryCode": "03", "address": "200 - 207 ADELAIDE ST E", "city": "TORONTO", "province": "ON", "country": "CA", "postalCode": "M5A1M8", "twitter": "None", "instagram": "None", "facebook": "None", "youtube": "None", "website": "None", "summary": "None", "logo": "None", "latitude": 43.652393126320256, "longitude": -79.36739551201032}, "868945122RR0001": {"name": "THE LEONARD & BETTY JEFFERY FOUNDATION", "designationCode": "B", "categoryCode": "03", "address": "121 ANNE ST S", "city": "BARRIE", "province": "ON", "country": "CA", "postalCode": "L4N7B6", "twitter": "None", "instagram": "None", "facebook": "None", "youtube": "None", "website": "None", "summary": "None", "logo": "None", "latitude": 44.37466429392919, "longitude": -79.69850869190387}, "119216240RR0001": {"name": "THE LEONARD & FELICIE BLATT FOUNDATION", "designationCode": "B", "categoryCode": "03", "address": "390 STEELES AVE WEST          SUITE 204", "city": "TORONTO", "province": "ON", "country": "CA", "postalCode": "L4J6X2", "twitter": "None", "instagram": "None", "facebook": "None", "youtube": "None", "website": "None", "summary": "None", "logo": "None", "latitude": 43.79504319631769, "longitude": -79.43373621527472}, "889542551RR0001": {"name": "THE LEONARD AND ALICE COHEN FAMILY FOUNDATION-LA FONDATION DE LA FAMILLE LEONARD ET ALICE COHEN", "designationCode": "B", "categoryCode": "03", "address": "455 COTE VERTU ROAD", "city": "VILLE ST LAURENT", "province": "QC", "country": "CA", "postalCode": "H4N1E8", "twitter": "None", "instagram": "None", "facebook": "None", "youtube": "None", "website": "None", "summary": "None", "logo": "None", "latitude": 45.52516703416222, "longitude": -73.6715342494656}, "886641398RR0001": {"name": "THE LEONARD AND GABRYELA OSIN FOUNDATION", "designationCode": "B", "categoryCode": "03", "address": "P.O. BOX 479", "city": "SCHOMBERG", "province": "ON", "country": "CA", "postalCode": "L0G1T0", "twitter": "None", "instagram": "None", "facebook": "None", "youtube": "None", "website": "None", "summary": "None", "logo": "None", "latitude": 44.00246003664379, "longitude": -79.68402999884614}, "890126485RR0001": {"name": "THE LEONARD AND KATHLEEN O'BRIEN HUMANITARIAN TRUST", "designationCode": "C", "categoryCode": "21", "address": "PO BOX 522", "city": "FREDERICTON", "province": "NB", "country": "CA", "postalCode": "E3B5A6", "twitter": "None", "instagram": "None", "facebook": "None", "youtube": "None", "website": "None", "summary": "None", "logo": "None", "latitude": 45.96062100000006, "longitude": -66.63911299999994}, "892327040RR0001": {"name": "THE LEONARD FOUNDATION", "designationCode": "B", "categoryCode": "25", "address": "PO BOX 10085                  LCD PACIFIC CENTRE", "city": "VANCOUVER", "province": "BC", "country": "CA", "postalCode": "V7Y1B6", "twitter": "None", "instagram": "None", "facebook": "None", "youtube": "None", "website": "None", "summary": "None", "logo": "None", "latitude": 49.28299000000004, "longitude": -123.11890999999997}, "890833791RR0001": {"name": "THE LEONARD SIMPSON FAMILY FOUNDATION", "designationCode": "B", "categoryCode": "03", "address": "901-175 BLOOR ST.E.           NORTH TOWER", "city": "TORONTO", "province": "ON", "country": "CA", "postalCode": "M4W3R8", "twitter": "None", "instagram": "None", "facebook": "None", "youtube": "None", "website": "None", "summary": "None", "logo": "None", "latitude": 43.66995960097385, "longitude": -79.38816384326431}, "863817177RR0001": {"name": "THE LEONARD T. ASSALY FAMILY FOUNDATION / LA FONDATION FAMILIALE LEONARD T. ASSALY", "designationCode": "B", "categoryCode": "03", "address": "5690 ROYALMOUNT", "city": "TOWN OF MOUNT-ROYAL", "province": "QC", "country": "CA", "postalCode": "H4P1K4", "twitter": "None", "instagram": "None", "facebook": "None", "youtube": "None", "website": "None", "summary": "None", "logo": "None", "latitude": 45.49195374686948, "longitude": -73.66939301206078}, "119013613RR0001": {"name": "THE LEONE RESIDENCE FOR WOMEN", "designationCode": "C", "categoryCode": "01", "address": "509 KILDARE ROAD", "city": "WINDSOR", "province": "ON", "country": "CA", "postalCode": "N8Y3G6", "twitter": "None", "instagram": "None", "facebook": "None", "youtube": "None", "website": "None", "summary": "None", "logo": "None", "latitude": 42.323291832910186, "longitude": -83.01359942342299}, "119241990RR0001": {"name": "THE LEPROSY MISSION CANADA", "designationCode": "C", "categoryCode": "47", "address": "200-90 ALLSTATE PARKWAY", "city": "MARKHAM", "province": "ON", "country": "CA", "postalCode": "L3R6H3", "twitter": "None", "instagram": "None", "facebook": "None", "youtube": "None", "website": "None", "summary": "None", "logo": "None", "latitude": 43.85413063693829, "longitude": -79.3679925219276}, "864693577RR0001": {"name": "THE LES AND KAE MARTIN CHARITABLE FOUNDATION", "designationCode": "B", "categoryCode": "03", "address": "2180 MATHESON BLVD EAST       UNIT 1", "city": "MISSISSAUGA", "province": "ON", "country": "CA", "postalCode": "L4W1E8", "twitter": "None", "instagram": "None", "facebook": "None", "youtube": "None", "website": "None", "summary": "None", "logo": "None", "latitude": 43.65215438891405, "longitude": -79.61097769582767}, "898231493RR0001": {"name": "THE LES AND MINDA FELDMAN CHARITABLE FOUNDATION", "designationCode": "B", "categoryCode": "03", "address": "2041 AVENUE ROAD", "city": "TORONTO", "province": "ON", "country": "CA", "postalCode": "M5M4A5", "twitter": "None", "instagram": "None", "facebook": "None", "youtube": "None", "website": "None", "summary": "None", "logo": "None", "latitude": 43.73581767138898, "longitude": -79.42002546485682}, "865991913RR0001": {"name": "THE LESBIAN GAY BISEXUAL YOUTH PROJECT SOCIETY", "designationCode": "C", "categoryCode": "09", "address": "2281 BRUNSWICK STREET", "city": "HALIFAX", "province": "NS", "country": "CA", "postalCode": "B3K2Y9", "twitter": "None", "instagram": "None", "facebook": "None", "youtube": "None", "website": "None", "summary": "None", "logo": "None", "latitude": 44.6544108326504, "longitude": -63.58374480500904}, "821821345RR0001": {"name": "THE LESLEY BINNION FOUNDATION FOR DISABLED SPORTS", "designationCode": "A", "categoryCode": "03", "address": "801 6TH AVENUE                SUITE 1650", "city": "CALGARY", "province": "AB", "country": "CA", "postalCode": "T2P3W2", "twitter": "None", "instagram": "None", "facebook": "None", "youtube": "None", "website": "None", "summary": "None", "logo": "None", "latitude": 51.04789051399405, "longitude": -114.0793322216227}, "108092230RR0001": {"name": "THE LETHBRIDGE ASSOCIATION FOR COMMUNITY LIVING", "designationCode": "C", "categoryCode": "11", "address": "527 - 6TH STREET SOUTH", "city": "LETHBRIDGE", "province": "AB", "country": "CA", "postalCode": "T1J2E1", "twitter": "None", "instagram": "None", "facebook": "None", "youtube": "None", "website": "None", "summary": "None", "logo": "None", "latitude": 49.69164743519533, "longitude": -112.83824059654364}, "131046955RR0001": {"name": "THE LETHBRIDGE COMMUNITY BAND SOCIETY", "designationCode": "C", "categoryCode": "22", "address": "BOX 1921", "city": "LETHBRIDGE", "province": "AB", "country": "CA", "postalCode": "T1J4K5", "twitter": "None", "instagram": "None", "facebook": "None", "youtube": "None", "website": "None", "summary": "None", "logo": "None", "latitude": 49.69383000000006, "longitude": -112.83373249999994}, "119242014RR0001": {"name": "THE LETHBRIDGE SENIOR CITIZENS ORGANIZATION", "designationCode": "C", "categoryCode": "09", "address": "500 - 11TH STREET SOUTH", "city": "LETHBRIDGE", "province": "AB", "country": "CA", "postalCode": "T1J4G7", "twitter": "None", "instagram": "None", "facebook": "None", "youtube": "None", "website": "None", "summary": "None", "logo": "None", "latitude": 49.69313129884344, "longitude": -112.83054963624659}, "831455399RR0001": {"name": "THE LETHBRIDGE SOUP KITCHEN ASSOCIATION 2013", "designationCode": "C", "categoryCode": "01", "address": "802 2A AVENUE NORTH", "city": "LETHBRIDGE", "province": "AB", "country": "CA", "postalCode": "T1H0C9", "twitter": "None", "instagram": "None", "facebook": "None", "youtube": "None", "website": "None", "summary": "None", "logo": "None", "latitude": 49.701628521207404, "longitude": -112.835322}, "119242030RR0001": {"name": "THE LETHBRIDGE YOUNG MEN'S CHRISTIAN ASSOCIATION", "designationCode": "C", "categoryCode": "49", "address": "515 STAFFORD DRIVE SOUTH", "city": "LETHBRIDGE", "province": "AB", "country": "CA", "postalCode": "T1J2L3", "twitter": "None", "instagram": "None", "facebook": "None", "youtube": "None", "website": "None", "summary": "None", "logo": "None", "latitude": 49.6925460416354, "longitude": -112.83356001878414}, "107623654RR0001": {"name": "THE LEUKEMIA & LYMPHOMA SOCIETY OF CANADA/SOCIETE DE LEUCEMIE & LYMPHOME DU CANADA", "designationCode": "C", "categoryCode": "11", "address": "2 LANSING SQUARE              SUITE #804", "city": "TORONTO", "province": "ON", "country": "CA", "postalCode": "M2J4P8", "twitter": "None", "instagram": "None", "facebook": "None", "youtube": "None", "website": "None", "summary": "None", "logo": "None", "latitude": 43.77361347605131, "longitude": -79.32596509937092}, "891212276RR0001": {"name": "THE LEVINE STUDY GROUP", "designationCode": "C", "categoryCode": "47", "address": "44 PINNACLE ROAD", "city": "WILLOWDALE", "province": "ON", "country": "CA", "postalCode": "M2L2V8", "twitter": "None", "instagram": "None", "facebook": "None", "youtube": "None", "website": "None", "summary": "None", "logo": "None", "latitude": 43.75415030529749, "longitude": -79.36731790302365}, "861876357RR0001": {"name": "THE LEWA WILDLIFE CONSERVANCY (CANADA)", "designationCode": "C", "categoryCode": "52", "address": "4700 KEELE ST", "city": "NORTH YORK", "province": "ON", "country": "CA", "postalCode": "M3J1P3", "twitter": "None", "instagram": "None", "facebook": "None", "youtube": "None", "website": "None", "summary": "None", "logo": "None", "latitude": 43.77448979818479, "longitude": -79.4939737399481}, "119242055RR0001": {"name": "THE LEWIS & RUTH SHERMAN FOUNDATION", "designationCode": "B", "categoryCode": "03", "address": "181 ANNABELLE STREET", "city": "HAMILTON", "province": "ON", "country": "CA", "postalCode": "L9C3T8", "twitter": "None", "instagram": "None", "facebook": "None", "youtube": "None", "website": "None", "summary": "None", "logo": "None", "latitude": 43.21431608797399, "longitude": -79.89468769715533}, "892333949RR0001": {"name": "THE LEWIS AND CHARLOTTE STEINBERG FAMILY FOUNDATION", "designationCode": "B", "categoryCode": "03", "address": "47 COUNTY LANE", "city": "TORONTO", "province": "ON", "country": "CA", "postalCode": "M2L1E1", "twitter": "None", "instagram": "None", "facebook": "None", "youtube": "None", "website": "None", "summary": "None", "logo": "None", "latitude": 43.75641300000005, "longitude": -79.38073699999994}, "105224315RR0001": {"name": "THE LEWIS C. SMITH FOUNDATION/LA FONDATION LEWIS C. SMITH", "designationCode": "B", "categoryCode": "03", "address": "400-1303 GREENE AVE", "city": "WESTMOUNT", "province": "QC", "country": "CA", "postalCode": "H3Z2A7", "twitter": "None", "instagram": "None", "facebook": "None", "youtube": "None", "website": "None", "summary": "None", "logo": "None", "latitude": 45.48706127589579, "longitude": -73.58986230140236}, "733918528RR0001": {"name": "THE LEWIS COHEN FAMILY FOUNDATION", "designationCode": "B", "categoryCode": "03", "address": "7 FALLINGBROOK DR", "city": "SCARBOROUGH", "province": "ON", "country": "CA", "postalCode": "M1N1B3", "twitter": "None", "instagram": "None", "facebook": "None", "youtube": "None", "website": "None", "summary": "None", "logo": "None", "latitude": 43.67709521842004, "longitude": -79.27464699096898}, "889033866RR0001": {"name": "THE LIBERAL CATHOLIC CHURCH OF ONTARIO", "designationCode": "C", "categoryCode": "39", "address": "A - 546 ELIZABETH ST", "city": "MIDLAND", "province": "ON", "country": "CA", "postalCode": "L4R2A3", "twitter": "None", "instagram": "None", "facebook": "None", "youtube": "None", "website": "None", "summary": "None", "logo": "None", "latitude": 44.747828716618976, "longitude": -79.88572894288234}, "860806264RR0001": {"name": "THE LIBERMONT FOUNDATION/LA FONDATION LIBERMONT", "designationCode": "B", "categoryCode": "03", "address": "1485 SHERBROOKE O SUITE 2B", "city": "MONTREAL", "province": "QC", "country": "CA", "postalCode": "H3G0A3", "twitter": "None", "instagram": "None", "facebook": "None", "youtube": "None", "website": "None", "summary": "None", "logo": "None", "latitude": 45.49730933250616, "longitude": -73.58107393034788}, "871685145RR0002": {"name": "THE LIFE CENTRE CHRISTIAN FELLOWSHIP", "designationCode": "C", "categoryCode": "39", "address": "2214 INNES ROAD", "city": "OTTAWA", "province": "ON", "country": "CA", "postalCode": "K1B4C4", "twitter": "None", "instagram": "None", "facebook": "None", "youtube": "None", "website": "None", "summary": "None", "logo": "None", "latitude": 45.42555465975044, "longitude": -75.57943544421859}, "857150015RR0001": {"name": "THE LIFE CHURCH", "designationCode": "C", "categoryCode": "39", "address": "7 SNOWSHOE LANE", "city": "BRAMPTON", "province": "ON", "country": "CA", "postalCode": "L6R0J1", "twitter": "None", "instagram": "None", "facebook": "None", "youtube": "None", "website": "None", "summary": "None", "logo": "None", "latitude": 43.7727337743666, "longitude": -79.75465547986046}, "891567646RR0001": {"name": "THE LIFE SENIOR STUDY CENTRE TORONTO", "designationCode": "C", "categoryCode": "29", "address": "350 VICTORIA STREET", "city": "TORONTO", "province": "ON", "country": "CA", "postalCode": "M5B2K3", "twitter": "None", "instagram": "None", "facebook": "None", "youtube": "None", "website": "None", "summary": "None", "logo": "None", "latitude": 43.65780337745978, "longitude": -79.38023396699161}, "843016072RR0001": {"name": "THE LIFESAVING FOUNDATION", "designationCode": "A", "categoryCode": "03", "address": "40 KING ST. WEST              SUITE 3100  SCOTIA PLAZA", "city": "TORONTO", "province": "ON", "country": "CA", "postalCode": "M5H3Y2", "twitter": "None", "instagram": "None", "facebook": "None", "youtube": "None", "website": "None", "summary": "None", "logo": "None", "latitude": 43.648870023370904, "longitude": -79.37924004443396}, "861682631RR0001": {"name": "THE LIGHT OF CHRIST CHURCH", "designationCode": "C", "categoryCode": "39", "address": "6150 OLIVER ROAD", "city": "NANAIMO", "province": "BC", "country": "CA", "postalCode": "V9T0B5", "twitter": "None", "instagram": "None", "facebook": "None", "youtube": "None", "website": "None", "summary": "None", "logo": "None", "latitude": 49.221630659183944, "longitude": -124.02794535278993}, "858292741RR0001": {"name": "THE LIGHT OF ISLAM ASSOCIATION", "designationCode": "C", "categoryCode": "60", "address": "7 - 85 ROSEDALE AVE W", "city": "BRAMPTON", "province": "ON", "country": "CA", "postalCode": "L6X4H5", "twitter": "None", "instagram": "None", "facebook": "None", "youtube": "None", "website": "None", "summary": "None", "logo": "None", "latitude": 43.68863188835084, "longitude": -79.76962496662482}, "891865842RR0001": {"name": "THE LIGHTHOUSE", "designationCode": "C", "categoryCode": "49", "address": "78 SHADE ST", "city": "CAMBRIDGE", "province": "ON", "country": "CA", "postalCode": "N1R4J8", "twitter": "None", "instagram": "None", "facebook": "None", "youtube": "None", "website": "None", "summary": "None", "logo": "None", "latitude": 43.36198967834253, "longitude": -80.30682747201193}, "130363740RR0001": {"name": "THE LIGHTHOUSE CHRISTIAN SOCIAL SERVICES", "designationCode": "C", "categoryCode": "39", "address": "1008 BATHURST STREET", "city": "TORONTO", "province": "ON", "country": "CA", "postalCode": "M5R3G7", "twitter": "None", "instagram": "None", "facebook": "None", "youtube": "None", "website": "None", "summary": "None", "logo": "None", "latitude": 43.67071951956261, "longitude": -79.41345462741631}, "118967744RR0008": {"name": "THE LIGHTHOUSE CHURCH", "designationCode": "C", "categoryCode": "39", "address": "60, RUE MIGWAN", "city": "PIKOGAN", "province": "QC", "country": "CA", "postalCode": "J9T3A3", "twitter": "None", "instagram": "None", "facebook": "None", "youtube": "None", "website": "None", "summary": "None", "logo": "None", "latitude": 48.59826625547079, "longitude": -78.1201185302952}, "860569409RR0001": {"name": "THE LIGHTHOUSE CHURCH OF THE CHRISTIAN AND MISSIONARY ALLIANCE IN CANADA INC.", "designationCode": "C", "categoryCode": "39", "address": "757 HOME ST", "city": "WINNIPEG", "province": "MB", "country": "CA", "postalCode": "R3E2C5", "twitter": "None", "instagram": "None", "facebook": "None", "youtube": "None", "website": "None", "summary": "None", "logo": "None", "latitude": 49.899228621703514, "longitude": -97.16713017413026}, "119242105RR0001": {"name": "THE LIGHTHOUSE FOUNDATION", "designationCode": "C", "categoryCode": "21", "address": "30 CENTRE ISLAND PARK", "city": "TORONTO", "province": "ON", "country": "CA", "postalCode": "M5J2E9", "twitter": "None", "instagram": "None", "facebook": "None", "youtube": "None", "website": "None", "summary": "None", "logo": "None", "latitude": 43.61452232535978, "longitude": -79.37941834230004}, "861059715RR0001": {"name": "THE LIGHTHOUSE PROGRAM FOR GRIEVING CHILDREN", "designationCode": "C", "categoryCode": "09", "address": "2522 REBECCA ST", "city": "OAKVILLE", "province": "ON", "country": "CA", "postalCode": "L6L6N8", "twitter": "None", "instagram": "None", "facebook": "None", "youtube": "None", "website": "None", "summary": "None", "logo": "None", "latitude": 43.396846450170294, "longitude": -79.72121287855629}, "889570420RR0001": {"name": "THE LILLIAN AND DON WRIGHT FOUNDATION", "designationCode": "B", "categoryCode": "03", "address": "10 ALCORN AVENUE              SUITE 306", "city": "TORONTO", "province": "ON", "country": "CA", "postalCode": "M4V3A9", "twitter": "None", "instagram": "None", "facebook": "None", "youtube": "None", "website": "None", "summary": "None", "logo": "None", "latitude": 43.68198319069178, "longitude": -79.39252811977026}, "831572565RR0001": {"name": "THE LILLIAN AND NORMAN GLOWINSKY FAMILY FOUNDATION", "designationCode": "B", "categoryCode": "03", "address": "1962 YONGE STREET             SUITE 200", "city": "TORONTO", "province": "ON", "country": "CA", "postalCode": "M4S1Z4", "twitter": "None", "instagram": "None", "facebook": "None", "youtube": "None", "website": "None", "summary": "None", "logo": "None", "latitude": 43.69957646350051, "longitude": -79.39689055678326}, "107626061RR0001": {"name": "THE LILLOOET DISTRICT HOSPITAL FOUNDATION SOCIETY", "designationCode": "A", "categoryCode": "13", "address": "683 MAIN STREET               P. O. BOX 1657", "city": "LILLOOET", "province": "BC", "country": "CA", "postalCode": "V0K1V0", "twitter": "None", "instagram": "None", "facebook": "None", "youtube": "None", "website": "None", "summary": "None", "logo": "None", "latitude": 50.692466442213195, "longitude": -121.93579705770873}, "125967463RR0001": {"name": "THE LINARIA AND DISTRICT AGRICULTURAL SOCIETY", "designationCode": "C", "categoryCode": "56", "address": "RR 1", "city": "WESTLOCK", "province": "AB", "country": "CA", "postalCode": "T7P2N9", "twitter": "None", "instagram": "None", "facebook": "None", "youtube": "None", "website": "None", "summary": "None", "logo": "None", "latitude": 54.15543600000005, "longitude": -113.86003399999993}, "119242147RR0001": {"name": "THE LINCOLNSHIRE FOUNDATION", "designationCode": "B", "categoryCode": "03", "address": "2400 - 525 8 AVE SW", "city": "CALGARY", "province": "AB", "country": "CA", "postalCode": "T2P1G1", "twitter": "None", "instagram": "None", "facebook": "None", "youtube": "None", "website": "None", "summary": "None", "logo": "None", "latitude": 51.04590663887669, "longitude": -114.07575818403993}, "119242154RR0001": {"name": "THE LINDA G PALLEN MEMORIAL TRUST FUND", "designationCode": "C", "categoryCode": "21", "address": "1709 HOLLIS STREET            PO BOX 457", "city": "HALIFAX", "province": "NS", "country": "CA", "postalCode": "B3J2P8", "twitter": "None", "instagram": "None", "facebook": "None", "youtube": "None", "website": "None", "summary": "None", "logo": "None", "latitude": 44.647722827370295, "longitude": -63.57286089243476}, "140709825RR0001": {"name": "THE LINDEN SCHOOL", "designationCode": "C", "categoryCode": "20", "address": "10 ROSEHILL AVE", "city": "TORONTO", "province": "ON", "country": "CA", "postalCode": "M4T1G5", "twitter": "None", "instagram": "None", "facebook": "None", "youtube": "None", "website": "None", "summary": "None", "logo": "None", "latitude": 43.68640017958327, "longitude": -79.39261760144839}, "891588378RR0001": {"name": "THE LINDEN SINGERS OF VICTORIA SOCIETY", "designationCode": "C", "categoryCode": "22", "address": "3529 SALSBURY WAY", "city": "VICTORIA", "province": "BC", "country": "CA", "postalCode": "V8P3K7", "twitter": "None", "instagram": "None", "facebook": "None", "youtube": "None", "website": "None", "summary": "None", "logo": "None", "latitude": 48.457512773270075, "longitude": -123.35310385143454}, "119242188RR0001": {"name": "THE LINDSAY COLLEGIATE AND VOCATIONAL INSTITUTE SCHOLARSHIP FUND", "designationCode": "C", "categoryCode": "21", "address": "260 KENT STREET WEST", "city": "LINDSAY", "province": "ON", "country": "CA", "postalCode": "K9V2Z5", "twitter": "None", "instagram": "None", "facebook": "None", "youtube": "None", "website": "None", "summary": "None", "logo": "None", "latitude": 44.35278797333514, "longitude": -78.74686089466702}, "108086828RR0001": {"name": "THE LINDSAY GALLERY", "designationCode": "C", "categoryCode": "50", "address": "190 KENT ST. W                2ND FLOOR  LINDSAY LIBRARY", "city": "LINDSAY", "province": "ON", "country": "CA", "postalCode": "K9V2Y6", "twitter": "None", "instagram": "None", "facebook": "None", "youtube": "None", "website": "None", "summary": "None", "logo": "None", "latitude": 44.35431615667031, "longitude": -78.7402202841857}, "119242220RR0001": {"name": "THE LINDSAY RIGHT TO LIFE ORGANIZATION", "designationCode": "C", "categoryCode": "09", "address": "BOX 383", "city": "LINDSAY", "province": "ON", "country": "CA", "postalCode": "K9V4S3", "twitter": "None", "instagram": "None", "facebook": "None", "youtube": "None", "website": "None", "summary": "None", "logo": "None", "latitude": 44.35437300000005, "longitude": -78.73967149999993}, "119242246RR0001": {"name": "THE LION MAX SIMMS MEMORIAL CAMP FOUNDATION", "designationCode": "C", "categoryCode": "63", "address": "P.O. BOX 760", "city": "BISHOP'S FALLS", "province": "NL", "country": "CA", "postalCode": "A0H1C0", "twitter": "None", "instagram": "None", "facebook": "None", "youtube": "None", "website": "None", "summary": "None", "logo": "None", "latitude": 49.02673000000004, "longitude": -55.45667999999995}, "854110673RR0001": {"name": "THE LION'S DEN", "designationCode": "C", "categoryCode": "49", "address": "710 PLACE SATIM", "city": "ST.-LAURENT", "province": "QC", "country": "CA", "postalCode": "H4M2X3", "twitter": "None", "instagram": "None", "facebook": "None", "youtube": "None", "website": "None", "summary": "None", "logo": "None", "latitude": 45.49906892310589, "longitude": -73.69180965211483}, "892824780RR0001": {"name": "THE LIONEL GELBER FOUNDATION", "designationCode": "B", "categoryCode": "23", "address": "28 WELLS HILL AVENUE", "city": "TORONTO", "province": "ON", "country": "CA", "postalCode": "M5R3A6", "twitter": "None", "instagram": "None", "facebook": "None", "youtube": "None", "website": "None", "summary": "None", "logo": "None", "latitude": 43.679800048012034, "longitude": -79.41420496990581}, "119242238RR0001": {"name": "THE LIONEL ROBINS FOUNDATION", "designationCode": "B", "categoryCode": "03", "address": "22 ST CLAIR AVE EAST          SUITE 1010", "city": "TORONTO", "province": "ON", "country": "CA", "postalCode": "M4T2S3", "twitter": "None", "instagram": "None", "facebook": "None", "youtube": "None", "website": "None", "summary": "None", "logo": "None", "latitude": 43.688336132408, "longitude": -79.39301839967676}, "859488967RR0001": {"name": "THE LIONS BAY COMMUNITY SCHOLARSHIP FOUNDATION", "designationCode": "C", "categoryCode": "21", "address": "PO BOX 91", "city": "LIONS BAY", "province": "BC", "country": "CA", "postalCode": "V0N2E0", "twitter": "None", "instagram": "None", "facebook": "None", "youtube": "None", "website": "None", "summary": "None", "logo": "None", "latitude": 49.458746135052195, "longitude": -123.24030764882266}, "881115422RR0001": {"name": "THE LIONS CLUB OF NELSON CHARITABLE TRUST", "designationCode": "C", "categoryCode": "05", "address": "BOX 492", "city": "NELSON", "province": "BC", "country": "CA", "postalCode": "V1L5R3", "twitter": "None", "instagram": "None", "facebook": "None", "youtube": "None", "website": "None", "summary": "None", "logo": "None", "latitude": 49.49754900000005, "longitude": -117.28882249999992}, "889173399RR0001": {"name": "THE LIONS CLUB OF NEWCASTLE TRUST FUND", "designationCode": "C", "categoryCode": "63", "address": "7 - 20 KING AVE W", "city": "NEWCASTLE", "province": "ON", "country": "CA", "postalCode": "L1B1H7", "twitter": "None", "instagram": "None", "facebook": "None", "youtube": "None", "website": "None", "summary": "None", "logo": "None", "latitude": 43.91738407801931, "longitude": -78.58934052735289}, "119242311RR0001": {"name": "THE LIONS CLUB OF PARKHILL CHARITABLE TRUST", "designationCode": "C", "categoryCode": "65", "address": "PO BOX 207", "city": "PARKHILL", "province": "ON", "country": "CA", "postalCode": "N0M2K0", "twitter": "None", "instagram": "None", "facebook": "None", "youtube": "None", "website": "None", "summary": "None", "logo": "None", "latitude": 43.13710500000006, "longitude": -81.78188299999994}, "890703143RR0001": {"name": "THE LISA AND ALLAN BROWN FAMILY FOUNDATION", "designationCode": "B", "categoryCode": "53", "address": "446 SPADINA ROAD,             3RD FLOOR", "city": "TORONTO", "province": "ON", "country": "CA", "postalCode": "M5P3M2", "twitter": "None", "instagram": "None", "facebook": "None", "youtube": "None", "website": "None", "summary": "None", "logo": "None", "latitude": 43.68906051373424, "longitude": -79.4128743475098}, "119242352RR0001": {"name": "THE LISGAR FUND", "designationCode": "C", "categoryCode": "20", "address": "29 LISGAR ST", "city": "OTTAWA", "province": "ON", "country": "CA", "postalCode": "K2P0B9", "twitter": "None", "instagram": "None", "facebook": "None", "youtube": "None", "website": "None", "summary": "None", "logo": "None", "latitude": 45.42037347354116, "longitude": -75.6887022709624}, "895435196RR0001": {"name": "THE LISTOWEL MEMORIAL HOSPITAL FOUNDATION", "designationCode": "A", "categoryCode": "13", "address": "255 ELIZABETH STREET EAST", "city": "LISTOWEL", "province": "ON", "country": "CA", "postalCode": "N4W2P5", "twitter": "None", "instagram": "None", "facebook": "None", "youtube": "None", "website": "None", "summary": "None", "logo": "None", "latitude": 43.732878242130894, "longitude": -80.95030130314764}, "119021186RR0001": {"name": "THE LITERACY COUNCIL OF BURLINGTON", "designationCode": "C", "categoryCode": "09", "address": "21-460 BRANT ST", "city": "BURLINGTON", "province": "ON", "country": "CA", "postalCode": "L7R4B6", "twitter": "None", "instagram": "None", "facebook": "None", "youtube": "None", "website": "None", "summary": "None", "logo": "None", "latitude": 43.32670044044678, "longitude": -79.79941746866506}, "107629156RR0001": {"name": "THE LITERACY COUNCIL OF NIAGARA WEST", "designationCode": "C", "categoryCode": "21", "address": "4271 QUEEN STREET             PO BOX 460", "city": "BEAMSVILLE", "province": "ON", "country": "CA", "postalCode": "L0R1B0", "twitter": "None", "instagram": "None", "facebook": "None", "youtube": "None", "website": "None", "summary": "None", "logo": "None", "latitude": 43.16473932001269, "longitude": -79.4770360794912}, "119242378RR0001": {"name": "THE LITERACY GROUP OF WATERLOO REGION", "designationCode": "C", "categoryCode": "59", "address": "151 FREDERICK ST SUITE 200", "city": "KITCHENER", "province": "ON", "country": "CA", "postalCode": "N2H2M2", "twitter": "None", "instagram": "None", "facebook": "None", "youtube": "None", "website": "None", "summary": "None", "logo": "None", "latitude": 43.452378420191685, "longitude": -80.48419868039134}, "119242394RR0001": {"name": "THE LITTLE BROTHERS OF THE GOOD SHEPHERD (CANADA)", "designationCode": "C", "categoryCode": "46", "address": "412 QUEEN STREET EAST", "city": "TORONTO", "province": "ON", "country": "CA", "postalCode": "M5A1T3", "twitter": "None", "instagram": "None", "facebook": "None", "youtube": "None", "website": "None", "summary": "None", "logo": "None", "latitude": 43.65606208912783, "longitude": -79.36251032696624}, "890752983RR0001": {"name": "THE LITTLE CHAMBER MUSIC SERIES THAT COULD SOCIETY", "designationCode": "C", "categoryCode": "22", "address": "1568 GRANT ST", "city": "VANCOUVER", "province": "BC", "country": "CA", "postalCode": "V5L2Y2", "twitter": "None", "instagram": "None", "facebook": "None", "youtube": "None", "website": "None", "summary": "None", "logo": "None", "latitude": 49.27138853952925, "longitude": -123.07186141479599}, "119407005RR0001": {"name": "THE LITTLE HARBOUR COMMUNITY CENTRE", "designationCode": "C", "categoryCode": "56", "address": "RR 1", "city": "NEW GLASGOW", "province": "NS", "country": "CA", "postalCode": "B2H5C4", "twitter": "None", "instagram": "None", "facebook": "None", "youtube": "None", "website": "None", "summary": "None", "logo": "None", "latitude": 45.64995900000005, "longitude": -62.49579199999994}, "878329929RR0001": {"name": "THE LITTLE LEPREAUX CEMETERY COMPANY LIMITED", "designationCode": "C", "categoryCode": "59", "address": "34 THISTLE ROAD", "city": "SAINT JOHN", "province": "NB", "country": "CA", "postalCode": "E2M5T1", "twitter": "None", "instagram": "None", "facebook": "None", "youtube": "None", "website": "None", "summary": "None", "logo": "None", "latitude": 45.24524243574358, "longitude": -66.0979808284668}, "119242410RR0001": {"name": "THE LITTLE METIS PRESBYTERIAN CHURCH", "designationCode": "C", "categoryCode": "37", "address": "2475 SKYMARK AVE              UNIT 1", "city": "MISSISSAUGA", "province": "ON", "country": "CA", "postalCode": "L4W4Y6", "twitter": "None", "instagram": "None", "facebook": "None", "youtube": "None", "website": "None", "summary": "None", "logo": "None", "latitude": 43.65597575607338, "longitude": -79.60117484283526}, "131035941RR0001": {"name": "THE LITTLE MINNOWS PRESCHOOL INC", "designationCode": "C", "categoryCode": "20", "address": "15 FOURTH AVENUE", "city": "TRENTON", "province": "ON", "country": "CA", "postalCode": "K8V5N4", "twitter": "None", "instagram": "None", "facebook": "None", "youtube": "None", "website": "None", "summary": "None", "logo": "None", "latitude": 44.09682563208586, "longitude": -77.59315742211889}, "107629925RR0001": {"name": "THE LITTLE MOUNTAIN NEIGHBOURHOOD HOUSE SOCIETY", "designationCode": "C", "categoryCode": "56", "address": "3981 MAIN ST", "city": "VANCOUVER", "province": "BC", "country": "CA", "postalCode": "V5V3P3", "twitter": "None", "instagram": "None", "facebook": "None", "youtube": "None", "website": "None", "summary": "None", "logo": "None", "latitude": 49.249667095475786, "longitude": -123.10108498338023}, "870390176RR0001": {"name": "THE LITTLE OPERA COMPANY INC", "designationCode": "C", "categoryCode": "22", "address": "234 YALE AVENUE", "city": "WINNIPEG", "province": "MB", "country": "CA", "postalCode": "R3M0L9", "twitter": "None", "instagram": "None", "facebook": "None", "youtube": "None", "website": "None", "summary": "None", "logo": "None", "latitude": 49.86943110072727, "longitude": -97.16963338868383}, "868854233RR0001": {"name": "THE LITTLE RED SCHOOL HOUSE", "designationCode": "C", "categoryCode": "21", "address": "201 - 250 WATER ST", "city": "SUMMERSIDE", "province": "PE", "country": "CA", "postalCode": "C1N1B6", "twitter": "None", "instagram": "None", "facebook": "None", "youtube": "None", "website": "None", "summary": "None", "logo": "None", "latitude": 46.39143772938433, "longitude": -63.790237854290474}, "892749789RR0001": {"name": "THE LITTLE RED SCHOOL HOUSE SOCIETY", "designationCode": "C", "categoryCode": "20", "address": "1365 BEAVER POINT ROAD", "city": "SALT SPRING ISLAND", "province": "BC", "country": "CA", "postalCode": "V8K1W9", "twitter": "None", "instagram": "None", "facebook": "None", "youtube": "None", "website": "None", "summary": "None", "logo": "None", "latitude": 48.770745062910564, "longitude": -123.40502372886021}, "858816739RR0001": {"name": "THE LITTLE SERVANTS OF CHRIST THE KING PRAYER COMMUNITY", "designationCode": "C", "categoryCode": "38", "address": "2000 REGENT STREET SOUTH      UNIT 302", "city": "SUDBURY", "province": "ON", "country": "CA", "postalCode": "P3E5T5", "twitter": "None", "instagram": "None", "facebook": "None", "youtube": "None", "website": "None", "summary": "None", "logo": "None", "latitude": 46.45101191219165, "longitude": -81.000820155178}, "859347684RR0001": {"name": "THE LIUNA CHARITABLE FOUNDATION", "designationCode": "B", "categoryCode": "03", "address": "44 HUGHSON STREET SOUTH", "city": "HAMILTON", "province": "ON", "country": "CA", "postalCode": "L8N2A7", "twitter": "None", "instagram": "None", "facebook": "None", "youtube": "None", "website": "None", "summary": "None", "logo": "None", "latitude": 43.25445199056494, "longitude": -79.86869349293087}, "119043636RR0001": {"name": "THE LIVING ARTS CENTRE FOUNDATION", "designationCode": "A", "categoryCode": "23", "address": "4141 LIVING ARTS DR", "city": "MISSISSAUGA", "province": "ON", "country": "CA", "postalCode": "L5B4B8", "twitter": "None", "instagram": "None", "facebook": "None", "youtube": "None", "website": "None", "summary": "None", "logo": "None", "latitude": 43.589069651162525, "longitude": -79.64651458904183}, "136339470RR0001": {"name": "THE LIVING ARTS CENTRE IN MISSISSAUGA", "designationCode": "C", "categoryCode": "22", "address": "4141 LIVING ARTS DR", "city": "MISSISSAUGA", "province": "ON", "country": "CA", "postalCode": "L5B4B8", "twitter": "None", "instagram": "None", "facebook": "None", "youtube": "None", "website": "None", "summary": "None", "logo": "None", "latitude": 43.589069651162525, "longitude": -79.64651458904183}, "119039493RR0001": {"name": "THE LIVING CITY FOUNDATION", "designationCode": "A", "categoryCode": "50", "address": "1000 MURRAY ROSS PARKWAY", "city": "TORONTO", "province": "ON", "country": "CA", "postalCode": "M3J2P3", "twitter": "None", "instagram": "None", "facebook": "None", "youtube": "None", "website": "None", "summary": "None", "logo": "None", "latitude": 43.775195933348996, "longitude": -79.51658807507552}, "883458812RR0001": {"name": "THE LIVING ROCK MINISTRIES", "designationCode": "C", "categoryCode": "39", "address": "30 WILSON STREET", "city": "HAMILTON", "province": "ON", "country": "CA", "postalCode": "L8R1C5", "twitter": "None", "instagram": "None", "facebook": "None", "youtube": "None", "website": "None", "summary": "None", "logo": "None", "latitude": 43.25904136329286, "longitude": -79.8666614937676}, "108086992RR0001": {"name": "THE LIVING TEMPLES EVANGELISTIC ASSOCIATION", "designationCode": "C", "categoryCode": "47", "address": "BOX 250", "city": "NAPANEE", "province": "ON", "country": "CA", "postalCode": "K7R3M4", "twitter": "None", "instagram": "None", "facebook": "None", "youtube": "None", "website": "None", "summary": "None", "logo": "None", "latitude": 44.24834400000006, "longitude": -76.95158299999993}, "130523756RR0001": {"name": "THE LIVING THROUGH LOSS COUNSELLING SOCIETY OF B C", "designationCode": "C", "categoryCode": "09", "address": "206-1651 COMMERCIAL DRIVE", "city": "VANCOUVER", "province": "BC", "country": "CA", "postalCode": "V5L3Y3", "twitter": "None", "instagram": "None", "facebook": "None", "youtube": "None", "website": "None", "summary": "None", "logo": "None", "latitude": 49.26981900421005, "longitude": -123.06970496302841}, "891427908RR0001": {"name": "THE LIVING WATER MINISTRIES INTERNATIONAL", "designationCode": "C", "categoryCode": "39", "address": "15 BAYHAMPTON DR", "city": "BRAMPTON", "province": "ON", "country": "CA", "postalCode": "L6P2S9", "twitter": "None", "instagram": "None", "facebook": "None", "youtube": "None", "website": "None", "summary": "None", "logo": "None", "latitude": 43.77077219565479, "longitude": -79.71637249515256}, "890024664RR0001": {"name": "THE LIVING WATERS MINISTRIES OF CANADA", "designationCode": "C", "categoryCode": "49", "address": "321 - 690 REGENCY CRT", "city": "BURLINGTON", "province": "ON", "country": "CA", "postalCode": "L7N3H1", "twitter": "None", "instagram": "None", "facebook": "None", "youtube": "None", "website": "None", "summary": "None", "logo": "None", "latitude": 43.34667179736299, "longitude": -79.79160952224566}, "804165405RR0001": {"name": "THE LIVING WAY ASSEMBLY", "designationCode": "C", "categoryCode": "39", "address": "53 CHEMAUSHGON ROAD           POST OFFICE BOX 1415", "city": "BANCROFT", "province": "ON", "country": "CA", "postalCode": "K0L1C0", "twitter": "None", "instagram": "None", "facebook": "None", "youtube": "None", "website": "None", "summary": "None", "logo": "None", "latitude": 45.0599804635005, "longitude": -77.86042939497358}, "119242493RR0001": {"name": "THE LIVING WORD FELLOWSHIP", "designationCode": "C", "categoryCode": "47", "address": "843 CLARENCE RD.              RR#2", "city": "BRIDGETOWN", "province": "NS", "country": "CA", "postalCode": "B0S1C0", "twitter": "None", "instagram": "None", "facebook": "None", "youtube": "None", "website": "None", "summary": "None", "logo": "None", "latitude": 44.862815000288464, "longitude": -65.3092971848634}, "891352643RR0001": {"name": "THE LIZZIE ARTHUR RUSSELL THEOSOPHICAL MEMORIAL TRUST", "designationCode": "C", "categoryCode": "21", "address": "235 CHATEAU PLACE", "city": "EDMONTON", "province": "AB", "country": "CA", "postalCode": "T5T1V3", "twitter": "None", "instagram": "None", "facebook": "None", "youtube": "None", "website": "None", "summary": "None", "logo": "None", "latitude": 53.5244091021409, "longitude": -113.63659893239671}, "119242519RR0001": {"name": "THE LLOYD AND GLADYS FOGLER FOUNDATION", "designationCode": "B", "categoryCode": "03", "address": "561 AVENUE ROAD               SUITE 100", "city": "TORONTO", "province": "ON", "country": "CA", "postalCode": "M4V2J8", "twitter": "None", "instagram": "None", "facebook": "None", "youtube": "None", "website": "None", "summary": "None", "logo": "None", "latitude": 43.68772904691551, "longitude": -79.40191656558409}, "119122448RR0001": {"name": "THE LLOYD AND MARY ROGERS FAMILY CHARITABLE FOUNDATION", "designationCode": "B", "categoryCode": "03", "address": "1460-1075 WEST GEORGIA STREET", "city": "VANCOUVER", "province": "BC", "country": "CA", "postalCode": "V6N3C9", "twitter": "None", "instagram": "None", "facebook": "None", "youtube": "None", "website": "None", "summary": "None", "logo": "None", "latitude": 49.28667362057004, "longitude": -123.12466569892877}}