{"892007212RR0001": {"name": "FONDATION JEUNESSE-VIE", "designationCode": "B", "categoryCode": "03", "address": "888 RUE SHERBROOKE O", "city": "MONTREAL", "province": "QC", "country": "CA", "postalCode": "H3A1G3", "twitter": "None", "instagram": "None", "facebook": "None", "youtube": "None", "website": "None", "summary": "None", "logo": "None", "latitude": 45.50348548153391, "longitude": -73.57490798485213}, "107391807RR0001": {"name": "FONDATION JEUNESSES MUSICALES DU CANADA YOUTH AND MUSIC CANADA FOUNDATION", "designationCode": "A", "categoryCode": "23", "address": "305 AVENUE MONT ROYAL EST", "city": "MONTREAL", "province": "QC", "country": "CA", "postalCode": "H2T1P8", "twitter": "None", "instagram": "None", "facebook": "None", "youtube": "None", "website": "None", "summary": "None", "logo": "None", "latitude": 45.523047268393995, "longitude": -73.5837473437589}, "835758921RR0001": {"name": "FONDATION JOCELYNE ET GILLES OUIMET", "designationCode": "B", "categoryCode": "03", "address": "38 METROPOLE                  UNIT 2805", "city": "OTTAWA", "province": "ON", "country": "CA", "postalCode": "K1Z1E9", "twitter": "None", "instagram": "None", "facebook": "None", "youtube": "None", "website": "None", "summary": "None", "logo": "None", "latitude": 45.39831885706045, "longitude": -75.75037738550985}, "802436949RR0001": {"name": "FONDATION JOSEPH FORTIN FOUNDATION", "designationCode": "C", "categoryCode": "09", "address": "365 NORMAN ST", "city": "TIMMINS", "province": "ON", "country": "CA", "postalCode": "P4N4B6", "twitter": "None", "instagram": "None", "facebook": "None", "youtube": "None", "website": "None", "summary": "None", "logo": "None", "latitude": 48.47977165520124, "longitude": -81.35687192835184}, "898719711RR0001": {"name": "FONDATION JOSEPH-DE-SERIGNY", "designationCode": "C", "categoryCode": "21", "address": "1000 CHEMIN DU LAC", "city": "LONGUEUIL", "province": "QC", "country": "CA", "postalCode": "J4J1W3", "twitter": "None", "instagram": "None", "facebook": "None", "youtube": "None", "website": "None", "summary": "None", "logo": "None", "latitude": 45.54188017317799, "longitude": -73.47513136023443}, "118923689RR0001": {"name": "FONDATION JULES ET PAUL-\u00c9MILE L\u00c9GER/JULES AND PAUL-\u00c9MILE L\u00c9GER FOUNDATION", "designationCode": "A", "categoryCode": "03", "address": "130 AV DE L'EPEE", "city": "OUTREMONT", "province": "QC", "country": "CA", "postalCode": "H2V3T2", "twitter": "None", "instagram": "None", "facebook": "None", "youtube": "None", "website": "None", "summary": "None", "logo": "None", "latitude": 45.5174456658204, "longitude": -73.59933130503771}, "857280887RR0001": {"name": "FONDATION JULES TETREAULT", "designationCode": "B", "categoryCode": "03", "address": "600 RUE DE LA GAUCHETI\u00c8RE     OUEST,28E \u00c9TAGE,SUITE 1766", "city": "MONTR\u00c9AL", "province": "QC", "country": "CA", "postalCode": "H3B4L2", "twitter": "None", "instagram": "None", "facebook": "None", "youtube": "None", "website": "None", "summary": "None", "logo": "None", "latitude": 45.499289747528294, "longitude": -73.56632550990393}, "872017678RR0001": {"name": "FONDATION JUTRAS-GEOFFROY", "designationCode": "B", "categoryCode": "25", "address": "676 SECOND RUISSEAU", "city": "CALIXA-LAVALLEE", "province": "QC", "country": "CA", "postalCode": "J0L1A0", "twitter": "None", "instagram": "None", "facebook": "None", "youtube": "None", "website": "None", "summary": "None", "logo": "None", "latitude": 45.73738518096827, "longitude": -73.26191485959924}, "844535153RR0001": {"name": "FONDATION KARIBU / Karibu Foundation", "designationCode": "C", "categoryCode": "09", "address": "1-245E 6E AVENUE", "city": "SAINT-JEAN-SUR-RICHELIEU", "province": "QC", "country": "CA", "postalCode": "J2X0C6", "twitter": "None", "instagram": "None", "facebook": "None", "youtube": "None", "website": "None", "summary": "None", "logo": "None", "latitude": 45.30900265230252, "longitude": -73.23345380683801}, "137122164RR0001": {"name": "FONDATION KERANNA INC", "designationCode": "A", "categoryCode": "03", "address": "6205, BOULEVARD DES CHENAUX", "city": "TROIS-RIVIERES", "province": "QC", "country": "CA", "postalCode": "G9A5S3", "twitter": "None", "instagram": "None", "facebook": "None", "youtube": "None", "website": "None", "summary": "None", "logo": "None", "latitude": 46.359639817646766, "longitude": -72.60572637731555}, "887330199RR0001": {"name": "FONDATION KIWANIS LAKESHORE INC. / KIWANIS LAKESHORE FOUNDATION INC.", "designationCode": "A", "categoryCode": "63", "address": "34 34E AV", "city": "LACHINE", "province": "QC", "country": "CA", "postalCode": "H8T1Z2", "twitter": "None", "instagram": "None", "facebook": "None", "youtube": "None", "website": "None", "summary": "None", "logo": "None", "latitude": 45.43347653317741, "longitude": -73.69390467603145}, "889992178RR0001": {"name": "FONDATION L\u00c9O BROSSARD", "designationCode": "B", "categoryCode": "03", "address": "7665 BOUL SAINT-LAURENT       BUREAU 202", "city": "MONTR\u00c9AL", "province": "QC", "country": "CA", "postalCode": "H2R1W9", "twitter": "None", "instagram": "None", "facebook": "None", "youtube": "None", "website": "None", "summary": "None", "logo": "None", "latitude": 45.53693994644805, "longitude": -73.62429503329685}, "863036612RR0001": {"name": "FONDATION L\u00c9ONNE OUELLET", "designationCode": "B", "categoryCode": "03", "address": "646 RUE LAFONTAINE", "city": "RIVIERE-DU-LOUP", "province": "QC", "country": "CA", "postalCode": "G5R5C8", "twitter": "None", "instagram": "None", "facebook": "None", "youtube": "None", "website": "None", "summary": "None", "logo": "None", "latitude": 47.82261307770219, "longitude": -69.52442623578962}, "883538803RR0001": {"name": "FONDATION L'AIR D'ALLER", "designationCode": "C", "categoryCode": "11", "address": "1 PLACE VILLE-MARIE           40IEME ETAGE", "city": "MONTREAL", "province": "QC", "country": "CA", "postalCode": "H3B4M4", "twitter": "None", "instagram": "None", "facebook": "None", "youtube": "None", "website": "None", "summary": "None", "logo": "None", "latitude": 45.50188724476333, "longitude": -73.56787382018557}, "889751681RR0001": {"name": "FONDATION L'ANNEAU-RAY", "designationCode": "A", "categoryCode": "21", "address": "2329 ROUTE 132 EST", "city": "ST-GEORGES-DE-MALBAIE", "province": "QC", "country": "CA", "postalCode": "G0C2X0", "twitter": "None", "instagram": "None", "facebook": "None", "youtube": "None", "website": "None", "summary": "None", "logo": "None", "latitude": 48.65522026157849, "longitude": -64.21391206898872}, "141006171RR0001": {"name": "FONDATION L'AUBE DE LA PAIX", "designationCode": "A", "categoryCode": "53", "address": "1390 RUE SETLAKWE", "city": "THETFORD-MINES", "province": "QC", "country": "CA", "postalCode": "G6G6Z2", "twitter": "None", "instagram": "None", "facebook": "None", "youtube": "None", "website": "None", "summary": "None", "logo": "None", "latitude": 46.112747041058455, "longitude": -71.28904928155129}, "880585476RR0001": {"name": "FONDATION L'ETINCELLE", "designationCode": "C", "categoryCode": "21", "address": "2225 BOUL.DES SEIGNEURS", "city": "TERREBONNE", "province": "QC", "country": "CA", "postalCode": "J6X4A8", "twitter": "None", "instagram": "None", "facebook": "None", "youtube": "None", "website": "None", "summary": "None", "logo": "None", "latitude": 45.71789349653754, "longitude": -73.6858125}, "891908857RR0001": {"name": "FONDATION L'HERITAGE LE TOURNESOL", "designationCode": "C", "categoryCode": "21", "address": "155 BOUL DE GAULLE", "city": "LORRAINE", "province": "QC", "country": "CA", "postalCode": "J6Z3Z8", "twitter": "None", "instagram": "None", "facebook": "None", "youtube": "None", "website": "None", "summary": "None", "logo": "None", "latitude": 45.671253891511135, "longitude": -73.79016735160744}, "894384833RR0001": {"name": "FONDATION LA BELLE-AIDE", "designationCode": "C", "categoryCode": "13", "address": "1755 BOUL RENE-LAENNEC", "city": "LAVAL", "province": "QC", "country": "CA", "postalCode": "H7M3L9", "twitter": "None", "instagram": "None", "facebook": "None", "youtube": "None", "website": "None", "summary": "None", "logo": "None", "latitude": 45.60322751260356, "longitude": -73.71310596403872}, "118923705RR0001": {"name": "FONDATION LA CHAMPENOISE", "designationCode": "C", "categoryCode": "09", "address": "210 - 801 GRANDE ALLEE O", "city": "QUEBEC", "province": "QC", "country": "CA", "postalCode": "G1S1C1", "twitter": "None", "instagram": "None", "facebook": "None", "youtube": "None", "website": "None", "summary": "None", "logo": "None", "latitude": 46.79707551669151, "longitude": -71.23267117488822}, "887819753RR0001": {"name": "FONDATION LA CROISEE DES CHEMINS", "designationCode": "A", "categoryCode": "13", "address": "18480 BOULEVARD LACROIX       VILLE DE ST-GEORGES", "city": "BEAUCE", "province": "QC", "country": "CA", "postalCode": "G5Y5B8", "twitter": "None", "instagram": "None", "facebook": "None", "youtube": "None", "website": "None", "summary": "None", "logo": "None", "latitude": 46.09409010825653, "longitude": -70.63185904828386}, "861376234RR0001": {"name": "FONDATION LA MAISON D'H\u00c9BERGEMENT LE BALUCHON INC.", "designationCode": "A", "categoryCode": "03", "address": "2290, RUE SAINT-JOSEPH        CASIER POSTAL 653", "city": "SAINT-HYACINTHE", "province": "QC", "country": "CA", "postalCode": "J2S7P5", "twitter": "None", "instagram": "None", "facebook": "None", "youtube": "None", "website": "None", "summary": "None", "logo": "None", "latitude": 45.629157278665765, "longitude": -72.9554854099199}, "118923721RR0001": {"name": "FONDATION LA MAISONNEE PAULETTE GUINOIS", "designationCode": "B", "categoryCode": "09", "address": "2255 RUE BIENVILLE", "city": "LAVAL", "province": "QC", "country": "CA", "postalCode": "H7H3C9", "twitter": "None", "instagram": "None", "facebook": "None", "youtube": "None", "website": "None", "summary": "None", "logo": "None", "latitude": 45.65409746295224, "longitude": -73.74862366524347}, "890351778RR0001": {"name": "FONDATION LA MOSA\u00cfQUE", "designationCode": "A", "categoryCode": "13", "address": "1650 AVENUE DE L'EGLISE", "city": "LEMOYNE", "province": "QC", "country": "CA", "postalCode": "J4P2C8", "twitter": "None", "instagram": "None", "facebook": "None", "youtube": "None", "website": "None", "summary": "None", "logo": "None", "latitude": 45.50640185954196, "longitude": -73.49406125281341}, "861887214RR0001": {"name": "FONDATION LA RUE DES FEMMES/ HERSTREET FOUNDATION", "designationCode": "A", "categoryCode": "03", "address": "1050 RUE JEANNE-MANCE", "city": "MONTREAL", "province": "QC", "country": "CA", "postalCode": "H2Z1L7", "twitter": "None", "instagram": "None", "facebook": "None", "youtube": "None", "website": "None", "summary": "None", "logo": "None", "latitude": 45.50533295392121, "longitude": -73.5622461350337}, "878639509RR0001": {"name": "FONDATION LA SEJOURNELLE", "designationCode": "A", "categoryCode": "03", "address": "C.P. 22", "city": "SHAWINIGAN", "province": "QC", "country": "CA", "postalCode": "G9N6T8", "twitter": "None", "instagram": "None", "facebook": "None", "youtube": "None", "website": "None", "summary": "None", "logo": "None", "latitude": 46.589004311060805, "longitude": -72.70909791435174}, "855203303RR0001": {"name": "FONDATION LA SOURCE D'ESPOIR", "designationCode": "C", "categoryCode": "57", "address": "123 RUE DE LA MANITOU", "city": "TERREBONNE", "province": "QC", "country": "CA", "postalCode": "J6W6H4", "twitter": "None", "instagram": "None", "facebook": "None", "youtube": "None", "website": "None", "summary": "None", "logo": "None", "latitude": 45.72101639107844, "longitude": -73.64007665875125}, "846741676RR0001": {"name": "FONDATION LA VIOLETTE", "designationCode": "B", "categoryCode": "03", "address": "1850 BOUL. LE CORBUSIER       BUREAU 305", "city": "LAVAL", "province": "QC", "country": "CA", "postalCode": "H7S2K1", "twitter": "None", "instagram": "None", "facebook": "None", "youtube": "None", "website": "None", "summary": "None", "logo": "None", "latitude": 45.56838884122007, "longitude": -73.73662125829507}, "140905308RR0001": {"name": "FONDATION LAMONTAGNE", "designationCode": "B", "categoryCode": "05", "address": "600 LA GAUCHETIERE O.         28E SUITE 1762", "city": "MONTREAL", "province": "QC", "country": "CA", "postalCode": "H3B4L2", "twitter": "None", "instagram": "None", "facebook": "None", "youtube": "None", "website": "None", "summary": "None", "logo": "None", "latitude": 45.50188920231989, "longitude": -73.56436485827253}, "104483680RR0001": {"name": "FONDATION LANGEVIN INC.", "designationCode": "C", "categoryCode": "56", "address": "20-200 RUE MASSON", "city": "WINNIPEG", "province": "MB", "country": "CA", "postalCode": "R2H3G1", "twitter": "None", "instagram": "None", "facebook": "None", "youtube": "None", "website": "None", "summary": "None", "logo": "None", "latitude": 49.8913709003406, "longitude": -97.12120399526813}, "880861315RR0001": {"name": "FONDATION LANI ASSOGBA", "designationCode": "C", "categoryCode": "09", "address": "17, RUE DES FEES", "city": "GATINEAU", "province": "QC", "country": "CA", "postalCode": "J9A3M9", "twitter": "None", "instagram": "None", "facebook": "None", "youtube": "None", "website": "None", "summary": "None", "logo": "None", "latitude": 45.443143330284464, "longitude": -75.75546189964811}, "888649662RR0001": {"name": "FONDATION LAURE GAUDREAULT", "designationCode": "C", "categoryCode": "56", "address": "320, RUE ST-JOSEPH EST        BUREAU 100", "city": "QUEBEC", "province": "QC", "country": "CA", "postalCode": "G1K9E7", "twitter": "None", "instagram": "None", "facebook": "None", "youtube": "None", "website": "None", "summary": "None", "logo": "None", "latitude": 46.81386394702496, "longitude": -71.22569026299828}, "876044827RR0001": {"name": "FONDATION LAURENT PONTBRIAND - H\u00c9PATITE C", "designationCode": "B", "categoryCode": "11", "address": "109 RUE BRUNELLE", "city": "TROIS-RIVIERES", "province": "QC", "country": "CA", "postalCode": "G8T6A3", "twitter": "None", "instagram": "None", "facebook": "None", "youtube": "None", "website": "None", "summary": "None", "logo": "None", "latitude": 46.363435334987685, "longitude": -72.5121406608574}, "889583662RR0001": {"name": "FONDATION LAURIDELL/LAURIDELL FOUNDATION", "designationCode": "B", "categoryCode": "03", "address": "540-1002 RUE SHERBROOKE O.    SUITE 540", "city": "MONTREAL", "province": "QC", "country": "CA", "postalCode": "H3A3L6", "twitter": "None", "instagram": "None", "facebook": "None", "youtube": "None", "website": "None", "summary": "None", "logo": "None", "latitude": 45.50420051526984, "longitude": -73.57425178965626}, "835234279RR0001": {"name": "FONDATION LAVIGERIE", "designationCode": "C", "categoryCode": "47", "address": "29, RUE MICHELINE", "city": "GATINEAU", "province": "QC", "country": "CA", "postalCode": "J8T3G2", "twitter": "None", "instagram": "None", "facebook": "None", "youtube": "None", "website": "None", "summary": "None", "logo": "None", "latitude": 45.47097997446477, "longitude": -75.69328601260905}, "866654239RR0001": {"name": "FONDATION LAZARE", "designationCode": "C", "categoryCode": "09", "address": "116 - 2678 MCCALLUM RD", "city": "ABBOTSFORD", "province": "BC", "country": "CA", "postalCode": "V2S6X3", "twitter": "None", "instagram": "None", "facebook": "None", "youtube": "None", "website": "None", "summary": "None", "logo": "None", "latitude": 49.05035984263372, "longitude": -122.2937717636048}, "877343673RR0001": {"name": "FONDATION LE BER", "designationCode": "C", "categoryCode": "21", "address": "940 RUE SAINTE-FAMILLE", "city": "SHERBROOKE", "province": "QC", "country": "CA", "postalCode": "J1E1V1", "twitter": "None", "instagram": "None", "facebook": "None", "youtube": "None", "website": "None", "summary": "None", "logo": "None", "latitude": 45.41047254948393, "longitude": -71.86802111365341}, "860721893RR0001": {"name": "FONDATION LE BERCEAU DE L'AMOUR", "designationCode": "C", "categoryCode": "49", "address": "227 RUE SAINT-FELIX", "city": "DRUMMONDVILLE", "province": "QC", "country": "CA", "postalCode": "J2C5M1", "twitter": "None", "instagram": "None", "facebook": "None", "youtube": "None", "website": "None", "summary": "None", "logo": "None", "latitude": 45.895914502914195, "longitude": -72.5015794471692}, "890463862RR0001": {"name": "FONDATION LE BON PILOTE", "designationCode": "A", "categoryCode": "03", "address": "511 - 445 RUE JEAN-TALON O", "city": "MONTREAL", "province": "QC", "country": "CA", "postalCode": "H3N1R1", "twitter": "None", "instagram": "None", "facebook": "None", "youtube": "None", "website": "None", "summary": "None", "logo": "None", "latitude": 45.52766958284865, "longitude": -73.62384609093239}, "812169548RR0001": {"name": "FONDATION LE BOULOT VERS...", "designationCode": "A", "categoryCode": "23", "address": "4447 DE ROUEN", "city": "MONTREAL", "province": "QC", "country": "CA", "postalCode": "H1V1H1", "twitter": "None", "instagram": "None", "facebook": "None", "youtube": "None", "website": "None", "summary": "None", "logo": "None", "latitude": 45.55500578657161, "longitude": -73.54248161561532}, "877484477RR0001": {"name": "FONDATION LE CASTELET", "designationCode": "C", "categoryCode": "21", "address": "4200, RUE ROBERT", "city": "TERREBONNE", "province": "QC", "country": "CA", "postalCode": "J6X2N9", "twitter": "None", "instagram": "None", "facebook": "None", "youtube": "None", "website": "None", "summary": "None", "logo": "None", "latitude": 45.718752556697275, "longitude": -73.66547105966879}, "118923812RR0001": {"name": "FONDATION LE COLL\u00c8GE SAINT-CHARLES-GARNIER DE QU\u00c9BEC", "designationCode": "A", "categoryCode": "23", "address": "1150 BOUL. REN\u00c9 L\u00c9VESQUE OUEST", "city": "QU\u00c9BEC", "province": "QC", "country": "CA", "postalCode": "G1S1V7", "twitter": "None", "instagram": "None", "facebook": "None", "youtube": "None", "website": "None", "summary": "None", "logo": "None", "latitude": 46.79403917488201, "longitude": -71.24492263923915}, "887559151RR0001": {"name": "FONDATION LE F.A.R.", "designationCode": "A", "categoryCode": "03", "address": "C.P. 35042 CSP STE-MADELEINE", "city": "TROIS-RIVIERES", "province": "QC", "country": "CA", "postalCode": "G8T9T5", "twitter": "None", "instagram": "None", "facebook": "None", "youtube": "None", "website": "None", "summary": "None", "logo": "None", "latitude": 46.37563159911374, "longitude": -72.49459003179996}, "862567286RR0001": {"name": "FONDATION LE FOYER NOTRE-DAME-DE-LOURDES INC. / FOYER NOTRE-DAME-DE-LOURDES FOUNDATION INC.", "designationCode": "A", "categoryCode": "13", "address": "2055, PROMENADE VALLEE LOURDES", "city": "BATHURST", "province": "NB", "country": "CA", "postalCode": "E2A4P8", "twitter": "None", "instagram": "None", "facebook": "None", "youtube": "None", "website": "None", "summary": "None", "logo": "None", "latitude": 47.65333208725695, "longitude": -65.68880177892208}, "887314235RR0001": {"name": "FONDATION LE P\u00c9LICAN", "designationCode": "C", "categoryCode": "23", "address": "897, RUE MAPLE", "city": "LONGUEUIL", "province": "QC", "country": "CA", "postalCode": "J4J4N3", "twitter": "None", "instagram": "None", "facebook": "None", "youtube": "None", "website": "None", "summary": "None", "logo": "None", "latitude": 45.54298215211481, "longitude": -73.48556803883676}, "134562925RR0001": {"name": "FONDATION LE PARRAINAGE INC", "designationCode": "C", "categoryCode": "11", "address": "3255 RUE FOUCHER", "city": "TROIS-RIVIERES", "province": "QC", "country": "CA", "postalCode": "G8Z1M6", "twitter": "None", "instagram": "None", "facebook": "None", "youtube": "None", "website": "None", "summary": "None", "logo": "None", "latitude": 46.35541264804678, "longitude": -72.5680814740894}, "136721610RR0001": {"name": "FONDATION LE RAYON D'ESPOIR DE LA MRC DE BELLECHASSE", "designationCode": "C", "categoryCode": "09", "address": "80, BOULEVARD BEGIN", "city": "SAINTE-CLAIRE", "province": "QC", "country": "CA", "postalCode": "G0R2V0", "twitter": "None", "instagram": "None", "facebook": "None", "youtube": "None", "website": "None", "summary": "None", "logo": "None", "latitude": 46.60060265350583, "longitude": -70.87104557334911}, "107613978RR0001": {"name": "FONDATION LE RENFORT GRANDE LIGNE", "designationCode": "A", "categoryCode": "03", "address": "315 MACDONALD BUREAU 105", "city": "SAINT-JEAN-SUR-RICHELIEU", "province": "QC", "country": "CA", "postalCode": "J3B8J3", "twitter": "None", "instagram": "None", "facebook": "None", "youtube": "None", "website": "None", "summary": "None", "logo": "None", "latitude": 45.325490486582886, "longitude": -73.26574144463038}, "890261985RR0001": {"name": "FONDATION LE TERRIER", "designationCode": "C", "categoryCode": "01", "address": "CP 164", "city": "MANIWAKI", "province": "QC", "country": "CA", "postalCode": "J9E3B4", "twitter": "None", "instagram": "None", "facebook": "None", "youtube": "None", "website": "None", "summary": "None", "logo": "None", "latitude": 46.42658377451007, "longitude": -75.73963193860425}, "898973318RR0001": {"name": "FONDATION LE TREMPLIN DE DRUMMOND", "designationCode": "A", "categoryCode": "03", "address": "625 LINDSAY", "city": "DRUMMONDVILLE", "province": "QC", "country": "CA", "postalCode": "J2B1H8", "twitter": "None", "instagram": "None", "facebook": "None", "youtube": "None", "website": "None", "summary": "None", "logo": "None", "latitude": 45.87702937243945, "longitude": -72.47741483031312}, "893754184RR0001": {"name": "FONDATION LEBEL", "designationCode": "A", "categoryCode": "13", "address": "950, BOUL. QU\u00c9VILLON          C.P. 5000", "city": "LEBEL-SUR-QU\u00c9VILLON", "province": "QC", "country": "CA", "postalCode": "J0Y1X0", "twitter": "None", "instagram": "None", "facebook": "None", "youtube": "None", "website": "None", "summary": "None", "logo": "None", "latitude": 49.05371564259975, "longitude": -76.98131850600039}, "118923804RR0001": {"name": "FONDATION LECLERC INC.", "designationCode": "B", "categoryCode": "21", "address": "195, RUE DENISON OUEST", "city": "GRANBY", "province": "QC", "country": "CA", "postalCode": "J2G4E2", "twitter": "None", "instagram": "None", "facebook": "None", "youtube": "None", "website": "None", "summary": "None", "logo": "None", "latitude": 45.39585692091284, "longitude": -72.72452071816024}, "867903619RR0001": {"name": "FONDATION LEGARE", "designationCode": "B", "categoryCode": "23", "address": "443 RUE COMTOIS", "city": "OTTERBURN PARK", "province": "QC", "country": "CA", "postalCode": "J3H3Z8", "twitter": "None", "instagram": "None", "facebook": "None", "youtube": "None", "website": "None", "summary": "None", "logo": "None", "latitude": 45.54772517375491, "longitude": -73.19106984955862}, "886192392RR0001": {"name": "FONDATION LEO CORMIER", "designationCode": "C", "categoryCode": "21", "address": "CP 65023 BP MOZART 6910       ST DENIS", "city": "MONTR\u00c9AL", "province": "QC", "country": "CA", "postalCode": "H2S2S2", "twitter": "None", "instagram": "None", "facebook": "None", "youtube": "None", "website": "None", "summary": "None", "logo": "None", "latitude": 45.53698085178032, "longitude": -73.61168298280332}, "825536360RR0001": {"name": "FONDATION LES AMIES D'EMMA ROSE", "designationCode": "B", "categoryCode": "03", "address": "231, RUE LOUISE", "city": "VICTORIAVILLE", "province": "QC", "country": "CA", "postalCode": "G6T1P8", "twitter": "None", "instagram": "None", "facebook": "None", "youtube": "None", "website": "None", "summary": "None", "logo": "None", "latitude": 46.07154529141904, "longitude": -71.99532807470109}, "842476541RR0001": {"name": "FONDATION LES AMIS D'ELLIOT", "designationCode": "A", "categoryCode": "13", "address": "450, BOUL. BOIS-FRANCS NORD", "city": "VICTORIAVILLE", "province": "QC", "country": "CA", "postalCode": "G6P1H3", "twitter": "None", "instagram": "None", "facebook": "None", "youtube": "None", "website": "None", "summary": "None", "logo": "None", "latitude": 46.067431067476356, "longitude": -71.9669817999617}, "136598208RR0001": {"name": "FONDATION LES AMIS DE LA C.A.S.A.", "designationCode": "A", "categoryCode": "03", "address": "1215 BOUL SAINTE-FOY", "city": "LONGUEUIL", "province": "QC", "country": "CA", "postalCode": "J4K1X4", "twitter": "None", "instagram": "None", "facebook": "None", "youtube": "None", "website": "None", "summary": "None", "logo": "None", "latitude": 45.515851344162925, "longitude": -73.49852444105237}, "871804019RR0001": {"name": "FONDATION LES AMIS DE LA DAUPHINELLE", "designationCode": "A", "categoryCode": "03", "address": "C.P. 55512                    CENTRE MAISONNEUVE", "city": "MONTREAL", "province": "QC", "country": "CA", "postalCode": "H1W0A1", "twitter": "None", "instagram": "None", "facebook": "None", "youtube": "None", "website": "None", "summary": "None", "logo": "None", "latitude": 45.51239400000006, "longitude": -73.55469049999994}, "118923879RR0001": {"name": "FONDATION LES AMIS DU PERE ARMAND GAGNE INC.", "designationCode": "C", "categoryCode": "59", "address": "CP 944                        SUCCURSALE PL-DESJARDINS", "city": "MONTR\u00c9AL", "province": "QC", "country": "CA", "postalCode": "H5B1C1", "twitter": "None", "instagram": "None", "facebook": "None", "youtube": "None", "website": "None", "summary": "None", "logo": "None", "latitude": 45.51239400000006, "longitude": -73.55469049999994}, "830117321RR0001": {"name": "FONDATION LES ENFANTS DE L'AVENIR / TOMORROW'S CHILDREN FOUNDATION", "designationCode": "A", "categoryCode": "23", "address": "570 GREGORY", "city": "GREENFIELD PARK", "province": "QC", "country": "CA", "postalCode": "J4V1T6", "twitter": "None", "instagram": "None", "facebook": "None", "youtube": "None", "website": "None", "summary": "None", "logo": "None", "latitude": 45.485037606728525, "longitude": -73.47988253231588}, "102934189RR0001": {"name": "FONDATION LES FORGES", "designationCode": "C", "categoryCode": "22", "address": "1497 RUE LAVIOLETTE", "city": "TROIS-RIVIERES", "province": "QC", "country": "CA", "postalCode": "G9A5G4", "twitter": "None", "instagram": "None", "facebook": "None", "youtube": "None", "website": "None", "summary": "None", "logo": "None", "latitude": 46.352834173177996, "longitude": -72.55051133293885}, "101836260RR0001": {"name": "FONDATION LES OISELEURS DU QU\u00c9BEC INC.", "designationCode": "C", "categoryCode": "54", "address": "2044 CH DEMERS", "city": "LEVIS", "province": "QC", "country": "CA", "postalCode": "G7A2N3", "twitter": "None", "instagram": "None", "facebook": "None", "youtube": "None", "website": "None", "summary": "None", "logo": "None", "latitude": 46.67131254956989, "longitude": -71.42561266391581}, "858314487RR0001": {"name": "FONDATION LES P'TITS LUTINS / THE LITTLE ELVES FOUNDATION", "designationCode": "C", "categoryCode": "09", "address": "CP. 121                       SUCC. PLACE D'ARMES", "city": "MONTREAL", "province": "QC", "country": "CA", "postalCode": "H2Y3H8", "twitter": "None", "instagram": "None", "facebook": "None", "youtube": "None", "website": "None", "summary": "None", "logo": "None", "latitude": 45.50475000000006, "longitude": -73.55678999999998}, "863929675RR0001": {"name": "FONDATION LES RESIDENCES MGR. CHIASSON INC.", "designationCode": "A", "categoryCode": "03", "address": "130 BOUL J D GAUTHIER", "city": "SHIPPAGAN", "province": "NB", "country": "CA", "postalCode": "E8S1N8", "twitter": "None", "instagram": "None", "facebook": "None", "youtube": "None", "website": "None", "summary": "None", "logo": "None", "latitude": 47.74396200000005, "longitude": -64.72448899999993}, "835010679RR0001": {"name": "FONDATION LES RESIDENCES SOLEIL", "designationCode": "B", "categoryCode": "03", "address": "549 RUE DE VERRAZANO", "city": "BOUCHERVILLE", "province": "QC", "country": "CA", "postalCode": "J4B7W2", "twitter": "None", "instagram": "None", "facebook": "None", "youtube": "None", "website": "None", "summary": "None", "logo": "None", "latitude": 45.60212230339292, "longitude": -73.44389597492612}, "868223934RR0001": {"name": "FONDATION LES ROSES DE L'ESPOIR/ROSES OF HOPE FOUNDATION", "designationCode": "B", "categoryCode": "03", "address": "4320 PIERRE DE COUBERTIN", "city": "MONTREAL", "province": "QC", "country": "CA", "postalCode": "H1V1A6", "twitter": "None", "instagram": "None", "facebook": "None", "youtube": "None", "website": "None", "summary": "None", "logo": "None", "latitude": 45.55644496139437, "longitude": -73.54977269239481}, "889461778RR0001": {"name": "FONDATION LEVESQUE/CRAIGHEAD", "designationCode": "A", "categoryCode": "13", "address": "C.P. 576", "city": "BEDFORD", "province": "QC", "country": "CA", "postalCode": "J0J1A0", "twitter": "None", "instagram": "None", "facebook": "None", "youtube": "None", "website": "None", "summary": "None", "logo": "None", "latitude": 45.06676162231261, "longitude": -72.96488738076664}, "893703504RR0001": {"name": "FONDATION LINDA LEMORE-BROWN / LINDA LEMORE-BROWN FOUNDATION", "designationCode": "C", "categoryCode": "11", "address": "208B BOUL GERARD-D.-LEVESQUE", "city": "NEW CARLISLE", "province": "QC", "country": "CA", "postalCode": "G0C1Z0", "twitter": "None", "instagram": "None", "facebook": "None", "youtube": "None", "website": "None", "summary": "None", "logo": "None", "latitude": 48.00835282539971, "longitude": -65.3399551019699}, "891175945RR0001": {"name": "FONDATION LIVREDON", "designationCode": "C", "categoryCode": "22", "address": "540 - 107E AVENUE", "city": "DRUMMONVILLE", "province": "QC", "country": "CA", "postalCode": "J2B4M8", "twitter": "None", "instagram": "None", "facebook": "None", "youtube": "None", "website": "None", "summary": "None", "logo": "None", "latitude": 45.86379802859365, "longitude": -72.4633526147786}, "791124720RR0001": {"name": "FONDATION LO\u00cfC RWIGEMA LO\u00cfC RWIGEMA FOUNDATION", "designationCode": "C", "categoryCode": "21", "address": "203 - 1200 RUE DU FORT", "city": "MONTREAL", "province": "QC", "country": "CA", "postalCode": "H3H2B3", "twitter": "None", "instagram": "None", "facebook": "None", "youtube": "None", "website": "None", "summary": "None", "logo": "None", "latitude": 45.49085706852694, "longitude": -73.57981007063304}, "888120300RR0001": {"name": "FONDATION LOGOS", "designationCode": "B", "categoryCode": "03", "address": "1694 RUE SIROIS", "city": "LA BAIE", "province": "QC", "country": "CA", "postalCode": "G7B2S3", "twitter": "None", "instagram": "None", "facebook": "None", "youtube": "None", "website": "None", "summary": "None", "logo": "None", "latitude": 48.33738623123065, "longitude": -70.89059734958728}, "897960449RR0001": {"name": "FONDATION LOISIR C\u00d4TE-NORD", "designationCode": "A", "categoryCode": "03", "address": "203 - 337 BOUL LA SALLE", "city": "BAIE-COMEAU", "province": "QC", "country": "CA", "postalCode": "G4Z2Z1", "twitter": "None", "instagram": "None", "facebook": "None", "youtube": "None", "website": "None", "summary": "None", "logo": "None", "latitude": 49.21478700000006, "longitude": -68.19360649999993}, "826082760RR0001": {"name": "FONDATION LORRAINE BERNARD", "designationCode": "B", "categoryCode": "13", "address": "35 BOULEVARD YVON L'HEUREUX N APT. 7", "city": "BELOEIL", "province": "QC", "country": "CA", "postalCode": "J3G6L6", "twitter": "None", "instagram": "None", "facebook": "None", "youtube": "None", "website": "None", "summary": "None", "logo": "None", "latitude": 45.558095093513906, "longitude": -73.23065226351788}, "851690776RR0001": {"name": "FONDATION LORRAINE ET JEAN TURMEL", "designationCode": "B", "categoryCode": "03", "address": "200 - 1130 RUE SHERBROOKE O", "city": "MONTREAL", "province": "QC", "country": "CA", "postalCode": "H3A2M8", "twitter": "None", "instagram": "None", "facebook": "None", "youtube": "None", "website": "None", "summary": "None", "logo": "None", "latitude": 45.50420051526984, "longitude": -73.57425178965626}, "141400275RR0001": {"name": "FONDATION LOUIS GONZAGUE BOLDUC INC", "designationCode": "C", "categoryCode": "19", "address": "961 DE LA CLINIQUE", "city": "SENNETERRE", "province": "QC", "country": "CA", "postalCode": "J0Y2M0", "twitter": "None", "instagram": "None", "facebook": "None", "youtube": "None", "website": "None", "summary": "None", "logo": "None", "latitude": 48.384094485140594, "longitude": -77.25191305689883}, "131225856RR0001": {"name": "FONDATION LOUIS-CHARLES ROUTHIER", "designationCode": "B", "categoryCode": "23", "address": "9761 BOULEVARD DES SCIENCES", "city": "ANJOU", "province": "QC", "country": "CA", "postalCode": "H1J0A6", "twitter": "None", "instagram": "None", "facebook": "None", "youtube": "None", "website": "None", "summary": "None", "logo": "None", "latitude": 45.61975332667778, "longitude": -73.55756485097226}, "118923978RR0001": {"name": "FONDATION LOUIS-MARIE PARENT", "designationCode": "C", "categoryCode": "49", "address": "7385, BOUL. PARENT", "city": "TROIS-RIVIERES", "province": "QC", "country": "CA", "postalCode": "G9A5E1", "twitter": "None", "instagram": "None", "facebook": "None", "youtube": "None", "website": "None", "summary": "None", "logo": "None", "latitude": 46.36327706520871, "longitude": -72.6256077571699}, "124711755RR0001": {"name": "FONDATION LOUIS-PHILIPPE JANVIER", "designationCode": "A", "categoryCode": "03", "address": "476 RUE DU LYS-BLANC", "city": "GRANBY", "province": "QC", "country": "CA", "postalCode": "J2H3B8", "twitter": "None", "instagram": "None", "facebook": "None", "youtube": "None", "website": "None", "summary": "None", "logo": "None", "latitude": 45.397477028016716, "longitude": -72.68823115696225}, "891504961RR0001": {"name": "FONDATION LOUIS-ST-LAURENT", "designationCode": "C", "categoryCode": "21", "address": "188 RUE KENNEDY", "city": "EAST ANGUS", "province": "QC", "country": "CA", "postalCode": "J0B1R0", "twitter": "None", "instagram": "None", "facebook": "None", "youtube": "None", "website": "None", "summary": "None", "logo": "None", "latitude": 45.48966867659856, "longitude": -71.65320417659855}, "867363640RR0001": {"name": "FONDATION LUCIE ET ANDR\u00c9 CHAGNON LUCIE AND ANDR\u00c9 CHAGNON FOUNDATION", "designationCode": "B", "categoryCode": "09", "address": "1000-2001 AVE MCGILL COLLEGE", "city": "MONTREAL", "province": "QC", "country": "CA", "postalCode": "H3A1G1", "twitter": "None", "instagram": "None", "facebook": "None", "youtube": "None", "website": "None", "summary": "None", "logo": "None", "latitude": 45.50352596283666, "longitude": -73.57416041975898}, "101836302RR0001": {"name": "FONDATION LUCIEN PICHE", "designationCode": "C", "categoryCode": "21", "address": "300, RUE L\u00c9O-PARISEAU         BUREAU 2199", "city": "MONTR\u00c9AL", "province": "QC", "country": "CA", "postalCode": "H2X4B3", "twitter": "None", "instagram": "None", "facebook": "None", "youtube": "None", "website": "None", "summary": "None", "logo": "None", "latitude": 45.511395832621744, "longitude": -73.57691132927485}, "865740690RR0001": {"name": "FONDATION LYNDA GAUTHIER", "designationCode": "C", "categoryCode": "09", "address": "720 12E CHEMIN DU LAC-CLAIR", "city": "FALARDEAU", "province": "QC", "country": "CA", "postalCode": "G0V1C0", "twitter": "None", "instagram": "None", "facebook": "None", "youtube": "None", "website": "None", "summary": "None", "logo": "None", "latitude": 48.630284536528144, "longitude": -71.1018359493909}, "891494742RR0001": {"name": "FONDATION M.A.S.S.E.", "designationCode": "C", "categoryCode": "21", "address": "1, RUE ST-ALEXANDRE", "city": "GATINEAU", "province": "QC", "country": "CA", "postalCode": "J8V1A8", "twitter": "None", "instagram": "None", "facebook": "None", "youtube": "None", "website": "None", "summary": "None", "logo": "None", "latitude": 45.49413229251557, "longitude": -75.75382783071714}, "118942762RR0001": {"name": "FONDATION M\u00c9LIO", "designationCode": "C", "categoryCode": "09", "address": "5200 RUE BELANGER EST", "city": "MONTREAL", "province": "QC", "country": "CA", "postalCode": "H1T1C9", "twitter": "None", "instagram": "None", "facebook": "None", "youtube": "None", "website": "None", "summary": "None", "logo": "None", "latitude": 45.57556607143208, "longitude": -73.57799131574424}, "140450081RR0001": {"name": "FONDATION M\u00c8RE PAUL-MARIE INC.", "designationCode": "A", "categoryCode": "43", "address": "626 ROUTE DU SANCTUAIRE", "city": "LAC-ETCHEMIN", "province": "QC", "country": "CA", "postalCode": "G0R1S0", "twitter": "None", "instagram": "None", "facebook": "None", "youtube": "None", "website": "None", "summary": "None", "logo": "None", "latitude": 46.38889625578277, "longitude": -70.50398658702751}, "889592135RR0001": {"name": "FONDATION MADELI-AIDE", "designationCode": "C", "categoryCode": "21", "address": "CP 52028 CSP FABREVILLE", "city": "LAVAL", "province": "QC", "country": "CA", "postalCode": "H7P5S1", "twitter": "None", "instagram": "None", "facebook": "None", "youtube": "None", "website": "None", "summary": "None", "logo": "None", "latitude": 45.568170000000066, "longitude": -73.83966999999996}, "886318591RR0001": {"name": "FONDATION MAGALIE JOACHIM", "designationCode": "C", "categoryCode": "11", "address": "5122 C\u00d4TE-DES-NEIGES          C.P. 49505", "city": "MONTR\u00c9AL", "province": "QC", "country": "CA", "postalCode": "H3T2A5", "twitter": "None", "instagram": "None", "facebook": "None", "youtube": "None", "website": "None", "summary": "None", "logo": "None", "latitude": 45.495031516504206, "longitude": -73.61944239745507}, "864563523RR0001": {"name": "FONDATION MAGNANI-MONTARULI", "designationCode": "C", "categoryCode": "23", "address": "15 AVENUE ALLIANCE", "city": "MONTR\u00c9AL", "province": "QC", "country": "CA", "postalCode": "H4K2C7", "twitter": "None", "instagram": "None", "facebook": "None", "youtube": "None", "website": "None", "summary": "None", "logo": "None", "latitude": 45.51161645019896, "longitude": -73.7539660182932}, "103464459RR0001": {"name": "FONDATION MAGOR INC. / MAGOR FOUNDATION INC.", "designationCode": "A", "categoryCode": "01", "address": "7384 ST-DENIS", "city": "MONTREAL", "province": "QC", "country": "CA", "postalCode": "H2R2E4", "twitter": "None", "instagram": "None", "facebook": "None", "youtube": "None", "website": "None", "summary": "None", "logo": "None", "latitude": 45.53942310072725, "longitude": -73.61822001056024}, "828095521RR0001": {"name": "FONDATION MAINS DE L'ESPOIR DE CHARLEVOIX", "designationCode": "C", "categoryCode": "11", "address": "367 SAINT-ETIENNE             BUREAU 317", "city": "LA MALBAIE", "province": "QC", "country": "CA", "postalCode": "G5A1M3", "twitter": "None", "instagram": "None", "facebook": "None", "youtube": "None", "website": "None", "summary": "None", "logo": "None", "latitude": 47.65423718847008, "longitude": -70.14977797108924}, "878106558RR0001": {"name": "FONDATION MAISON CARPE DIEM", "designationCode": "A", "categoryCode": "13", "address": "1765, BOULEVARD ST-LOUIS", "city": "TROIS-RIVIERES", "province": "QC", "country": "CA", "postalCode": "G8Z2N7", "twitter": "None", "instagram": "None", "facebook": "None", "youtube": "None", "website": "None", "summary": "None", "logo": "None", "latitude": 46.35395114709449, "longitude": -72.55621995262221}, "133062539RR0001": {"name": "FONDATION MAISON COLOMBE-VEILLEUX", "designationCode": "A", "categoryCode": "03", "address": "1832, BOUL. WALLBERG", "city": "DOLBEAU", "province": "QC", "country": "CA", "postalCode": "G8L1H9", "twitter": "None", "instagram": "None", "facebook": "None", "youtube": "None", "website": "None", "summary": "None", "logo": "None", "latitude": 48.88276543493553, "longitude": -72.23534794157196}, "891226458RR0001": {"name": "FONDATION MAISON DE LA FAMILLE LOTBINIERE INC.", "designationCode": "A", "categoryCode": "03", "address": "81 RUE ROUSSEAU", "city": "ST-APOLLINAIRE", "province": "QC", "country": "CA", "postalCode": "G0S2E0", "twitter": "None", "instagram": "None", "facebook": "None", "youtube": "None", "website": "None", "summary": "None", "logo": "None", "latitude": 46.61298230420099, "longitude": -71.50348480056564}, "890987498RR0001": {"name": "FONDATION MAISON EMMANUEL MAISON EMMANUEL FOUNDATION", "designationCode": "A", "categoryCode": "03", "address": "1561 CHEMIN BEAULNE", "city": "VAL-MORIN", "province": "QC", "country": "CA", "postalCode": "J0T2R0", "twitter": "None", "instagram": "None", "facebook": "None", "youtube": "None", "website": "None", "summary": "None", "logo": "None", "latitude": 45.98374057170093, "longitude": -74.22442859088815}, "120794813RR0001": {"name": "FONDATION MAISON L'ALC\u00d4VE", "designationCode": "A", "categoryCode": "03", "address": "5000 BOUL LAURIER             CP 730", "city": "ST-HYACINTHE", "province": "QC", "country": "CA", "postalCode": "J2S7P5", "twitter": "None", "instagram": "None", "facebook": "None", "youtube": "None", "website": "None", "summary": "None", "logo": "None", "latitude": 45.606626251831344, "longitude": -72.97621672305928}, "892685223RR0001": {"name": "FONDATION MAISON ODETTE", "designationCode": "A", "categoryCode": "03", "address": "5555 RUE DE SALABERRY", "city": "MONTREAL", "province": "QC", "country": "CA", "postalCode": "H4J1J5", "twitter": "None", "instagram": "None", "facebook": "None", "youtube": "None", "website": "None", "summary": "None", "logo": "None", "latitude": 45.530467875151174, "longitude": -73.70941057210402}, "896444874RR0001": {"name": "FONDATION MAISON VICTOR-GADBOIS", "designationCode": "A", "categoryCode": "13", "address": "1000 RUE CHABOT", "city": "ST-MATHIEU-DE-BELOEIL", "province": "QC", "country": "CA", "postalCode": "J3G4S5", "twitter": "None", "instagram": "None", "facebook": "None", "youtube": "None", "website": "None", "summary": "None", "logo": "None", "latitude": 45.59087805883208, "longitude": -73.28003181851213}, "864141296RR0001": {"name": "FONDATION MAISONS ANCIENNES DU QU\u00c9BEC", "designationCode": "A", "categoryCode": "52", "address": "4649 RUE DE BREBEUF", "city": "MONTREAL", "province": "QC", "country": "CA", "postalCode": "H2J3L2", "twitter": "None", "instagram": "None", "facebook": "None", "youtube": "None", "website": "None", "summary": "None", "logo": "None", "latitude": 45.530365148219694, "longitude": -73.58023795891287}, "866095284RR0001": {"name": "FONDATION MAMAN DION", "designationCode": "B", "categoryCode": "09", "address": "100, RUE GRENIER,             SUITE 202", "city": "CHARLEMAGNE", "province": "QC", "country": "CA", "postalCode": "J5Z4C6", "twitter": "None", "instagram": "None", "facebook": "None", "youtube": "None", "website": "None", "summary": "None", "logo": "None", "latitude": 45.721054141554575, "longitude": -73.48902906708369}, "892675844RR0001": {"name": "FONDATION MANOIR WESTMOUNT/MANOIR WESTMOUNT FOUNDATION", "designationCode": "A", "categoryCode": "03", "address": "4646 RUE SHERBROOKE OUEST", "city": "WESTMOUNT", "province": "QC", "country": "CA", "postalCode": "H3Z2Z8", "twitter": "None", "instagram": "None", "facebook": "None", "youtube": "None", "website": "None", "summary": "None", "logo": "None", "latitude": 45.48116860612294, "longitude": -73.60091342596273}}