{"118861681RR0003": {"name": "CHURCH OF ST. JOHN THE BAPTIST", "designationCode": "C", "categoryCode": "30", "address": "1532 RAVENSCLIFFE RD.  RR-1", "city": "HUNTSVILLE", "province": "ON", "country": "CA", "postalCode": "P1H2J2", "twitter": "None", "instagram": "None", "facebook": "None", "youtube": "None", "website": "None", "summary": "None", "logo": "None", "latitude": 45.3627448815278, "longitude": -79.27997225869912}, "873229843RR0001": {"name": "CHURCH OF ST. JOHN THE BAPTIST", "designationCode": "C", "categoryCode": "30", "address": "BOX 1391", "city": "ST. PAUL", "province": "AB", "country": "CA", "postalCode": "T0A3A0", "twitter": "None", "instagram": "None", "facebook": "None", "youtube": "None", "website": "None", "summary": "None", "logo": "None", "latitude": 53.99207006217902, "longitude": -111.26834992613558}, "106925209RR0002": {"name": "CHURCH OF ST. JOHN THE BAPTIST, NORWAY", "designationCode": "C", "categoryCode": "30", "address": "470 WOODBINE AVENUE", "city": "TORONTO", "province": "ON", "country": "CA", "postalCode": "M4E2H6", "twitter": "None", "instagram": "None", "facebook": "None", "youtube": "None", "website": "None", "summary": "None", "logo": "None", "latitude": 43.6750191515379, "longitude": -79.3083963393155}, "106713753RR0011": {"name": "CHURCH OF ST. JOHN THE DIVINE", "designationCode": "C", "categoryCode": "30", "address": "465 KINCHANT ST.", "city": "QUESNEL", "province": "BC", "country": "CA", "postalCode": "V2J2R7", "twitter": "None", "instagram": "None", "facebook": "None", "youtube": "None", "website": "None", "summary": "None", "logo": "None", "latitude": 52.980592578683144, "longitude": -122.49420683752648}, "108099771RR0038": {"name": "CHURCH OF ST. JOHN THE DIVINE", "designationCode": "C", "categoryCode": "30", "address": "35 OTTAWA ST.N. PO BOX 8", "city": "CAYUGA", "province": "ON", "country": "CA", "postalCode": "N0A1E0", "twitter": "None", "instagram": "None", "facebook": "None", "youtube": "None", "website": "None", "summary": "None", "logo": "None", "latitude": 42.95263676128638, "longitude": -79.8584732500942}, "118861731RR0002": {"name": "CHURCH OF ST. JOHN THE DIVINE", "designationCode": "C", "categoryCode": "30", "address": "PO BOX 129", "city": "ARVA", "province": "ON", "country": "CA", "postalCode": "N0M1C0", "twitter": "None", "instagram": "None", "facebook": "None", "youtube": "None", "website": "None", "summary": "None", "logo": "None", "latitude": 43.05022943867636, "longitude": -81.29159978618908}, "888429891RR0002": {"name": "CHURCH OF ST. JOHN THE DIVINE", "designationCode": "C", "categoryCode": "30", "address": "301 MAIN ST. EAST", "city": "NORTH BAY", "province": "ON", "country": "CA", "postalCode": "P1B1B3", "twitter": "None", "instagram": "None", "facebook": "None", "youtube": "None", "website": "None", "summary": "None", "logo": "None", "latitude": 46.30743991173757, "longitude": -79.46150775021634}, "118861764RR0001": {"name": "CHURCH OF ST. JOHN THE DIVINE SCARBOROUGH", "designationCode": "C", "categoryCode": "30", "address": "885 SCARBOROUGH GOLF CLUB RD", "city": "SCARBOROUGH", "province": "ON", "country": "CA", "postalCode": "M1G1J6", "twitter": "None", "instagram": "None", "facebook": "None", "youtube": "None", "website": "None", "summary": "None", "logo": "None", "latitude": 43.77258648433254, "longitude": -79.2197608203594}, "108084658RR0007": {"name": "CHURCH OF ST. JOHN THE EVANGELIST", "designationCode": "C", "categoryCode": "30", "address": "154 SOMERSET ST W", "city": "OTTAWA", "province": "ON", "country": "CA", "postalCode": "K2P0H8", "twitter": "None", "instagram": "None", "facebook": "None", "youtube": "None", "website": "None", "summary": "None", "logo": "None", "latitude": 45.41798067303377, "longitude": -75.68997072771089}, "108099771RR0063": {"name": "CHURCH OF ST. JOHN THE EVANGELIST", "designationCode": "C", "categoryCode": "30", "address": "320 CHARLTON AVE W", "city": "HAMILTON", "province": "ON", "country": "CA", "postalCode": "L8P2E7", "twitter": "None", "instagram": "None", "facebook": "None", "youtube": "None", "website": "None", "summary": "None", "logo": "None", "latitude": 43.25345509576425, "longitude": -79.88683383735359}, "108099771RR0078": {"name": "CHURCH OF ST. JOHN THE EVANGELIST", "designationCode": "C", "categoryCode": "30", "address": "3428 PORTAGE RD", "city": "NIAGARA FALLS", "province": "ON", "country": "CA", "postalCode": "L2J2K4", "twitter": "None", "instagram": "None", "facebook": "None", "youtube": "None", "website": "None", "summary": "None", "logo": "None", "latitude": 43.12350813044608, "longitude": -79.09953545513329}, "118861772RR0002": {"name": "CHURCH OF ST. JOHN THE EVANGELIST", "designationCode": "C", "categoryCode": "30", "address": "1110, ST-LOUIS", "city": "PORTNEUF-STATION", "province": "QC", "country": "CA", "postalCode": "G0A2Y0", "twitter": "None", "instagram": "None", "facebook": "None", "youtube": "None", "website": "None", "summary": "None", "logo": "None", "latitude": 46.71358292004345, "longitude": -71.89674273552454}, "118861806RR0002": {"name": "CHURCH OF ST. JOHN THE EVANGELIST", "designationCode": "C", "categoryCode": "30", "address": "244 STAGECOACH RD", "city": "BROME", "province": "QC", "country": "CA", "postalCode": "J0E1K0", "twitter": "None", "instagram": "None", "facebook": "None", "youtube": "None", "website": "None", "summary": "None", "logo": "None", "latitude": 45.18454921470876, "longitude": -72.58546137850882}, "118861855RR0002": {"name": "CHURCH OF ST. JOHN THE EVANGELIST", "designationCode": "C", "categoryCode": "30", "address": "23 WATER ST.N.", "city": "KITCHENER", "province": "ON", "country": "CA", "postalCode": "N2H5A4", "twitter": "None", "instagram": "None", "facebook": "None", "youtube": "None", "website": "None", "summary": "None", "logo": "None", "latitude": 43.452418212591674, "longitude": -80.4941515296615}, "118861889RR0002": {"name": "CHURCH OF ST. JOHN THE EVANGELIST", "designationCode": "C", "categoryCode": "30", "address": "60 ERIE STREET NORTH", "city": "LEAMINGTON", "province": "ON", "country": "CA", "postalCode": "N8H2Z5", "twitter": "None", "instagram": "None", "facebook": "None", "youtube": "None", "website": "None", "summary": "None", "logo": "None", "latitude": 42.0551639372728, "longitude": -82.59963411457706}, "118861897RR0002": {"name": "CHURCH OF ST. JOHN THE EVANGELIST", "designationCode": "C", "categoryCode": "30", "address": "184 MAIN STREET", "city": "KAGAWONG", "province": "ON", "country": "CA", "postalCode": "P0P1J0", "twitter": "None", "instagram": "None", "facebook": "None", "youtube": "None", "website": "None", "summary": "None", "logo": "None", "latitude": 45.90925674741772, "longitude": -82.25931574066571}, "118861905RR0002": {"name": "CHURCH OF ST. JOHN THE EVANGELIST", "designationCode": "C", "categoryCode": "30", "address": "226-228 PEARL ST", "city": "THUNDER BAY", "province": "ON", "country": "CA", "postalCode": "P7B1E4", "twitter": "None", "instagram": "None", "facebook": "None", "youtube": "None", "website": "None", "summary": "None", "logo": "None", "latitude": 48.433456308644395, "longitude": -89.22284133123676}, "106712821RR0001": {"name": "CHURCH OF ST. JUDE NORTH BRAMALEA", "designationCode": "C", "categoryCode": "30", "address": "1000 CENTRAL PARK DRIVE", "city": "BRAMALEA", "province": "ON", "country": "CA", "postalCode": "L6S3L6", "twitter": "None", "instagram": "None", "facebook": "None", "youtube": "None", "website": "None", "summary": "None", "logo": "None", "latitude": 43.73364135639661, "longitude": -79.71896292258626}, "106925324RR0001": {"name": "CHURCH OF ST. LAURENCE", "designationCode": "C", "categoryCode": "30", "address": "5940 LAKEVIEW DR SW", "city": "CALGARY", "province": "AB", "country": "CA", "postalCode": "T3E5S8", "twitter": "None", "instagram": "None", "facebook": "None", "youtube": "None", "website": "None", "summary": "None", "logo": "None", "latitude": 51.00099018096828, "longitude": -114.13347840201405}, "118862002RR0001": {"name": "CHURCH OF ST. LUKE LUTHERAN", "designationCode": "C", "categoryCode": "32", "address": "3200 BAYVIEW AVE", "city": "WILLOWDALE", "province": "ON", "country": "CA", "postalCode": "M2M3R7", "twitter": "None", "instagram": "None", "facebook": "None", "youtube": "None", "website": "None", "summary": "None", "logo": "None", "latitude": 43.78583758728148, "longitude": -79.3923591406023}, "118862044RR0001": {"name": "CHURCH OF ST. MARY MAGDALENE", "designationCode": "C", "categoryCode": "30", "address": "335 MAIN STREET", "city": "PICTON", "province": "ON", "country": "CA", "postalCode": "K0K2T0", "twitter": "None", "instagram": "None", "facebook": "None", "youtube": "None", "website": "None", "summary": "None", "logo": "None", "latitude": 44.19500103985118, "longitude": -77.04856650008666}, "118862051RR0001": {"name": "CHURCH OF ST. MARY MAGDALENE", "designationCode": "C", "categoryCode": "30", "address": "116 CHURCH ST", "city": "SCHOMBERG", "province": "ON", "country": "CA", "postalCode": "L0G1T0", "twitter": "None", "instagram": "None", "facebook": "None", "youtube": "None", "website": "None", "summary": "None", "logo": "None", "latitude": 43.99834243187711, "longitude": -79.68701946047074}, "118862069RR0002": {"name": "CHURCH OF ST. MARY MAGDALENE", "designationCode": "C", "categoryCode": "30", "address": "P.O. BOX 5", "city": "DORSET", "province": "ON", "country": "CA", "postalCode": "P0A1E0", "twitter": "None", "instagram": "None", "facebook": "None", "youtube": "None", "website": "None", "summary": "None", "logo": "None", "latitude": 45.23997000000003, "longitude": -78.89584999999994}, "118862077RR0002": {"name": "CHURCH OF ST. MARY MAGDALENE", "designationCode": "C", "categoryCode": "30", "address": "253 KING ST", "city": "STURGEON FALLS", "province": "ON", "country": "CA", "postalCode": "P2B3A1", "twitter": "None", "instagram": "None", "facebook": "None", "youtube": "None", "website": "None", "summary": "None", "logo": "None", "latitude": 46.365512779441964, "longitude": -79.92965779782179}, "118862085RR0001": {"name": "CHURCH OF ST. MARY'S DORMITION", "designationCode": "C", "categoryCode": "38", "address": "3625 CAWTHRA ROAD", "city": "MISSISSAUGA", "province": "ON", "country": "CA", "postalCode": "L5A2Y4", "twitter": "None", "instagram": "None", "facebook": "None", "youtube": "None", "website": "None", "summary": "None", "logo": "None", "latitude": 43.606501552339864, "longitude": -79.61688654576167}, "108031394RR0001": {"name": "CHURCH OF ST. MATTHEW LUTHERAN", "designationCode": "C", "categoryCode": "32", "address": "3159 LAWRENCE AVE E", "city": "SCARBOROUGH", "province": "ON", "country": "CA", "postalCode": "M1H1A1", "twitter": "None", "instagram": "None", "facebook": "None", "youtube": "None", "website": "None", "summary": "None", "logo": "None", "latitude": 43.755902051450654, "longitude": -79.24343772795483}, "106925449RR0001": {"name": "CHURCH OF ST. MICHAEL AND ALL ANGELS", "designationCode": "C", "categoryCode": "30", "address": "611 ST CLAIR AVENUE WEST", "city": "TORONTO", "province": "ON", "country": "CA", "postalCode": "M6C1A3", "twitter": "None", "instagram": "None", "facebook": "None", "youtube": "None", "website": "None", "summary": "None", "logo": "None", "latitude": 43.68196815805518, "longitude": -79.42349817281773}, "118862192RR0001": {"name": "CHURCH OF ST. PAUL THE APOSTLE", "designationCode": "C", "categoryCode": "30", "address": "2182 KIPLING AVE N", "city": "REXDALE", "province": "ON", "country": "CA", "postalCode": "M9W4K9", "twitter": "None", "instagram": "None", "facebook": "None", "youtube": "None", "website": "None", "summary": "None", "logo": "None", "latitude": 43.72197481375162, "longitude": -79.57164425082192}, "107876476RR0027": {"name": "CHURCH OF ST. PETER THE APOSTLE", "designationCode": "C", "categoryCode": "38", "address": "299 AIRPORT ROAD", "city": "NORTH BAY", "province": "ON", "country": "CA", "postalCode": "P1B8W7", "twitter": "None", "instagram": "None", "facebook": "None", "youtube": "None", "website": "None", "summary": "None", "logo": "None", "latitude": 46.33510586586127, "longitude": -79.46178565413497}, "108077660RR0001": {"name": "CHURCH OF ST. PETER'S CHILDREN'S DAY CARE CENTRE OF HAMILTON", "designationCode": "C", "categoryCode": "01", "address": "705 MAIN ST E", "city": "HAMILTON", "province": "ON", "country": "CA", "postalCode": "L8M1K8", "twitter": "None", "instagram": "None", "facebook": "None", "youtube": "None", "website": "None", "summary": "None", "logo": "None", "latitude": 43.2479150558023, "longitude": -79.84063556466045}, "118862309RR0001": {"name": "CHURCH OF ST. STEPHEN IN THE FIELDS", "designationCode": "C", "categoryCode": "30", "address": "103 BELLEVUE AVENUE", "city": "TORONTO", "province": "ON", "country": "CA", "postalCode": "M5T2N8", "twitter": "None", "instagram": "None", "facebook": "None", "youtube": "None", "website": "None", "summary": "None", "logo": "None", "latitude": 43.65687946739565, "longitude": -79.40433612874396}, "118862317RR0001": {"name": "CHURCH OF ST. THEODORE OF CANTERBURY", "designationCode": "C", "categoryCode": "30", "address": "111 CACTUS AVENUE", "city": "TORONTO", "province": "ON", "country": "CA", "postalCode": "M2R2V1", "twitter": "None", "instagram": "None", "facebook": "None", "youtube": "None", "website": "None", "summary": "None", "logo": "None", "latitude": 43.79174801861031, "longitude": -79.43385953046956}, "118862325RR0001": {"name": "CHURCH OF ST. THOMAS' CHILDREN'S DAY CARE CENTRE OF ST. CATHARINES CATHAR", "designationCode": "C", "categoryCode": "20", "address": "99 ONTARIO STREET", "city": "ST.CATHARINES", "province": "ON", "country": "CA", "postalCode": "L2R5J6", "twitter": "None", "instagram": "None", "facebook": "None", "youtube": "None", "website": "None", "summary": "None", "logo": "None", "latitude": 43.1567894615386, "longitude": -79.24997254053886}, "887757144RR0001": {"name": "CHURCH OF ST.MARY AND ST.MARTHA", "designationCode": "C", "categoryCode": "30", "address": "1149 WESTON RD", "city": "TORONTO", "province": "ON", "country": "CA", "postalCode": "M6N3S3", "twitter": "None", "instagram": "None", "facebook": "None", "youtube": "None", "website": "None", "summary": "None", "logo": "None", "latitude": 43.68668294061967, "longitude": -79.48891749927886}, "108099771RR0068": {"name": "CHURCH OF ST.PETER", "designationCode": "C", "categoryCode": "30", "address": "252 JAMES ST N", "city": "HAMILTON", "province": "ON", "country": "CA", "postalCode": "L8R2L3", "twitter": "None", "instagram": "None", "facebook": "None", "youtube": "None", "website": "None", "summary": "None", "logo": "None", "latitude": 43.26303055231121, "longitude": -79.866250127359}, "888164068RR0001": {"name": "CHURCH OF ST-PETER THE APOSTLE", "designationCode": "C", "categoryCode": "30", "address": "110 HILLSIDE DRIVE S.", "city": "ELLIOT LAKE", "province": "ON", "country": "CA", "postalCode": "P5A1N1", "twitter": "None", "instagram": "None", "facebook": "None", "youtube": "None", "website": "None", "summary": "None", "logo": "None", "latitude": 46.3799068739367, "longitude": -82.651997753091}, "118862374RR0001": {"name": "CHURCH OF THE ADVENT", "designationCode": "C", "categoryCode": "30", "address": "3401 CAPELTON ROAD", "city": "CANTON DE HATLEY", "province": "QC", "country": "CA", "postalCode": "J0B2C0", "twitter": "None", "instagram": "None", "facebook": "None", "youtube": "None", "website": "None", "summary": "None", "logo": "None", "latitude": 45.28598369475436, "longitude": -71.96410387271042}, "118862390RR0002": {"name": "CHURCH OF THE ADVENT", "designationCode": "C", "categoryCode": "30", "address": "PO BOX 613", "city": "RIDGETOWN", "province": "ON", "country": "CA", "postalCode": "N0P2C0", "twitter": "None", "instagram": "None", "facebook": "None", "youtube": "None", "website": "None", "summary": "None", "logo": "None", "latitude": 42.42687003390246, "longitude": -81.90498998889144}, "118787142RR0035": {"name": "CHURCH OF THE ADVENT PARISH OF COLWOOD & LANGFORD", "designationCode": "C", "categoryCode": "30", "address": "510 MOUNT VIEW AVE", "city": "VICTORIA", "province": "BC", "country": "CA", "postalCode": "V9B2B1", "twitter": "None", "instagram": "None", "facebook": "None", "youtube": "None", "website": "None", "summary": "None", "logo": "None", "latitude": 48.43704810245803, "longitude": -123.48878800476146}, "119110443RR0019": {"name": "CHURCH OF THE ANNUNCIATION", "designationCode": "C", "categoryCode": "38", "address": "P.O. BOX 239", "city": "TAMWORTH", "province": "ON", "country": "CA", "postalCode": "K0K3G0", "twitter": "None", "instagram": "None", "facebook": "None", "youtube": "None", "website": "None", "summary": "None", "logo": "None", "latitude": 44.48736000000008, "longitude": -76.99483999999995}, "122564875RR0001": {"name": "CHURCH OF THE ANNUNCIATION (WOODLANDS)", "designationCode": "C", "categoryCode": "38", "address": "GENERAL DELIVERY", "city": "WOODLANDS", "province": "MB", "country": "CA", "postalCode": "R0C3H0", "twitter": "None", "instagram": "None", "facebook": "None", "youtube": "None", "website": "None", "summary": "None", "logo": "None", "latitude": 50.209278000000054, "longitude": -97.66558249999993}, "106925639RR0002": {"name": "CHURCH OF THE ASCENSION", "designationCode": "C", "categoryCode": "30", "address": "1385 UNIVERSITY AVE W", "city": "WINDSOR", "province": "ON", "country": "CA", "postalCode": "N9B1B6", "twitter": "None", "instagram": "None", "facebook": "None", "youtube": "None", "website": "None", "summary": "None", "logo": "None", "latitude": 42.312920198973, "longitude": -83.05511457755796}, "106925647RR0002": {"name": "CHURCH OF THE ASCENSION", "designationCode": "C", "categoryCode": "30", "address": "P.O.BOX 550", "city": "STONEWALL", "province": "MB", "country": "CA", "postalCode": "R0C2Z0", "twitter": "None", "instagram": "None", "facebook": "None", "youtube": "None", "website": "None", "summary": "None", "logo": "None", "latitude": 50.36947800000006, "longitude": -96.84479599999993}, "108084658RR0075": {"name": "CHURCH OF THE ASCENSION", "designationCode": "C", "categoryCode": "30", "address": "253 ECHO DRIVE", "city": "OTTAWA", "province": "ON", "country": "CA", "postalCode": "K1S1N3", "twitter": "None", "instagram": "None", "facebook": "None", "youtube": "None", "website": "None", "summary": "None", "logo": "None", "latitude": 45.41067330948111, "longitude": -75.68176926669187}, "118862481RR0001": {"name": "CHURCH OF THE ASCENSION", "designationCode": "C", "categoryCode": "30", "address": "266 NORTH STREET", "city": "PORT PERRY", "province": "ON", "country": "CA", "postalCode": "L9L1B7", "twitter": "None", "instagram": "None", "facebook": "None", "youtube": "None", "website": "None", "summary": "None", "logo": "None", "latitude": 44.10490920286814, "longitude": -78.94656526060369}, "118862507RR0001": {"name": "CHURCH OF THE ASCENSION", "designationCode": "C", "categoryCode": "30", "address": "33 OVERLAND DRIVE", "city": "DON MILLS", "province": "ON", "country": "CA", "postalCode": "M3C2C3", "twitter": "None", "instagram": "None", "facebook": "None", "youtube": "None", "website": "None", "summary": "None", "logo": "None", "latitude": 43.73241454284749, "longitude": -79.34773951814897}, "118862531RR0002": {"name": "CHURCH OF THE ASCENSION", "designationCode": "C", "categoryCode": "30", "address": "BOX 244", "city": "COMBER", "province": "ON", "country": "CA", "postalCode": "N0P1J0", "twitter": "None", "instagram": "None", "facebook": "None", "youtube": "None", "website": "None", "summary": "None", "logo": "None", "latitude": 42.23404000000005, "longitude": -82.55258999999995}, "118862572RR0001": {"name": "CHURCH OF THE ASCENSION", "designationCode": "C", "categoryCode": "30", "address": "BOX 294", "city": "ARBORFIELD", "province": "SK", "country": "CA", "postalCode": "S0E0A0", "twitter": "None", "instagram": "None", "facebook": "None", "youtube": "None", "website": "None", "summary": "None", "logo": "None", "latitude": 53.10006000000004, "longitude": -103.65091999999999}, "118862580RR0001": {"name": "CHURCH OF THE ASCENSION", "designationCode": "C", "categoryCode": "30", "address": "2216 16 STREET", "city": "COALDALE", "province": "AB", "country": "CA", "postalCode": "T1M1E2", "twitter": "None", "instagram": "None", "facebook": "None", "youtube": "None", "website": "None", "summary": "None", "logo": "None", "latitude": 49.72283999999999, "longitude": -112.616443974609}, "129950804RR0002": {"name": "CHURCH OF THE ASCENSION", "designationCode": "C", "categoryCode": "38", "address": "887 WEMBLEY ROAD", "city": "PARKSVILLE", "province": "BC", "country": "CA", "postalCode": "V9P2E6", "twitter": "None", "instagram": "None", "facebook": "None", "youtube": "None", "website": "None", "summary": "None", "logo": "None", "latitude": 49.34310583617583, "longitude": -124.35856296116945}, "141139584RR0001": {"name": "CHURCH OF THE ASCENSION", "designationCode": "C", "categoryCode": "30", "address": "389 GOSFORD NORTH", "city": "INVERNESS", "province": "QC", "country": "CA", "postalCode": "G0S1K0", "twitter": "None", "instagram": "None", "facebook": "None", "youtube": "None", "website": "None", "summary": "None", "logo": "None", "latitude": 46.261208210110176, "longitude": -71.52100873010548}, "889650446RR0001": {"name": "CHURCH OF THE ASCENSION", "designationCode": "C", "categoryCode": "30", "address": "R R#1", "city": "HOLYROOD", "province": "ON", "country": "CA", "postalCode": "N0G2B0", "twitter": "None", "instagram": "None", "facebook": "None", "youtube": "None", "website": "None", "summary": "None", "logo": "None", "latitude": 44.09509200000005, "longitude": -81.40990849999993}, "108099771RR0054": {"name": "CHURCH OF THE ASCENSION (HAMILTON)", "designationCode": "C", "categoryCode": "30", "address": "64 FOREST AVE", "city": "HAMILTON", "province": "ON", "country": "CA", "postalCode": "L8N1X1", "twitter": "None", "instagram": "None", "facebook": "None", "youtube": "None", "website": "None", "summary": "None", "logo": "None", "latitude": 43.24983085316529, "longitude": -79.86929868818162}, "121643225RR0001": {"name": "CHURCH OF THE ASCENSION,", "designationCode": "C", "categoryCode": "30", "address": "400 LANSDOWNE AVE, #304", "city": "WESTMOUNT", "province": "QC", "country": "CA", "postalCode": "H3Y2V3", "twitter": "None", "instagram": "None", "facebook": "None", "youtube": "None", "website": "None", "summary": "None", "logo": "None", "latitude": 45.48110076406615, "longitude": -73.60167551653285}, "119110443RR0020": {"name": "CHURCH OF THE ASSUMPTION", "designationCode": "C", "categoryCode": "38", "address": "PO BOX 239", "city": "TAMWORTH", "province": "ON", "country": "CA", "postalCode": "K0K3G0", "twitter": "None", "instagram": "None", "facebook": "None", "youtube": "None", "website": "None", "summary": "None", "logo": "None", "latitude": 44.48736000000008, "longitude": -76.99483999999995}, "118849470RR0024": {"name": "CHURCH OF THE ASSUMPTION PARISH", "designationCode": "C", "categoryCode": "38", "address": "7109 GLACIER ST", "city": "POWELL RIVER", "province": "BC", "country": "CA", "postalCode": "V8A1R8", "twitter": "None", "instagram": "None", "facebook": "None", "youtube": "None", "website": "None", "summary": "None", "logo": "None", "latitude": 49.83163055257486, "longitude": -124.51672353059395}, "106925696RR0001": {"name": "CHURCH OF THE ATONEMENT, ALDERWOOD,", "designationCode": "C", "categoryCode": "30", "address": "256 SHELDON AVE", "city": "TORONTO", "province": "ON", "country": "CA", "postalCode": "M8W4X8", "twitter": "None", "instagram": "None", "facebook": "None", "youtube": "None", "website": "None", "summary": "None", "logo": "None", "latitude": 43.6086115994865, "longitude": -79.54572617242724}, "118862663RR0001": {"name": "CHURCH OF THE COVENANT", "designationCode": "C", "categoryCode": "37", "address": "BOX 138  10 KING ST W", "city": "LANSDOWNE", "province": "ON", "country": "CA", "postalCode": "K0E1L0", "twitter": "None", "instagram": "None", "facebook": "None", "youtube": "None", "website": "None", "summary": "None", "logo": "None", "latitude": 44.40569396897225, "longitude": -76.01854011927765}, "108099771RR0082": {"name": "CHURCH OF THE EPIPHANY", "designationCode": "C", "categoryCode": "30", "address": "141 BRONTE RD", "city": "OAKVILLE", "province": "ON", "country": "CA", "postalCode": "L6L3C3", "twitter": "None", "instagram": "None", "facebook": "None", "youtube": "None", "website": "None", "summary": "None", "logo": "None", "latitude": 43.39482430864439, "longitude": -79.71395143920603}, "118862713RR0002": {"name": "CHURCH OF THE EPIPHANY", "designationCode": "C", "categoryCode": "30", "address": "11 BRISCOE ST W", "city": "LONDON", "province": "ON", "country": "CA", "postalCode": "N6J1L9", "twitter": "None", "instagram": "None", "facebook": "None", "youtube": "None", "website": "None", "summary": "None", "logo": "None", "latitude": 42.96600548124544, "longitude": -81.26292235928213}, "118862721RR0002": {"name": "CHURCH OF THE EPIPHANY", "designationCode": "C", "categoryCode": "30", "address": "96 MAIN ST W", "city": "KINGSVILLE", "province": "ON", "country": "CA", "postalCode": "N9Y1H3", "twitter": "None", "instagram": "None", "facebook": "None", "youtube": "None", "website": "None", "summary": "None", "logo": "None", "latitude": 42.03805042829908, "longitude": -82.74408186358131}, "118862739RR0001": {"name": "CHURCH OF THE EPIPHANY", "designationCode": "C", "categoryCode": "30", "address": "85 LARCH STREET", "city": "SUDBURY", "province": "ON", "country": "CA", "postalCode": "P3A1B8", "twitter": "None", "instagram": "None", "facebook": "None", "youtube": "None", "website": "None", "summary": "None", "logo": "None", "latitude": 46.49124166905576, "longitude": -80.993550185509}, "892613969RR0001": {"name": "CHURCH OF THE EPIPHANY AND ST MARK, PARKDALE", "designationCode": "C", "categoryCode": "30", "address": "201 COWAN AVE", "city": "TORONTO", "province": "ON", "country": "CA", "postalCode": "M6K2N7", "twitter": "None", "instagram": "None", "facebook": "None", "youtube": "None", "website": "None", "summary": "None", "logo": "None", "latitude": 43.64066158257828, "longitude": -79.43275096303915}, "132044322RR0001": {"name": "CHURCH OF THE EPIPHANY,", "designationCode": "C", "categoryCode": "30", "address": "BOX 199", "city": "RIMBEY", "province": "AB", "country": "CA", "postalCode": "T0C2J0", "twitter": "None", "instagram": "None", "facebook": "None", "youtube": "None", "website": "None", "summary": "None", "logo": "None", "latitude": 52.63970000000006, "longitude": -114.23827999999997}, "890042849RR0001": {"name": "CHURCH OF THE EPIPHANY,", "designationCode": "C", "categoryCode": "30", "address": "2155 CHEMIN WAY'S MILLS", "city": "AYER'S CLIFF", "province": "QC", "country": "CA", "postalCode": "J0B1C0", "twitter": "None", "instagram": "None", "facebook": "None", "youtube": "None", "website": "None", "summary": "None", "logo": "None", "latitude": 45.137069999999994, "longitude": -72.00358425}, "118862762RR0001": {"name": "CHURCH OF THE FIRST BORN APOSTOLIC INC.", "designationCode": "C", "categoryCode": "39", "address": "72 PERTH AVE", "city": "TORONTO", "province": "ON", "country": "CA", "postalCode": "M6R2C2", "twitter": "None", "instagram": "None", "facebook": "None", "youtube": "None", "website": "None", "summary": "None", "logo": "None", "latitude": 43.65619658950318, "longitude": -79.44830489621432}, "862744455RR0001": {"name": "CHURCH OF THE FIRSTBORN", "designationCode": "B", "categoryCode": "39", "address": "P.O. BOX 31259 GLADSTONE", "city": "HALIFAX", "province": "NS", "country": "CA", "postalCode": "B3K5Y1", "twitter": "None", "instagram": "None", "facebook": "None", "youtube": "None", "website": "None", "summary": "None", "logo": "None", "latitude": 44.65368668731068, "longitude": -63.59844402681182}, "870953064RR0001": {"name": "CHURCH OF THE GOOD SAMARITAN", "designationCode": "C", "categoryCode": "30", "address": "3816 TRELAWNY CIR", "city": "MISSISSAUGA", "province": "ON", "country": "CA", "postalCode": "L5N5J5", "twitter": "None", "instagram": "None", "facebook": "None", "youtube": "None", "website": "None", "summary": "None", "logo": "None", "latitude": 43.576519557591325, "longitude": -79.77117705992859}, "106925829RR0002": {"name": "CHURCH OF THE GOOD SHEPHERD", "designationCode": "C", "categoryCode": "30", "address": "PO BOX 23052 RPO SPRINGBANK", "city": "WOODSTOCK", "province": "ON", "country": "CA", "postalCode": "N4T1R9", "twitter": "None", "instagram": "None", "facebook": "None", "youtube": "None", "website": "None", "summary": "None", "logo": "None", "latitude": 43.152854672830244, "longitude": -80.73460318113167}, "106925837RR0002": {"name": "CHURCH OF THE GOOD SHEPHERD", "designationCode": "C", "categoryCode": "30", "address": "933 SUMMERSIDE AVE", "city": "WINNIPEG", "province": "MB", "country": "CA", "postalCode": "R3T4Y1", "twitter": "None", "instagram": "None", "facebook": "None", "youtube": "None", "website": "None", "summary": "None", "logo": "None", "latitude": 49.79148677938692, "longitude": -97.15467311091211}, "108099771RR0095": {"name": "CHURCH OF THE GOOD SHEPHERD", "designationCode": "C", "categoryCode": "30", "address": "252 JAMES STREET, NORTH", "city": "HAMILTON", "province": "ON", "country": "CA", "postalCode": "L8R2L3", "twitter": "None", "instagram": "None", "facebook": "None", "youtube": "None", "website": "None", "summary": "None", "logo": "None", "latitude": 43.26303055231121, "longitude": -79.866250127359}, "118862812RR0001": {"name": "CHURCH OF THE GOOD SHEPHERD", "designationCode": "C", "categoryCode": "30", "address": "267 WILSON ST", "city": "KINGSTON", "province": "ON", "country": "CA", "postalCode": "K7K5Y1", "twitter": "None", "instagram": "None", "facebook": "None", "youtube": "None", "website": "None", "summary": "None", "logo": "None", "latitude": 44.265755210658426, "longitude": -76.48767288340373}, "118862838RR0001": {"name": "CHURCH OF THE GOOD SHEPHERD", "designationCode": "C", "categoryCode": "30", "address": "300 COURT STREET", "city": "OSHAWA", "province": "ON", "country": "CA", "postalCode": "L1H4X3", "twitter": "None", "instagram": "None", "facebook": "None", "youtube": "None", "website": "None", "summary": "None", "logo": "None", "latitude": 43.8904631842865, "longitude": -78.85622298531348}, "118862895RR0001": {"name": "CHURCH OF THE GOOD SHEPHERD", "designationCode": "C", "categoryCode": "30", "address": "PO BOX 1043", "city": "PREECEVILLE", "province": "SK", "country": "CA", "postalCode": "S0A3R0", "twitter": "None", "instagram": "None", "facebook": "None", "youtube": "None", "website": "None", "summary": "None", "logo": "None", "latitude": 51.95631000000003, "longitude": -102.66811999999999}, "118862903RR0001": {"name": "CHURCH OF THE GOOD SHEPHERD", "designationCode": "C", "categoryCode": "30", "address": "143 WEST SPINGS PLACE SW", "city": "CALGARY", "province": "AB", "country": "CA", "postalCode": "T3H4W2", "twitter": "None", "instagram": "None", "facebook": "None", "youtube": "None", "website": "None", "summary": "None", "logo": "None"}, "889439444RR0002": {"name": "CHURCH OF THE GOOD SHEPHERD", "designationCode": "C", "categoryCode": "30", "address": "15495 CASTLEDOWNS ROAD", "city": "EDMONTON", "province": "AB", "country": "CA", "postalCode": "T5X4A8", "twitter": "None", "instagram": "None", "facebook": "None", "youtube": "None", "website": "None", "summary": "None", "logo": "None", "latitude": 53.61692782321535, "longitude": -113.51704017534237}, "124675240RR0001": {"name": "CHURCH OF THE GOOD SHEPHERD KITCHENER", "designationCode": "C", "categoryCode": "39", "address": "116 QUEEN ST NORTH", "city": "KITCHENER", "province": "ON", "country": "CA", "postalCode": "N2H2H7", "twitter": "None", "instagram": "None", "facebook": "None", "youtube": "None", "website": "None", "summary": "None", "logo": "None", "latitude": 43.45480742299029, "longitude": -80.48524691996053}, "891854846RR0001": {"name": "CHURCH OF THE GOOD SHEPHERD,", "designationCode": "C", "categoryCode": "30", "address": "BOX 1034", "city": "STAYNER", "province": "ON", "country": "CA", "postalCode": "L0M1S0", "twitter": "None", "instagram": "None", "facebook": "None", "youtube": "None", "website": "None", "summary": "None", "logo": "None", "latitude": 44.42021839038064, "longitude": -80.10092542779911}, "118862945RR0001": {"name": "CHURCH OF THE GOOD SHEPHERD, WYEBRIDGE", "designationCode": "C", "categoryCode": "30", "address": "8849 COUNTY RD #93", "city": "MIDLAND", "province": "ON", "country": "CA", "postalCode": "L4R4K4", "twitter": "None", "instagram": "None", "facebook": "None", "youtube": "None", "website": "None", "summary": "None", "logo": "None", "latitude": 44.72239048873483, "longitude": -79.89931241129543}, "119110443RR0059": {"name": "CHURCH OF THE GOOD THIEF", "designationCode": "C", "categoryCode": "38", "address": "743 KING STREET WEST", "city": "KINGSTON", "province": "ON", "country": "CA", "postalCode": "K7M2G3", "twitter": "None", "instagram": "None", "facebook": "None", "youtube": "None", "website": "None", "summary": "None", "logo": "None", "latitude": 44.22064242050879, "longitude": -76.52202183680534}, "130402019RR0022": {"name": "CHURCH OF THE HOLY COMFORTER", "designationCode": "C", "categoryCode": "30", "address": "PO BOX 883", "city": "RANKIN INLET", "province": "NU", "country": "CA", "postalCode": "X0C0G0", "twitter": "None", "instagram": "None", "facebook": "None", "youtube": "None", "website": "None", "summary": "None", "logo": "None", "latitude": 62.80714000000006, "longitude": -92.08334999999994}, "106925860RR0001": {"name": "CHURCH OF THE HOLY CROSS", "designationCode": "C", "categoryCode": "38", "address": "415 VICTORIA AVE W", "city": "THUNDER BAY", "province": "ON", "country": "CA", "postalCode": "P7C1G8", "twitter": "None", "instagram": "None", "facebook": "None", "youtube": "None", "website": "None", "summary": "None", "logo": "None", "latitude": 48.38414050822297, "longitude": -89.2862415}, "856299979RR0001": {"name": "CHURCH OF THE HOLY CROSS, ABBOTSFORD", "designationCode": "C", "categoryCode": "30", "address": "PO BOX 102, ABBOTSFORD STN A", "city": "ABBOTSFORD", "province": "BC", "country": "CA", "postalCode": "V2T4N8", "twitter": "None", "instagram": "None", "facebook": "None", "youtube": "None", "website": "None", "summary": "None", "logo": "None", "latitude": 49.05937500000006, "longitude": -122.33800699999993}, "106925902RR0002": {"name": "CHURCH OF THE HOLY SAVIOUR", "designationCode": "C", "categoryCode": "30", "address": "33 ALLEN ST E", "city": "WATERLOO", "province": "ON", "country": "CA", "postalCode": "N2J1J1", "twitter": "None", "instagram": "None", "facebook": "None", "youtube": "None", "website": "None", "summary": "None", "logo": "None", "latitude": 43.46144103300838, "longitude": -80.51784313901575}, "118863018RR0001": {"name": "CHURCH OF THE HOLY TRINITY", "designationCode": "C", "categoryCode": "30", "address": "85 LIVINGSTON ROAD", "city": "SCARBOROUGH", "province": "ON", "country": "CA", "postalCode": "M1E1K7", "twitter": "None", "instagram": "None", "facebook": "None", "youtube": "None", "website": "None", "summary": "None", "logo": "None", "latitude": 43.746839936176286, "longitude": -79.1989176523173}, "118863026RR0001": {"name": "CHURCH OF THE HOLY TRINITY", "designationCode": "C", "categoryCode": "30", "address": "CHURCH WARDENS                10 TRINITY SQUARE", "city": "TORONTO", "province": "ON", "country": "CA", "postalCode": "M5G1B1", "twitter": "None", "instagram": "None", "facebook": "None", "youtube": "None", "website": "None", "summary": "None", "logo": "None", "latitude": 43.65441999226703, "longitude": -79.3816195990538}, "886763796RR0001": {"name": "CHURCH OF THE HOLY TRINITY", "designationCode": "C", "categoryCode": "30", "address": "18 HIDDEN CREEK RD NW", "city": "CALGARY", "province": "AB", "country": "CA", "postalCode": "T3A6C5", "twitter": "None", "instagram": "None", "facebook": "None", "youtube": "None", "website": "None", "summary": "None", "logo": "None", "latitude": 51.15720059449483, "longitude": -114.10240437108313}, "896867892RR0001": {"name": "CHURCH OF THE LIVING GOD", "designationCode": "C", "categoryCode": "36", "address": "57 PALMER DRIVER", "city": "AJAX", "province": "ON", "country": "CA", "postalCode": "L1S5V1", "twitter": "None", "instagram": "None", "facebook": "None", "youtube": "None", "website": "None", "summary": "None", "logo": "None", "latitude": 43.8578864094003, "longitude": -79.03206474008879}, "861520815RR0001": {"name": "CHURCH OF THE LIVING GOD INC.", "designationCode": "C", "categoryCode": "39", "address": "BOX 105", "city": "DUCK LAKE", "province": "SK", "country": "CA", "postalCode": "S0K1J0", "twitter": "None", "instagram": "None", "facebook": "None", "youtube": "None", "website": "None", "summary": "None", "logo": "None", "latitude": 52.809180000000026, "longitude": -106.22419999999994}, "888188745RR0001": {"name": "CHURCH OF THE LIVING GOD INTERNATIONAL INC.", "designationCode": "C", "categoryCode": "39", "address": "MAVIS ROAD POSTAL OUTLET      PO BOX 43203", "city": "MISSISSAUGA", "province": "ON", "country": "CA", "postalCode": "L5B4A7", "twitter": "None", "instagram": "None", "facebook": "None", "youtube": "None", "website": "None", "summary": "None", "logo": "None", "latitude": 43.58690700000005, "longitude": -79.64535049999994}, "879843209RR0001": {"name": "CHURCH OF THE LIVING HOPE INC.", "designationCode": "C", "categoryCode": "39", "address": "235 ENNISKILLEN AVE", "city": "WINNIPEG", "province": "MB", "country": "CA", "postalCode": "R2V0H6", "twitter": "None", "instagram": "None", "facebook": "None", "youtube": "None", "website": "None", "summary": "None", "logo": "None", "latitude": 49.9332459064861, "longitude": -97.12327426781707}, "860597319RR0001": {"name": "CHURCH OF THE LIVING LIGHT (WORD)", "designationCode": "C", "categoryCode": "39", "address": "999 GARTH STREET              LOWER LEVEL", "city": "HAMILTON", "province": "ON", "country": "CA", "postalCode": "L9C4L5", "twitter": "None", "instagram": "None", "facebook": "None", "youtube": "None", "website": "None", "summary": "None", "logo": "None", "latitude": 43.229497914507526, "longitude": -79.9024715864161}, "855110326RR0001": {"name": "CHURCH OF THE LIVING WORD IN OTTAWA", "designationCode": "C", "categoryCode": "39", "address": "P.O. BOX 34007", "city": "OTTAWA", "province": "ON", "country": "CA", "postalCode": "K2J5B1", "twitter": "None", "instagram": "None", "facebook": "None", "youtube": "None", "website": "None", "summary": "None", "logo": "None", "latitude": 45.34429200000005, "longitude": -75.76434349999994}, "118863117RR0001": {"name": "CHURCH OF THE LIVING WORD OF ESSEX COUNTY", "designationCode": "C", "categoryCode": "39", "address": "BOX 137", "city": "WOODSLEE", "province": "ON", "country": "CA", "postalCode": "N0R1V0", "twitter": "None", "instagram": "None", "facebook": "None", "youtube": "None", "website": "None", "summary": "None", "logo": "None", "latitude": 43.2146884092523, "longitude": -80.39687656919502}, "118805506RR0001": {"name": "CHURCH OF THE LUTHERAN BRETHREN OF CANADA, INC.", "designationCode": "C", "categoryCode": "32", "address": "3263B-114 AVE. S.E.", "city": "CALGARY", "province": "AB", "country": "CA", "postalCode": "T2Z3X2", "twitter": "None", "instagram": "None", "facebook": "None", "youtube": "None", "website": "None", "summary": "None", "logo": "None", "latitude": 50.9494053541968, "longitude": -113.9908337675411}, "135115038RR0001": {"name": "CHURCH OF THE MASTER, THE UNITED CHURCH OF CANADA", "designationCode": "C", "categoryCode": "44", "address": "3385 LAWRENCE AVE E", "city": "SCARBOROUGH", "province": "ON", "country": "CA", "postalCode": "M1H1A8", "twitter": "None", "instagram": "None", "facebook": "None", "youtube": "None", "website": "None", "summary": "None", "logo": "None", "latitude": 43.758068859801746, "longitude": -79.23346641727748}, "118863141RR0001": {"name": "CHURCH OF THE MESSIAH", "designationCode": "C", "categoryCode": "30", "address": "240 AVENUE RD", "city": "TORONTO", "province": "ON", "country": "CA", "postalCode": "M5R2J4", "twitter": "None", "instagram": "None", "facebook": "None", "youtube": "None", "website": "None", "summary": "None", "logo": "None", "latitude": 43.676973178458105, "longitude": -79.39759499780695}, "873599468RR0001": {"name": "CHURCH OF THE MESSIAH", "designationCode": "C", "categoryCode": "39", "address": "106-121 QUARRY WAY S.E.", "city": "CALGARY", "province": "AB", "country": "CA", "postalCode": "T2C5J1", "twitter": "None", "instagram": "None", "facebook": "None", "youtube": "None", "website": "None", "summary": "None", "logo": "None", "latitude": 50.96093097195762, "longitude": -114.01960918878305}, "843747320RR0001": {"name": "CHURCH OF THE NATIONS INTERNATIONAL, CANADA", "designationCode": "C", "categoryCode": "39", "address": "246 STEWART GREEN SW          SUITE 1716", "city": "CALGARY", "province": "AB", "country": "CA", "postalCode": "T3H3C8", "twitter": "None", "instagram": "None", "facebook": "None", "youtube": "None", "website": "None", "summary": "None", "logo": "None", "latitude": 51.01506707522246, "longitude": -114.169608058454}, "863276044RR0001": {"name": "CHURCH OF THE NATIVITY", "designationCode": "C", "categoryCode": "30", "address": "GENERAL DELIVERY", "city": "SANDY COVE", "province": "NS", "country": "CA", "postalCode": "B0V1E0", "twitter": "None", "instagram": "None", "facebook": "None", "youtube": "None", "website": "None", "summary": "None", "logo": "None", "latitude": 44.48980257955857, "longitude": -66.08506940631007}}