{"119076057RR0001": {"name": "PAL-READING SERVICES INCORPORATED", "designationCode": "C", "categoryCode": "50", "address": "504-27 CARLTON ST", "city": "TORONTO", "province": "ON", "country": "CA", "postalCode": "M5B1L2", "twitter": "None", "instagram": "None", "facebook": "None", "youtube": "None", "website": "None", "summary": "None", "logo": "None", "latitude": 43.66139090034061, "longitude": -79.38131787731555}, "866037013RR0001": {"name": "PALADIN FOUNDATION", "designationCode": "B", "categoryCode": "03", "address": "SUITE 1250  BOX 62            1500 WEST GEORGIA STREET", "city": "VANCOUVER", "province": "BC", "country": "CA", "postalCode": "V6G2Z6", "twitter": "None", "instagram": "None", "facebook": "None", "youtube": "None", "website": "None", "summary": "None", "logo": "None", "latitude": 49.29013479542975, "longitude": -123.1300069287031}, "107811457RR0001": {"name": "PALDI KHALSA DIWAN SOCIETY", "designationCode": "C", "categoryCode": "62", "address": "PO BOX 1077  STN MAIN", "city": "DUNCAN", "province": "BC", "country": "CA", "postalCode": "V9L3Y2", "twitter": "None", "instagram": "None", "facebook": "None", "youtube": "None", "website": "None", "summary": "None", "logo": "None", "latitude": 48.77908800000006, "longitude": -123.70739299999994}, "119075836RR0001": {"name": "PALERMO UNITED CHURCH", "designationCode": "C", "categoryCode": "44", "address": "2521 DUNDAS ST. W", "city": "OAKVILLE", "province": "ON", "country": "CA", "postalCode": "L6M4J4", "twitter": "None", "instagram": "None", "facebook": "None", "youtube": "None", "website": "None", "summary": "None", "logo": "None", "latitude": 43.436303916729216, "longitude": -79.77571428550375}, "119075844RR0001": {"name": "PALESTINE HERITAGE CANADA", "designationCode": "C", "categoryCode": "29", "address": "436 LAKEWOOD RD", "city": "PERTH", "province": "ON", "country": "CA", "postalCode": "K7H3C5", "twitter": "None", "instagram": "None", "facebook": "None", "youtube": "None", "website": "None", "summary": "None", "logo": "None", "latitude": 44.82981077851286, "longitude": -76.25190517473087}, "899812721RR0001": {"name": "PALGRAVE FELLOWSHIP OF CHRISTIANS INC", "designationCode": "C", "categoryCode": "39", "address": "1713 CONC. ROAD 2", "city": "PALGRAVE", "province": "ON", "country": "CA", "postalCode": "L0N1P0", "twitter": "None", "instagram": "None", "facebook": "None", "youtube": "None", "website": "None", "summary": "None", "logo": "None", "latitude": 43.38913452441001, "longitude": -80.3423076393928}, "119075877RR0001": {"name": "PALGRAVE ROTARY FOUNDATION", "designationCode": "A", "categoryCode": "63", "address": "BOX 844", "city": "BOLTON", "province": "ON", "country": "CA", "postalCode": "L7E5T5", "twitter": "None", "instagram": "None", "facebook": "None", "youtube": "None", "website": "None", "summary": "None", "logo": "None", "latitude": 43.880838000000054, "longitude": -79.73942299999993}, "107811465RR0001": {"name": "PALGRAVE UNITED CHURCH", "designationCode": "C", "categoryCode": "44", "address": "34 PINE AVE", "city": "CALEDON", "province": "ON", "country": "CA", "postalCode": "L7E0L9", "twitter": "None", "instagram": "None", "facebook": "None", "youtube": "None", "website": "None", "summary": "None", "logo": "None", "latitude": 43.950917042472106, "longitude": -79.83527707397994}, "831708847RR0001": {"name": "PALLADE MUSICA ENSEMBLE BAROQUE", "designationCode": "C", "categoryCode": "22", "address": "6536 RUE CHAMBORD", "city": "MONTREAL", "province": "QC", "country": "CA", "postalCode": "H2G3B9", "twitter": "None", "instagram": "None", "facebook": "None", "youtube": "None", "website": "None", "summary": "None", "logo": "None", "latitude": 45.5403368151366, "longitude": -73.60043482627376}, "132702242RR0001": {"name": "PALLI-AIDE ACCOMPAGNEMENT EN SOINS PALLIATIFS DU SAGUENAY INC", "designationCode": "C", "categoryCode": "09", "address": "110 RUE RACINE EST            BUREAU 271", "city": "CHICOUTIMI", "province": "QC", "country": "CA", "postalCode": "G7H1R9", "twitter": "None", "instagram": "None", "facebook": "None", "youtube": "None", "website": "None", "summary": "None", "logo": "None", "latitude": 48.42781451457097, "longitude": -71.06486453427779}, "104053699RR0001": {"name": "PALLIA-VIE", "designationCode": "C", "categoryCode": "11", "address": "385 RUE LEBEAU", "city": "SAINT-JEROME", "province": "QC", "country": "CA", "postalCode": "J7Y2M8", "twitter": "None", "instagram": "None", "facebook": "None", "youtube": "None", "website": "None", "summary": "None", "logo": "None", "latitude": 45.77438564383454, "longitude": -74.0152839151131}, "119075885RR0001": {"name": "PALLIATIVE CARE NETWORK FOR YORK REGION", "designationCode": "C", "categoryCode": "11", "address": "1 OVERLAND DR", "city": "NORTH YORK", "province": "ON", "country": "CA", "postalCode": "M3C2C3", "twitter": "None", "instagram": "None", "facebook": "None", "youtube": "None", "website": "None", "summary": "None", "logo": "None", "latitude": 43.73270495195931, "longitude": -79.34721427029855}, "876385915RR0001": {"name": "PALLIATIVE CARE RESOURCE NETWORK INC.", "designationCode": "C", "categoryCode": "11", "address": "621 CHURCHILL ROW", "city": "FREDERICTON", "province": "NB", "country": "CA", "postalCode": "E3B1P5", "twitter": "None", "instagram": "None", "facebook": "None", "youtube": "None", "website": "None", "summary": "None", "logo": "None", "latitude": 45.95622934860632, "longitude": -66.64226178988983}, "119075901RR0001": {"name": "PALLIATIVE CARE SERVICES TELETHON BROCKVILLE", "designationCode": "A", "categoryCode": "15", "address": "PO BOX 135", "city": "BROCKVILLE", "province": "ON", "country": "CA", "postalCode": "K6V5V2", "twitter": "None", "instagram": "None", "facebook": "None", "youtube": "None", "website": "None", "summary": "None", "logo": "None", "latitude": 44.59037100000006, "longitude": -75.68301049999994}, "139484828RR0001": {"name": "PALLISER REGIONAL DIVISION # 26", "designationCode": "C", "categoryCode": "20", "address": "101 3305-18 AVE N", "city": "LETHBRIDGE", "province": "AB", "country": "CA", "postalCode": "T1H5S1", "twitter": "None", "instagram": "None", "facebook": "None", "youtube": "None", "website": "None", "summary": "None", "logo": "None", "latitude": 49.722397938101125, "longitude": -112.78919026011303}, "107811564RR0001": {"name": "PALLISER REGIONAL LIBRARY", "designationCode": "C", "categoryCode": "50", "address": "366 COTEAU STREET WEST", "city": "MOOSE JAW", "province": "SK", "country": "CA", "postalCode": "S6H5C9", "twitter": "None", "instagram": "None", "facebook": "None", "youtube": "None", "website": "None", "summary": "None", "logo": "None", "latitude": 50.3824826197946, "longitude": -105.54388246015696}, "107811572RR0001": {"name": "PALLISER REGIONAL PARK", "designationCode": "C", "categoryCode": "52", "address": "BOX 89", "city": "RIVERHURST", "province": "SK", "country": "CA", "postalCode": "S0H3P0", "twitter": "None", "instagram": "None", "facebook": "None", "youtube": "None", "website": "None", "summary": "None", "logo": "None", "latitude": 50.90082000000007, "longitude": -106.86529999999999}, "119075927RR0001": {"name": "PALLISER-BAYVIEW-PUMPHILL COMMUNITY ASSOCIATION", "designationCode": "C", "categoryCode": "56", "address": "2323 PALLISER DR. SW", "city": "CALGARY", "province": "AB", "country": "CA", "postalCode": "T2V3S4", "twitter": "None", "instagram": "None", "facebook": "None", "youtube": "None", "website": "None", "summary": "None", "logo": "None", "latitude": 50.969177071895864, "longitude": -114.11340222041542}, "854133287RR0001": {"name": "PALM MINISTRY ASSOCIATION", "designationCode": "C", "categoryCode": "47", "address": "PO BOX 155                    STATION MAIN", "city": "EDMONTON", "province": "AB", "country": "CA", "postalCode": "T5J2J1", "twitter": "None", "instagram": "None", "facebook": "None", "youtube": "None", "website": "None", "summary": "None", "logo": "None", "latitude": 53.54623500000005, "longitude": -113.49037249999994}, "867686024RR0001": {"name": "PALME'S PERFORMING SOCIETY", "designationCode": "C", "categoryCode": "22", "address": "303-2377 WEST 5TH AVE", "city": "VANCOUVER", "province": "BC", "country": "CA", "postalCode": "V6K1S6", "twitter": "None", "instagram": "None", "facebook": "None", "youtube": "None", "website": "None", "summary": "None", "logo": "None", "latitude": 49.26741651875455, "longitude": -123.1592619970858}, "863853768RR0001": {"name": "PALMERSTON AND DISTRICT HOSPITAL FOUNDATION", "designationCode": "A", "categoryCode": "13", "address": "630 DUBLIN ST", "city": "MOUNT FOREST", "province": "ON", "country": "CA", "postalCode": "N0G2L3", "twitter": "None", "instagram": "None", "facebook": "None", "youtube": "None", "website": "None", "summary": "None", "logo": "None", "latitude": 43.97465900907795, "longitude": -80.73819198621267}, "888456860RR0001": {"name": "PALMERSTON CEMETERY CORPORATION", "designationCode": "C", "categoryCode": "59", "address": "RR#3", "city": "WALLACE", "province": "NS", "country": "CA", "postalCode": "B0K1Y0", "twitter": "None", "instagram": "None", "facebook": "None", "youtube": "None", "website": "None", "summary": "None", "logo": "None", "latitude": 45.52877866223628, "longitude": -62.73566833776373}, "107811721RR0001": {"name": "PALMERSTON CHRISTIAN REFORMED CHURCH", "designationCode": "C", "categoryCode": "39", "address": "PO BOX 688                    400 WHITES RD.", "city": "PALMERSTON", "province": "ON", "country": "CA", "postalCode": "N0G2P0", "twitter": "None", "instagram": "None", "facebook": "None", "youtube": "None", "website": "None", "summary": "None", "logo": "None", "latitude": 43.83733385734889, "longitude": -80.84379548202485}, "119076024RR0001": {"name": "PALMERSTON EVANGELICAL MISSIONARY CHURCH", "designationCode": "C", "categoryCode": "39", "address": "BOX 266                       550 PROSPECT ST", "city": "PALMERSTON", "province": "ON", "country": "CA", "postalCode": "N0G2P0", "twitter": "None", "instagram": "None", "facebook": "None", "youtube": "None", "website": "None", "summary": "None", "logo": "None", "latitude": 43.83007867909329, "longitude": -80.84128235045264}, "119076032RR0001": {"name": "PALMERSTON UNITED CHURCH", "designationCode": "C", "categoryCode": "44", "address": "PO BOX 269", "city": "PALMERSTON", "province": "ON", "country": "CA", "postalCode": "N0G2P0", "twitter": "None", "instagram": "None", "facebook": "None", "youtube": "None", "website": "None", "summary": "None", "logo": "None", "latitude": 43.95818406650932, "longitude": -81.52001207957518}, "888066867RR0001": {"name": "PALPUNG PHENDE KUNKYAB ASSOCIATION", "designationCode": "C", "categoryCode": "39", "address": "3991 MORESBY DRIVE", "city": "RICHMOND", "province": "BC", "country": "CA", "postalCode": "V7C5G3", "twitter": "None", "instagram": "None", "facebook": "None", "youtube": "None", "website": "None", "summary": "None", "logo": "None", "latitude": 49.159232474897486, "longitude": -123.18144214071786}, "865101349RR0001": {"name": "PALPUNG PHENDE KUNKYAB FOUNDATION", "designationCode": "C", "categoryCode": "46", "address": "3991 MORESBY DRIVE", "city": "RICHMOND", "province": "BC", "country": "CA", "postalCode": "V7C5G3", "twitter": "None", "instagram": "None", "facebook": "None", "youtube": "None", "website": "None", "summary": "None", "logo": "None", "latitude": 49.159232474897486, "longitude": -123.18144214071786}, "843939760RR0001": {"name": "PALS AUTISM SOCIETY", "designationCode": "C", "categoryCode": "20", "address": "2409 EAST PENDER STREET", "city": "VANCOUVER", "province": "BC", "country": "CA", "postalCode": "V5K2B2", "twitter": "None", "instagram": "None", "facebook": "None", "youtube": "None", "website": "None", "summary": "None", "logo": "None", "latitude": 49.28032637607478, "longitude": -123.0562035}, "107811879RR0001": {"name": "PALS PET ACCESS LEAGUE SOCIETY", "designationCode": "C", "categoryCode": "09", "address": "3019 21 STREET N.E.", "city": "CALGARY", "province": "AB", "country": "CA", "postalCode": "T2E7T1", "twitter": "None", "instagram": "None", "facebook": "None", "youtube": "None", "website": "None", "summary": "None", "logo": "None", "latitude": 51.07889652579666, "longitude": -114.00915527259164}, "884371980RR0001": {"name": "PALYUL NAMDROLING FOUNDATION (CANADA) INC.", "designationCode": "C", "categoryCode": "49", "address": "58 LINDHURST CRESCENT", "city": "OTTAWA", "province": "ON", "country": "CA", "postalCode": "K2G0T7", "twitter": "None", "instagram": "None", "facebook": "None", "youtube": "None", "website": "None", "summary": "None", "logo": "None", "latitude": 45.33520560892158, "longitude": -75.77723977335698}, "895953032RR0001": {"name": "PAN AM CLINIC FOUNDATION INC.", "designationCode": "C", "categoryCode": "13", "address": "75 POSEIDON BAY               (DANAH-3RD FLOOR)", "city": "WINNIPEG", "province": "MB", "country": "CA", "postalCode": "R3M3E4", "twitter": "None", "instagram": "None", "facebook": "None", "youtube": "None", "website": "None", "summary": "None", "logo": "None", "latitude": 49.85281314337237, "longitude": -97.17333135582702}, "881145817RR0001": {"name": "PANAMA HEALTH PROJECT", "designationCode": "C", "categoryCode": "01", "address": "433 GREENWOOD DR.", "city": "BEACONSFIELD", "province": "QC", "country": "CA", "postalCode": "H9W4Z7", "twitter": "None", "instagram": "None", "facebook": "None", "youtube": "None", "website": "None", "summary": "None", "logo": "None", "latitude": 45.421287248504505, "longitude": -73.87703579656838}, "848701967RR0001": {"name": "PANCREATIC CANCER CANADA FOUNDATION", "designationCode": "A", "categoryCode": "13", "address": "3500 - 2 BLOOR ST E", "city": "TORONTO", "province": "ON", "country": "CA", "postalCode": "M4W1A8", "twitter": "None", "instagram": "None", "facebook": "None", "youtube": "None", "website": "None", "summary": "None", "logo": "None", "latitude": 43.670545165156554, "longitude": -79.38540856440065}, "131167017RR0001": {"name": "PANDA BEAR DAYCARE CO-OP INC", "designationCode": "C", "categoryCode": "20", "address": "53 SPEERS ROAD", "city": "WINNIPEG", "province": "MB", "country": "CA", "postalCode": "R2J1M2", "twitter": "None", "instagram": "None", "facebook": "None", "youtube": "None", "website": "None", "summary": "None", "logo": "None", "latitude": 49.87243243767683, "longitude": -97.07318489970542}, "130931736RR0001": {"name": "PANDAY TINIG CHORAL ENSEMBLE", "designationCode": "C", "categoryCode": "22", "address": "5355 CUMBERLAND", "city": "MONTREAL", "province": "QC", "country": "CA", "postalCode": "H4V2P1", "twitter": "None", "instagram": "None", "facebook": "None", "youtube": "None", "website": "None", "summary": "None", "logo": "None", "latitude": 45.470600611171925, "longitude": -73.6470627547753}, "890170392RR0001": {"name": "PANDIT JASRAJ SCHOOL OF MUSIC FOUNDATION", "designationCode": "C", "categoryCode": "22", "address": "14 E BROADWAY", "city": "VANCOUVER", "province": "BC", "country": "CA", "postalCode": "V5T1V6", "twitter": "None", "instagram": "None", "facebook": "None", "youtube": "None", "website": "None", "summary": "None", "logo": "None", "latitude": 49.262909510897536, "longitude": -123.10454614672453}, "862597309RR0001": {"name": "PANDORA'S COLLECTIVE OUTREACH SOCIETY", "designationCode": "C", "categoryCode": "21", "address": "5505 MAIN STREET", "city": "VANCOUVER", "province": "BC", "country": "CA", "postalCode": "V5W2S3", "twitter": "None", "instagram": "None", "facebook": "None", "youtube": "None", "website": "None", "summary": "None", "logo": "None", "latitude": 49.235254658895485, "longitude": -123.10165198338024}, "892682766RR0001": {"name": "PANDORA'S VOX VOCAL ENSEMBLE SOCIETY", "designationCode": "C", "categoryCode": "22", "address": "775 15TH STREET", "city": "WEST VANCOUVER", "province": "BC", "country": "CA", "postalCode": "V7T2S9", "twitter": "None", "instagram": "None", "facebook": "None", "youtube": "None", "website": "None", "summary": "None", "logo": "None", "latitude": 49.331187, "longitude": -123.1570926288013}, "867307811RR0001": {"name": "PANGAEA ARTS SOCIETY", "designationCode": "C", "categoryCode": "22", "address": "2402 LAKEWOOD DRIVE", "city": "VANCOUVER", "province": "BC", "country": "CA", "postalCode": "V5N4T9", "twitter": "None", "instagram": "None", "facebook": "None", "youtube": "None", "website": "None", "summary": "None", "logo": "None", "latitude": 49.262921161809686, "longitude": -123.06193990062907}, "891697369RR0001": {"name": "PANGMAN RECREATION CENTRE", "designationCode": "C", "categoryCode": "56", "address": "BOX 99", "city": "PANGMAN", "province": "SK", "country": "CA", "postalCode": "S0C2C0", "twitter": "None", "instagram": "None", "facebook": "None", "youtube": "None", "website": "None", "summary": "None", "logo": "None", "latitude": 49.65007000000003, "longitude": -104.66778999999997}, "119076164RR0001": {"name": "PANGMAN UNITED CHURCH", "designationCode": "C", "categoryCode": "44", "address": "BOX 213", "city": "PANGMAN", "province": "SK", "country": "CA", "postalCode": "S0C2C0", "twitter": "None", "instagram": "None", "facebook": "None", "youtube": "None", "website": "None", "summary": "None", "logo": "None", "latitude": 49.65007000000003, "longitude": -104.66778999999997}, "891254799RR0001": {"name": "PANICARO FOUNDATION", "designationCode": "B", "categoryCode": "23", "address": "99 BANK STREET                SUITE 800", "city": "OTTAWA", "province": "ON", "country": "CA", "postalCode": "K1P1K6", "twitter": "None", "instagram": "None", "facebook": "None", "youtube": "None", "website": "None", "summary": "None", "logo": "None", "latitude": 45.420318574816676, "longitude": -75.70054816579173}, "877844944RR0001": {"name": "PANIERS DE NOEL MONT-LAURIER", "designationCode": "C", "categoryCode": "09", "address": "454 RUE BEAUDRY", "city": "MONT-LAURIER", "province": "QC", "country": "CA", "postalCode": "J9L1B4", "twitter": "None", "instagram": "None", "facebook": "None", "youtube": "None", "website": "None", "summary": "None", "logo": "None", "latitude": 46.54576049956732, "longitude": -75.49632}, "119076198RR0001": {"name": "PANJABI CANADIANS SOCIETY OF WINNIPEG INCORPORATED", "designationCode": "C", "categoryCode": "39", "address": "500 DOVERCOURT DR", "city": "WINNIPEG", "province": "MB", "country": "CA", "postalCode": "R3V1G4", "twitter": "None", "instagram": "None", "facebook": "None", "youtube": "None", "website": "None", "summary": "None", "logo": "None", "latitude": 49.817492487362294, "longitude": -97.18995654235654}, "119288918RR0692": {"name": "PANORAMA CONGREGATION OF JEHOVAH'S WITNESSES", "designationCode": "C", "categoryCode": "61", "address": "18 CONCORD AVE", "city": "BRAMPTON", "province": "ON", "country": "CA", "postalCode": "L6P1V6", "twitter": "None", "instagram": "None", "facebook": "None", "youtube": "None", "website": "None", "summary": "None", "logo": "None", "latitude": 43.796068837901856, "longitude": -79.74407438729887}, "872229158RR0001": {"name": "PANORAMA FOUNDATION SOCIETY", "designationCode": "A", "categoryCode": "03", "address": "2030 SUMMIT DRIVE BAG 7000    PANORAMA MOUNTAIN VILLAGE", "city": "PANORAMA", "province": "BC", "country": "CA", "postalCode": "V0A1T0", "twitter": "None", "instagram": "None", "facebook": "None", "youtube": "None", "website": "None", "summary": "None", "logo": "None", "latitude": 50.45733000000007, "longitude": -116.23743999999999}, "119288918RR0625": {"name": "PANORAMA RIDGE CONGREGATION OF JEHOVAH'S WITNESSES", "designationCode": "C", "categoryCode": "61", "address": "13947 66 AVE.", "city": "SURREY", "province": "BC", "country": "CA", "postalCode": "V3W7V5", "twitter": "None", "instagram": "None", "facebook": "None", "youtube": "None", "website": "None", "summary": "None", "logo": "None", "latitude": 49.12266945657561, "longitude": -122.83588286081135}, "119076222RR0001": {"name": "PANSY CHAPEL", "designationCode": "C", "categoryCode": "34", "address": "BOX 20", "city": "PANSY", "province": "MB", "country": "CA", "postalCode": "R0A1J0", "twitter": "None", "instagram": "None", "facebook": "None", "youtube": "None", "website": "None", "summary": "None", "logo": "None", "latitude": 49.32558000000006, "longitude": -96.73423999999994}, "107833352RR0001": {"name": "PAOC MISSION LINK", "designationCode": "C", "categoryCode": "36", "address": "2450 MILLTOWER LINK", "city": "MISSISSAUGA", "province": "ON", "country": "CA", "postalCode": "L5N5Z6", "twitter": "None", "instagram": "None", "facebook": "None", "youtube": "None", "website": "None", "summary": "None", "logo": "None", "latitude": 43.59753944771745, "longitude": -79.75686307989524}, "894050467RR0001": {"name": "PAPER BAG PLAYERS", "designationCode": "C", "categoryCode": "22", "address": "PO BOX 2012 STN DEL.CENTRE", "city": "YORKTON", "province": "SK", "country": "CA", "postalCode": "S3N3X3", "twitter": "None", "instagram": "None", "facebook": "None", "youtube": "None", "website": "None", "summary": "None", "logo": "None", "latitude": 51.20403900000005, "longitude": -102.44985199999994}, "894451533RR0001": {"name": "PAPERMAN FAMILY FOUNDATION/FONDATION FAMILIALE PAPERMAN", "designationCode": "B", "categoryCode": "03", "address": "3888 RUE JEAN-TALON WEST", "city": "MONTREAL", "province": "QC", "country": "CA", "postalCode": "H3R2G8", "twitter": "None", "instagram": "None", "facebook": "None", "youtube": "None", "website": "None", "summary": "None", "logo": "None", "latitude": 45.50362017762139, "longitude": -73.64367008546381}, "837061548RR0001": {"name": "PARA EL MUNDO (PAM) CANADA", "designationCode": "C", "categoryCode": "09", "address": "18 ALDRIDGE AVENUE", "city": "TORONTO", "province": "ON", "country": "CA", "postalCode": "M4C3W4", "twitter": "None", "instagram": "None", "facebook": "None", "youtube": "None", "website": "None", "summary": "None", "logo": "None", "latitude": 43.683452486814026, "longitude": -79.3166756163078}, "891636185RR0001": {"name": "PARA SPORT AND RECREATION PEI INC.", "designationCode": "C", "categoryCode": "56", "address": "40 ENMAN CRESCENT, SUITE 123", "city": "CHARLOTTETOWN", "province": "PE", "country": "CA", "postalCode": "C1E1E6", "twitter": "None", "instagram": "None", "facebook": "None", "youtube": "None", "website": "None", "summary": "None", "logo": "None", "latitude": 46.26020892990774, "longitude": -63.147127340887}, "119476554RR0001": {"name": "PARA-TRANSPORT INC", "designationCode": "C", "categoryCode": "09", "address": "3 RUE INDUSTRIELLE            BUREAU 2", "city": "VILLE-MARIE", "province": "QC", "country": "CA", "postalCode": "J9V1S3", "twitter": "None", "instagram": "None", "facebook": "None", "youtube": "None", "website": "None", "summary": "None", "logo": "None", "latitude": 47.32957209965941, "longitude": -79.43485671397664}, "892587551RR0001": {"name": "PARACAN", "designationCode": "C", "categoryCode": "09", "address": "CP 95", "city": "RIVIERE-PENTECOTE", "province": "QC", "country": "CA", "postalCode": "G0H1R0", "twitter": "None", "instagram": "None", "facebook": "None", "youtube": "None", "website": "None", "summary": "None", "logo": "None", "latitude": 49.78212000000008, "longitude": -67.16908999999998}, "119076289RR0001": {"name": "PARACHUTE COMMUNITY EMPLOYMENT CENTRE", "designationCode": "C", "categoryCode": "09", "address": "649 CULLER MEWS", "city": "NEWMARKET", "province": "ON", "country": "CA", "postalCode": "L3X1V8", "twitter": "None", "instagram": "None", "facebook": "None", "youtube": "None", "website": "None", "summary": "None", "logo": "None", "latitude": 44.031884132407995, "longitude": -79.44336592951117}, "133088419RR0001": {"name": "PARACHUTE LEADERS IN INJURY PREVENTION", "designationCode": "C", "categoryCode": "09", "address": "150 EGLINTON AVE. E.          SUITE 300", "city": "TORONTO", "province": "ON", "country": "CA", "postalCode": "M4P1E8", "twitter": "None", "instagram": "None", "facebook": "None", "youtube": "None", "website": "None", "summary": "None", "logo": "None", "latitude": 43.70768418347843, "longitude": -79.39385922912452}, "135709616RR0001": {"name": "PARADIS DES PIONNIERS INC", "designationCode": "C", "categoryCode": "09", "address": "P.O. BOX 249                  214 CARON STREET", "city": "ST-JEAN BAPTISTE", "province": "MB", "country": "CA", "postalCode": "R0G2B0", "twitter": "None", "instagram": "None", "facebook": "None", "youtube": "None", "website": "None", "summary": "None", "logo": "None", "latitude": 49.26599185121444, "longitude": -97.34251302849995}, "859148736RR0001": {"name": "PARADISE CHARITY GROUP", "designationCode": "C", "categoryCode": "09", "address": "328 HIGHWAY 7 EAST            UNIT 202A", "city": "RICHMOND HILL", "province": "ON", "country": "CA", "postalCode": "L4B3P7", "twitter": "None", "instagram": "None", "facebook": "None", "youtube": "None", "website": "None", "summary": "None", "logo": "None", "latitude": 43.84067168502254, "longitude": -79.39934195304559}, "813017142RR0001": {"name": "PARADISE HILL CARE HOME INC.", "designationCode": "C", "categoryCode": "01", "address": "BOX 119", "city": "PARADISE HILL", "province": "SK", "country": "CA", "postalCode": "S0M2G0", "twitter": "None", "instagram": "None", "facebook": "None", "youtube": "None", "website": "None", "summary": "None", "logo": "None", "latitude": 53.53915000000006, "longitude": -109.45828999999998}, "119249597RR0001": {"name": "PARADISE HILL COMMUNITY HEALTH AUXILIARY", "designationCode": "A", "categoryCode": "13", "address": "BOX 406", "city": "PARADISE HILL", "province": "SK", "country": "CA", "postalCode": "S0M2G0", "twitter": "None", "instagram": "None", "facebook": "None", "youtube": "None", "website": "None", "summary": "None", "logo": "None", "latitude": 53.53915000000006, "longitude": -109.45828999999998}, "139026827RR0001": {"name": "PARADISE UNITED BAPTIST CHURCH", "designationCode": "C", "categoryCode": "31", "address": "R.R 3 11631 HWY 1", "city": "LAWRENCETOWN", "province": "NS", "country": "CA", "postalCode": "B0S1M0", "twitter": "None", "instagram": "None", "facebook": "None", "youtube": "None", "website": "None", "summary": "None", "logo": "None", "latitude": 44.89444824048435, "longitude": -65.14459896678832}, "132259169RR0001": {"name": "PARADISE VALLEY AND DISTRICT MUSEUM SOCIETY", "designationCode": "C", "categoryCode": "50", "address": "PO BOX 27", "city": "PARADISE VALLEY", "province": "AB", "country": "CA", "postalCode": "T0B3R0", "twitter": "None", "instagram": "None", "facebook": "None", "youtube": "None", "website": "None", "summary": "None", "logo": "None", "latitude": 52.88554319679522, "longitude": -112.76808325302243}, "119076339RR0001": {"name": "PARADISE VALLEY AND DISTRICTS AGRICULTURAL SOCIETY", "designationCode": "C", "categoryCode": "56", "address": "BOX 65", "city": "PARADISE VALLEY", "province": "AB", "country": "CA", "postalCode": "T0B3R0", "twitter": "None", "instagram": "None", "facebook": "None", "youtube": "None", "website": "None", "summary": "None", "logo": "None", "latitude": 52.88554319679522, "longitude": -112.76808325302243}, "870085966RR0001": {"name": "PARADISE VALLEY MEMORIAL HALL", "designationCode": "C", "categoryCode": "56", "address": "4104-50 AVE                   P.O. BOX 752", "city": "LLOYDMINSTER", "province": "AB", "country": "CA", "postalCode": "T9V0V8", "twitter": "None", "instagram": "None", "facebook": "None", "youtube": "None", "website": "None", "summary": "None", "logo": "None", "latitude": 53.275412011656755, "longitude": -110.00553979851682}, "119076354RR0001": {"name": "PARADISE VALLEY UNITED CHURCH", "designationCode": "C", "categoryCode": "44", "address": "BOX 27", "city": "PARADISE VALLEY", "province": "AB", "country": "CA", "postalCode": "T0B3R0", "twitter": "None", "instagram": "None", "facebook": "None", "youtube": "None", "website": "None", "summary": "None", "logo": "None"}, "863138525RR0001": {"name": "PARADISE VILLAGE CHRISTIAN FELLOWSHIP CHURCH", "designationCode": "C", "categoryCode": "39", "address": "BOX 'O' PARADISE DRIVE", "city": "STE. ANNE", "province": "MB", "country": "CA", "postalCode": "R5H1H3", "twitter": "None", "instagram": "None", "facebook": "None", "youtube": "None", "website": "None", "summary": "None", "logo": "None", "latitude": 49.66879200000005, "longitude": -96.64944649999994}, "119076362RR0001": {"name": "PARALYMPIC SPORTS ASSOCIATION", "designationCode": "C", "categoryCode": "56", "address": "400 - 11010 101 ST NW", "city": "EDMONTON", "province": "AB", "country": "CA", "postalCode": "T5H4B9", "twitter": "None", "instagram": "None", "facebook": "None", "youtube": "None", "website": "None", "summary": "None", "logo": "None", "latitude": 53.55741501526345, "longitude": -113.49377750452938}, "119076370RR0001": {"name": "PARAMOUNT DRIVE ALLIANCE CHURCH", "designationCode": "C", "categoryCode": "39", "address": "1035 PARAMOUNT DRIVE", "city": "STONEY CREEK", "province": "ON", "country": "CA", "postalCode": "L8J2L6", "twitter": "None", "instagram": "None", "facebook": "None", "youtube": "None", "website": "None", "summary": "None", "logo": "None", "latitude": 43.19716173050951, "longitude": -79.7954827974203}, "892747734RR0001": {"name": "PARASPORT PLUS", "designationCode": "A", "categoryCode": "03", "address": "4545 AV PIERRE-DE COUBERTIN", "city": "MONTREAL", "province": "QC", "country": "CA", "postalCode": "H1V0B2", "twitter": "None", "instagram": "None", "facebook": "None", "youtube": "None", "website": "None", "summary": "None", "logo": "None", "latitude": 45.555920590080106, "longitude": -73.55036240097485}, "132521212RR0001": {"name": "PARC BOTANIQUE A FLEUR D'EAU - LAC OSISKO INC.", "designationCode": "C", "categoryCode": "50", "address": "100, RUE TASCHEREAU EST       C.P. 220", "city": "ROUYN-NORANDA", "province": "QC", "country": "CA", "postalCode": "J9X5C3", "twitter": "None", "instagram": "None", "facebook": "None", "youtube": "None", "website": "None", "summary": "None", "logo": "None", "latitude": 48.23743148124546, "longitude": -79.01699319317329}, "138004551RR0001": {"name": "PARC DE LA RIVI\u00c8RE BATISCAN INC.", "designationCode": "C", "categoryCode": "56", "address": "200 CHEMIN DU BARRAGE", "city": "ST-NARCISSE", "province": "QC", "country": "CA", "postalCode": "G0X2Y0", "twitter": "None", "instagram": "None", "facebook": "None", "youtube": "None", "website": "None", "summary": "None", "logo": "None", "latitude": 46.55185513226169, "longitude": -72.41558742522636}, "119153013RR0001": {"name": "PARC DE LA RIVIERE MITIS", "designationCode": "C", "categoryCode": "59", "address": "C.P. 59                       900 ROUTE DE LA MER", "city": "STE. FLAVIE", "province": "QC", "country": "CA", "postalCode": "G0J2L0", "twitter": "None", "instagram": "None", "facebook": "None", "youtube": "None", "website": "None", "summary": "None", "logo": "None", "latitude": 48.630180589540906, "longitude": -68.14484904604925}, "136025434RR0001": {"name": "PARC HISTORIQUE DE LA POUDRI\u00c8RE DE WINDSOR", "designationCode": "C", "categoryCode": "52", "address": "342 RUE SAINT-GEORGES", "city": "WINDSOR", "province": "QC", "country": "CA", "postalCode": "J1S2Z5", "twitter": "None", "instagram": "None", "facebook": "None", "youtube": "None", "website": "None", "summary": "None", "logo": "None", "latitude": 45.57765863139837, "longitude": -71.99141509916937}, "895309490RR0001": {"name": "PARC LINEAIRE DES BOIS-FRANCS INC.", "designationCode": "C", "categoryCode": "56", "address": "150 RUE NOTRE-DAME OUEST", "city": "VICTORIAVILLE", "province": "QC", "country": "CA", "postalCode": "G6P1R9", "twitter": "None", "instagram": "None", "facebook": "None", "youtube": "None", "website": "None", "summary": "None", "logo": "None", "latitude": 46.0576799458998, "longitude": -71.96246487382443}, "104070792RR0001": {"name": "PARC MARIE-VICTORIN INC.", "designationCode": "C", "categoryCode": "50", "address": "385 RUE MARIE-VICTORIN CP 356", "city": "KINGSEY FALLS", "province": "QC", "country": "CA", "postalCode": "J0A1B0", "twitter": "None", "instagram": "None", "facebook": "None", "youtube": "None", "website": "None", "summary": "None", "logo": "None", "latitude": 45.85421049347914, "longitude": -72.07676109628385}, "130029549RR0001": {"name": "PARC NATURE DE POINTE-AUX-OUTARDES", "designationCode": "C", "categoryCode": "52", "address": "4 RUE LABRIE OUEST", "city": "POINTE-AUX-OUTARDES", "province": "QC", "country": "CA", "postalCode": "G0H1M0", "twitter": "None", "instagram": "None", "facebook": "None", "youtube": "None", "website": "None", "summary": "None", "logo": "None", "latitude": 49.04192248514059, "longitude": -68.45072236819759}, "119076388RR0001": {"name": "PARC-COMMEMORATIF LA SOUVENANCE INC.", "designationCode": "C", "categoryCode": "59", "address": "9255 BOUL. DE L'ORMI\u00c8RE", "city": "QU\u00c9BEC", "province": "QC", "country": "CA", "postalCode": "G2B3K2", "twitter": "None", "instagram": "None", "facebook": "None", "youtube": "None", "website": "None", "summary": "None", "logo": "None", "latitude": 46.83381989699374, "longitude": -71.35300795911442}, "119091759RR0001": {"name": "PARD THERAPEUTIC RIDING", "designationCode": "C", "categoryCode": "56", "address": "PO BOX 1654", "city": "PETERBOROUGH", "province": "ON", "country": "CA", "postalCode": "K9J7S4", "twitter": "None", "instagram": "None", "facebook": "None", "youtube": "None", "website": "None", "summary": "None", "logo": "None", "latitude": 44.30591700000005, "longitude": -78.31950199999993}, "851023556RR0001": {"name": "PARED parents et \u00e9ducateurs, PARED Parents and Educators", "designationCode": "C", "categoryCode": "20", "address": "630, RUE SHERBROOKE OUEST     SUITE 400", "city": "MONTR\u00c9AL", "province": "QC", "country": "CA", "postalCode": "H3A1E4", "twitter": "None", "instagram": "None", "facebook": "None", "youtube": "None", "website": "None", "summary": "None", "logo": "None", "latitude": 45.505404, "longitude": -73.5724035}, "891733651RR0001": {"name": "PARENFANT", "designationCode": "C", "categoryCode": "09", "address": "275, BOUL. DEQUEN NORD        1ER ETAGE", "city": "ALMA", "province": "QC", "country": "CA", "postalCode": "G8B5N8", "twitter": "None", "instagram": "None", "facebook": "None", "youtube": "None", "website": "None", "summary": "None", "logo": "None", "latitude": 48.55645500000006, "longitude": -71.64824749999994}, "894416080RR0001": {"name": "PARENFANTS DE MASCOUCHE", "designationCode": "C", "categoryCode": "09", "address": "2492, CH. SAINTE-MARIE", "city": "MASCOUCHE", "province": "QC", "country": "CA", "postalCode": "J7K1M5", "twitter": "None", "instagram": "None", "facebook": "None", "youtube": "None", "website": "None", "summary": "None", "logo": "None", "latitude": 45.75282288591388, "longitude": -73.61694676770149}, "872201991RR0001": {"name": "PARENSEMBLE", "designationCode": "C", "categoryCode": "11", "address": "1879, RUE DES M\u00c9L\u00c8ZES", "city": "DOLBEAU-MISTASSINI", "province": "QC", "country": "CA", "postalCode": "G8L2E5", "twitter": "None", "instagram": "None", "facebook": "None", "youtube": "None", "website": "None", "summary": "None", "logo": "None", "latitude": 48.88216066720538, "longitude": -72.23743511824105}, "886258599RR0001": {"name": "PARENT ADVISORY COUNCIL OF PENHOLD SCHOOL", "designationCode": "C", "categoryCode": "25", "address": "BOX 130", "city": "PENHOLD", "province": "AB", "country": "CA", "postalCode": "T0M1R0", "twitter": "None", "instagram": "None", "facebook": "None", "youtube": "None", "website": "None", "summary": "None", "logo": "None", "latitude": 52.135244718577376, "longitude": -113.86968027922322}, "133336511RR0001": {"name": "PARENT EDUCATION NETWORK", "designationCode": "C", "categoryCode": "09", "address": "10 PITTSBORO DRIVE", "city": "ETOBICOKE", "province": "ON", "country": "CA", "postalCode": "M9V3R4", "twitter": "None", "instagram": "None", "facebook": "None", "youtube": "None", "website": "None", "summary": "None", "logo": "None", "latitude": 43.737192434849554, "longitude": -79.5895102680186}, "119076487RR0001": {"name": "PARENT PRESCHOOL RESOURCE CENTRE OF THE NATIONAL CAPITAL REGION INC.", "designationCode": "C", "categoryCode": "21", "address": "300 GOULBURN PVT", "city": "OTTAWA", "province": "ON", "country": "CA", "postalCode": "K1N1C9", "twitter": "None", "instagram": "None", "facebook": "None", "youtube": "None", "website": "None", "summary": "None", "logo": "None", "latitude": 45.4212337060708, "longitude": -75.67049686208075}, "130555444RR0001": {"name": "PARENT SUPPORT ASSOCIATION OF CALGARY", "designationCode": "C", "categoryCode": "09", "address": "20 MCKENZIE LAKE CRES SE", "city": "CALGARY", "province": "AB", "country": "CA", "postalCode": "T2Z2P2", "twitter": "None", "instagram": "None", "facebook": "None", "youtube": "None", "website": "None", "summary": "None", "logo": "None", "latitude": 50.91212680045008, "longitude": -113.97695207271053}, "106778780RR0001": {"name": "PARENT SUPPORT SERVICES SOCIETY OF BC", "designationCode": "C", "categoryCode": "09", "address": "204-5623 IMPERIAL ST", "city": "BURNABY", "province": "BC", "country": "CA", "postalCode": "V5J1G1", "twitter": "None", "instagram": "None", "facebook": "None", "youtube": "None", "website": "None", "summary": "None", "logo": "None", "latitude": 49.22189952899767, "longitude": -122.982624}, "890828395RR0001": {"name": "PARENT TO PARENT SUPPORT GROUP OF SOUTH EASTERN ALBERTA", "designationCode": "C", "categoryCode": "59", "address": "16 TAYLOR CRT SE", "city": "MEDICINE HAT", "province": "AB", "country": "CA", "postalCode": "T1B3X5", "twitter": "None", "instagram": "None", "facebook": "None", "youtube": "None", "website": "None", "summary": "None", "logo": "None", "latitude": 49.996468791563274, "longitude": -110.62421398961264}, "859460842RR0001": {"name": "PARENT-CHILD MOTHER GOOSE PROGRAM / PROGRAMME LA MERE L'OIE POUR PARENTS ET ENFANTS", "designationCode": "C", "categoryCode": "20", "address": "171 CHEMIN LAC LA GRISE       RR2", "city": "IVRY SUR LE LAC", "province": "QC", "country": "CA", "postalCode": "J8C2Z8", "twitter": "None", "instagram": "None", "facebook": "None", "youtube": "None", "website": "None", "summary": "None", "logo": "None", "latitude": 46.090246275318876, "longitude": -74.3857499639332}, "861867539RR0001": {"name": "PARENT-TEACHER-STUDENT ASSOCIATION OF THE WEST KINGS DISTRICT HIGH SCHOOL", "designationCode": "C", "categoryCode": "21", "address": "1941 HWY #1", "city": "AUBURN", "province": "NS", "country": "CA", "postalCode": "B0P1A0", "twitter": "None", "instagram": "None", "facebook": "None", "youtube": "None", "website": "None", "summary": "None", "logo": "None", "latitude": 45.01781199530293, "longitude": -64.87796096868138}, "133978288RR0001": {"name": "PARENT/PRESCHOOL PROGRAM ASSOCIATION OF SOUTHWESTERN ALBERTA", "designationCode": "C", "categoryCode": "01", "address": "PO BOX 242", "city": "LETHBRIDGE", "province": "AB", "country": "CA", "postalCode": "T1J3Y5", "twitter": "None", "instagram": "None", "facebook": "None", "youtube": "None", "website": "None", "summary": "None", "logo": "None", "latitude": 49.69383000000006, "longitude": -112.83373249999994}, "886174549RR0001": {"name": "PARENTAIME MAISON DE LA FAMILLE DES ETCHEMINS", "designationCode": "C", "categoryCode": "09", "address": "319, RUE DU SANATORIUM", "city": "LAC-ETCHEMIN", "province": "QC", "country": "CA", "postalCode": "G0R1S0", "twitter": "None", "instagram": "None", "facebook": "None", "youtube": "None", "website": "None", "summary": "None", "logo": "None", "latitude": 46.399424218420044, "longitude": -70.49740411887622}, "860021393RR0001": {"name": "PARENTAL ALIENATION AWARENESS ORGANIZATION", "designationCode": "C", "categoryCode": "11", "address": "1534 OXFORD AVE", "city": "OAKVILLE", "province": "ON", "country": "CA", "postalCode": "L6H1T9", "twitter": "None", "instagram": "None", "facebook": "None", "youtube": "None", "website": "None", "summary": "None", "logo": "None", "latitude": 43.461643464048755, "longitude": -79.71538713656291}, "887293728RR0001": {"name": "PARENTS D'ENFANTS HANDICAPES AVEC DIFFICULTES D'ADAPTATION OU D'APPRENTISAGE (P.E.H.D.A.A.)", "designationCode": "C", "categoryCode": "09", "address": "420 RUE CHICOINE", "city": "VAUDREUIL-DORION", "province": "QC", "country": "CA", "postalCode": "J7V7E4", "twitter": "None", "instagram": "None", "facebook": "None", "youtube": "None", "website": "None", "summary": "None", "logo": "None", "latitude": 45.3781080227366, "longitude": -74.01904070785982}, "898837752RR0001": {"name": "PARENTS DE L'ECOLE DE LA ROSELIERE A PEDAGOGIE WALDORF", "designationCode": "C", "categoryCode": "20", "address": "1055 RUE BERGER", "city": "MONT-SAINT-HILAIRE", "province": "QC", "country": "CA", "postalCode": "J3G4S6", "twitter": "None", "instagram": "None", "facebook": "None", "youtube": "None", "website": "None", "summary": "None", "logo": "None", "latitude": 45.53526441661366, "longitude": -73.16124066224236}, "843200270RR0001": {"name": "PARENTS EMPOWERING PARENTS (PEP) SOCIETY", "designationCode": "B", "categoryCode": "57", "address": "2001 SHERWOOD DR", "city": "SHERWOOD PARK", "province": "AB", "country": "CA", "postalCode": "T8A3W7", "twitter": "None", "instagram": "None", "facebook": "None", "youtube": "None", "website": "None", "summary": "None", "logo": "None", "latitude": 53.525367218448714, "longitude": -113.29621633769938}, "132948993RR0001": {"name": "PARENTS ET AMIS DU BIEN-ETRE MENTAL DU SUD-OUEST DE MONTREAL", "designationCode": "C", "categoryCode": "09", "address": "881 DE L'EGLISE, ARR. VERDUN", "city": "MONTREAL", "province": "QC", "country": "CA", "postalCode": "H4G2N4", "twitter": "None", "instagram": "None", "facebook": "None", "youtube": "None", "website": "None", "summary": "None", "logo": "None", "latitude": 45.463140449362236, "longitude": -73.57477013336026}, "882977747RR0001": {"name": "PARENTS FAMILIES AND FRIENDS OF LESBIANS AND GAYS SARNIA-BLUSARNIA-BLUEWATER", "designationCode": "B", "categoryCode": "09", "address": "810 - 1295 SANDY LANE", "city": "SARNIA", "province": "ON", "country": "CA", "postalCode": "N7V4K5", "twitter": "None", "instagram": "None", "facebook": "None", "youtube": "None", "website": "None", "summary": "None", "logo": "None", "latitude": 43.002705933802375, "longitude": -82.40938894844786}, "891248619RR0001": {"name": "PARENTS FOR CHILDREN'S MENTAL HEALTH/PARENTS POUR LA SANTE MENTALE DES ENFANTS", "designationCode": "C", "categoryCode": "11", "address": "PO BOX 20004 RPO GRANTHAM", "city": "ST CATHARINES", "province": "ON", "country": "CA", "postalCode": "L2M7W7", "twitter": "None", "instagram": "None", "facebook": "None", "youtube": "None", "website": "None", "summary": "None", "logo": "None", "latitude": 43.18595227267854, "longitude": -79.22077768144945}}