{"888954997RR0001": {"name": "VERNON BARFORD MUSIC PARENTS ASSOCIATION", "designationCode": "C", "categoryCode": "21", "address": "32 FAIRWAY DR", "city": "EDMONTON", "province": "AB", "country": "CA", "postalCode": "T6J2C1", "twitter": "None", "instagram": "None", "facebook": "None", "youtube": "None", "website": "None", "summary": "None", "logo": "None", "latitude": 53.472760370592205, "longitude": -113.54135555311925}, "891601379RR0001": {"name": "VERNON BUDDHIST CHURCH", "designationCode": "C", "categoryCode": "35", "address": "P.O. BOX 1886", "city": "VERNON", "province": "BC", "country": "CA", "postalCode": "V1T8Z7", "twitter": "None", "instagram": "None", "facebook": "None", "youtube": "None", "website": "None", "summary": "None", "logo": "None", "latitude": 50.26567200000005, "longitude": -119.27378149999993}, "119283265RR0001": {"name": "VERNON CHRISTADELPHIAN ECCLESIA,", "designationCode": "C", "categoryCode": "39", "address": "3905 15TH STREET", "city": "VERNON", "province": "BC", "country": "CA", "postalCode": "V1T7N4", "twitter": "None", "instagram": "None", "facebook": "None", "youtube": "None", "website": "None", "summary": "None", "logo": "None", "latitude": 50.270949, "longitude": -119.2519870218999}, "108170572RR0001": {"name": "VERNON CHRISTIAN FELLOWSHIP", "designationCode": "C", "categoryCode": "39", "address": "4506 29TH ST", "city": "VERNON", "province": "BC", "country": "CA", "postalCode": "V1T5C1", "twitter": "None", "instagram": "None", "facebook": "None", "youtube": "None", "website": "None", "summary": "None", "logo": "None", "latitude": 50.278806586733225, "longitude": -119.27003498199525}, "108170580RR0001": {"name": "VERNON CHRISTIAN SCHOOL SOCIETY", "designationCode": "C", "categoryCode": "20", "address": "6890 PLEASANT VALLEY RD", "city": "VERNON", "province": "BC", "country": "CA", "postalCode": "V1B3R5", "twitter": "None", "instagram": "None", "facebook": "None", "youtube": "None", "website": "None", "summary": "None", "logo": "None", "latitude": 50.30863851569614, "longitude": -119.24575898580348}, "108170598RR0001": {"name": "VERNON CHURCH OF CHRIST", "designationCode": "C", "categoryCode": "39", "address": "4107 PLESANT VALLEY RD", "city": "VERNON", "province": "BC", "country": "CA", "postalCode": "V1T4M1", "twitter": "None", "instagram": "None", "facebook": "None", "youtube": "None", "website": "None", "summary": "None", "logo": "None", "latitude": 50.27301755508117, "longitude": -119.25292362917668}, "108170606RR0001": {"name": "VERNON COMMUNITY MUSIC SCHOOL ASSOCIATION", "designationCode": "C", "categoryCode": "22", "address": "1705 32ND AVE", "city": "VERNON", "province": "BC", "country": "CA", "postalCode": "V1T2J3", "twitter": "None", "instagram": "None", "facebook": "None", "youtube": "None", "website": "None", "summary": "None", "logo": "None", "latitude": 50.26544751395758, "longitude": -119.25408069526743}, "140000407RR0001": {"name": "VERNON FAMILY CHURCH", "designationCode": "C", "categoryCode": "36", "address": "3508-25TH AVE", "city": "VERNON", "province": "BC", "country": "CA", "postalCode": "V1T1P3", "twitter": "None", "instagram": "None", "facebook": "None", "youtube": "None", "website": "None", "summary": "None", "logo": "None", "latitude": 50.26048856391064, "longitude": -119.28072142186512}, "877577924RR0001": {"name": "VERNON FULL GOSPEL TABERNACLE", "designationCode": "C", "categoryCode": "36", "address": "5871 OKANAGAN LANDING ROAD", "city": "VERNON", "province": "BC", "country": "CA", "postalCode": "V1H1M3", "twitter": "None", "instagram": "None", "facebook": "None", "youtube": "None", "website": "None", "summary": "None", "logo": "None", "latitude": 50.2505579411966, "longitude": -119.31671761939488}, "119283356RR0001": {"name": "VERNON GOSPEL CHAPEL", "designationCode": "C", "categoryCode": "39", "address": "4106 PLEASANT VALLEY RD", "city": "VERNON", "province": "BC", "country": "CA", "postalCode": "V1T4M2", "twitter": "None", "instagram": "None", "facebook": "None", "youtube": "None", "website": "None", "summary": "None", "logo": "None", "latitude": 50.273014430492125, "longitude": -119.2530473092213}, "129898953RR0001": {"name": "VERNON JUBILEE HOSPITAL AUXILIARY SOCIETY", "designationCode": "C", "categoryCode": "19", "address": "2101 32ND ST", "city": "VERNON", "province": "BC", "country": "CA", "postalCode": "V1T5L2", "twitter": "None", "instagram": "None", "facebook": "None", "youtube": "None", "website": "None", "summary": "None", "logo": "None", "latitude": 50.25690327564433, "longitude": -119.27366672435566}, "119283372RR0001": {"name": "VERNON JUBILEE HOSPITAL FOUNDATION", "designationCode": "C", "categoryCode": "11", "address": "2101 32ND STREET", "city": "VERNON", "province": "BC", "country": "CA", "postalCode": "V1T5L2", "twitter": "None", "instagram": "None", "facebook": "None", "youtube": "None", "website": "None", "summary": "None", "logo": "None", "latitude": 50.25690327564433, "longitude": -119.27366672435566}, "119283398RR0001": {"name": "VERNON KALAMALKA CHAPTER, SWEET ADELINES, INC", "designationCode": "C", "categoryCode": "22", "address": "8044 OLD KAMLOOPS RD", "city": "VERNON", "province": "BC", "country": "CA", "postalCode": "V1H1W8", "twitter": "None", "instagram": "None", "facebook": "None", "youtube": "None", "website": "None", "summary": "None", "logo": "None", "latitude": 50.33296875437128, "longitude": -119.26697057369148}, "866792666RR0001": {"name": "VERNON MUSLIM ASSOCIATION", "designationCode": "C", "categoryCode": "60", "address": "3807 - 21 AVENUE", "city": "VERNON", "province": "BC", "country": "CA", "postalCode": "V1T6P7", "twitter": "None", "instagram": "None", "facebook": "None", "youtube": "None", "website": "None", "summary": "None", "logo": "None", "latitude": 50.25588234782765, "longitude": -119.28587415938091}, "137739827RR0001": {"name": "VERNON NATIVE HOUSING SOCIETY", "designationCode": "C", "categoryCode": "09", "address": "41-4305 19TH AVE", "city": "VERNON", "province": "BC", "country": "CA", "postalCode": "V1T9X4", "twitter": "None", "instagram": "None", "facebook": "None", "youtube": "None", "website": "None", "summary": "None", "logo": "None", "latitude": 50.25612739238698, "longitude": -119.30084184468099}, "119283422RR0001": {"name": "VERNON PENSIONER'S ACCOMMODATION SOCIETY", "designationCode": "C", "categoryCode": "59", "address": "109 3400 COLDSTREAM AVE", "city": "VERNON", "province": "BC", "country": "CA", "postalCode": "V1T8B5", "twitter": "None", "instagram": "None", "facebook": "None", "youtube": "None", "website": "None", "summary": "None", "logo": "None", "latitude": 50.26323256506449, "longitude": -119.27748300305842}, "108113358RR0001": {"name": "VERNON PUBLIC ART GALLERY SOCIETY", "designationCode": "C", "categoryCode": "22", "address": "3228 31ST AVENUE", "city": "VERNON", "province": "BC", "country": "CA", "postalCode": "V1T2H3", "twitter": "None", "instagram": "None", "facebook": "None", "youtube": "None", "website": "None", "summary": "None", "logo": "None", "latitude": 50.264484825201244, "longitude": -119.27419691067033}, "108170788RR0001": {"name": "VERNON RESTHOLM ASSOCIATION", "designationCode": "C", "categoryCode": "01", "address": "2808 35 ST", "city": "VERNON", "province": "BC", "country": "CA", "postalCode": "V1T6B5", "twitter": "None", "instagram": "None", "facebook": "None", "youtube": "None", "website": "None", "summary": "None", "logo": "None", "latitude": 50.262370540514894, "longitude": -119.27939047524983}, "863443610RR0001": {"name": "VERNON RESTHOLM FOUNDATION", "designationCode": "A", "categoryCode": "03", "address": "2808  35TH ST", "city": "VERNON", "province": "BC", "country": "CA", "postalCode": "V1T6B5", "twitter": "None", "instagram": "None", "facebook": "None", "youtube": "None", "website": "None", "summary": "None", "logo": "None", "latitude": 50.262370540514894, "longitude": -119.27939047524983}, "119283448RR0001": {"name": "VERNON SCIENCE & DISCOVERY SOCIETY", "designationCode": "C", "categoryCode": "21", "address": "2704 HIGHWAY 6", "city": "VERNON", "province": "BC", "country": "CA", "postalCode": "V1T5G5", "twitter": "None", "instagram": "None", "facebook": "None", "youtube": "None", "website": "None", "summary": "None", "logo": "None", "latitude": 50.26115661883554, "longitude": -119.2706848506387}, "889917043RR0001": {"name": "VERNON SEARCH & RESCUE GROUP SOCIETY", "designationCode": "C", "categoryCode": "09", "address": "9850 ABERDEEN RD", "city": "VERNON", "province": "BC", "country": "CA", "postalCode": "V1B2K9", "twitter": "None", "instagram": "None", "facebook": "None", "youtube": "None", "website": "None", "summary": "None", "logo": "None", "latitude": 50.24107714423302, "longitude": -119.23029539936633}, "890356066RR0001": {"name": "VERNON SENIOR CITIZENS RECREATIONAL SOCIETY", "designationCode": "C", "categoryCode": "56", "address": "3310 37TH AVE.", "city": "VERNON", "province": "BC", "country": "CA", "postalCode": "V1T2Y5", "twitter": "None", "instagram": "None", "facebook": "None", "youtube": "None", "website": "None", "summary": "None", "logo": "None", "latitude": 50.268757391205156, "longitude": -119.27578920406543}, "118818491RR0089": {"name": "VERNON SEVENTH-DAY ADVENTIST CHURCH", "designationCode": "C", "categoryCode": "41", "address": "PO 1000", "city": "ABBOTSFORD", "province": "BC", "country": "CA", "postalCode": "V2S4P5", "twitter": "None", "instagram": "None", "facebook": "None", "youtube": "None", "website": "None", "summary": "None", "logo": "None", "latitude": 49.03851300000005, "longitude": -122.29441549999993}, "108163320RR0001": {"name": "VERNON UPPER ROOM MISSION SOCIETY", "designationCode": "C", "categoryCode": "39", "address": "3403-27 AVE", "city": "VERNON", "province": "BC", "country": "CA", "postalCode": "V1T1S2", "twitter": "None", "instagram": "None", "facebook": "None", "youtube": "None", "website": "None", "summary": "None", "logo": "None", "latitude": 50.26134441661365, "longitude": -119.27721738328816}, "108170853RR0001": {"name": "VERNON WOMEN'S TRANSITION HOUSE SOCIETY", "designationCode": "C", "categoryCode": "09", "address": "2400 46 AVE", "city": "VERNON", "province": "BC", "country": "CA", "postalCode": "V1T9N5", "twitter": "None", "instagram": "None", "facebook": "None", "youtube": "None", "website": "None", "summary": "None", "logo": "None", "latitude": 50.27874151399405, "longitude": -119.26313991618096}, "891197543RR0001": {"name": "VERNONVILLE UNITED CHURCH CEMETERY BOARD", "designationCode": "C", "categoryCode": "59", "address": "C1O 123 KING RD               R.R # 1", "city": "GRAFTON", "province": "ON", "country": "CA", "postalCode": "K0K2G0", "twitter": "None", "instagram": "None", "facebook": "None", "youtube": "None", "website": "None", "summary": "None", "logo": "None", "latitude": 44.04013200533744, "longitude": -77.99900549936577}, "107406316RR0014": {"name": "VERONA FREE METHODIST CHURCH", "designationCode": "C", "categoryCode": "39", "address": "P.O. BOX 52", "city": "VERONA", "province": "ON", "country": "CA", "postalCode": "K0H2W0", "twitter": "None", "instagram": "None", "facebook": "None", "youtube": "None", "website": "None", "summary": "None", "logo": "None", "latitude": 44.48114752082804, "longitude": -76.69501084524111}, "105516561RR0001": {"name": "VERS L'AGE SENIOR INC.", "designationCode": "C", "categoryCode": "09", "address": "659, BOULEVARD BLANCHE", "city": "BAIE-COMEAU", "province": "QC", "country": "CA", "postalCode": "G5C2B2", "twitter": "None", "instagram": "None", "facebook": "None", "youtube": "None", "website": "None", "summary": "None", "logo": "None", "latitude": 49.18925859864825, "longitude": -68.25980727179827}, "132643776RR0001": {"name": "VERS VOUS", "designationCode": "C", "categoryCode": "09", "address": "7378 RUE LAJEUNESSE", "city": "MONTREAL", "province": "QC", "country": "CA", "postalCode": "H2R2H8", "twitter": "None", "instagram": "None", "facebook": "None", "youtube": "None", "website": "None", "summary": "None", "logo": "None", "latitude": 45.5405610824054, "longitude": -73.61735839399262}, "851219105RR0001": {"name": "VERSe Ottawa", "designationCode": "C", "categoryCode": "22", "address": "16 ELVINA ST", "city": "GLOUCESTER", "province": "ON", "country": "CA", "postalCode": "K1J7L1", "twitter": "None", "instagram": "None", "facebook": "None", "youtube": "None", "website": "None", "summary": "None", "logo": "None", "latitude": 45.443879225085155, "longitude": -75.61135153915389}, "119283505RR0001": {"name": "VERSATECH CHARITABLE FOUNDATION INC", "designationCode": "A", "categoryCode": "03", "address": "500 MADISON STREET", "city": "WINNIPEG", "province": "MB", "country": "CA", "postalCode": "R3H0L4", "twitter": "None", "instagram": "None", "facebook": "None", "youtube": "None", "website": "None", "summary": "None", "logo": "None", "latitude": 49.89156245490218, "longitude": -97.20336529095675}, "889844999RR0001": {"name": "VERSEVELDT FAMILY FOUNDATION", "designationCode": "B", "categoryCode": "03", "address": "8428 -15TH AVENUE", "city": "BURNABY", "province": "BC", "country": "CA", "postalCode": "V3N1Y2", "twitter": "None", "instagram": "None", "facebook": "None", "youtube": "None", "website": "None", "summary": "None", "logo": "None", "latitude": 49.23009080331984, "longitude": -122.91870891496787}, "137230348RR0001": {"name": "VERSTRAETE EVANCELISTIC ASSOCIATION OF ONTARIO", "designationCode": "C", "categoryCode": "47", "address": "PO BOX 24", "city": "GABRIOLA ISLAND", "province": "BC", "country": "CA", "postalCode": "V0R1X0", "twitter": "None", "instagram": "None", "facebook": "None", "youtube": "None", "website": "None", "summary": "None", "logo": "None", "latitude": 49.196676369791234, "longitude": -123.86085767440564}, "883941825RR0001": {"name": "VERTIGO THEATRE SOCIETY", "designationCode": "C", "categoryCode": "22", "address": "161-115-9 AVE SE", "city": "CALGARY", "province": "AB", "country": "CA", "postalCode": "T2G0P5", "twitter": "None", "instagram": "None", "facebook": "None", "youtube": "None", "website": "None", "summary": "None", "logo": "None", "latitude": 51.044598, "longitude": -114.0626925}, "131224289RR0001": {"name": "VESNA FESTIVAL INC", "designationCode": "C", "categoryCode": "22", "address": "PO BOX 1592", "city": "SASKATOON", "province": "SK", "country": "CA", "postalCode": "S7K3R3", "twitter": "None", "instagram": "None", "facebook": "None", "youtube": "None", "website": "None", "summary": "None", "logo": "None", "latitude": 52.13049000000005, "longitude": -106.65926449999994}, "138198171RR0001": {"name": "VESNIVKA GIRLS CHOIR", "designationCode": "C", "categoryCode": "22", "address": "78 BRULE GARDENS", "city": "TORONTO", "province": "ON", "country": "CA", "postalCode": "M6S4J2", "twitter": "None", "instagram": "None", "facebook": "None", "youtube": "None", "website": "None", "summary": "None", "logo": "None", "latitude": 43.64620069080736, "longitude": -79.48822890080196}, "119283554RR0001": {"name": "VESPER SPRINGS MANOR BADEN INC", "designationCode": "C", "categoryCode": "09", "address": "134 SNYDERS RD E", "city": "BADEN", "province": "ON", "country": "CA", "postalCode": "N3A2L8", "twitter": "None", "instagram": "None", "facebook": "None", "youtube": "None", "website": "None", "summary": "None", "logo": "None", "latitude": 43.40458085947849, "longitude": -80.6637533015336}, "132433020RR0001": {"name": "VESTA RECOVERY PROGRAM FOR WOMEN INC.", "designationCode": "C", "categoryCode": "57", "address": "101 JAMES STREET", "city": "OTTAWA", "province": "ON", "country": "CA", "postalCode": "K1R5M2", "twitter": "None", "instagram": "None", "facebook": "None", "youtube": "None", "website": "None", "summary": "None", "logo": "None", "latitude": 45.41188249460431, "longitude": -75.69849063448545}, "891583064RR0001": {"name": "VESTIAIRE ST-JEAN-BAPTISTE INC", "designationCode": "C", "categoryCode": "09", "address": "66 AVENUE DE LA RIVIERE", "city": "BOUCTOUCHE", "province": "NB", "country": "CA", "postalCode": "E4S3A7", "twitter": "None", "instagram": "None", "facebook": "None", "youtube": "None", "website": "None", "summary": "None", "logo": "None", "latitude": 46.468153258381996, "longitude": -64.72571259781306}, "863478699RR0001": {"name": "VESTIAIRE ST-JOSEPH INC.", "designationCode": "C", "categoryCode": "09", "address": "60 RUE DU VESTIAIRE", "city": "SHEDIAC", "province": "NB", "country": "CA", "postalCode": "E4P2W5", "twitter": "None", "instagram": "None", "facebook": "None", "youtube": "None", "website": "None", "summary": "None", "logo": "None", "latitude": 46.21803117675494, "longitude": -64.54467813045474}, "141048512RR0001": {"name": "VETERAN CHARITABLE TRUST", "designationCode": "B", "categoryCode": "39", "address": "3425 2 AVE S", "city": "LETHBRIDGE", "province": "AB", "country": "CA", "postalCode": "T1J4V1", "twitter": "None", "instagram": "None", "facebook": "None", "youtube": "None", "website": "None", "summary": "None", "logo": "None", "latitude": 49.696839530439966, "longitude": -112.78914308381903}, "119283562RR0001": {"name": "VETERAN FULL GOSPEL CAMP ASSOCIATION", "designationCode": "C", "categoryCode": "36", "address": "PO BOX 2151                   RHONDA DEAGLE", "city": "STETTLER", "province": "AB", "country": "CA", "postalCode": "T0C2L0", "twitter": "None", "instagram": "None", "facebook": "None", "youtube": "None", "website": "None", "summary": "None", "logo": "None", "latitude": 52.32597900000006, "longitude": -112.70698099999993}, "119283570RR0001": {"name": "VETERAN FULL GOSPEL CHURCH", "designationCode": "C", "categoryCode": "39", "address": "P.O. BOX 401", "city": "VETERAN", "province": "AB", "country": "CA", "postalCode": "T0C2S0", "twitter": "None", "instagram": "None", "facebook": "None", "youtube": "None", "website": "None", "summary": "None", "logo": "None", "latitude": 52.00415000000004, "longitude": -111.12310999999994}, "889501797RR0001": {"name": "VETERAN UNITED CHURCH", "designationCode": "C", "categoryCode": "44", "address": "BOX 641", "city": "VETERAN", "province": "AB", "country": "CA", "postalCode": "T0C2S0", "twitter": "None", "instagram": "None", "facebook": "None", "youtube": "None", "website": "None", "summary": "None", "logo": "None", "latitude": 52.00415000000004, "longitude": -111.12310999999994}, "834982746RR0001": {"name": "VETERANS AND SENIORS VILLA OF ALLISTON", "designationCode": "A", "categoryCode": "03", "address": "3 RENAISSANCE PT.", "city": "ALLISTON", "province": "ON", "country": "CA", "postalCode": "L9R2H8", "twitter": "None", "instagram": "None", "facebook": "None", "youtube": "None", "website": "None", "summary": "None", "logo": "None", "latitude": 44.15733576069051, "longitude": -79.80662928810438}, "819452699RR0001": {"name": "VETERANS VOICES OF CANADA ASSOCIATION", "designationCode": "C", "categoryCode": "53", "address": "PO BOX 255 STN POSTAL BOX CTR", "city": "RED DEER", "province": "AB", "country": "CA", "postalCode": "T4N5E8", "twitter": "None", "instagram": "None", "facebook": "None", "youtube": "None", "website": "None", "summary": "None", "logo": "None", "latitude": 52.26852300000006, "longitude": -113.80901299999994}, "841469547RR0001": {"name": "VETERINARIANS WITHOUT BORDERS/VETERINAIRES SANS FRONTIERES", "designationCode": "C", "categoryCode": "54", "address": "311 - 700 INDUSTRIAL AVE", "city": "OTTAWA", "province": "ON", "country": "CA", "postalCode": "K1G0Y9", "twitter": "None", "instagram": "None", "facebook": "None", "youtube": "None", "website": "None", "summary": "None", "logo": "None", "latitude": 45.41026990697704, "longitude": -75.63894734098893}, "811752377RR0001": {"name": "VETS Animal Charity imom", "designationCode": "C", "categoryCode": "54", "address": "1025 KINGSTON ROAD", "city": "TORONTO", "province": "ON", "country": "CA", "postalCode": "M4E1T4", "twitter": "None", "instagram": "None", "facebook": "None", "youtube": "None", "website": "None", "summary": "None", "logo": "None", "latitude": 43.680740543424406, "longitude": -79.28468085345375}, "889346177RR0001": {"name": "VETTA CHAMBER MUSIC SOCIETY", "designationCode": "C", "categoryCode": "22", "address": "PO BOX 19148 RPO FOURTH AVE", "city": "VANCOUVER", "province": "BC", "country": "CA", "postalCode": "V6K4R8", "twitter": "None", "instagram": "None", "facebook": "None", "youtube": "None", "website": "None", "summary": "None", "logo": "None", "latitude": 49.268319630685674, "longitude": -123.16518938390976}, "859341679RR0001": {"name": "VGA BENEVOLENT SOCIETY", "designationCode": "B", "categoryCode": "01", "address": "415-15225 104 AVE", "city": "SURREY", "province": "BC", "country": "CA", "postalCode": "V3R6Y8", "twitter": "None", "instagram": "None", "facebook": "None", "youtube": "None", "website": "None", "summary": "None", "logo": "None", "latitude": 49.19156348211084, "longitude": -122.80004061226845}, "132173063RR0001": {"name": "VGH & UBC HOSPITAL FOUNDATION", "designationCode": "A", "categoryCode": "13", "address": "190-855 WEST 12TH AVENUE", "city": "VANCOUVER", "province": "BC", "country": "CA", "postalCode": "V5Z1M9", "twitter": "None", "instagram": "None", "facebook": "None", "youtube": "None", "website": "None", "summary": "None", "logo": "None", "latitude": 49.26061025825565, "longitude": -123.12283583311988}, "108185141RR0002": {"name": "VHA HOME HEALTHCARE", "designationCode": "C", "categoryCode": "11", "address": "30 SOUDAN AVE. SUITE 600", "city": "TORONTO", "province": "ON", "country": "CA", "postalCode": "M4S1V6", "twitter": "None", "instagram": "None", "facebook": "None", "youtube": "None", "website": "None", "summary": "None", "logo": "None", "latitude": 43.70476783957529, "longitude": -79.39688533945971}, "800804676RR0001": {"name": "VHL Canada", "designationCode": "C", "categoryCode": "11", "address": "2938 DUNDAS STREET WEST       POST OFFICE BOX 70510", "city": "TORONTO", "province": "ON", "country": "CA", "postalCode": "M6P4E7", "twitter": "None", "instagram": "None", "facebook": "None", "youtube": "None", "website": "None", "summary": "None", "logo": "None", "latitude": 43.66547248600597, "longitude": -79.46747983236193}, "134509827RR0001": {"name": "VIA AGRO-ECOLOGIE (REGROUPEMENT ENVIRONNEMENTAL)", "designationCode": "C", "categoryCode": "59", "address": "0120 PAV. PAUL-COMTOIS        UNIVERSIT\u00c9 LAVAL", "city": "QUEBEC", "province": "QC", "country": "CA", "postalCode": "G1V0A6", "twitter": "None", "instagram": "None", "facebook": "None", "youtube": "None", "website": "None", "summary": "None", "logo": "None", "latitude": 46.779840000000036, "longitude": -71.26949999999994}, "859789737RR0001": {"name": "VIA CHORALIS PERFORMANCE SOCIETY", "designationCode": "C", "categoryCode": "22", "address": "11293 CHALET RD", "city": "NORTH SAANICH", "province": "BC", "country": "CA", "postalCode": "V8L5M1", "twitter": "None", "instagram": "None", "facebook": "None", "youtube": "None", "website": "None", "summary": "None", "logo": "None", "latitude": 48.68934452500438, "longitude": -123.47368017490078}, "873437164RR0001": {"name": "VIA ITALIA SENIORS & COMMUNITY CENTRE INC.", "designationCode": "C", "categoryCode": "56", "address": "3321 ACADEMY DR", "city": "WINDSOR", "province": "ON", "country": "CA", "postalCode": "N9E2H7", "twitter": "None", "instagram": "None", "facebook": "None", "youtube": "None", "website": "None", "summary": "None", "logo": "None", "latitude": 42.2635303030758, "longitude": -83.01898997351249}, "888805942RR0001": {"name": "VIA L'ANSE", "designationCode": "C", "categoryCode": "09", "address": "340, BOUL DU HAVRE            BUREAU 103", "city": "VALLEYFIELD", "province": "QC", "country": "CA", "postalCode": "J6S1S6", "twitter": "None", "instagram": "None", "facebook": "None", "youtube": "None", "website": "None", "summary": "None", "logo": "None", "latitude": 45.262599297795674, "longitude": -74.13543230933686}, "119283612RR0001": {"name": "VIA MAGAZINE", "designationCode": "C", "categoryCode": "21", "address": "280 ANTONIO AVE", "city": "ST FRANCOIS XAVIER", "province": "MB", "country": "CA", "postalCode": "R4L1A9", "twitter": "None", "instagram": "None", "facebook": "None", "youtube": "None", "website": "None", "summary": "None", "logo": "None", "latitude": 49.91231573573489, "longitude": -97.55193910447649}, "888763240RR0001": {"name": "VIA RAIL CANADA EMPLOYEES CHARITY TRUST", "designationCode": "B", "categoryCode": "75", "address": "3 PLACE VILLE-MARIE SUITE 500", "city": "MONTREAL", "province": "QC", "country": "CA", "postalCode": "H3B2C9", "twitter": "None", "instagram": "None", "facebook": "None", "youtube": "None", "website": "None", "summary": "None", "logo": "None", "latitude": 45.502123977234746, "longitude": -73.56952999734561}, "817571243RR0001": {"name": "VIC INC.", "designationCode": "C", "categoryCode": "36", "address": "P O BOX 56090", "city": "HAMILTON", "province": "ON", "country": "CA", "postalCode": "L8G5C9", "twitter": "None", "instagram": "None", "facebook": "None", "youtube": "None", "website": "None", "summary": "None", "logo": "None", "latitude": 43.20879000000005, "longitude": -79.65669049999994}, "884823428RR0001": {"name": "VICTIM ASSISTANCE SERVICES OF OTTAWA-CARLETON/SERVICES D'ASSISTANCE AUX VICTIMES D'OTTAWA-CARLETON", "designationCode": "C", "categoryCode": "59", "address": "250 CITY CENTRE AVE SUITE 600", "city": "OTTAWA", "province": "ON", "country": "CA", "postalCode": "K1R6K7", "twitter": "None", "instagram": "None", "facebook": "None", "youtube": "None", "website": "None", "summary": "None", "logo": "None", "latitude": 45.408701589214715, "longitude": -75.71772291222757}, "882454622RR0001": {"name": "VICTIM ASSISTANCE SERVICES OF OXFORD COUNTY", "designationCode": "C", "categoryCode": "59", "address": "615 DUNDAS STREET", "city": "WOODSTOCK", "province": "ON", "country": "CA", "postalCode": "N4S1E1", "twitter": "None", "instagram": "None", "facebook": "None", "youtube": "None", "website": "None", "summary": "None", "logo": "None", "latitude": 43.13098732889948, "longitude": -80.75061723596251}, "882459985RR0001": {"name": "VICTIM ASSISTANCE VOLUNTEER PROGRAM (BURLINGTON)", "designationCode": "C", "categoryCode": "59", "address": "1160 NORTH SHORE BLVD E", "city": "BURLINGTON", "province": "ON", "country": "CA", "postalCode": "L7S1C5", "twitter": "None", "instagram": "None", "facebook": "None", "youtube": "None", "website": "None", "summary": "None", "logo": "None", "latitude": 43.31632047007964, "longitude": -79.80545238461582}, "825511272RR0001": {"name": "VICTIM SERVICES - LANARK COUNTY", "designationCode": "C", "categoryCode": "09", "address": "91 CORNELIA STREET WEST       UNIT 109, P.O. BOX 23", "city": "SMITHS FALLS", "province": "ON", "country": "CA", "postalCode": "K7A5L3", "twitter": "None", "instagram": "None", "facebook": "None", "youtube": "None", "website": "None", "summary": "None", "logo": "None", "latitude": 44.90632601222044, "longitude": -76.02675659469101}, "107292559RR0001": {"name": "VICTIM SERVICES ELGIN", "designationCode": "C", "categoryCode": "59", "address": "146 CENTRE ST", "city": "ST THOMAS", "province": "ON", "country": "CA", "postalCode": "N5R3A3", "twitter": "None", "instagram": "None", "facebook": "None", "youtube": "None", "website": "None", "summary": "None", "logo": "None", "latitude": 42.77774353663307, "longitude": -81.19685802281317}, "898758636RR0001": {"name": "VICTIM SERVICES OF ALGOMA", "designationCode": "C", "categoryCode": "59", "address": "102A - 477 QUEEN ST E", "city": "SAULT STE. MARIE", "province": "ON", "country": "CA", "postalCode": "P6A1Z5", "twitter": "None", "instagram": "None", "facebook": "None", "youtube": "None", "website": "None", "summary": "None", "logo": "None", "latitude": 46.51087261198, "longitude": -84.33220095908577}, "897957270RR0001": {"name": "VICTIM SERVICES OF BRANT", "designationCode": "C", "categoryCode": "09", "address": "344 ELGIN ST                  PO BOX 1116", "city": "BRANTFORD", "province": "ON", "country": "CA", "postalCode": "N3T5T3", "twitter": "None", "instagram": "None", "facebook": "None", "youtube": "None", "website": "None", "summary": "None", "logo": "None", "latitude": 43.151031343325535, "longitude": -80.23401994881573}, "890809767RR0001": {"name": "VICTIM SERVICES OF DURHAM REGION", "designationCode": "C", "categoryCode": "01", "address": "605 ROSSLAND RD EAST          BOX 911", "city": "WHITBY", "province": "ON", "country": "CA", "postalCode": "L1N0B8", "twitter": "None", "instagram": "None", "facebook": "None", "youtube": "None", "website": "None", "summary": "None", "logo": "None", "latitude": 43.89935004139003, "longitude": -78.94165087192181}, "889658381RR0001": {"name": "VICTIM SERVICES OF HALDIMAND-NORFOLK", "designationCode": "C", "categoryCode": "59", "address": "P.O. BOX 820                  72 HIGHWAY 54", "city": "CAYUGA", "province": "ON", "country": "CA", "postalCode": "N0A1E0", "twitter": "None", "instagram": "None", "facebook": "None", "youtube": "None", "website": "None", "summary": "None", "logo": "None", "latitude": 42.956359267768875, "longitude": -79.85844834229272}, "862389947RR0001": {"name": "VICTIM SERVICES OF HURON COUNTY", "designationCode": "C", "categoryCode": "59", "address": "122 DUKE STREET               BOX 939", "city": "SEAFORTH", "province": "ON", "country": "CA", "postalCode": "N0K1W0", "twitter": "None", "instagram": "None", "facebook": "None", "youtube": "None", "website": "None", "summary": "None", "logo": "None", "latitude": 43.55724632536592, "longitude": -81.38877991984265}, "897813184RR0001": {"name": "VICTIM SERVICES OF KINGSTON AND FRONTENAC", "designationCode": "C", "categoryCode": "59", "address": "705 DIVISION STREET", "city": "KINGSTON", "province": "ON", "country": "CA", "postalCode": "K7K4C2", "twitter": "None", "instagram": "None", "facebook": "None", "youtube": "None", "website": "None", "summary": "None", "logo": "None", "latitude": 44.25118873633788, "longitude": -76.4963644467661}, "124360280RR0001": {"name": "VICTIM SERVICES OF PEEL", "designationCode": "C", "categoryCode": "59", "address": "7750 HURONTARIO STREET", "city": "BRAMPTON", "province": "ON", "country": "CA", "postalCode": "L6V3W6", "twitter": "None", "instagram": "None", "facebook": "None", "youtube": "None", "website": "None", "summary": "None", "logo": "None", "latitude": 43.66121485175166, "longitude": -79.72695232145497}, "876701103RR0001": {"name": "VICTIM SERVICES OF RENFREW COUNTY INC.", "designationCode": "C", "categoryCode": "09", "address": "1766 BARR LINE                RR#1", "city": "DOUGLAS", "province": "ON", "country": "CA", "postalCode": "K0J1S0", "twitter": "None", "instagram": "None", "facebook": "None", "youtube": "None", "website": "None", "summary": "None", "logo": "None", "latitude": 45.547849885105826, "longitude": -76.8946604368401}, "887064038RR0001": {"name": "VICTIM SERVICES OF SARNIA-LAMBTON INCORPORATED", "designationCode": "C", "categoryCode": "59", "address": "555 CHRISTINA ST NORTH", "city": "SARNIA", "province": "ON", "country": "CA", "postalCode": "N7T7X6", "twitter": "None", "instagram": "None", "facebook": "None", "youtube": "None", "website": "None", "summary": "None", "logo": "None", "latitude": 42.984643598678446, "longitude": -82.40049183100562}, "826263527RR0001": {"name": "VICTIM SERVICES OF STORMONT, DUNDAS, GLENGARRY AND AKWESASNE", "designationCode": "C", "categoryCode": "09", "address": "707A ROSEMOUNT AVE.", "city": "CORNWALL", "province": "ON", "country": "CA", "postalCode": "K6J3E5", "twitter": "None", "instagram": "None", "facebook": "None", "youtube": "None", "website": "None", "summary": "None", "logo": "None", "latitude": 45.02754986264378, "longitude": -74.75229401959544}, "860337823RR0001": {"name": "VICTIM SERVICES OF WATERLOO REGION", "designationCode": "C", "categoryCode": "59", "address": "200 MAPLE GROVE ROAD          P.O. BOX 3070", "city": "CAMBRIDGE", "province": "ON", "country": "CA", "postalCode": "N3H5M1", "twitter": "None", "instagram": "None", "facebook": "None", "youtube": "None", "website": "None", "summary": "None", "logo": "None", "latitude": 43.41879496128022, "longitude": -80.38592019225604}, "892738188RR0001": {"name": "VICTIM SERVICES OF WINDSOR AND ESSEX COUNTY", "designationCode": "C", "categoryCode": "59", "address": "P O BOX 910", "city": "ESSEX", "province": "ON", "country": "CA", "postalCode": "N8M2Y2", "twitter": "None", "instagram": "None", "facebook": "None", "youtube": "None", "website": "None", "summary": "None", "logo": "None", "latitude": 42.17281800000005, "longitude": -82.81968199999993}, "871074068RR0001": {"name": "VICTIM SERVICES OF YORK REGION INCORPORATED", "designationCode": "C", "categoryCode": "09", "address": "16775 YONGE STREET            SUITE 200B", "city": "NEWMARKET", "province": "ON", "country": "CA", "postalCode": "L3Y8J4", "twitter": "None", "instagram": "None", "facebook": "None", "youtube": "None", "website": "None", "summary": "None", "logo": "None", "latitude": 44.037116999451754, "longitude": -79.47617343874468}, "894093467RR0001": {"name": "VICTIM SERVICES TORONTO", "designationCode": "C", "categoryCode": "59", "address": "40 COLLEGE STREET             POLICE HQ", "city": "TORONTO", "province": "ON", "country": "CA", "postalCode": "M5G2J3", "twitter": "None", "instagram": "None", "facebook": "None", "youtube": "None", "website": "None", "summary": "None", "logo": "None", "latitude": 43.66100618016021, "longitude": -79.38495874744639}, "891249542RR0001": {"name": "VICTIM SERVICES UNIT (ASSOCIATION) - STURGEON REGION", "designationCode": "C", "categoryCode": "59", "address": "10512 101 AVE", "city": "MORINVILLE", "province": "AB", "country": "CA", "postalCode": "T8R1K9", "twitter": "None", "instagram": "None", "facebook": "None", "youtube": "None", "website": "None", "summary": "None", "logo": "None", "latitude": 53.8036344865829, "longitude": -113.65603183236193}, "891472763RR0001": {"name": "VICTIM SERVICES WELLINGTON", "designationCode": "C", "categoryCode": "59", "address": "15 WYNDHAM ST                 S. GUELPH P.S.", "city": "GUELPH", "province": "ON", "country": "CA", "postalCode": "N1H4C6", "twitter": "None", "instagram": "None", "facebook": "None", "youtube": "None", "website": "None", "summary": "None", "logo": "None", "latitude": 43.543478045761674, "longitude": -80.24603832558127}, "130922867RR0001": {"name": "VICTIMS OF VIOLENCE CANADIAN CENTRE FOR MISSING CHILDREN", "designationCode": "C", "categoryCode": "59", "address": "340-117 CENTRE POINTE DRIVE", "city": "OTTAWA", "province": "ON", "country": "CA", "postalCode": "K2G5X3", "twitter": "None", "instagram": "None", "facebook": "None", "youtube": "None", "website": "None", "summary": "None", "logo": "None", "latitude": 45.34254281519391, "longitude": -75.76289634422118}, "888595071RR0001": {"name": "VICTOR AND RHODA SHIELDS CHARITABLE FOUNDATION", "designationCode": "B", "categoryCode": "23", "address": "1801-625 AVENUE ROAD", "city": "TORONTO", "province": "ON", "country": "CA", "postalCode": "M4V2K7", "twitter": "None", "instagram": "None", "facebook": "None", "youtube": "None", "website": "None", "summary": "None", "logo": "None", "latitude": 43.690040433262084, "longitude": -79.40283985700312}, "130085087RR0001": {"name": "VICTOR PLAY CENTRE, INC", "designationCode": "C", "categoryCode": "01", "address": "766 VICTOR STREET", "city": "WINNIPEG", "province": "MB", "country": "CA", "postalCode": "R3E1Y6", "twitter": "None", "instagram": "None", "facebook": "None", "youtube": "None", "website": "None", "summary": "None", "logo": "None", "latitude": 49.901077623925204, "longitude": -97.16254496797256}, "108171976RR0001": {"name": "VICTORIA ALBERT DAY CARE INC.", "designationCode": "C", "categoryCode": "20", "address": "483 BANNATYNE AVENUE", "city": "WINNIPEG", "province": "MB", "country": "CA", "postalCode": "R3A0G2", "twitter": "None", "instagram": "None", "facebook": "None", "youtube": "None", "website": "None", "summary": "None", "logo": "None", "latitude": 49.901138946448064, "longitude": -97.1498917307693}, "137529764RR0001": {"name": "VICTORIA ALLIANCE CHURCH", "designationCode": "C", "categoryCode": "39", "address": "1792 TOWNLEY STREET", "city": "VICTORIA", "province": "BC", "country": "CA", "postalCode": "V8R3A7", "twitter": "None", "instagram": "None", "facebook": "None", "youtube": "None", "website": "None", "summary": "None", "logo": "None", "latitude": 48.44060544993916, "longitude": -123.32960797861972}, "119283711RR0001": {"name": "VICTORIA AND VANCOUVER ISLAND GREEK COMMUNITY SOCIETY", "designationCode": "C", "categoryCode": "56", "address": "4648 ELK LAKE DR", "city": "VICTORIA", "province": "BC", "country": "CA", "postalCode": "V8Z5M1", "twitter": "None", "instagram": "None", "facebook": "None", "youtube": "None", "website": "None", "summary": "None", "logo": "None", "latitude": 48.50101850072115, "longitude": -123.38649385019285}, "118837830RR0001": {"name": "VICTORIA ASSOCIATION FOR COMMUNITY LIVING", "designationCode": "C", "categoryCode": "11", "address": "3861 CEDAR HILL X RD.,", "city": "VICTORIA", "province": "BC", "country": "CA", "postalCode": "V8P2M7", "twitter": "None", "instagram": "None", "facebook": "None", "youtube": "None", "website": "None", "summary": "None", "logo": "None", "latitude": 48.46418612989286, "longitude": -123.3363693543802}, "108172040RR0001": {"name": "VICTORIA AVENUE BAPTIST CHURCH", "designationCode": "C", "categoryCode": "31", "address": "34 VICTORIA AVE", "city": "BELLEVILLE", "province": "ON", "country": "CA", "postalCode": "K8N1Z4", "twitter": "None", "instagram": "None", "facebook": "None", "youtube": "None", "website": "None", "summary": "None", "logo": "None", "latitude": 44.16669299420029, "longitude": -77.38388136280192}, "119283760RR0001": {"name": "VICTORIA AVENUE UNITED CHURCH,", "designationCode": "C", "categoryCode": "44", "address": "PO BOX 333 STN MAIN", "city": "CHATHAM", "province": "ON", "country": "CA", "postalCode": "N7M5K4", "twitter": "None", "instagram": "None", "facebook": "None", "youtube": "None", "website": "None", "summary": "None", "logo": "None", "latitude": 42.404613000000055, "longitude": -82.18960099999994}, "890671183RR0001": {"name": "VICTORIA BEACH COMMUNITY CHURCH", "designationCode": "C", "categoryCode": "39", "address": "P.O. BOX 211", "city": "VICTORIA BEACH", "province": "MB", "country": "CA", "postalCode": "R0E2C0", "twitter": "None", "instagram": "None", "facebook": "None", "youtube": "None", "website": "None", "summary": "None", "logo": "None", "latitude": 50.69768737686306, "longitude": -96.55575829762454}, "119283810RR0001": {"name": "VICTORIA BIRTHRIGHT SOCIETY", "designationCode": "C", "categoryCode": "09", "address": "513 - 620 VIEW ST", "city": "VICTORIA", "province": "BC", "country": "CA", "postalCode": "V8W1J6", "twitter": "None", "instagram": "None", "facebook": "None", "youtube": "None", "website": "None", "summary": "None", "logo": "None", "latitude": 48.42565545657561, "longitude": -123.36678018872988}, "122452121RR0001": {"name": "VICTORIA BRAIN INJURY SOCIETY", "designationCode": "C", "categoryCode": "11", "address": "830 PEMBROKE ST               UNIT D&E", "city": "VICTORIA", "province": "BC", "country": "CA", "postalCode": "V8T1H9", "twitter": "None", "instagram": "None", "facebook": "None", "youtube": "None", "website": "None", "summary": "None", "logo": "None", "latitude": 48.43238743493553, "longitude": -123.36004980238332}, "119283844RR0001": {"name": "VICTORIA BUDDHIST DHARMA SOCIETY - SAKYA THUBTEN KUNGA CHOLING", "designationCode": "C", "categoryCode": "35", "address": "3371 MAPLEWOOD ROAD", "city": "VICTORIA", "province": "BC", "country": "CA", "postalCode": "V8P3N1", "twitter": "None", "instagram": "None", "facebook": "None", "youtube": "None", "website": "None", "summary": "None", "logo": "None", "latitude": 48.45475037246811, "longitude": -123.35081168717201}, "135731339RR0001": {"name": "VICTORIA CHILDREN'S CENTRE SOCIETY", "designationCode": "C", "categoryCode": "01", "address": "1515 BLANSHARD STREET", "city": "VICTORIA", "province": "BC", "country": "CA", "postalCode": "V8W3C8", "twitter": "None", "instagram": "None", "facebook": "None", "youtube": "None", "website": "None", "summary": "None", "logo": "None", "latitude": 48.42807466501233, "longitude": -123.36171741084353}, "108172156RR0001": {"name": "VICTORIA CHINATOWN CARE SOCIETY", "designationCode": "C", "categoryCode": "10", "address": "555 HERALD STREET", "city": "VICTORIA", "province": "BC", "country": "CA", "postalCode": "V8W1S5", "twitter": "None", "instagram": "None", "facebook": "None", "youtube": "None", "website": "None", "summary": "None", "logo": "None", "latitude": 48.43017550288555, "longitude": -123.36764383236194}, "898423025RR0001": {"name": "VICTORIA CHINATOWN COMMUNITY CARE FOUNDATION", "designationCode": "A", "categoryCode": "13", "address": "622A FISGARD ST.", "city": "VICTORIA", "province": "BC", "country": "CA", "postalCode": "V8W1R6", "twitter": "None", "instagram": "None", "facebook": "None", "youtube": "None", "website": "None", "summary": "None", "logo": "None", "latitude": 48.42943334111989, "longitude": -123.36633611809538}, "130565963RR0011": {"name": "VICTORIA CHINESE ALLIANCE CHURCH", "designationCode": "C", "categoryCode": "39", "address": "CHURCH, 2845 GOSWORTH RD", "city": "VICTORIA", "province": "BC", "country": "CA", "postalCode": "V8T3C6", "twitter": "None", "instagram": "None", "facebook": "None", "youtube": "None", "website": "None", "summary": "None", "logo": "None", "latitude": 48.44560459062837, "longitude": -123.34361448456367}, "870896149RR0001": {"name": "VICTORIA CHINESE HERITAGE FOUNDATION", "designationCode": "C", "categoryCode": "52", "address": "636 FISGARD ST", "city": "VICTORIA", "province": "BC", "country": "CA", "postalCode": "V8W1R5", "twitter": "None", "instagram": "None", "facebook": "None", "youtube": "None", "website": "None", "summary": "None", "logo": "None", "latitude": 48.429387511541194, "longitude": -123.36577055398465}, "891264194RR0001": {"name": "VICTORIA CHORAL SOCIETY", "designationCode": "C", "categoryCode": "22", "address": "P.O. BOX 5509                 LCD9", "city": "VICTORIA", "province": "BC", "country": "CA", "postalCode": "V8R6S4", "twitter": "None", "instagram": "None", "facebook": "None", "youtube": "None", "website": "None", "summary": "None", "logo": "None", "latitude": 48.42854700000005, "longitude": -123.36445249999994}}