{"892166646RR0001": {"name": "THE L.H. & AREA FIRE DEPARTMENT", "designationCode": "C", "categoryCode": "59", "address": "90 EAST RAGGED ISLAND RD", "city": "SABLE RIVER", "province": "NS", "country": "CA", "postalCode": "B0T1V0", "twitter": "None", "instagram": "None", "facebook": "None", "youtube": "None", "website": "None", "summary": "None", "logo": "None", "latitude": 43.70155217626507, "longitude": -65.07497371420685}, "892334749RR0001": {"name": "THE L'ARCHE DAYBREAK FOUNDATION", "designationCode": "A", "categoryCode": "01", "address": "11339 YONGE STREET", "city": "RICHMOND HILL", "province": "ON", "country": "CA", "postalCode": "L4S1L1", "twitter": "None", "instagram": "None", "facebook": "None", "youtube": "None", "website": "None", "summary": "None", "logo": "None", "latitude": 43.90441021852523, "longitude": -79.44492490395373}, "893960575RR0001": {"name": "THE L'ETETE CHURCH OF CHRIST", "designationCode": "C", "categoryCode": "39", "address": "PO BOX 1115", "city": "ST GEORGE", "province": "NB", "country": "CA", "postalCode": "E5C3S9", "twitter": "None", "instagram": "None", "facebook": "None", "youtube": "None", "website": "None", "summary": "None", "logo": "None", "latitude": 45.13052400000005, "longitude": -66.81961249999993}, "119241404RR0001": {"name": "THE LA GLACE & COMMUNITY AGRICULTURAL SOCIETY", "designationCode": "C", "categoryCode": "56", "address": "BOX 185", "city": "LAGLACE", "province": "AB", "country": "CA", "postalCode": "T0H2J0", "twitter": "None", "instagram": "None", "facebook": "None", "youtube": "None", "website": "None", "summary": "None", "logo": "None", "latitude": 55.403043000000054, "longitude": -119.15395099999994}, "107446767RR0001": {"name": "THE LA GLACE CHRISTIAN REFORMED CHURCH", "designationCode": "C", "categoryCode": "39", "address": "PO BOX 135", "city": "LA GLACE", "province": "AB", "country": "CA", "postalCode": "T0H2J0", "twitter": "None", "instagram": "None", "facebook": "None", "youtube": "None", "website": "None", "summary": "None", "logo": "None", "latitude": 55.403050000000064, "longitude": -119.15394999999995}, "891554446RR0001": {"name": "THE LA VERENDRYE HOSPITAL AUXILIARY", "designationCode": "C", "categoryCode": "19", "address": "110 VICTORIA AVENUE", "city": "FORT FRANCES", "province": "ON", "country": "CA", "postalCode": "P9A2B7", "twitter": "None", "instagram": "None", "facebook": "None", "youtube": "None", "website": "None", "summary": "None", "logo": "None", "latitude": 48.605996499483595, "longitude": -93.3924168846551}, "119241263RR0001": {"name": "THE LAC BELLEVUE AND DISTRICT RECREATION AND AGRICULTURAL SOCIETY", "designationCode": "C", "categoryCode": "56", "address": "PO BOX 1298", "city": "ST PAUL", "province": "AB", "country": "CA", "postalCode": "T0A3A0", "twitter": "None", "instagram": "None", "facebook": "None", "youtube": "None", "website": "None", "summary": "None", "logo": "None", "latitude": 53.99207006217902, "longitude": -111.26834992613558}, "897454625RR0001": {"name": "THE LAC LA BICHE AGRICULTURAL SOCIETY", "designationCode": "C", "categoryCode": "56", "address": "BOX 695", "city": "LAC LA BICHE", "province": "AB", "country": "CA", "postalCode": "T0A2C0", "twitter": "None", "instagram": "None", "facebook": "None", "youtube": "None", "website": "None", "summary": "None", "logo": "None", "latitude": 54.768200000000036, "longitude": -111.98244999999997}, "103021861RR0001": {"name": "THE LAC OUIMET CEMETERY INC.", "designationCode": "C", "categoryCode": "59", "address": "176 RUE CACHE\u00c9", "city": "MONT TREMBLANT", "province": "QC", "country": "CA", "postalCode": "J8E1G9", "twitter": "None", "instagram": "None", "facebook": "None", "youtube": "None", "website": "None", "summary": "None", "logo": "None", "latitude": 46.20514233668978, "longitude": -74.60537938605812}, "119241321RR0001": {"name": "THE LADIES AUXILIARY OF THE ALMA FIRE DEPARTMENT", "designationCode": "C", "categoryCode": "59", "address": "2174 HIGHWAY 376              RR 2", "city": "PICTOU", "province": "NS", "country": "CA", "postalCode": "B0K1H0", "twitter": "None", "instagram": "None", "facebook": "None", "youtube": "None", "website": "None", "summary": "None", "logo": "None", "latitude": 45.66384827983655, "longitude": -62.79028030606814}, "889186862RR0001": {"name": "THE LADIES AUXILIARY OF THE HUNTINGDON COUNTY HOSPITAL", "designationCode": "C", "categoryCode": "19", "address": "198 RUE CHATEAUGUAY", "city": "HUNTINGDON", "province": "QC", "country": "CA", "postalCode": "J0S1H0", "twitter": "None", "instagram": "None", "facebook": "None", "youtube": "None", "website": "None", "summary": "None", "logo": "None", "latitude": 45.0823772714524, "longitude": -74.17733024759062}, "119241362RR0001": {"name": "THE LADY EMILY TAIT MEMORIAL FUND", "designationCode": "B", "categoryCode": "05", "address": "(THE CANADA TRUST CO.)        PO BOX 10085)", "city": "VANCOUVER", "province": "BC", "country": "CA", "postalCode": "V7Y1B6", "twitter": "None", "instagram": "None", "facebook": "None", "youtube": "None", "website": "None", "summary": "None", "logo": "None", "latitude": 49.28294993392596, "longitude": -123.11892994113924}, "862138278RR0001": {"name": "THE LADYBUG FOUNDATION INC.", "designationCode": "A", "categoryCode": "03", "address": "360 MAIN STREET               30TH FLOOR", "city": "WINNIPEG", "province": "MB", "country": "CA", "postalCode": "R3C4G1", "twitter": "None", "instagram": "None", "facebook": "None", "youtube": "None", "website": "None", "summary": "None", "logo": "None", "latitude": 49.89459781320337, "longitude": -97.1381563866637}, "899935217RR0001": {"name": "THE LADYSMITH CONGREGATION OF JEHOVAH'S WITNESSES", "designationCode": "C", "categoryCode": "61", "address": "538 GREEN HORN PLACE", "city": "LADYSMITH", "province": "BC", "country": "CA", "postalCode": "V9G1R3", "twitter": "None", "instagram": "None", "facebook": "None", "youtube": "None", "website": "None", "summary": "None", "logo": "None", "latitude": 48.99950700000005, "longitude": -123.84073249999994}, "892070285RR0001": {"name": "THE LAHAVE RIVER WATERSHED ENHANCEMENT FOUNDATION", "designationCode": "C", "categoryCode": "52", "address": "207 - 450 LAHAVE ST", "city": "BRIDGEWATER", "province": "NS", "country": "CA", "postalCode": "B4V4A3", "twitter": "None", "instagram": "None", "facebook": "None", "youtube": "None", "website": "None", "summary": "None", "logo": "None", "latitude": 44.37902536555668, "longitude": -64.51566585769098}, "863086724RR0001": {"name": "THE LAING HOUSE ASSOCIATION", "designationCode": "C", "categoryCode": "11", "address": "1225 BARRINGTON STREET", "city": "HALIFAX", "province": "NS", "country": "CA", "postalCode": "B3J1Y2", "twitter": "None", "instagram": "None", "facebook": "None", "youtube": "None", "website": "None", "summary": "None", "logo": "None", "latitude": 44.640495827370295, "longitude": -63.57059942518333}, "892899568RR0001": {"name": "THE LAKE CHARLOTTE AREA HERITAGE SOCIETY", "designationCode": "C", "categoryCode": "52", "address": "5435 CLAM HARBOUR RD          RR 1", "city": "LAKE CHARLOTTE", "province": "NS", "country": "CA", "postalCode": "B0J1Y0", "twitter": "None", "instagram": "None", "facebook": "None", "youtube": "None", "website": "None", "summary": "None", "logo": "None", "latitude": 44.76665529719009, "longitude": -62.94874898482253}, "119241412RR0001": {"name": "THE LAKE COUNTRY SENIORS' BUS SOCIETY", "designationCode": "C", "categoryCode": "09", "address": "9510 GLENMORE RD", "city": "WINFIELD", "province": "BC", "country": "CA", "postalCode": "V4V1M5", "twitter": "None", "instagram": "None", "facebook": "None", "youtube": "None", "website": "None", "summary": "None", "logo": "None", "latitude": 50.020144898596584, "longitude": -119.40833658304508}, "134420819RR0001": {"name": "THE LAKE SHORE GOSPEL HALL", "designationCode": "C", "categoryCode": "39", "address": "8731 FREEMAN ST", "city": "LAMBTON SHORES", "province": "ON", "country": "CA", "postalCode": "N0N1J7", "twitter": "None", "instagram": "None", "facebook": "None", "youtube": "None", "website": "None", "summary": "None", "logo": "None", "latitude": 43.150844726037434, "longitude": -82.04905528937023}, "119241479RR0001": {"name": "THE LAKE ST. LOUIS HISTORICAL SOCIETY / LA SOCI\u00c9T\u00c9 HISTORIQUE DU LAC ST-LOUIS", "designationCode": "C", "categoryCode": "50", "address": "1195 SHERBROOKE STREET WEST", "city": "MONTREAL", "province": "QC", "country": "CA", "postalCode": "H3A1H9", "twitter": "None", "instagram": "None", "facebook": "None", "youtube": "None", "website": "None", "summary": "None", "logo": "None", "latitude": 45.50071925258228, "longitude": -73.57773646367339}, "846201754RR0002": {"name": "THE LAKE SUPERIOR SCOTTISH REGIMENT ASSOCIATION", "designationCode": "C", "categoryCode": "03", "address": "422 PICCADILLY AVE", "city": "THUNDER BAY", "province": "ON", "country": "CA", "postalCode": "P7B5C7", "twitter": "None", "instagram": "None", "facebook": "None", "youtube": "None", "website": "None", "summary": "None", "logo": "None", "latitude": 48.44971825036057, "longitude": -89.26249386193652}, "864319215RR0001": {"name": "THE LAKE WINNIPEG RESEARCH CONSORTIUM INC.", "designationCode": "C", "categoryCode": "21", "address": "BOX 1289 62-2ND AVENUE", "city": "GIMLI", "province": "MB", "country": "CA", "postalCode": "R0C1B0", "twitter": "None", "instagram": "None", "facebook": "None", "youtube": "None", "website": "None", "summary": "None", "logo": "None", "latitude": 50.53734014646547, "longitude": -96.98539174464575}, "868003963RR0001": {"name": "THE LAKEHEAD ASSOCIATION FOR COMMUNITY LIVING FOUNDATION", "designationCode": "A", "categoryCode": "03", "address": "1501 DEASE ST", "city": "THUNDER BAY", "province": "ON", "country": "CA", "postalCode": "P7C5H3", "twitter": "None", "instagram": "None", "facebook": "None", "youtube": "None", "website": "None", "summary": "None", "logo": "None", "latitude": 48.3900374787926, "longitude": -89.25890069455826}, "897977203RR0001": {"name": "THE LAKEHEAD LEARNING FOUNDATION", "designationCode": "A", "categoryCode": "03", "address": "2135 SILLS STREET", "city": "THUNDER BAY", "province": "ON", "country": "CA", "postalCode": "P7E5T2", "twitter": "None", "instagram": "None", "facebook": "None", "youtube": "None", "website": "None", "summary": "None", "logo": "None", "latitude": 48.38171646047076, "longitude": -89.26973991618097}, "886296599RR0001": {"name": "THE LAKELAND & DISTRICT RECREATIONAL ASSOC INC", "designationCode": "C", "categoryCode": "56", "address": "PO BOX 405", "city": "CHRISTOPHER LAKE", "province": "SK", "country": "CA", "postalCode": "S0J0N0", "twitter": "None", "instagram": "None", "facebook": "None", "youtube": "None", "website": "None", "summary": "None", "logo": "None", "latitude": 53.533390000000054, "longitude": -105.80098999999996}, "890476260RR0001": {"name": "THE LAKESHORE CONCERT BAND / L'HARMONIE CONCERT LAKESHORE", "designationCode": "C", "categoryCode": "22", "address": "46 SUNNY ACRES", "city": "BAIE D'URF\u00c9", "province": "QC", "country": "CA", "postalCode": "H9X3B9", "twitter": "None", "instagram": "None", "facebook": "None", "youtube": "None", "website": "None", "summary": "None", "logo": "None", "latitude": 45.4172181021409, "longitude": -73.9128279002537}, "119241487RR0001": {"name": "THE LAKEVIEW CEMETERY COMPANY", "designationCode": "C", "categoryCode": "59", "address": "15 MOSHER ROAD", "city": "KINGSBURG", "province": "NS", "country": "CA", "postalCode": "B0J2X0", "twitter": "None", "instagram": "None", "facebook": "None", "youtube": "None", "website": "None", "summary": "None", "logo": "None", "latitude": 44.27713687953726, "longitude": -64.26105861936622}, "845545763RR0001": {"name": "THE LAKEVIEW/MONTEMARANO CHARITABLE FOUNDATION", "designationCode": "B", "categoryCode": "03", "address": "200 BRIDGELAND AVE", "city": "NORTH YORK", "province": "ON", "country": "CA", "postalCode": "M6A1Z4", "twitter": "None", "instagram": "None", "facebook": "None", "youtube": "None", "website": "None", "summary": "None", "logo": "None", "latitude": 43.72484013240798, "longitude": -79.46673918096826}, "859474546RR0001": {"name": "THE LAMAD FOUNDATION", "designationCode": "A", "categoryCode": "03", "address": "181 - 157 ADELAIDE ST W", "city": "TORONTO", "province": "ON", "country": "CA", "postalCode": "M5H4E7", "twitter": "None", "instagram": "None", "facebook": "None", "youtube": "None", "website": "None", "summary": "None", "logo": "None", "latitude": 43.64893585316531, "longitude": -79.38507597945643}, "871408605RR0001": {"name": "THE LAMB OF GOD MIRACLE MINISTRY OF NORTH YORK INC.", "designationCode": "C", "categoryCode": "39", "address": "4150 CHESSWOOD DR", "city": "NORTH YORK", "province": "ON", "country": "CA", "postalCode": "M3J2B9", "twitter": "None", "instagram": "None", "facebook": "None", "youtube": "None", "website": "None", "summary": "None", "logo": "None", "latitude": 43.75944029364073, "longitude": -79.47813401806205}, "889375846RR0001": {"name": "THE LAMB'S CHRISTIAN MINISTRY OF CANADA", "designationCode": "C", "categoryCode": "39", "address": "39 EDWIN CARR ST", "city": "BOWMANVILLE", "province": "ON", "country": "CA", "postalCode": "L1C0R8", "twitter": "None", "instagram": "None", "facebook": "None", "youtube": "None", "website": "None", "summary": "None", "logo": "None", "latitude": 43.9337488744043, "longitude": -78.70687200137398}, "892966169RR0001": {"name": "THE LAMBTON COLLEGE FOUNDATION", "designationCode": "A", "categoryCode": "23", "address": "1457 LONDON ROAD", "city": "SARNIA", "province": "ON", "country": "CA", "postalCode": "N7S6K4", "twitter": "None", "instagram": "None", "facebook": "None", "youtube": "None", "website": "None", "summary": "None", "logo": "None", "latitude": 42.98217640762278, "longitude": -82.34513828246376}, "119004505RR0001": {"name": "THE LAMBTON COLLEGE OF APPLIED ARTS AND TECHNOLOGY", "designationCode": "C", "categoryCode": "20", "address": "1457 LONDON RD", "city": "SARNIA", "province": "ON", "country": "CA", "postalCode": "N7S6K4", "twitter": "None", "instagram": "None", "facebook": "None", "youtube": "None", "website": "None", "summary": "None", "logo": "None", "latitude": 42.98217640762278, "longitude": -82.34513828246376}, "892122581RR0001": {"name": "THE LAMOUREUX FOUNDATION", "designationCode": "B", "categoryCode": "53", "address": "2413 OLD LAKESHORE ROAD", "city": "BRIGHT'S GROVE", "province": "ON", "country": "CA", "postalCode": "N0N1C0", "twitter": "None", "instagram": "None", "facebook": "None", "youtube": "None", "website": "None", "summary": "None", "logo": "None", "latitude": 43.03011769887279, "longitude": -82.27432583364217}, "891589970RR0001": {"name": "THE LAND PRESERVATION SOCIETY OF THE OTTAWA VALLEY", "designationCode": "C", "categoryCode": "52", "address": "56 FRIEDAY STREET", "city": "ARNPRIOR", "province": "ON", "country": "CA", "postalCode": "K7S0A6", "twitter": "None", "instagram": "None", "facebook": "None", "youtube": "None", "website": "None", "summary": "None", "logo": "None", "latitude": 45.42501646073054, "longitude": -76.37249264928755}, "895924751RR0001": {"name": "THE LANG FAMILY FOUNDATION", "designationCode": "B", "categoryCode": "03", "address": "600-100 YORK BLVD", "city": "RICHMOND HILL", "province": "ON", "country": "CA", "postalCode": "L4B1J8", "twitter": "None", "instagram": "None", "facebook": "None", "youtube": "None", "website": "None", "summary": "None", "logo": "None", "latitude": 43.84742838721195, "longitude": -79.37775671394799}, "889107843RR0001": {"name": "THE LANGAR FOUNDATION", "designationCode": "B", "categoryCode": "03", "address": "2497 MARINE DR", "city": "WEST VANCOUVER", "province": "BC", "country": "CA", "postalCode": "V7V1L3", "twitter": "None", "instagram": "None", "facebook": "None", "youtube": "None", "website": "None", "summary": "None", "logo": "None", "latitude": 49.335000726561375, "longitude": -123.1822559507825}, "894481423RR0001": {"name": "THE LANGARA FOUNDATION", "designationCode": "B", "categoryCode": "05", "address": "200-1199 WEST HASTINGS ST", "city": "VANCOUVER", "province": "BC", "country": "CA", "postalCode": "V6E3T5", "twitter": "None", "instagram": "None", "facebook": "None", "youtube": "None", "website": "None", "summary": "None", "logo": "None", "latitude": 49.288721048588954, "longitude": -123.12236507325878}, "865585343RR0001": {"name": "THE LANGFORD FELLOWSHIP", "designationCode": "C", "categoryCode": "39", "address": "54 LANGFORD AVE", "city": "TORONTO", "province": "ON", "country": "CA", "postalCode": "M4J3E3", "twitter": "None", "instagram": "None", "facebook": "None", "youtube": "None", "website": "None", "summary": "None", "logo": "None", "latitude": 43.68127710629584, "longitude": -79.34117559036855}, "119241537RR0001": {"name": "THE LANGHAM PARTNERSHIP - CANADA", "designationCode": "C", "categoryCode": "47", "address": "619 WELLINGTON STREET EAST", "city": "SAULT STE MARIE", "province": "ON", "country": "CA", "postalCode": "P6A2M6", "twitter": "None", "instagram": "None", "facebook": "None", "youtube": "None", "website": "None", "summary": "None", "logo": "None", "latitude": 46.510487728547616, "longitude": -84.3266628526457}, "119005221RR0001": {"name": "THE LANGLEY ASSOCIATION FOR COMMUNITY LIVING", "designationCode": "C", "categoryCode": "11", "address": "220- 19916 64TH AVENUE", "city": "LANGLEY", "province": "BC", "country": "CA", "postalCode": "V2Y1A2", "twitter": "None", "instagram": "None", "facebook": "None", "youtube": "None", "website": "None", "summary": "None", "logo": "None", "latitude": 49.11891397432695, "longitude": -122.67100052396911}, "892408840RR0001": {"name": "THE LANGLEY BRITISH COLUMBIA CHAPTER OF THE SOCIETY FOR THE PRESERVATION AND ENCOURAGEMENT OF BARBERSHOP QUARTET SINGING", "designationCode": "C", "categoryCode": "22", "address": "43 - 27435 29A AVE", "city": "ALDERGROVE", "province": "BC", "country": "CA", "postalCode": "V4W3M4", "twitter": "None", "instagram": "None", "facebook": "None", "youtube": "None", "website": "None", "summary": "None", "logo": "None", "latitude": 49.056057171191085, "longitude": -122.46549145288955}, "863902326RR0001": {"name": "THE LANGLEY CHRISTIAN ASSEMBLY SOCIETY", "designationCode": "C", "categoryCode": "39", "address": "4775 221 STREET", "city": "LANGLEY", "province": "BC", "country": "CA", "postalCode": "V2Z1M7", "twitter": "None", "instagram": "None", "facebook": "None", "youtube": "None", "website": "None", "summary": "None", "logo": "None", "latitude": 49.08876327254894, "longitude": -122.61141239465552}, "861117463RR0001": {"name": "THE LANGLEY COMMUNITY CHORUS", "designationCode": "C", "categoryCode": "22", "address": "BOX 93080, WILLOWBROOK R.P.O. 19705 FRASER HIGHWAY", "city": "LANGLEY", "province": "BC", "country": "CA", "postalCode": "V3A8B3", "twitter": "None", "instagram": "None", "facebook": "None", "youtube": "None", "website": "None", "summary": "None", "logo": "None", "latitude": 49.11290000000008, "longitude": -122.67749999999995}, "119241552RR0001": {"name": "THE LANIGAN AND DISTRICT MUSIC FESTIVAL ASSOCIATION", "designationCode": "C", "categoryCode": "22", "address": "PO BOX 787", "city": "LANIGAN", "province": "SK", "country": "CA", "postalCode": "S0K2M0", "twitter": "None", "instagram": "None", "facebook": "None", "youtube": "None", "website": "None", "summary": "None", "logo": "None", "latitude": 51.84617000000003, "longitude": -105.03797999999995}, "119241560RR0001": {"name": "THE LANSDOWNE TUTORING CENTRE-LE CENTRE DE DIRECTION LANSDOWNE", "designationCode": "C", "categoryCode": "20", "address": "5000 AV DECELLES              SUITE 102", "city": "MONTREAL", "province": "QC", "country": "CA", "postalCode": "H3V1J1", "twitter": "None", "instagram": "None", "facebook": "None", "youtube": "None", "website": "None", "summary": "None", "logo": "None", "latitude": 45.49590131083742, "longitude": -73.61614561492284}, "877918565RR0001": {"name": "THE LANTERN CHRISTIAN LIFE CENTRE INCORPORATED", "designationCode": "C", "categoryCode": "49", "address": "35 BARNES ROAD", "city": "ST. JOHN'S", "province": "NL", "country": "CA", "postalCode": "A1C3X1", "twitter": "None", "instagram": "None", "facebook": "None", "youtube": "None", "website": "None", "summary": "None", "logo": "None", "latitude": 47.56848753621495, "longitude": -52.710715641168655}, "119241578RR0001": {"name": "THE LANTZVILLE HISTORICAL SOCIETY", "designationCode": "C", "categoryCode": "50", "address": "PO BOX 274", "city": "LANTZVILLE", "province": "BC", "country": "CA", "postalCode": "V0R2H0", "twitter": "None", "instagram": "None", "facebook": "None", "youtube": "None", "website": "None", "summary": "None", "logo": "None", "latitude": 49.252985410367124, "longitude": -124.09511789416992}, "889824629RR0001": {"name": "THE LAO'S FAMILY CHARITABLE TRUST", "designationCode": "B", "categoryCode": "05", "address": "ROYAL TRUST CORPO. OF CANADA  20TH FLOOR,155 WELLINGTON ST.W", "city": "TORONTO", "province": "ON", "country": "CA", "postalCode": "M5V3K7", "twitter": "None", "instagram": "None", "facebook": "None", "youtube": "None", "website": "None", "summary": "None", "logo": "None", "latitude": 43.64596585316531, "longitude": -79.38574575644876}, "868807066RR0001": {"name": "THE LAPLAND CEMETERY SOCIETY", "designationCode": "C", "categoryCode": "59", "address": "2026 CAMPERDOWN ROAD", "city": "LAPLAND", "province": "NS", "country": "CA", "postalCode": "B4V7S6", "twitter": "None", "instagram": "None", "facebook": "None", "youtube": "None", "website": "None", "summary": "None", "logo": "None", "latitude": 44.28643611992752, "longitude": -64.66347987898324}, "107597783RR0001": {"name": "THE LARDER LAKE PUBLIC LIBRARY BOARD", "designationCode": "C", "categoryCode": "50", "address": "P.O. BOX 189", "city": "LARDER LAKE", "province": "ON", "country": "CA", "postalCode": "P0K1L0", "twitter": "None", "instagram": "None", "facebook": "None", "youtube": "None", "website": "None", "summary": "None", "logo": "None", "latitude": 48.11477712543002, "longitude": -79.70919834536085}, "816768949RR0001": {"name": "THE LARKINS FAMILY FOUNDATION", "designationCode": "B", "categoryCode": "03", "address": "8 BECK BLVD. SUITE #1", "city": "PENETANGUISHENE", "province": "ON", "country": "CA", "postalCode": "L9M1C3", "twitter": "None", "instagram": "None", "facebook": "None", "youtube": "None", "website": "None", "summary": "None", "logo": "None", "latitude": 44.77636697434173, "longitude": -79.9374120686412}, "866582141RR0001": {"name": "THE LARRY GROSSMAN FOUNDATION FOR KIDS", "designationCode": "C", "categoryCode": "09", "address": "8 CROYDON ROAD", "city": "TORONTO", "province": "ON", "country": "CA", "postalCode": "M6C1S7", "twitter": "None", "instagram": "None", "facebook": "None", "youtube": "None", "website": "None", "summary": "None", "logo": "None", "latitude": 43.69306932558127, "longitude": -79.42361565583707}, "131404683RR0001": {"name": "THE LAST DOOR RECOVERY SOCIETY", "designationCode": "C", "categoryCode": "57", "address": "#323 - 8TH STREET", "city": "NEW WESTMINSTER", "province": "BC", "country": "CA", "postalCode": "V3M3R3", "twitter": "None", "instagram": "None", "facebook": "None", "youtube": "None", "website": "None", "summary": "None", "logo": "None", "latitude": 49.20755504331539, "longitude": -122.91931697361497}, "895026110RR0001": {"name": "THE LAST HARVEST MINISTRY", "designationCode": "C", "categoryCode": "47", "address": "PO BOX 62608                  85 ELSEMERE ROAD", "city": "SCARBOROUGH", "province": "ON", "country": "CA", "postalCode": "M1R5G8", "twitter": "None", "instagram": "None", "facebook": "None", "youtube": "None", "website": "None", "summary": "None", "logo": "None", "latitude": 43.77222600000006, "longitude": -79.25666299999993}, "868275280RR0001": {"name": "THE LATCHAM GALLERY ASSOCIATION", "designationCode": "C", "categoryCode": "50", "address": "BOX 3 6240 MAIN ST", "city": "STOUFFVILLE", "province": "ON", "country": "CA", "postalCode": "L4A7Z4", "twitter": "None", "instagram": "None", "facebook": "None", "youtube": "None", "website": "None", "summary": "None", "logo": "None", "latitude": 43.971103188527415, "longitude": -79.24806798115854}, "891938979RR0001": {"name": "THE LATVIAN EVANGELICAL LUTHERAN CHURCH OF VANCOUVER B C", "designationCode": "C", "categoryCode": "32", "address": "1008 WEST 17TH STREET", "city": "NORTH VANCOUVER", "province": "BC", "country": "CA", "postalCode": "V7P3C5", "twitter": "None", "instagram": "None", "facebook": "None", "youtube": "None", "website": "None", "summary": "None", "logo": "None", "latitude": 49.32480829565453, "longitude": -123.1013015427644}, "119241636RR0001": {"name": "THE LATVIAN RELIEF SOCIETY OF CANADA (DAUGAVAS VANAGI)", "designationCode": "C", "categoryCode": "09", "address": "4 CREDIT UNION DRIVE", "city": "TORONTO", "province": "ON", "country": "CA", "postalCode": "M4A2N8", "twitter": "None", "instagram": "None", "facebook": "None", "youtube": "None", "website": "None", "summary": "None", "logo": "None", "latitude": 43.725596051330236, "longitude": -79.31810456266895}, "108220039RR0001": {"name": "THE LAUREL CENTRE INC.", "designationCode": "C", "categoryCode": "59", "address": "104 ROSLYN RD", "city": "WINNIPEG", "province": "MB", "country": "CA", "postalCode": "R3L0G6", "twitter": "None", "instagram": "None", "facebook": "None", "youtube": "None", "website": "None", "summary": "None", "logo": "None", "latitude": 49.88018852120741, "longitude": -97.14650163765944}, "890433378RR0001": {"name": "THE LAUREL FOUNDATION", "designationCode": "A", "categoryCode": "11", "address": "211-1163 THE HIGH ST", "city": "COQUITLAM", "province": "BC", "country": "CA", "postalCode": "V3B7W2", "twitter": "None", "instagram": "None", "facebook": "None", "youtube": "None", "website": "None", "summary": "None", "logo": "None", "latitude": 49.28250641909517, "longitude": -122.79603836398535}, "893012161RR0001": {"name": "THE LAUREL ROSE RAFUSE MEMORIAL TRUST", "designationCode": "B", "categoryCode": "05", "address": "730 INGLIS RD", "city": "RENFREW", "province": "ON", "country": "CA", "postalCode": "K7V3Z9", "twitter": "None", "instagram": "None", "facebook": "None", "youtube": "None", "website": "None", "summary": "None", "logo": "None", "latitude": 45.40288326842264, "longitude": -76.71572500196376}, "107602807RR0001": {"name": "THE LAURIER HEIGHTS BAPTIST CHURCH OF EDMONTON", "designationCode": "C", "categoryCode": "31", "address": "8505 - 142ND STREET", "city": "EDMONTON", "province": "AB", "country": "CA", "postalCode": "T5R0M2", "twitter": "None", "instagram": "None", "facebook": "None", "youtube": "None", "website": "None", "summary": "None", "logo": "None", "latitude": 53.51771624562872, "longitude": -113.56562432566818}, "129117453RR0001": {"name": "THE LAURIER INSTITUTION", "designationCode": "C", "categoryCode": "23", "address": "1600-800 ROBSON ST", "city": "VANCOUVER", "province": "BC", "country": "CA", "postalCode": "V6Z2C5", "twitter": "None", "instagram": "None", "facebook": "None", "youtube": "None", "website": "None", "summary": "None", "logo": "None", "latitude": 49.281979745305385, "longitude": -123.12088718437889}, "119241677RR0001": {"name": "THE LAUTERMILCH SCHOLARSHIP/BURSARY FUND", "designationCode": "C", "categoryCode": "21", "address": "510 13TH AVE NE", "city": "SWIFT CURRENT", "province": "SK", "country": "CA", "postalCode": "S9H4K1", "twitter": "None", "instagram": "None", "facebook": "None", "youtube": "None", "website": "None", "summary": "None", "logo": "None", "latitude": 50.289677099082475, "longitude": -107.78222426444059}, "119241719RR0001": {"name": "THE LAW SOCIETY FOUNDATION", "designationCode": "C", "categoryCode": "23", "address": "OSGOODE HALL, 130 QUEEN ST W", "city": "TORONTO", "province": "ON", "country": "CA", "postalCode": "M5H2N6", "twitter": "None", "instagram": "None", "facebook": "None", "youtube": "None", "website": "None", "summary": "None", "logo": "None", "latitude": 43.65125006665109, "longitude": -79.3847300405388}, "898780721RR0001": {"name": "THE LAWRASON FOUNDATION", "designationCode": "B", "categoryCode": "03", "address": "4 GLENGROVE AVE W", "city": "TORONTO", "province": "ON", "country": "CA", "postalCode": "M4R1N4", "twitter": "None", "instagram": "None", "facebook": "None", "youtube": "None", "website": "None", "summary": "None", "logo": "None"}, "119241693RR0001": {"name": "THE LAWRENCE AND FRANCES BLOOMBERG FOUNDATION", "designationCode": "B", "categoryCode": "63", "address": "70 ARDWOLD GATE", "city": "TORONTO", "province": "ON", "country": "CA", "postalCode": "M5R2W2", "twitter": "None", "instagram": "None", "facebook": "None", "youtube": "None", "website": "None", "summary": "None", "logo": "None", "latitude": 43.6802720935139, "longitude": -79.40787148502501}, "119241701RR0001": {"name": "THE LAWRENCE AND JUDITH TANENBAUM FAMILY FOUNDATION", "designationCode": "B", "categoryCode": "03", "address": "SCOTIA PLAZA 40 KING ST WEST  BOX 2700", "city": "TORONTO", "province": "ON", "country": "CA", "postalCode": "M5H3Y2", "twitter": "None", "instagram": "None", "facebook": "None", "youtube": "None", "website": "None", "summary": "None", "logo": "None", "latitude": 43.648870023370904, "longitude": -79.37924004443396}, "820061273RR0001": {"name": "THE LAWRENCE FAMILY FOUNDATION", "designationCode": "B", "categoryCode": "03", "address": "130 KING STREET WEST          20TH FLOOR", "city": "TORONTO", "province": "ON", "country": "CA", "postalCode": "M5X1K1", "twitter": "None", "instagram": "None", "facebook": "None", "youtube": "None", "website": "None", "summary": "None", "logo": "None", "latitude": 43.64798216515656, "longitude": -79.38336717805407}, "884078817RR0001": {"name": "THE LAWRENCE HOUSE CENTRE FOR THE ARTS", "designationCode": "C", "categoryCode": "22", "address": "127 SOUTH CHRISTINA STREET", "city": "SARNIA", "province": "ON", "country": "CA", "postalCode": "N7T2M8", "twitter": "None", "instagram": "None", "facebook": "None", "youtube": "None", "website": "None", "summary": "None", "logo": "None", "latitude": 42.969966033452444, "longitude": -82.40815341318928}, "878054568RR0001": {"name": "THE LAWRENCE PARK COLLEGIATE INSTITUTE FOUNDATION", "designationCode": "C", "categoryCode": "21", "address": "125 CHATSWORTH DR", "city": "TORONTO", "province": "ON", "country": "CA", "postalCode": "M4R1S1", "twitter": "None", "instagram": "None", "facebook": "None", "youtube": "None", "website": "None", "summary": "None", "logo": "None", "latitude": 43.722449048271834, "longitude": -79.4102339057936}, "786413518RR0001": {"name": "THE LAWRENCE POLLACK FOUNDATION", "designationCode": "A", "categoryCode": "03", "address": "202 - 89 TYCOS DR", "city": "NORTH YORK", "province": "ON", "country": "CA", "postalCode": "M6B1W3", "twitter": "None", "instagram": "None", "facebook": "None", "youtube": "None", "website": "None", "summary": "None", "logo": "None", "latitude": 43.704804848693236, "longitude": -79.4570043734204}, "119241727RR0001": {"name": "THE LAWSON FOUNDATION", "designationCode": "B", "categoryCode": "03", "address": "300 - 2 ST CLAIR AVE E", "city": "TORONTO", "province": "ON", "country": "CA", "postalCode": "M4T2T5", "twitter": "None", "instagram": "None", "facebook": "None", "youtube": "None", "website": "None", "summary": "None", "logo": "None", "latitude": 43.68819219458694, "longitude": -79.39364569637594}, "899586424RR0001": {"name": "THE LAY MONASTIC COMMUNITY OF MONTREAL INCORPORATED/LA COMMUNAUTE MONASTIQUE LAIQUE DE MONTREAL INCORPOREE", "designationCode": "C", "categoryCode": "39", "address": "1700 MONTEE D'ARGENTEUIL", "city": "ST-ADOLPHE-DE-HOWARD", "province": "QC", "country": "CA", "postalCode": "J0T2B0", "twitter": "None", "instagram": "None", "facebook": "None", "youtube": "None", "website": "None", "summary": "None", "logo": "None", "latitude": 45.96550476547979, "longitude": -74.34163895172817}, "863442547RR0001": {"name": "THE LAZARUS COMMUNITY SOCIETY", "designationCode": "C", "categoryCode": "57", "address": "201 23RD ST E", "city": "NORTH VANCOUVER", "province": "BC", "country": "CA", "postalCode": "V7L3E4", "twitter": "None", "instagram": "None", "facebook": "None", "youtube": "None", "website": "None", "summary": "None", "logo": "None", "latitude": 49.330181495672186, "longitude": -123.0684734701656}, "893809384RR0001": {"name": "THE LCM WINNIPEG EMPLOYEES CHARITY FUND", "designationCode": "B", "categoryCode": "05", "address": "185 DAWSON RD", "city": "WINNIPEG", "province": "MB", "country": "CA", "postalCode": "R2J0S6", "twitter": "None", "instagram": "None", "facebook": "None", "youtube": "None", "website": "None", "summary": "None", "logo": "None", "latitude": 49.88808884044069, "longitude": -97.09061159472598}, "897803649RR0001": {"name": "THE LEACROSS FOUNDATION / LA FONDATION LEACROSS", "designationCode": "B", "categoryCode": "03", "address": "CP 1770 SUCC BUREAU-CHEF", "city": "CHELSEA", "province": "QC", "country": "CA", "postalCode": "J9B1A1", "twitter": "None", "instagram": "None", "facebook": "None", "youtube": "None", "website": "None", "summary": "None", "logo": "None", "latitude": 45.52696500000006, "longitude": -75.80437099999993}, "119241776RR0001": {"name": "THE LEAGUE FOR HUMAN RIGHTS OF B'NAI B'RITH", "designationCode": "C", "categoryCode": "49", "address": "15 HOVE ST", "city": "DOWNSVIEW", "province": "ON", "country": "CA", "postalCode": "M3H4Y8", "twitter": "None", "instagram": "None", "facebook": "None", "youtube": "None", "website": "None", "summary": "None", "logo": "None", "latitude": 43.75585046601066, "longitude": -79.44171780261446}, "107605560RR0001": {"name": "THE LEAMINGTON UNITED MENNONITE HOME AND APARTMENTS", "designationCode": "C", "categoryCode": "01", "address": "35 PICKWICK DRIVE", "city": "LEAMINGTON", "province": "ON", "country": "CA", "postalCode": "N8H4T5", "twitter": "None", "instagram": "None", "facebook": "None", "youtube": "None", "website": "None", "summary": "None", "logo": "None", "latitude": 42.04452071566508, "longitude": -82.5897931667833}, "119010247RR0001": {"name": "THE LEAMINGTON, MERSEA GOODFELLOWS CLUB", "designationCode": "C", "categoryCode": "09", "address": "PO BOX 242", "city": "LEAMINGTON", "province": "ON", "country": "CA", "postalCode": "N8H3W2", "twitter": "None", "instagram": "None", "facebook": "None", "youtube": "None", "website": "None", "summary": "None", "logo": "None", "latitude": 42.05413500000006, "longitude": -82.59973099999993}, "135448900RR0001": {"name": "THE LEARNING CENTRE LITERACY ASSOCIATION", "designationCode": "C", "categoryCode": "21", "address": "218-3210 118 AVE NW", "city": "EDMONTON", "province": "AB", "country": "CA", "postalCode": "T5W4W1", "twitter": "None", "instagram": "None", "facebook": "None", "youtube": "None", "website": "None", "summary": "None", "logo": "None", "latitude": 53.57053516746822, "longitude": -113.39139433253177}, "892461047RR0001": {"name": "THE LEARNING DISABILITIES ASSOCIATION - DURHAM REGION", "designationCode": "C", "categoryCode": "21", "address": "17 LAMBARD CRES", "city": "AJAX", "province": "ON", "country": "CA", "postalCode": "L1S1M6", "twitter": "None", "instagram": "None", "facebook": "None", "youtube": "None", "website": "None", "summary": "None", "logo": "None", "latitude": 43.83328082041672, "longitude": -79.00808423091352}, "107605818RR0001": {"name": "THE LEARNING DISABILITIES ASSOCIATION - LONDON REGION", "designationCode": "C", "categoryCode": "11", "address": "205-303 RICHMOND ST", "city": "LONDON", "province": "ON", "country": "CA", "postalCode": "N6B2H8", "twitter": "None", "instagram": "None", "facebook": "None", "youtube": "None", "website": "None", "summary": "None", "logo": "None", "latitude": 42.97965314709451, "longitude": -81.2476912876968}, "898533799RR0001": {"name": "THE LEARNING DISABILITIES ASSOCIATION OF KINGSTON", "designationCode": "C", "categoryCode": "01", "address": "108 - 817 DIVISION ST", "city": "KINGSTON", "province": "ON", "country": "CA", "postalCode": "K7K4C2", "twitter": "None", "instagram": "None", "facebook": "None", "youtube": "None", "website": "None", "summary": "None", "logo": "None", "latitude": 44.2542312603439, "longitude": -76.49679357931831}, "826751877RR0001": {"name": "THE LEARNING DISABILITIES ASSOCIATION OF PETERBOROUGH", "designationCode": "C", "categoryCode": "11", "address": "580 RIVER RD S", "city": "PETERBOROUGH", "province": "ON", "country": "CA", "postalCode": "K9J1E7", "twitter": "None", "instagram": "None", "facebook": "None", "youtube": "None", "website": "None", "summary": "None", "logo": "None", "latitude": 44.282825359623615, "longitude": -78.30951436666122}, "847846656RR0001": {"name": "THE LEARNING DISABILITIES ASSOCIATION OF SUDBURY", "designationCode": "C", "categoryCode": "21", "address": "P.O. BOX 40012                2015 LONG LAKE ROAD", "city": "SUDBURY", "province": "ON", "country": "CA", "postalCode": "P3E0B2", "twitter": "None", "instagram": "None", "facebook": "None", "youtube": "None", "website": "None", "summary": "None", "logo": "None", "latitude": 46.45106230985938, "longitude": -81.00336237408771}, "119241842RR0001": {"name": "THE LEARNING DISABILITIES ASSOCIATION OF THUNDER BAY", "designationCode": "C", "categoryCode": "11", "address": "237 CAMELOT STREET", "city": "THUNDER BAY", "province": "ON", "country": "CA", "postalCode": "P7A4B2", "twitter": "None", "instagram": "None", "facebook": "None", "youtube": "None", "website": "None", "summary": "None", "logo": "None", "latitude": 48.43739670910056, "longitude": -89.21929356719926}, "884293309RR0001": {"name": "THE LEARNING DISABILITIES ASSOCIATION OF TORONTO DISTRICT", "designationCode": "C", "categoryCode": "11", "address": "100 - 121 WILLOWDALE AVE", "city": "NORTH YORK", "province": "ON", "country": "CA", "postalCode": "M2N6A3", "twitter": "None", "instagram": "None", "facebook": "None", "youtube": "None", "website": "None", "summary": "None", "logo": "None", "latitude": 43.765044285879114, "longitude": -79.40007744099505}, "119241859RR0001": {"name": "THE LEARNING ENRICHMENT FOUNDATION", "designationCode": "C", "categoryCode": "23", "address": "116 INDUSTRY ST", "city": "YORK", "province": "ON", "country": "CA", "postalCode": "M6M4L8", "twitter": "None", "instagram": "None", "facebook": "None", "youtube": "None", "website": "None", "summary": "None", "logo": "None", "latitude": 43.69335274744639, "longitude": -79.49283912502172}, "862976784RR0001": {"name": "THE LEARNING INSTITUTE FOR GROWTH, HEALING AND TRANSFORMATION INC.", "designationCode": "C", "categoryCode": "29", "address": "956 DORCHESTER AVE.", "city": "WINNIPEG", "province": "MB", "country": "CA", "postalCode": "R3M0R9", "twitter": "None", "instagram": "None", "facebook": "None", "youtube": "None", "website": "None", "summary": "None", "logo": "None", "latitude": 49.869027137370985, "longitude": -97.16440198361137}, "140756107RR0001": {"name": "THE LEARNING PARTNERSHIP CANADA/PARTENARIAT CANADIEN EN \u00c9DUCATION", "designationCode": "C", "categoryCode": "21", "address": "400-45 SHEPPARD AVENUE EAST", "city": "TORONTO", "province": "ON", "country": "CA", "postalCode": "M2N5W9", "twitter": "None", "instagram": "None", "facebook": "None", "youtube": "None", "website": "None", "summary": "None", "logo": "None", "latitude": 43.76206888201875, "longitude": -79.40837710032322}, "108086604RR0001": {"name": "THE LEARNING TREE DAY NURSERY INC.", "designationCode": "C", "categoryCode": "20", "address": "1575 REGENT AVE W #7", "city": "WINNIPEG", "province": "MB", "country": "CA", "postalCode": "R2C3B5", "twitter": "None", "instagram": "None", "facebook": "None", "youtube": "None", "website": "None", "summary": "None", "logo": "None", "latitude": 49.89793490822614, "longitude": -97.06579909851659}, "119010593RR0001": {"name": "THE LEATHERDALE AND OTHER DECEASED MEMBERS MEMORIAL BURSARY FUND", "designationCode": "C", "categoryCode": "29", "address": "BOX 52", "city": "ORILLIA", "province": "ON", "country": "CA", "postalCode": "L3V6H9", "twitter": "None", "instagram": "None", "facebook": "None", "youtube": "None", "website": "None", "summary": "None", "logo": "None", "latitude": 44.60657100000006, "longitude": -79.41824449999993}, "861030765RR0001": {"name": "THE LEBOFF FAMILY CHARITABLE FOUNDATION", "designationCode": "B", "categoryCode": "05", "address": "SUITE 5100                    333 BAY STREET", "city": "TORONTO", "province": "ON", "country": "CA", "postalCode": "M5H2R2", "twitter": "None", "instagram": "None", "facebook": "None", "youtube": "None", "website": "None", "summary": "None", "logo": "None", "latitude": 43.65025349737428, "longitude": -79.38084819908858}, "893140640RR0001": {"name": "THE LECHOWIA POLISH CANADIAN FOLK DANCE COMPANY", "designationCode": "C", "categoryCode": "22", "address": "23 LAUREL AVE", "city": "ETOBICOKE", "province": "ON", "country": "CA", "postalCode": "M9B4S9", "twitter": "None", "instagram": "None", "facebook": "None", "youtube": "None", "website": "None", "summary": "None", "logo": "None", "latitude": 43.63880677575157, "longitude": -79.5517296162505}, "863044392RR0001": {"name": "THE LECKY FOUNDATION", "designationCode": "B", "categoryCode": "03", "address": "P.O. BOX 4602                 STATION C", "city": "CALGARY", "province": "AB", "country": "CA", "postalCode": "T2T5P1", "twitter": "None", "instagram": "None", "facebook": "None", "youtube": "None", "website": "None", "summary": "None", "logo": "None", "latitude": 51.01989900000005, "longitude": -114.09929449999993}, "872690649RR0001": {"name": "THE LEDER CHARITABLE FOUNDATION", "designationCode": "B", "categoryCode": "23", "address": "51514 RANGE RD #271", "city": "SPRUCE GROVE", "province": "AB", "country": "CA", "postalCode": "T7Y1G9", "twitter": "None", "instagram": "None", "facebook": "None", "youtube": "None", "website": "None", "summary": "None", "logo": "None", "latitude": 53.448509133050045, "longitude": -113.86076179463768}, "855733937RR0001": {"name": "THE LEDGE CHRISTIAN REVIVAL SOCIETY", "designationCode": "C", "categoryCode": "39", "address": "29760 MARSHALL ROAD", "city": "ABBOTSFORD", "province": "BC", "country": "CA", "postalCode": "V4X2L1", "twitter": "None", "instagram": "None", "facebook": "None", "youtube": "None", "website": "None", "summary": "None", "logo": "None", "latitude": 49.03893634532636, "longitude": -122.39632749780165}, "125726703RR0001": {"name": "THE LEDUC FISH AND GAME ASSOCIATION", "designationCode": "C", "categoryCode": "54", "address": "4807 - 49 AV", "city": "LEDUC", "province": "AB", "country": "CA", "postalCode": "T9E7G6", "twitter": "None", "instagram": "None", "facebook": "None", "youtube": "None", "website": "None", "summary": "None", "logo": "None", "latitude": 53.263925488458824, "longitude": -113.54865219317328}, "867290751RR0001": {"name": "THE LEGACY CHARITABLE FOUNDATION", "designationCode": "B", "categoryCode": "03", "address": "2980 SUNRIDGE WAY NE", "city": "CALGARY", "province": "AB", "country": "CA", "postalCode": "T1Y7H9", "twitter": "None", "instagram": "None", "facebook": "None", "youtube": "None", "website": "None", "summary": "None", "logo": "None", "latitude": 51.06920453318127, "longitude": -113.99417125145709}}