{"889486577RR0001": {"name": "THE ACADEMY FOR SMALL BUSINESS ENTREPRENEURS SCHOLARSHIP FUND", "designationCode": "C", "categoryCode": "21", "address": "SUITE #355, STN. A            145 THE WESTMALL", "city": "ETOBICOKE", "province": "ON", "country": "CA", "postalCode": "M9C4V3", "twitter": "None", "instagram": "None", "facebook": "None", "youtube": "None", "website": "None", "summary": "None", "logo": "None", "latitude": 43.64439900000005, "longitude": -79.56714049999994}, "119211126RR0001": {"name": "THE ACADIA ROAD COMBINED DAY CARES COMMUNICARE SOCIETY", "designationCode": "C", "categoryCode": "21", "address": "2881 ACADIA RD", "city": "VANCOUVER", "province": "BC", "country": "CA", "postalCode": "V6T1S1", "twitter": "None", "instagram": "None", "facebook": "None", "youtube": "None", "website": "None", "summary": "None", "logo": "None", "latitude": 49.261200116391215, "longitude": -123.23410295913875}, "888746542RR0001": {"name": "THE ACAPELLA FOUNDATION", "designationCode": "B", "categoryCode": "05", "address": "639 DUPONT STREET             POST OFFICE BOX 122", "city": "TORONTO", "province": "ON", "country": "CA", "postalCode": "M6G1Z4", "twitter": "None", "instagram": "None", "facebook": "None", "youtube": "None", "website": "None", "summary": "None", "logo": "None", "latitude": 43.67174672548917, "longitude": -79.42072793421437}, "891725574RR0001": {"name": "THE ACCOUNTING EDUCATION FOUNDATION OF NOVA SCOTIA", "designationCode": "C", "categoryCode": "21", "address": "300 - 1871 HOLLIS ST", "city": "HALIFAX", "province": "NS", "country": "CA", "postalCode": "B3J0C3", "twitter": "None", "instagram": "None", "facebook": "None", "youtube": "None", "website": "None", "summary": "None", "logo": "None", "latitude": 44.649876027756925, "longitude": -63.573948629465136}, "885168153RR0001": {"name": "THE ACHESON FAMILY FOUNDATION", "designationCode": "B", "categoryCode": "03", "address": "1194 PRIORY CRT", "city": "OAKVILLE", "province": "ON", "country": "CA", "postalCode": "L6M1B6", "twitter": "None", "instagram": "None", "facebook": "None", "youtube": "None", "website": "None", "summary": "None", "logo": "None", "latitude": 43.44601019149984, "longitude": -79.71380138149914}, "888034642RR0001": {"name": "THE ACTRA FOUNDATION", "designationCode": "C", "categoryCode": "22", "address": "625 CHURCH STREET             SUITE 200", "city": "TORONTO", "province": "ON", "country": "CA", "postalCode": "M4Y2G1", "twitter": "None", "instagram": "None", "facebook": "None", "youtube": "None", "website": "None", "summary": "None", "logo": "None", "latitude": 43.66983358979165, "longitude": -79.38260997082944}, "888422615RR0001": {"name": "THE ACTUARIAL FOUNDATION OF CANADA/LA FONDATION ACTUARIELLE DU CANADA", "designationCode": "C", "categoryCode": "21", "address": "360 ALBERT ST                 SUITE 1740", "city": "OTTAWA", "province": "ON", "country": "CA", "postalCode": "K1R7X7", "twitter": "None", "instagram": "None", "facebook": "None", "youtube": "None", "website": "None", "summary": "None", "logo": "None", "latitude": 45.418232808642315, "longitude": -75.70406605740754}, "863775532RR0001": {"name": "THE ADAIR FAMILY FOUNDATION/LA FONDATION FAMILIALE ADAIR", "designationCode": "B", "categoryCode": "03", "address": "466 MOUNT PLEASANT AVENUE", "city": "WESTMOUNT", "province": "QC", "country": "CA", "postalCode": "H3Y3G8", "twitter": "None", "instagram": "None", "facebook": "None", "youtube": "None", "website": "None", "summary": "None", "logo": "None", "latitude": 45.48914560032323, "longitude": -73.59473128380165}, "119211209RR0001": {"name": "THE ADAM MICKIEWICZ FOUNDATION INCORPORATED", "designationCode": "A", "categoryCode": "03", "address": "1428 HARMSWORTH SQ.", "city": "OAKVILLE", "province": "ON", "country": "CA", "postalCode": "L6H3E7", "twitter": "None", "instagram": "None", "facebook": "None", "youtube": "None", "website": "None", "summary": "None", "logo": "None", "latitude": 43.48602154065445, "longitude": -79.68602724686946}, "895581148RR0001": {"name": "THE ADAMS RIVER SALMON SOCIETY", "designationCode": "C", "categoryCode": "54", "address": "BOX 24034", "city": "SCOTCH CREEK", "province": "BC", "country": "CA", "postalCode": "V0E3L0", "twitter": "None", "instagram": "None", "facebook": "None", "youtube": "None", "website": "None", "summary": "None", "logo": "None", "latitude": 50.951513204562595, "longitude": -119.45772599796045}, "119211225RR0001": {"name": "THE ADMIRAL'S MEDAL FOUNDATION", "designationCode": "B", "categoryCode": "51", "address": "9 - 6 BEECHWOOD AVE", "city": "VANIER", "province": "ON", "country": "CA", "postalCode": "K1L8B4", "twitter": "None", "instagram": "None", "facebook": "None", "youtube": "None", "website": "None", "summary": "None", "logo": "None", "latitude": 45.438747905072475, "longitude": -75.67739574283009}, "106686298RR0001": {"name": "THE ADULT LITERACY COUNCIL OF GREATER FORT ERIE", "designationCode": "C", "categoryCode": "29", "address": "136 GILMORE ROAD", "city": "FORT ERIE", "province": "ON", "country": "CA", "postalCode": "L2A2M1", "twitter": "None", "instagram": "None", "facebook": "None", "youtube": "None", "website": "None", "summary": "None", "logo": "None", "latitude": 42.920504453257394, "longitude": -78.91840302844942}, "119211266RR0001": {"name": "THE AEOLIAN SINGERS ASSOCIATION", "designationCode": "C", "categoryCode": "22", "address": "1240 EDWARD STREET", "city": "HALIFAX", "province": "NS", "country": "CA", "postalCode": "B3H3H4", "twitter": "None", "instagram": "None", "facebook": "None", "youtube": "None", "website": "None", "summary": "None", "logo": "None", "latitude": 44.636766475157266, "longitude": -63.586371917306145}, "119211274RR0001": {"name": "THE AERO-SPACE MUSEUM ASSOCIATION OF CALGARY", "designationCode": "C", "categoryCode": "53", "address": "4629 MCCALL WAY N.E.", "city": "CALGARY", "province": "AB", "country": "CA", "postalCode": "T2E8A5", "twitter": "None", "instagram": "None", "facebook": "None", "youtube": "None", "website": "None", "summary": "None", "logo": "None", "latitude": 51.09407178573488, "longitude": -114.01159661200865}, "889333571RR0001": {"name": "THE AEROSPACE HERITAGE FOUNDATION OF CANADA", "designationCode": "C", "categoryCode": "50", "address": "P.O BOX 246", "city": "ETOBICOKE", "province": "ON", "country": "CA", "postalCode": "M9A4X2", "twitter": "None", "instagram": "None", "facebook": "None", "youtube": "None", "website": "None", "summary": "None", "logo": "None", "latitude": 43.64439900000005, "longitude": -79.56714049999994}, "131894511RR0001": {"name": "THE AFFIRMATIVE INDUSTRY ASSOCIATION OF NOVA SCOTIA", "designationCode": "C", "categoryCode": "20", "address": "139 MAIN ST", "city": "DARTMOUTH", "province": "NS", "country": "CA", "postalCode": "B2X1R6", "twitter": "None", "instagram": "None", "facebook": "None", "youtube": "None", "website": "None", "summary": "None", "logo": "None", "latitude": 44.68206723454887, "longitude": -63.538456116856075}, "855029203RR0001": {"name": "THE AFRICA BOOK PROJECT", "designationCode": "C", "categoryCode": "21", "address": "35 SILVERSTONE BAY NW", "city": "CALGARY", "province": "AB", "country": "CA", "postalCode": "T3B4Y8", "twitter": "None", "instagram": "None", "facebook": "None", "youtube": "None", "website": "None", "summary": "None", "logo": "None", "latitude": 51.11581695920134, "longitude": -114.19298823870382}, "866230378RR0001": {"name": "THE AFRICAN MUSEUM", "designationCode": "C", "categoryCode": "50", "address": "36-1223 YORK MILLS ROAD", "city": "NORTH YORK", "province": "ON", "country": "CA", "postalCode": "M3A1Y4", "twitter": "None", "instagram": "None", "facebook": "None", "youtube": "None", "website": "None", "summary": "None", "logo": "None", "latitude": 43.75990537563217, "longitude": -79.33101072646241}, "891186264RR0001": {"name": "THE AFRICAN UNITED BAPTIST ASSOCIATION OF NOVA SCOTIA INCORPORATED", "designationCode": "C", "categoryCode": "31", "address": "223 CHERRY BROOK RD.", "city": "CHERRY BROOK", "province": "NS", "country": "CA", "postalCode": "B2Z1A6", "twitter": "None", "instagram": "None", "facebook": "None", "youtube": "None", "website": "None", "summary": "None", "logo": "None", "latitude": 44.70964016241526, "longitude": -63.47943872580629}, "889774196RR0001": {"name": "THE AGAPE FOUNDATION OF LONDON", "designationCode": "A", "categoryCode": "23", "address": "104 LELAND RD", "city": "LONDON", "province": "ON", "country": "CA", "postalCode": "N6K1T3", "twitter": "None", "instagram": "None", "facebook": "None", "youtube": "None", "website": "None", "summary": "None", "logo": "None", "latitude": 42.94736590313922, "longitude": -81.29904450011557}, "131938789RR0001": {"name": "THE AGASSIZ CHRISTIAN REFORMED CHURCH", "designationCode": "C", "categoryCode": "39", "address": "7452 MORROW  RD. BOX 48", "city": "AGASSIZ", "province": "BC", "country": "CA", "postalCode": "V0M1A0", "twitter": "None", "instagram": "None", "facebook": "None", "youtube": "None", "website": "None", "summary": "None", "logo": "None", "latitude": 49.23571749567217, "longitude": -121.75372269317329}, "106688914RR0001": {"name": "THE AGNES PRATT HOME", "designationCode": "C", "categoryCode": "01", "address": "239 TOPSAIL ROAD", "city": "ST. JOHN'S", "province": "NL", "country": "CA", "postalCode": "A1E2B4", "twitter": "None", "instagram": "None", "facebook": "None", "youtube": "None", "website": "None", "summary": "None", "logo": "None", "latitude": 47.53997417868926, "longitude": -52.736399135380424}, "868926981RR0001": {"name": "THE AGNES PRATT HOME FOUNDATION INC", "designationCode": "A", "categoryCode": "03", "address": "239 TOPSAIL RD", "city": "ST JOHN'S", "province": "NL", "country": "CA", "postalCode": "A1E2B4", "twitter": "None", "instagram": "None", "facebook": "None", "youtube": "None", "website": "None", "summary": "None", "logo": "None", "latitude": 47.53997417868926, "longitude": -52.736399135380424}, "891552598RR0001": {"name": "THE AGORA COSMOPOLITAN FOUNDATION", "designationCode": "B", "categoryCode": "21", "address": "300 EAGLESON ROAD             PO BOX 24191", "city": "KANATA", "province": "ON", "country": "CA", "postalCode": "K2M2C3", "twitter": "None", "instagram": "None", "facebook": "None", "youtube": "None", "website": "None", "summary": "None", "logo": "None", "latitude": 45.302509542847474, "longitude": -75.87602375102347}, "119211308RR0001": {"name": "THE AGRICULTURAL MUSEUM OF NEW BRUNSWICK INC.", "designationCode": "C", "categoryCode": "50", "address": "28 PERRY STREET", "city": "SUSSEX", "province": "NB", "country": "CA", "postalCode": "E4E2N7", "twitter": "None", "instagram": "None", "facebook": "None", "youtube": "None", "website": "None", "summary": "None", "logo": "None", "latitude": 45.72408461835663, "longitude": -65.50088883712246}, "133832543RR0001": {"name": "THE AIDS COMMITTEE OF CAMBRIDGE, KITCHENER, WATERLOO", "designationCode": "C", "categoryCode": "09", "address": "2B-625 KING STREET EAST", "city": "KITCHENER", "province": "ON", "country": "CA", "postalCode": "N2G4V4", "twitter": "None", "instagram": "None", "facebook": "None", "youtube": "None", "website": "None", "summary": "None", "logo": "None", "latitude": 43.44526306659368, "longitude": -80.47917247129078}, "108070749RR0001": {"name": "THE AIDS COMMITTEE OF OTTAWA / LE COMITE DU SIDA D'OTTAWA", "designationCode": "C", "categoryCode": "11", "address": "19 MAIN ST", "city": "OTTAWA", "province": "ON", "country": "CA", "postalCode": "K1S1A9", "twitter": "None", "instagram": "None", "facebook": "None", "youtube": "None", "website": "None", "summary": "None", "logo": "None", "latitude": 45.414551755208, "longitude": -75.68120007602874}, "890484769RR0001": {"name": "THE AIDS COMMITTEE OF YORK REGION INC.", "designationCode": "C", "categoryCode": "11", "address": "203 - 10909 YONGE ST", "city": "RICHMOND HILL", "province": "ON", "country": "CA", "postalCode": "L4C3E3", "twitter": "None", "instagram": "None", "facebook": "None", "youtube": "None", "website": "None", "summary": "None", "logo": "None", "latitude": 43.893424644468766, "longitude": -79.44233578512932}, "119211332RR0001": {"name": "THE AIDS FOUNDATION OF CANADA", "designationCode": "A", "categoryCode": "13", "address": "1020 - 1166 ALBERNI ST", "city": "VANCOUVER", "province": "BC", "country": "CA", "postalCode": "V6E3Z3", "twitter": "None", "instagram": "None", "facebook": "None", "youtube": "None", "website": "None", "summary": "None", "logo": "None", "latitude": 49.286152466176894, "longitude": -123.12528575074712}, "860549146RR0001": {"name": "THE AIR CADET LEAGUE OF CANADA - PEI PROVINCIAL COMMITTEE INC.", "designationCode": "C", "categoryCode": "29", "address": "3 BIRCH CRES", "city": "SUMMERSIDE", "province": "PE", "country": "CA", "postalCode": "C1N4J8", "twitter": "None", "instagram": "None", "facebook": "None", "youtube": "None", "website": "None", "summary": "None", "logo": "None", "latitude": 46.4176854163252, "longitude": -63.736199927549265}, "891163503RR0001": {"name": "THE AIR CADET LEAGUE OF CANADA #103 THUNDERBIRD SQUADRON", "designationCode": "C", "categoryCode": "29", "address": "1513 FORBES AVENUE", "city": "NORTH VANCOUVER", "province": "BC", "country": "CA", "postalCode": "V7M2Y4", "twitter": "None", "instagram": "None", "facebook": "None", "youtube": "None", "website": "None", "summary": "None", "logo": "None", "latitude": 49.322374466919584, "longitude": -123.08481400814921}, "860317338RR0001": {"name": "THE AIR CADET LEAGUE OF CANADA #204 BLACK MARIA SQUADRON KAMLOOPS SPONSORING COMMITTEE", "designationCode": "C", "categoryCode": "29", "address": "PO BOX 124 STN MAIN", "city": "KAMLOOPS", "province": "BC", "country": "CA", "postalCode": "V2C5K3", "twitter": "None", "instagram": "None", "facebook": "None", "youtube": "None", "website": "None", "summary": "None", "logo": "None", "latitude": 50.675883000000056, "longitude": -120.33898099999993}, "125593657RR0227": {"name": "THE AIR CADET LEAGUE OF CANADA #553 SHERLOCK SQUADRON", "designationCode": "C", "categoryCode": "29", "address": "202 WASHINGTON STREET", "city": "DAVIDSON", "province": "SK", "country": "CA", "postalCode": "S0G1A0", "twitter": "None", "instagram": "None", "facebook": "None", "youtube": "None", "website": "None", "summary": "None", "logo": "None", "latitude": 51.2623661066181, "longitude": -105.99016105183169}, "875475618RR0001": {"name": "THE AIR CADET LEAGUE OF CANADA 243 KELOWNA SPONSORING COMMITTEE", "designationCode": "C", "categoryCode": "29", "address": "BOX 21037 ORCHARD PARK POSTAL OUTLET", "city": "KELOWNA", "province": "BC", "country": "CA", "postalCode": "V1Y9N8", "twitter": "None", "instagram": "None", "facebook": "None", "youtube": "None", "website": "None", "summary": "None", "logo": "None", "latitude": 49.881860000000074, "longitude": -119.45378999999997}, "862789195RR0001": {"name": "THE AIR CADET LEAGUE OF CANADA 259 PENTICTON SPONSORING COMMITTEE", "designationCode": "C", "categoryCode": "29", "address": "PO BOX 259                    STATION MAIN", "city": "PENTICTON", "province": "BC", "country": "CA", "postalCode": "V2A6J9", "twitter": "None", "instagram": "None", "facebook": "None", "youtube": "None", "website": "None", "summary": "None", "logo": "None", "latitude": 49.48779893232429, "longitude": -119.58722160008561}, "125593657RR0226": {"name": "THE AIR CADET LEAGUE OF CANADA 527 SIMONDS SQUADRON", "designationCode": "C", "categoryCode": "29", "address": "P.O. BOX 2206", "city": "SAINT JOHN", "province": "NB", "country": "CA", "postalCode": "E2L3V1", "twitter": "None", "instagram": "None", "facebook": "None", "youtube": "None", "website": "None", "summary": "None", "logo": "None", "latitude": 45.27342600000006, "longitude": -66.06407149999993}, "130387665RR0056": {"name": "THE AIR CADET LEAGUE OF CANADA 534 RAIDER SQUADRON, PETERBOROUGH", "designationCode": "C", "categoryCode": "29", "address": "274 KING ST", "city": "PETERBOROUGH", "province": "ON", "country": "CA", "postalCode": "K9J2S2", "twitter": "None", "instagram": "None", "facebook": "None", "youtube": "None", "website": "None", "summary": "None", "logo": "None", "latitude": 44.30186744214889, "longitude": -78.32488477990651}, "860514116RR0001": {"name": "THE AIR CADET LEAGUE OF CANADA 581 CASTLEGAR SPONSORING COMMITTEE", "designationCode": "C", "categoryCode": "29", "address": "P.O. BOX 3234", "city": "CASTLEGAR", "province": "BC", "country": "CA", "postalCode": "V1N3H5", "twitter": "None", "instagram": "None", "facebook": "None", "youtube": "None", "website": "None", "summary": "None", "logo": "None", "latitude": 49.296228000000056, "longitude": -117.65424049999993}, "895801710RR0001": {"name": "THE AIR CADET LEAGUE OF CANADA 637 BURNABY SPONSORING COMMITTEE", "designationCode": "C", "categoryCode": "29", "address": "PO BOX 72035  OLD ORCHARD     4429 KINGSWAY", "city": "BURNABY", "province": "BC", "country": "CA", "postalCode": "V5H2A0", "twitter": "None", "instagram": "None", "facebook": "None", "youtube": "None", "website": "None", "summary": "None", "logo": "None", "latitude": 49.23079007054621, "longitude": -123.00618995109389}, "130387665RR0055": {"name": "THE AIR CADET LEAGUE OF CANADA 741 ELGIN SQUADRON", "designationCode": "C", "categoryCode": "29", "address": "P.O. BOX 22074 ELMWOOD SQUARE", "city": "ST.THOMAS", "province": "ON", "country": "CA", "postalCode": "N5R6A1", "twitter": "None", "instagram": "None", "facebook": "None", "youtube": "None", "website": "None", "summary": "None", "logo": "None", "latitude": 42.765196447384525, "longitude": -81.15500253399657}, "130387665RR0022": {"name": "THE AIR CADET LEAGUE OF CANADA 778 RICHMOND HILL SQUADRON", "designationCode": "C", "categoryCode": "29", "address": "233 CENTRE ST E", "city": "RICHMOND HILL", "province": "ON", "country": "CA", "postalCode": "L4C1A7", "twitter": "None", "instagram": "None", "facebook": "None", "youtube": "None", "website": "None", "summary": "None", "logo": "None", "latitude": 43.87750115852013, "longitude": -79.42706568194922}, "125593657RR0044": {"name": "THE AIR CADET LEAGUE OF CANADA 84 ASTRA SQUADRON", "designationCode": "C", "categoryCode": "29", "address": "201 - 1505 LAPERRIERE AVE", "city": "OTTAWA", "province": "ON", "country": "CA", "postalCode": "K1Z7T1", "twitter": "None", "instagram": "None", "facebook": "None", "youtube": "None", "website": "None", "summary": "None", "logo": "None", "latitude": 45.3779063308614, "longitude": -75.7424353600033}, "130387665RR0058": {"name": "THE AIR CADET LEAGUE OF CANADA 844 HUNTSVILLE SQUADRON", "designationCode": "C", "categoryCode": "29", "address": "2-21 VETERANS WAY", "city": "HUNTSVILLE", "province": "ON", "country": "CA", "postalCode": "P1H1P3", "twitter": "None", "instagram": "None", "facebook": "None", "youtube": "None", "website": "None", "summary": "None", "logo": "None", "latitude": 45.3243873482892, "longitude": -79.21665384191256}, "125593657RR0196": {"name": "THE AIR CADET LEAGUE OF CANADA 878 BANFF/CANMORE SQUADRON", "designationCode": "C", "categoryCode": "29", "address": "602-7TH AVENUE", "city": "CANMORE", "province": "AB", "country": "CA", "postalCode": "T1W2H5", "twitter": "None", "instagram": "None", "facebook": "None", "youtube": "None", "website": "None", "summary": "None", "logo": "None", "latitude": 51.08729784359179, "longitude": -115.3607886698917}, "125593657RR0093": {"name": "THE AIR CADET LEAGUE OF CANADA-624 SQUADRON TISDALE-SASKATCHEWAN", "designationCode": "C", "categoryCode": "29", "address": "BOX 730", "city": "TISDALE", "province": "SK", "country": "CA", "postalCode": "S0E1T0", "twitter": "None", "instagram": "None", "facebook": "None", "youtube": "None", "website": "None", "summary": "None", "logo": "None", "latitude": 52.84785000000005, "longitude": -104.04749999999996}, "887468916RR0001": {"name": "THE AIR CADET LEAGUE OF CANADA, BRITISH COLUMBIA PROVINCIAL COMMITTEE", "designationCode": "C", "categoryCode": "29", "address": "#2-7630 MONTREAL STREET", "city": "DELTA", "province": "BC", "country": "CA", "postalCode": "V4K0A7", "twitter": "None", "instagram": "None", "facebook": "None", "youtube": "None", "website": "None", "summary": "None", "logo": "None", "latitude": 49.08078747071387, "longitude": -123.01273260935426}, "130387665RR0048": {"name": "THE AIR CADET LEAGUE OF CANADA, 110 BLACK HAWK SQUADRON", "designationCode": "C", "categoryCode": "29", "address": "PO BOX 68", "city": "WESTHILL", "province": "ON", "country": "CA", "postalCode": "M1E4R4", "twitter": "None", "instagram": "None", "facebook": "None", "youtube": "None", "website": "None", "summary": "None", "logo": "None", "latitude": 43.772035500000015, "longitude": -79.1807895}, "859342073RR0001": {"name": "THE AIR CADET LEAGUE OF CANADA, 205 COLLISHAW SPONSORING COMMITTEE", "designationCode": "C", "categoryCode": "29", "address": "PO BOX 39010 RPO HAREWOOD", "city": "NANAIMO", "province": "BC", "country": "CA", "postalCode": "V9R7B7", "twitter": "None", "instagram": "None", "facebook": "None", "youtube": "None", "website": "None", "summary": "None", "logo": "None", "latitude": 49.156268914547205, "longitude": -123.95542076697883}, "130387665RR0045": {"name": "THE AIR CADET LEAGUE OF CANADA, 295 MACPHERSON (PARRY SOUND) SQUADRON", "designationCode": "C", "categoryCode": "29", "address": "BOX 128", "city": "PARRY SOUND", "province": "ON", "country": "CA", "postalCode": "P2A2X3", "twitter": "None", "instagram": "None", "facebook": "None", "youtube": "None", "website": "None", "summary": "None", "logo": "None", "latitude": 45.34362600000006, "longitude": -80.03579299999993}, "893497503RR0001": {"name": "THE AIR CADET LEAGUE OF CANADA, 513 HORNET SQUADRON SPONSORING COMMITTEE", "designationCode": "C", "categoryCode": "29", "address": "PO BOX 2317, STN MAIN", "city": "NEW WESTMINSTER", "province": "BC", "country": "CA", "postalCode": "V3L5A5", "twitter": "None", "instagram": "None", "facebook": "None", "youtube": "None", "website": "None", "summary": "None", "logo": "None", "latitude": 49.20705600000005, "longitude": -122.90841349999994}, "870197001RR0001": {"name": "THE AIR CADET LEAGUE OF CANADA, 521 MISSION SPONSORING COMMITTEE", "designationCode": "C", "categoryCode": "29", "address": "PO BOX 3523", "city": "MISSION", "province": "BC", "country": "CA", "postalCode": "V2V4L1", "twitter": "None", "instagram": "None", "facebook": "None", "youtube": "None", "website": "None", "summary": "None", "logo": "None", "latitude": 49.13294100000006, "longitude": -122.32108249999993}, "125593657RR0280": {"name": "THE AIR CADET LEAGUE OF CANADA, 594 TOBIQUE VALLEY SQUADRON", "designationCode": "C", "categoryCode": "29", "address": "991 RTE 395", "city": "ANFIELD", "province": "NB", "country": "CA", "postalCode": "E7G1E9", "twitter": "None", "instagram": "None", "facebook": "None", "youtube": "None", "website": "None", "summary": "None", "logo": "None", "latitude": 46.92843783843225, "longitude": -67.51653540301606}, "130387665RR0057": {"name": "THE AIR CADET LEAGUE OF CANADA, 704 AIR FORCE CITY SQUADRON", "designationCode": "C", "categoryCode": "29", "address": "SUITE 70                      PO BOX 1000 STN FORCES", "city": "ASTRA", "province": "ON", "country": "CA", "postalCode": "K0K3W0", "twitter": "None", "instagram": "None", "facebook": "None", "youtube": "None", "website": "None", "summary": "None", "logo": "None", "latitude": 43.95913800000005, "longitude": -78.23156299999994}, "130387665RR0047": {"name": "THE AIR CADET LEAGUE OF CANADA, 812 HANOVER SQUADRON", "designationCode": "C", "categoryCode": "29", "address": "PO BOX 20090 STN MAIN", "city": "HANOVER", "province": "ON", "country": "CA", "postalCode": "N4N3T1", "twitter": "None", "instagram": "None", "facebook": "None", "youtube": "None", "website": "None", "summary": "None", "logo": "None", "latitude": 44.152395000000055, "longitude": -81.02554999999994}, "869779306RR0001": {"name": "THE AIR CADET LEAGUE OF CANADA, 848 ROYAL ROADS SPONSORING COMMITTEE", "designationCode": "C", "categoryCode": "29", "address": "P.O. BOX 28091                STATION D", "city": "VICTORIA", "province": "BC", "country": "CA", "postalCode": "V9B6K8", "twitter": "None", "instagram": "None", "facebook": "None", "youtube": "None", "website": "None", "summary": "None", "logo": "None", "latitude": 48.44698623711125, "longitude": -123.4961270412756}, "870403615RR0001": {"name": "THE AIR CADET LEAGUE OF CANADA, 893 BEAUFORT SQUADRON SPONSORING COMMITTEE", "designationCode": "C", "categoryCode": "29", "address": "#6 - 1000 RAVENSBOURNE LANE", "city": "QUALICUM BEACH", "province": "BC", "country": "CA", "postalCode": "V9K1P9", "twitter": "None", "instagram": "None", "facebook": "None", "youtube": "None", "website": "None", "summary": "None", "logo": "None", "latitude": 49.34032210660627, "longitude": -124.39661454643773}, "893268508RR0001": {"name": "THE AIR FORCE MUSEUM SOCIETY OF ALBERTA", "designationCode": "C", "categoryCode": "50", "address": "4520 CROWCHILD TRAIL S.W.", "city": "CALGARY", "province": "AB", "country": "CA", "postalCode": "T2T5J4", "twitter": "None", "instagram": "None", "facebook": "None", "youtube": "None", "website": "None", "summary": "None", "logo": "None", "latitude": 51.014627821546306, "longitude": -114.11605994395097}, "131695207RR0001": {"name": "THE AIRDRIE COMMUNITY CHOIR ASSOCIATION", "designationCode": "C", "categoryCode": "22", "address": "PO BOX 80085 RPO DOWNTOWN", "city": "AIRDRIE", "province": "AB", "country": "CA", "postalCode": "T4B2V8", "twitter": "None", "instagram": "None", "facebook": "None", "youtube": "None", "website": "None", "summary": "None", "logo": "None", "latitude": 51.28868400000006, "longitude": -114.01344349999994}, "897222097RR0001": {"name": "THE AJAX-PICKERING WOMEN'S CENTRE INC.", "designationCode": "C", "categoryCode": "01", "address": "P O BOX 21012                 314 HARWOOD AVE S", "city": "AJAX", "province": "ON", "country": "CA", "postalCode": "L1S7H2", "twitter": "None", "instagram": "None", "facebook": "None", "youtube": "None", "website": "None", "summary": "None", "logo": "None", "latitude": 43.84502985375075, "longitude": -79.01896711809388}, "850921529RR0001": {"name": "THE AKI LATVALA FOUNDATION", "designationCode": "A", "categoryCode": "03", "address": "23 BOTHAM RD", "city": "TORONTO", "province": "ON", "country": "CA", "postalCode": "M2N2J7", "twitter": "None", "instagram": "None", "facebook": "None", "youtube": "None", "website": "None", "summary": "None", "logo": "None", "latitude": 43.75440481932019, "longitude": -79.41316591338234}, "890445976RR0001": {"name": "THE AL HUSSAIN FOUNDATION", "designationCode": "C", "categoryCode": "45", "address": "10992 KENNEDY ROAD", "city": "MARKHAM", "province": "ON", "country": "CA", "postalCode": "L6C1P1", "twitter": "None", "instagram": "None", "facebook": "None", "youtube": "None", "website": "None", "summary": "None", "logo": "None", "latitude": 43.921521084367285, "longitude": -79.32507810179418}, "863906038RR0001": {"name": "THE ALAN & ROULA ROSSY FAMILY FOUNDATION / LA FONDATION FAMILIALE ALAN & ROULA ROSSY", "designationCode": "B", "categoryCode": "03", "address": "1190 RUE BISHOP", "city": "MONTREAL", "province": "QC", "country": "CA", "postalCode": "H3G2E3", "twitter": "None", "instagram": "None", "facebook": "None", "youtube": "None", "website": "None", "summary": "None", "logo": "None", "latitude": 45.49576995723943, "longitude": -73.57474321553453}, "867123895RR0001": {"name": "THE ALASKAN MALAMUTE HELP LEAGUE", "designationCode": "C", "categoryCode": "54", "address": "3698 MCCONNELL ROAD", "city": "HARROWSMITH", "province": "ON", "country": "CA", "postalCode": "K0H1V0", "twitter": "None", "instagram": "None", "facebook": "None", "youtube": "None", "website": "None", "summary": "None", "logo": "None", "latitude": 44.3711844804925, "longitude": -76.71073094149077}, "872390463RR0001": {"name": "THE ALASTAIR AND JENNIFER MURRAY FOUNDATION", "designationCode": "B", "categoryCode": "05", "address": "4 STRATH HUMBER COURT", "city": "ETOBICOKE", "province": "ON", "country": "CA", "postalCode": "M9A4C7", "twitter": "None", "instagram": "None", "facebook": "None", "youtube": "None", "website": "None", "summary": "None", "logo": "None", "latitude": 43.66150226008409, "longitude": -79.51700653303703}, "868048497RR0001": {"name": "THE ALBARRIE FOUNDATION", "designationCode": "B", "categoryCode": "55", "address": "85 MORROW ROAD", "city": "BARRIE", "province": "ON", "country": "CA", "postalCode": "L4N3V7", "twitter": "None", "instagram": "None", "facebook": "None", "youtube": "None", "website": "None", "summary": "None", "logo": "None", "latitude": 44.363102855963916, "longitude": -79.70362303993329}, "892601246RR0001": {"name": "THE ALBERNI VALLEY COMMUNITY FOUNDATION", "designationCode": "A", "categoryCode": "53", "address": "3100 KINGSWAY AVE", "city": "PORT ALBERNI", "province": "BC", "country": "CA", "postalCode": "V9Y3B1", "twitter": "None", "instagram": "None", "facebook": "None", "youtube": "None", "website": "None", "summary": "None", "logo": "None", "latitude": 49.234737285805764, "longitude": -124.81198978580576}, "821017274RR0001": {"name": "THE ALBERT & EGOSAH REICHMANN FAMILY FOUNDATION", "designationCode": "B", "categoryCode": "03", "address": "1 FIRST CANADIAN PLACE        SUITE 3300", "city": "TORONTO", "province": "ON", "country": "CA", "postalCode": "M5X1B1", "twitter": "None", "instagram": "None", "facebook": "None", "youtube": "None", "website": "None", "summary": "None", "logo": "None", "latitude": 43.648682740967025, "longitude": -79.38032587056271}, "890316078RR0001": {"name": "THE ALBERT ABRUM LAGER FOUNDATION", "designationCode": "B", "categoryCode": "05", "address": "1402 - 1 KING ST W", "city": "HAMILTON", "province": "ON", "country": "CA", "postalCode": "L8P1A4", "twitter": "None", "instagram": "None", "facebook": "None", "youtube": "None", "website": "None", "summary": "None", "logo": "None", "latitude": 43.26019321073324, "longitude": -79.88135629363086}, "888679073RR0001": {"name": "THE ALBERT AND PHYLLIS KIPNES FOUNDATION", "designationCode": "B", "categoryCode": "15", "address": "601 - 570 GRANVILLE ST", "city": "VANCOUVER", "province": "BC", "country": "CA", "postalCode": "V6C3P1", "twitter": "None", "instagram": "None", "facebook": "None", "youtube": "None", "website": "None", "summary": "None", "logo": "None", "latitude": 49.28389665332692, "longitude": -123.11594555978436}, "858042476RR0001": {"name": "THE ALBERT FRIEDLAND FOUNDATION", "designationCode": "B", "categoryCode": "03", "address": "654-999 CANADA PLACE", "city": "VANCOUVER", "province": "BC", "country": "CA", "postalCode": "V6C3E1", "twitter": "None", "instagram": "None", "facebook": "None", "youtube": "None", "website": "None", "summary": "None", "logo": "None", "latitude": 49.288056542222115, "longitude": -123.11484240492399}, "891044042RR0001": {"name": "THE ALBERTA & NORTHWEST CONFERENCE (THE UNITED CHURCH OF CANADA) HISTORICAL SOCIETY", "designationCode": "C", "categoryCode": "44", "address": "207 RHATIGAN RD W", "city": "EDMONTON", "province": "AB", "country": "CA", "postalCode": "T6R1A2", "twitter": "None", "instagram": "None", "facebook": "None", "youtube": "None", "website": "None", "summary": "None", "logo": "None", "latitude": 53.47719886262902, "longitude": -113.58518026354655}, "892269846RR0001": {"name": "THE ALBERTA AGRI-CULTURAL HOST FAMILY ASSOCIATION TRUST FUND", "designationCode": "C", "categoryCode": "21", "address": "BOX 26, SITE 12               RR2", "city": "CARSTAIRS", "province": "AB", "country": "CA", "postalCode": "T0M0N0", "twitter": "None", "instagram": "None", "facebook": "None", "youtube": "None", "website": "None", "summary": "None", "logo": "None", "latitude": 51.560341530977695, "longitude": -114.10000270523459}, "119211522RR0001": {"name": "THE ALBERTA ARMY CADET LEAGUE", "designationCode": "C", "categoryCode": "29", "address": "6102 32 AVE", "city": "CAMROSE", "province": "AB", "country": "CA", "postalCode": "T4V4R8", "twitter": "None", "instagram": "None", "facebook": "None", "youtube": "None", "website": "None", "summary": "None", "logo": "None", "latitude": 52.998474478215705, "longitude": -112.847240938802}, "888759347RR0001": {"name": "THE ALBERTA ASSOCIATION FOR MULTICULTURAL EDUCATION", "designationCode": "C", "categoryCode": "20", "address": "462 - 21 - 10405 JASPER AVE.", "city": "EDMONTON", "province": "AB", "country": "CA", "postalCode": "T5J3S2", "twitter": "None", "instagram": "None", "facebook": "None", "youtube": "None", "website": "None", "summary": "None", "logo": "None", "latitude": 53.5408984773503, "longitude": -113.50015297446477}, "132143413RR0001": {"name": "THE ALBERTA BAPTIST ASSOCIATION", "designationCode": "C", "categoryCode": "31", "address": "11525 23 AVENUE NW", "city": "EDMONTON", "province": "AB", "country": "CA", "postalCode": "T6J4T3", "twitter": "None", "instagram": "None", "facebook": "None", "youtube": "None", "website": "None", "summary": "None", "logo": "None", "latitude": 53.45376650822484, "longitude": -113.52726215361537}, "119211571RR0001": {"name": "THE ALBERTA BAROQUE MUSIC SOCIETY", "designationCode": "C", "categoryCode": "22", "address": "PO BOX 3316 STN MAIN", "city": "SHERWOOD PARK", "province": "AB", "country": "CA", "postalCode": "T8H2T2", "twitter": "None", "instagram": "None", "facebook": "None", "youtube": "None", "website": "None", "summary": "None", "logo": "None", "latitude": 53.52731700000005, "longitude": -113.29574299999993}, "119211589RR0001": {"name": "THE ALBERTA C G I T ASSOCIATION, (CANADIAN GIRLS IN TRAINING)", "designationCode": "C", "categoryCode": "29", "address": "5720 LODGE CRES SW", "city": "CALGARY", "province": "AB", "country": "CA", "postalCode": "T3E5Y7", "twitter": "None", "instagram": "None", "facebook": "None", "youtube": "None", "website": "None", "summary": "None", "logo": "None", "latitude": 51.0024080954758, "longitude": -114.13966399875926}, "126211036RR0001": {"name": "THE ALBERTA CAMPING ASSOCIATION", "designationCode": "C", "categoryCode": "56", "address": "11759 GROAT RD NW", "city": "EDMONTON", "province": "AB", "country": "CA", "postalCode": "T5M3K6", "twitter": "None", "instagram": "None", "facebook": "None", "youtube": "None", "website": "None", "summary": "None", "logo": "None", "latitude": 53.56974075240938, "longitude": -113.54923837596016}, "106692841RR0001": {"name": "THE ALBERTA CATHOLIC SCHOOL TRUSTEES' ASSOCIATION", "designationCode": "C", "categoryCode": "21", "address": "205-9940 106 ST", "city": "EDMONTON", "province": "AB", "country": "CA", "postalCode": "T5K2N2", "twitter": "None", "instagram": "None", "facebook": "None", "youtube": "None", "website": "None", "summary": "None", "logo": "None", "latitude": 53.53841700000001, "longitude": -113.50299819654883}, "106693351RR0001": {"name": "THE ALBERTA FISH AND GAME ASSOCIATION", "designationCode": "C", "categoryCode": "54", "address": "6924 104 ST NW", "city": "EDMONTON", "province": "AB", "country": "CA", "postalCode": "T6H2L7", "twitter": "None", "instagram": "None", "facebook": "None", "youtube": "None", "website": "None", "summary": "None", "logo": "None", "latitude": 53.505765, "longitude": -113.49777973261564}, "893344366RR0001": {"name": "THE ALBERTA HUNTER EDUCATION INSTRUCTORS ASSOCIATION", "designationCode": "C", "categoryCode": "29", "address": "911 SYLVESTER CRES SW", "city": "CALGARY", "province": "AB", "country": "CA", "postalCode": "T2W0R8", "twitter": "None", "instagram": "None", "facebook": "None", "youtube": "None", "website": "None", "summary": "None", "logo": "None"}, "119211662RR0001": {"name": "THE ALBERTA KNIGHTS OF COLUMBUS CHARITABLE FOUNDATION", "designationCode": "A", "categoryCode": "63", "address": "3119-44B AVENUE NW", "city": "EDMONTON", "province": "AB", "country": "CA", "postalCode": "T6T1G4", "twitter": "None", "instagram": "None", "facebook": "None", "youtube": "None", "website": "None", "summary": "None", "logo": "None", "latitude": 53.48486378625449, "longitude": -113.38955565681802}, "845858273RR0001": {"name": "THE ALBERTA LEAGUE ENCOURAGING STORYTELLING SOCIETY", "designationCode": "C", "categoryCode": "22", "address": "2308 - 34TH AVENUE N.W.", "city": "CALGARY", "province": "AB", "country": "CA", "postalCode": "T2L0V2", "twitter": "None", "instagram": "None", "facebook": "None", "youtube": "None", "website": "None", "summary": "None", "logo": "None", "latitude": 51.084819951728186, "longitude": -114.11420609951516}, "137692430RR0001": {"name": "THE ALBERTA LUNG FOUNDATION", "designationCode": "A", "categoryCode": "13", "address": "P.O. BOX 4500 STATION SOUTH", "city": "EDMONTON", "province": "AB", "country": "CA", "postalCode": "T6E6K2", "twitter": "None", "instagram": "None", "facebook": "None", "youtube": "None", "website": "None", "summary": "None", "logo": "None", "latitude": 53.499354000000054, "longitude": -113.46577549999994}, "133682781RR0001": {"name": "THE ALBERTA LYRIC THEATRE", "designationCode": "C", "categoryCode": "22", "address": "13711-109 AVENUE", "city": "EDMONTON", "province": "AB", "country": "CA", "postalCode": "T5M2G8", "twitter": "None", "instagram": "None", "facebook": "None", "youtube": "None", "website": "None", "summary": "None", "logo": "None", "latitude": 53.55448070327218, "longitude": -113.55923787633459}, "887967040RR0001": {"name": "THE ALBERTA MEDICAL FOUNDATION", "designationCode": "B", "categoryCode": "23", "address": "400 12230-106 AVENUE N.W.", "city": "EDMONTON", "province": "AB", "country": "CA", "postalCode": "T5N3Z1", "twitter": "None", "instagram": "None", "facebook": "None", "youtube": "None", "website": "None", "summary": "None", "logo": "None", "latitude": 53.5493565, "longitude": -113.53328549999999}, "119211696RR0001": {"name": "THE ALBERTA MUSIC FESTIVAL ASSOCIATION", "designationCode": "C", "categoryCode": "22", "address": "102 ASPEN RIDGE CRES", "city": "WETASKIWIN", "province": "AB", "country": "CA", "postalCode": "T9A3N7", "twitter": "None", "instagram": "None", "facebook": "None", "youtube": "None", "website": "None", "summary": "None", "logo": "None", "latitude": 52.98722851399404, "longitude": -113.359923}, "108070871RR0001": {"name": "THE ALBERTA NATIVE FRIENDSHIP CENTRES ASSOCIATION", "designationCode": "C", "categoryCode": "56", "address": "10336 121 STREET", "city": "EDMONTON", "province": "AB", "country": "CA", "postalCode": "T5N1K8", "twitter": "None", "instagram": "None", "facebook": "None", "youtube": "None", "website": "None", "summary": "None", "logo": "None", "latitude": 53.545653000000016, "longitude": -113.53096926536422}, "119211712RR0001": {"name": "THE ALBERTA PARAPLEGIC FOUNDATION", "designationCode": "A", "categoryCode": "13", "address": "400 - 11010 101 ST", "city": "EDMONTON", "province": "AB", "country": "CA", "postalCode": "T5H4B9", "twitter": "None", "instagram": "None", "facebook": "None", "youtube": "None", "website": "None", "summary": "None", "logo": "None", "latitude": 53.55741501526345, "longitude": -113.49377750452938}, "135031490RR0001": {"name": "THE ALBERTA PASTORAL CARE ASSOCIATION", "designationCode": "C", "categoryCode": "49", "address": "7102 14 AVE SW", "city": "CALGARY", "province": "AB", "country": "CA", "postalCode": "T3H4G7", "twitter": "None", "instagram": "None", "facebook": "None", "youtube": "None", "website": "None", "summary": "None", "logo": "None", "latitude": 51.045327283156574, "longitude": -114.1877232252074}, "118781061RR0001": {"name": "THE ALBERTA SAFETY COUNCIL", "designationCode": "C", "categoryCode": "59", "address": "4831 93 AVENUE", "city": "EDMONTON", "province": "AB", "country": "CA", "postalCode": "T6B3A2", "twitter": "None", "instagram": "None", "facebook": "None", "youtube": "None", "website": "None", "summary": "None", "logo": "None", "latitude": 53.530302491777036, "longitude": -113.413572}, "122554488RR0001": {"name": "THE ALBERTA SOCIETY FOR THE PREVENTION OF CRUELTY TO ANIMALS", "designationCode": "C", "categoryCode": "54", "address": "17904 - 118 AVENUE", "city": "EDMONTON", "province": "AB", "country": "CA", "postalCode": "T5S2W3", "twitter": "None", "instagram": "None", "facebook": "None", "youtube": "None", "website": "None", "summary": "None", "logo": "None", "latitude": 53.57048448990111, "longitude": -113.62904999999999}, "893807677RR0001": {"name": "THE ALBERTA SOCIETY OF ARTISTS", "designationCode": "C", "categoryCode": "22", "address": "CROSSROADS ART CENTRE         #305 - 1235 26TH AVE SE", "city": "CALGARY", "province": "AB", "country": "CA", "postalCode": "T2G1R7", "twitter": "None", "instagram": "None", "facebook": "None", "youtube": "None", "website": "None", "summary": "None", "logo": "None", "latitude": 51.030561491777036, "longitude": -114.0344415}, "118781236RR0001": {"name": "THE ALBERTA THEATRE PROJECTS SOCIETY", "designationCode": "C", "categoryCode": "22", "address": "220 9 AVE SE", "city": "CALGARY", "province": "AB", "country": "CA", "postalCode": "T2G5C4", "twitter": "None", "instagram": "None", "facebook": "None", "youtube": "None", "website": "None", "summary": "None", "logo": "None", "latitude": 51.044540467684115, "longitude": -114.0598405269202}, "888985199RR0001": {"name": "THE ALBERTA UNITED CHRISTIAN ASHRAM", "designationCode": "C", "categoryCode": "44", "address": "BOX 221", "city": "CASTOR", "province": "AB", "country": "CA", "postalCode": "T0C0X0", "twitter": "None", "instagram": "None", "facebook": "None", "youtube": "None", "website": "None", "summary": "None", "logo": "None", "latitude": 52.21792000000005, "longitude": -111.90889999999996}, "106695455RR0001": {"name": "THE ALBERTON HISTORICAL PRESERVATION FOUNDATION, INC.", "designationCode": "C", "categoryCode": "50", "address": "PO BOX 515", "city": "ALBERTON", "province": "PE", "country": "CA", "postalCode": "C0B1B0", "twitter": "None", "instagram": "None", "facebook": "None", "youtube": "None", "website": "None", "summary": "None", "logo": "None", "latitude": 46.813510000000065, "longitude": -64.06533999999994}, "119211803RR0001": {"name": "THE ALBRIGHT FOUNDATION", "designationCode": "A", "categoryCode": "03", "address": "5050 HILLSIDE DRIVE", "city": "BEAMSVILLE", "province": "ON", "country": "CA", "postalCode": "L0R1B2", "twitter": "None", "instagram": "None", "facebook": "None", "youtube": "None", "website": "None", "summary": "None", "logo": "None", "latitude": 43.15230149138879, "longitude": -79.47668210684644}, "891428542RR0001": {"name": "THE ALCUIN SOCIETY", "designationCode": "C", "categoryCode": "22", "address": "PO BOX 3216", "city": "VANCOUVER", "province": "BC", "country": "CA", "postalCode": "V6B3X8", "twitter": "None", "instagram": "None", "facebook": "None", "youtube": "None", "website": "None", "summary": "None", "logo": "None", "latitude": 49.28024400000005, "longitude": -123.11294749999993}, "119211811RR0001": {"name": "THE ALDEBURGH CONNECTION CONCERT SOCIETY", "designationCode": "C", "categoryCode": "22", "address": "74 FOLLIS AVE", "city": "TORONTO", "province": "ON", "country": "CA", "postalCode": "M6G1S6", "twitter": "None", "instagram": "None", "facebook": "None", "youtube": "None", "website": "None", "summary": "None", "logo": "None", "latitude": 43.66890011408611, "longitude": -79.41623699070917}, "875888109RR0001": {"name": "THE ALDER FLATS COMMUNITY BIBLE CHURCH", "designationCode": "C", "categoryCode": "45", "address": "P.O. BOX 266                  NE 33 45 7 W5", "city": "ALDER FLATS", "province": "AB", "country": "CA", "postalCode": "T0C0A0", "twitter": "None", "instagram": "None", "facebook": "None", "youtube": "None", "website": "None", "summary": "None", "logo": "None", "latitude": 52.93136400000006, "longitude": -114.96632299999993}}