{"887326106RR0001": {"name": "AURORA LEARNING FOUNDATION", "designationCode": "C", "categoryCode": "20", "address": "4528 55 AVE NW", "city": "EDMONTON", "province": "AB", "country": "CA", "postalCode": "T6B3S2", "twitter": "None", "instagram": "None", "facebook": "None", "youtube": "None", "website": "None", "summary": "None", "logo": "None", "latitude": 53.49197710040946, "longitude": -113.41062273969703}, "837835552RR0001": {"name": "AURORA LEARNING FOUNDATION (CALGARY)", "designationCode": "C", "categoryCode": "20", "address": "137 - 5305 MCCALL WAY NE", "city": "CALGARY", "province": "AB", "country": "CA", "postalCode": "T2E7N7", "twitter": "None", "instagram": "None", "facebook": "None", "youtube": "None", "website": "None", "summary": "None", "logo": "None", "latitude": 51.113893198689595, "longitude": -114.00164631937999}, "132259334RR0001": {"name": "AURORA LIVING WATER FAITH FELLOWSHIP INC", "designationCode": "C", "categoryCode": "39", "address": "1111 DAVIS DR.                P.O. BOX 93073", "city": "NEWMARKET", "province": "ON", "country": "CA", "postalCode": "L3Y8K3", "twitter": "None", "instagram": "None", "facebook": "None", "youtube": "None", "website": "None", "summary": "None", "logo": "None", "latitude": 44.06604516573349, "longitude": -79.43088971097555}, "106738529RR0001": {"name": "AURORA LUTHERAN BIBLE CAMP", "designationCode": "C", "categoryCode": "56", "address": "47 WALKOVER ST", "city": "THUNDER BAY", "province": "ON", "country": "CA", "postalCode": "P7B1L1", "twitter": "None", "instagram": "None", "facebook": "None", "youtube": "None", "website": "None", "summary": "None", "logo": "None", "latitude": 48.44500688359319, "longitude": -89.24993398314979}, "119288918RR0202": {"name": "AURORA ONTARIO CONGREGATION OF JEHOVAH'S WITNESSES", "designationCode": "C", "categoryCode": "61", "address": "313-147 WELLINGTON ST WEST", "city": "AURORA", "province": "ON", "country": "CA", "postalCode": "L4G3M1", "twitter": "None", "instagram": "None", "facebook": "None", "youtube": "None", "website": "None", "summary": "None", "logo": "None", "latitude": 43.99672753244015, "longitude": -79.48093497545797}, "118796754RR0001": {"name": "AURORA PUBLIC LIBRARY BOARD", "designationCode": "C", "categoryCode": "50", "address": "15145 YONGE STREET", "city": "AURORA", "province": "ON", "country": "CA", "postalCode": "L4G1M1", "twitter": "None", "instagram": "None", "facebook": "None", "youtube": "None", "website": "None", "summary": "None", "logo": "None", "latitude": 43.99709678657162, "longitude": -79.46689533288153}, "899152730RR0001": {"name": "AURORA SCHOOL LTD.", "designationCode": "C", "categoryCode": "20", "address": "12245-131 STREET", "city": "EDMONTON", "province": "AB", "country": "CA", "postalCode": "T5L1M8", "twitter": "None", "instagram": "None", "facebook": "None", "youtube": "None", "website": "None", "summary": "None", "logo": "None", "latitude": 53.57589225315919, "longitude": -113.54974626977989}, "857744544RR0001": {"name": "AURORA SENIORS ASSOCIATION", "designationCode": "C", "categoryCode": "09", "address": "90 JOHN WEST WAY BOX 1000", "city": "AURORA", "province": "ON", "country": "CA", "postalCode": "L4G6J1", "twitter": "None", "instagram": "None", "facebook": "None", "youtube": "None", "website": "None", "summary": "None", "logo": "None", "latitude": 44.00547382260089, "longitude": -79.45083626362765}, "106738594RR0001": {"name": "AURORA UNITED CHURCH", "designationCode": "C", "categoryCode": "44", "address": "15186 YONGE ST.", "city": "AURORA", "province": "ON", "country": "CA", "postalCode": "L4G1L9", "twitter": "None", "instagram": "None", "facebook": "None", "youtube": "None", "website": "None", "summary": "None", "logo": "None", "latitude": 43.9979894007733, "longitude": -79.46720783905569}, "118796788RR0001": {"name": "AUROVILLE INTERNATIONAL CANADA", "designationCode": "C", "categoryCode": "59", "address": "419 AV DULUTH E", "city": "MONTREAL", "province": "QC", "country": "CA", "postalCode": "H2L1A4", "twitter": "None", "instagram": "None", "facebook": "None", "youtube": "None", "website": "None", "summary": "None", "logo": "None", "latitude": 45.521035365254754, "longitude": -73.5756937954584}, "118796796RR0001": {"name": "AUSABLE BAYFIELD CONSERVATION FOUNDATION", "designationCode": "C", "categoryCode": "52", "address": "71108 MORRISON LINE           RR 3", "city": "EXETER", "province": "ON", "country": "CA", "postalCode": "N0M1S5", "twitter": "None", "instagram": "None", "facebook": "None", "youtube": "None", "website": "None", "summary": "None", "logo": "None", "latitude": 43.35814342281649, "longitude": -81.45720507378493}, "118796838RR0001": {"name": "AUSTIN & AREA LEISURE CLUB INC.", "designationCode": "C", "categoryCode": "56", "address": "BOX 422", "city": "AUSTIN", "province": "MB", "country": "CA", "postalCode": "R0H0C0", "twitter": "None", "instagram": "None", "facebook": "None", "youtube": "None", "website": "None", "summary": "None", "logo": "None", "latitude": 49.95037000000008, "longitude": -98.93634999999995}, "118796820RR0001": {"name": "AUSTIN AND DISTRICT COMMUNITY CLUB INC.", "designationCode": "C", "categoryCode": "56", "address": "P.O. BOX 105", "city": "AUSTIN", "province": "MB", "country": "CA", "postalCode": "R0H0C0", "twitter": "None", "instagram": "None", "facebook": "None", "youtube": "None", "website": "None", "summary": "None", "logo": "None", "latitude": 49.95037000000008, "longitude": -98.93634999999995}, "120222559RR0001": {"name": "AUSTIN CHRISTIAN ACADEMY INC", "designationCode": "C", "categoryCode": "20", "address": "BOX 460", "city": "AUSTIN", "province": "MB", "country": "CA", "postalCode": "R0H0C0", "twitter": "None", "instagram": "None", "facebook": "None", "youtube": "None", "website": "None", "summary": "None", "logo": "None", "latitude": 49.95037000000008, "longitude": -98.93634999999995}, "888766268RR0001": {"name": "AUSTIN MCC COMMUNITY ASSISTANCE CENTRE INC.", "designationCode": "A", "categoryCode": "03", "address": "BOX 801", "city": "MACGREGOR", "province": "MB", "country": "CA", "postalCode": "R0H0R0", "twitter": "None", "instagram": "None", "facebook": "None", "youtube": "None", "website": "None", "summary": "None", "logo": "None", "latitude": 49.965220000000045, "longitude": -98.77929999999998}, "898307574RR0001": {"name": "AUSTRIAN CANADIAN COUNCIL", "designationCode": "C", "categoryCode": "20", "address": "1391 CAVENDISH RD", "city": "OTTAWA", "province": "ON", "country": "CA", "postalCode": "K1H6B8", "twitter": "None", "instagram": "None", "facebook": "None", "youtube": "None", "website": "None", "summary": "None", "logo": "None", "latitude": 45.39198869248079, "longitude": -75.66487166801343}, "118796887RR0001": {"name": "AUSTRIAN SOCIETY TRUST FUND", "designationCode": "C", "categoryCode": "05", "address": "330 CAISSE #202", "city": "VERDUN", "province": "QC", "country": "CA", "postalCode": "H4G3H3", "twitter": "None", "instagram": "None", "facebook": "None", "youtube": "None", "website": "None", "summary": "None", "logo": "None", "latitude": 45.47059854227057, "longitude": -73.5668121633389}, "862472230RR0001": {"name": "AUTISM ASPERGERS FRIENDSHIP SOCIETY OF CALGARY", "designationCode": "C", "categoryCode": "01", "address": "D - 7220 FAIRMOUNT DR SE", "city": "CALGARY", "province": "AB", "country": "CA", "postalCode": "T2H0X7", "twitter": "None", "instagram": "None", "facebook": "None", "youtube": "None", "website": "None", "summary": "None", "logo": "None", "latitude": 50.98840296364474, "longitude": -114.06359485939771}, "141096701RR0001": {"name": "AUTISM CALGARY ASSOCIATION", "designationCode": "C", "categoryCode": "09", "address": "3639 26 ST NE", "city": "CALGARY", "province": "AB", "country": "CA", "postalCode": "T1Y5E1", "twitter": "None", "instagram": "None", "facebook": "None", "youtube": "None", "website": "None", "summary": "None", "logo": "None", "latitude": 51.08535928282072, "longitude": -113.99780718140096}, "813525797RR0001": {"name": "AUTISM HOME BASE DURHAM INC.", "designationCode": "C", "categoryCode": "11", "address": "1188 CHURCH STREET", "city": "NEWCASTLE", "province": "ON", "country": "CA", "postalCode": "L1B1C5", "twitter": "None", "instagram": "None", "facebook": "None", "youtube": "None", "website": "None", "summary": "None", "logo": "None", "latitude": 43.91461898528483, "longitude": -78.58881343952315}, "106738974RR0001": {"name": "AUTISM RESOURCE CENTRE INC.", "designationCode": "C", "categoryCode": "11", "address": "3663 SHERWOOD DRIVE", "city": "REGINA", "province": "SK", "country": "CA", "postalCode": "S4R4A7", "twitter": "None", "instagram": "None", "facebook": "None", "youtube": "None", "website": "None", "summary": "None", "logo": "None", "latitude": 50.47544377235298, "longitude": -104.6333808397315}, "131982068RR0001": {"name": "AUTISM SERVICES INCORPORATED OF WINDSOR AND ESSEX COUNTY", "designationCode": "C", "categoryCode": "01", "address": "3600 CURRY AVE", "city": "WINDSOR", "province": "ON", "country": "CA", "postalCode": "N9E2T6", "twitter": "None", "instagram": "None", "facebook": "None", "youtube": "None", "website": "None", "summary": "None", "logo": "None", "latitude": 42.25650199362336, "longitude": -83.0201922682211}, "891015190RR0001": {"name": "AUTISM SOCIETY ALBERTA", "designationCode": "C", "categoryCode": "11", "address": "3639 26 ST NE", "city": "CALGARY", "province": "AB", "country": "CA", "postalCode": "T1Y5E1", "twitter": "None", "instagram": "None", "facebook": "None", "youtube": "None", "website": "None", "summary": "None", "logo": "None", "latitude": 51.08535928282072, "longitude": -113.99780718140096}, "107810046RR0001": {"name": "AUTISM SOCIETY OF BRITISH COLUMBIA", "designationCode": "C", "categoryCode": "09", "address": "3688 CESSNA DRIVE", "city": "RICHMOND", "province": "BC", "country": "CA", "postalCode": "V6B1C7", "twitter": "None", "instagram": "None", "facebook": "None", "youtube": "None", "website": "None", "summary": "None", "logo": "None", "latitude": 49.18863071077123, "longitude": -123.14325526008224}, "890415821RR0001": {"name": "AUTISM SOCIETY OF CAPE BRETON", "designationCode": "C", "categoryCode": "11", "address": "28 HILLVIEW STREET", "city": "SYDNEY", "province": "NS", "country": "CA", "postalCode": "B1P2H4", "twitter": "None", "instagram": "None", "facebook": "None", "youtube": "None", "website": "None", "summary": "None", "logo": "None", "latitude": 46.13155138354795, "longitude": -60.179395377488426}, "107282055RR0001": {"name": "AUTISM SOCIETY OF EDMONTON AREA", "designationCode": "C", "categoryCode": "11", "address": "#101, 11720 - KINGSWAY AVENUE", "city": "EDMONTON", "province": "AB", "country": "CA", "postalCode": "T5G0X5", "twitter": "None", "instagram": "None", "facebook": "None", "youtube": "None", "website": "None", "summary": "None", "logo": "None", "latitude": 53.566864279790934, "longitude": -113.5216462453116}, "118796929RR0001": {"name": "AUTISM SOCIETY OF NEWFOUNDLAND AND LABRADOR INC.", "designationCode": "C", "categoryCode": "11", "address": "PO BOX 14078  STN A", "city": "ST. JOHN'S", "province": "NL", "country": "CA", "postalCode": "A1B4G8", "twitter": "None", "instagram": "None", "facebook": "None", "youtube": "None", "website": "None", "summary": "None", "logo": "None", "latitude": 47.56938900000006, "longitude": -52.78609699999993}, "119248789RR0001": {"name": "AUTISM SOCIETY ONTARIO", "designationCode": "C", "categoryCode": "11", "address": "1179A KING ST W STE 004", "city": "TORONTO", "province": "ON", "country": "CA", "postalCode": "M6K3C5", "twitter": "None", "instagram": "None", "facebook": "None", "youtube": "None", "website": "None", "summary": "None", "logo": "None", "latitude": 43.639351551153744, "longitude": -79.42495716994654}, "869420208RR0001": {"name": "AUTISM SPEAKS CANADA", "designationCode": "C", "categoryCode": "03", "address": "2450 VICTORIA PARK AVE", "city": "NORTH YORK", "province": "ON", "country": "CA", "postalCode": "M2J4A2", "twitter": "None", "instagram": "None", "facebook": "None", "youtube": "None", "website": "None", "summary": "None", "logo": "None", "latitude": 43.77144514181438, "longitude": -79.3214250933114}, "865269930RR0001": {"name": "AUTISM YUKON", "designationCode": "C", "categoryCode": "11", "address": "108 COPPER RD", "city": "WHITEHORSE", "province": "YT", "country": "CA", "postalCode": "Y1A2Z6", "twitter": "None", "instagram": "None", "facebook": "None", "youtube": "None", "website": "None", "summary": "None", "logo": "None", "latitude": 60.7385919081309, "longitude": -135.08025313627445}, "894399567RR0001": {"name": "AUTISM/PDD FAMILY ALLIANCE (ONTARIO)", "designationCode": "C", "categoryCode": "29", "address": "94 SYDENHAM STREET", "city": "DUNDAS", "province": "ON", "country": "CA", "postalCode": "L9H2V3", "twitter": "None", "instagram": "None", "facebook": "None", "youtube": "None", "website": "None", "summary": "None", "logo": "None", "latitude": 43.27164953482607, "longitude": -79.95655271207207}, "870582301RR0001": {"name": "AUTISME - CENTRE DU QUEBEC", "designationCode": "C", "categoryCode": "11", "address": "420 RTE MARIE-VICTORIN        CP 242", "city": "BAIE-DU-FEBVRE", "province": "QC", "country": "CA", "postalCode": "J0G1A0", "twitter": "None", "instagram": "None", "facebook": "None", "youtube": "None", "website": "None", "summary": "None", "logo": "None", "latitude": 46.14128915373094, "longitude": -72.71633798234197}, "891742850RR0001": {"name": "AUTISME MAURICIE", "designationCode": "C", "categoryCode": "09", "address": "2019 AV DES COOPERANTS", "city": "TROIS-RIVIERES", "province": "QC", "country": "CA", "postalCode": "G8Z2G4", "twitter": "None", "instagram": "None", "facebook": "None", "youtube": "None", "website": "None", "summary": "None", "logo": "None", "latitude": 46.34159144434192, "longitude": -72.56296030296024}, "895220887RR0001": {"name": "AUTISME QUEBEC ET CHAUDI\u00c8RE-APPALACHES", "designationCode": "C", "categoryCode": "09", "address": "1055 BOULEVARD DES CHUTES", "city": "QUEBEC", "province": "QC", "country": "CA", "postalCode": "G1E2E9", "twitter": "None", "instagram": "None", "facebook": "None", "youtube": "None", "website": "None", "summary": "None", "logo": "None", "latitude": 46.86935481490546, "longitude": -71.17661022791243}, "883175416RR0001": {"name": "AUTISME SANS LIMITES / AUTISM WITHOUT LIMITS", "designationCode": "C", "categoryCode": "11", "address": "CP 666 SUCC BUREAU-CHEF", "city": "SAINT-JEAN-SUR-RICHELIEU", "province": "QC", "country": "CA", "postalCode": "J3B6Z8", "twitter": "None", "instagram": "None", "facebook": "None", "youtube": "None", "website": "None", "summary": "None", "logo": "None", "latitude": 45.30610500000006, "longitude": -73.25031049999993}, "107453441RR0001": {"name": "AUTO-PSY (REGION DE QUEBEC)", "designationCode": "C", "categoryCode": "59", "address": "362, CH. DE LA CANARDI\u00c8RE", "city": "QU\u00c9BEC", "province": "QC", "country": "CA", "postalCode": "G1L2V2", "twitter": "None", "instagram": "None", "facebook": "None", "youtube": "None", "website": "None", "summary": "None", "logo": "None", "latitude": 46.8251292156501, "longitude": -71.22693494904512}, "894695006RR0001": {"name": "AUTONOMIE JEUNESSE INC.", "designationCode": "C", "categoryCode": "09", "address": "1171 NOTRE DAME .O.", "city": "VICTORIAVILLE", "province": "QC", "country": "CA", "postalCode": "G6P7L1", "twitter": "None", "instagram": "None", "facebook": "None", "youtube": "None", "website": "None", "summary": "None", "logo": "None", "latitude": 46.05238968884547, "longitude": -71.99770605369618}, "861270940RR0001": {"name": "AUTOUR DE LA FLUTE", "designationCode": "C", "categoryCode": "22", "address": "4028 MARLOWE AVENUE", "city": "MONTREAL", "province": "QC", "country": "CA", "postalCode": "H4A3M2", "twitter": "None", "instagram": "None", "facebook": "None", "youtube": "None", "website": "None", "summary": "None", "logo": "None", "latitude": 45.478541756852806, "longitude": -73.61489510756523}, "871544029RR0001": {"name": "AUTOUR DE LA TABLE", "designationCode": "C", "categoryCode": "29", "address": "3518 RUE GERTRUDE", "city": "MONTREAL", "province": "QC", "country": "CA", "postalCode": "H4G1R3", "twitter": "None", "instagram": "None", "facebook": "None", "youtube": "None", "website": "None", "summary": "None", "logo": "None", "latitude": 45.4684298731606, "longitude": -73.56866251967818}, "830881322RR0001": {"name": "AUTOUR DU BEBE, CARREFOUR PERINATAL D'AHUNTSIC", "designationCode": "C", "categoryCode": "09", "address": "10780 LAVERDURE, #101", "city": "MONTR\u00c9AL", "province": "QC", "country": "CA", "postalCode": "H3L2L9", "twitter": "None", "instagram": "None", "facebook": "None", "youtube": "None", "website": "None", "summary": "None", "logo": "None", "latitude": 45.55253309351391, "longitude": -73.67173931738695}, "133081042RR0001": {"name": "AUTUMN HOUSE INC", "designationCode": "C", "categoryCode": "01", "address": "100-790 WELLINGTON AVENUE", "city": "WINNIPEG", "province": "MB", "country": "CA", "postalCode": "R3E3K9", "twitter": "None", "instagram": "None", "facebook": "None", "youtube": "None", "website": "None", "summary": "None", "logo": "None", "latitude": 49.90023000000001, "longitude": -97.16768099999999}, "848456620RR0001": {"name": "AUTUMN HOUSE INDEPENDENT LIVING FACILITY INC.", "designationCode": "C", "categoryCode": "09", "address": "PO BOX 630", "city": "GULL LAKE", "province": "SK", "country": "CA", "postalCode": "S0N1A0", "twitter": "None", "instagram": "None", "facebook": "None", "youtube": "None", "website": "None", "summary": "None", "logo": "None", "latitude": 50.09796000000006, "longitude": -108.48363999999998}, "100356047RR0001": {"name": "AUVIDEC INC.", "designationCode": "C", "categoryCode": "49", "address": "1340 BOUL ST-JOSEPH EST       3E ETAGE", "city": "MONTREAL", "province": "QC", "country": "CA", "postalCode": "H2J1M3", "twitter": "None", "instagram": "None", "facebook": "None", "youtube": "None", "website": "None", "summary": "None", "logo": "None", "latitude": 45.53273500998332, "longitude": -73.58173038799134}, "800974818RR0001": {"name": "AUX COULEURS DE LA VIE LANAUDI\u00c8RE", "designationCode": "C", "categoryCode": "11", "address": "144 ST-JOSEPH", "city": "JOLIETTE", "province": "QC", "country": "CA", "postalCode": "J6E5C4", "twitter": "None", "instagram": "None", "facebook": "None", "youtube": "None", "website": "None", "summary": "None", "logo": "None", "latitude": 46.026606530122855, "longitude": -73.44158207325879}, "135803476RR0001": {"name": "AUX QUATRE VENTS, GROUPE D'ENTRAIDE POUR PERSONNES EN DIFFICULTE PSYCHOLOGIQUE OU PSYCHIATRIQUE", "designationCode": "C", "categoryCode": "09", "address": "220 RUE SAINT-JOSEPH", "city": "LEVIS", "province": "QC", "country": "CA", "postalCode": "G6V1C9", "twitter": "None", "instagram": "None", "facebook": "None", "youtube": "None", "website": "None", "summary": "None", "logo": "None", "latitude": 46.82417983596861, "longitude": -71.16799719525076}, "823144274RR0001": {"name": "AUX SOURCES DU BASSIN DE CHAMBLY", "designationCode": "C", "categoryCode": "09", "address": "1369 AV BOURGOGNE", "city": "CHAMBLY", "province": "QC", "country": "CA", "postalCode": "J3L1Y4", "twitter": "None", "instagram": "None", "facebook": "None", "youtube": "None", "website": "None", "summary": "None", "logo": "None", "latitude": 45.451347620606974, "longitude": -73.29678177627117}, "867986093RR0001": {"name": "AUX TROIS M\u00c2TS", "designationCode": "C", "categoryCode": "57", "address": "180 EVECHE OUEST LOCAL 94", "city": "RIMOUSKI", "province": "QC", "country": "CA", "postalCode": "G5L4H9", "twitter": "None", "instagram": "None", "facebook": "None", "youtube": "None", "website": "None", "summary": "None", "logo": "None", "latitude": 48.444573928126204, "longitude": -68.53098888579831}, "104213699RR0001": {"name": "AUX TROIS PIVOTS", "designationCode": "C", "categoryCode": "09", "address": "543 RUE LAVIOLETTE", "city": "TROIS-RIVIERES", "province": "QC", "country": "CA", "postalCode": "G9A1V4", "twitter": "None", "instagram": "None", "facebook": "None", "youtube": "None", "website": "None", "summary": "None", "logo": "None", "latitude": 46.34636609657233, "longitude": -72.54272226744169}, "868218801RR0001": {"name": "AUX TROUVAILLES DE MANDEVILLE", "designationCode": "C", "categoryCode": "09", "address": "80 RUE ST-CHARLES BORROMEE", "city": "MANDEVILLE", "province": "QC", "country": "CA", "postalCode": "J0K1L0", "twitter": "None", "instagram": "None", "facebook": "None", "youtube": "None", "website": "None", "summary": "None", "logo": "None", "latitude": 46.361221303075794, "longitude": -73.3547845617749}, "118796960RR0001": {"name": "AUXILIAIRE DU CENTRE HOSPITALIER GERIATRIQUE MAIMONIDES AUXILIARY MAIMONIDES HOSPITAL GERIATIC CENTRE", "designationCode": "A", "categoryCode": "19", "address": "5795 CALDWELL", "city": "COTE ST. LUC", "province": "QC", "country": "CA", "postalCode": "H4W1W3", "twitter": "None", "instagram": "None", "facebook": "None", "youtube": "None", "website": "None", "summary": "None", "logo": "None", "latitude": 45.4704915745282, "longitude": -73.66721109824576}, "100356476RR0001": {"name": "AUXILIAIRES BENEVOLES DE L'HOTEL DIEU DE MONTREAL", "designationCode": "C", "categoryCode": "19", "address": "3840 RUE SAINT-URBAIN", "city": "MONTREAL", "province": "QC", "country": "CA", "postalCode": "H2W1T8", "twitter": "None", "instagram": "None", "facebook": "None", "youtube": "None", "website": "None", "summary": "None", "logo": "None", "latitude": 45.51443975238073, "longitude": -73.57764570306969}, "890562044RR0001": {"name": "AUXILIARY OF DEER LODGE CENTRE", "designationCode": "C", "categoryCode": "19", "address": "2109 PORTAGE AVE              BOX DEER LODGE", "city": "WINNIPEG", "province": "MB", "country": "CA", "postalCode": "R3J0L3", "twitter": "None", "instagram": "None", "facebook": "None", "youtube": "None", "website": "None", "summary": "None", "logo": "None", "latitude": 49.877290418344415, "longitude": -97.23539480365272}, "118797018RR0001": {"name": "AUXILIARY OF DOUGLAS HOSPITAL - HOPITAL DOUGLAS", "designationCode": "C", "categoryCode": "19", "address": "6875 LASALLE BLVD.", "city": "VERDUN", "province": "QC", "country": "CA", "postalCode": "H4H1R3", "twitter": "None", "instagram": "None", "facebook": "None", "youtube": "None", "website": "None", "summary": "None", "logo": "None", "latitude": 45.44093910547881, "longitude": -73.57937923037674}, "118797026RR0001": {"name": "AUXILIARY OF NORVIEW", "designationCode": "C", "categoryCode": "09", "address": "44 ROB BLAKE WAY", "city": "SIMCOE", "province": "ON", "country": "CA", "postalCode": "N3Y0E3", "twitter": "None", "instagram": "None", "facebook": "None", "youtube": "None", "website": "None", "summary": "None", "logo": "None", "latitude": 42.838487025535215, "longitude": -80.33343777768481}, "125510537RR0001": {"name": "AUXILIARY OF ST MARY'S HOSPITAL", "designationCode": "C", "categoryCode": "19", "address": "3830 LACOMBE AVENUE", "city": "MONTREAL", "province": "QC", "country": "CA", "postalCode": "H3T1M5", "twitter": "None", "instagram": "None", "facebook": "None", "youtube": "None", "website": "None", "summary": "None", "logo": "None", "latitude": 45.49535567332221, "longitude": -73.62466873284677}, "882708811RR0001": {"name": "AUXILIARY OF ST.PATRICK'S MERCY HOME INC.", "designationCode": "C", "categoryCode": "19", "address": "5 DARTMOUTH PLACE", "city": "ST.JOHN'S", "province": "NL", "country": "CA", "postalCode": "A1B2W1", "twitter": "None", "instagram": "None", "facebook": "None", "youtube": "None", "website": "None", "summary": "None", "logo": "None", "latitude": 47.576681454902165, "longitude": -52.72335749988443}, "118797091RR0001": {"name": "AUXILIARY OF THE ST. ANDREW'S PRESBYTERIAN HOMES INC.", "designationCode": "C", "categoryCode": "09", "address": "701-6550 SHERBROOKE ST. W.", "city": "MONTREAL", "province": "QC", "country": "CA", "postalCode": "H4B1N6", "twitter": "None", "instagram": "None", "facebook": "None", "youtube": "None", "website": "None", "summary": "None", "logo": "None", "latitude": 45.4634971831613, "longitude": -73.62930862112658}, "130428220RR0001": {"name": "AUXILIARY TO BURNABY HOSPITAL", "designationCode": "C", "categoryCode": "19", "address": "3935 KINCAID ST", "city": "BURNABY", "province": "BC", "country": "CA", "postalCode": "V5G2X6", "twitter": "None", "instagram": "None", "facebook": "None", "youtube": "None", "website": "None", "summary": "None", "logo": "None", "latitude": 49.24884571455207, "longitude": -123.01665123393398}, "889291795RR0001": {"name": "AUXILIARY TO CENTRE GREY GENERAL HOSPITAL", "designationCode": "C", "categoryCode": "19", "address": "55 ISLA ST.", "city": "MARKDALE", "province": "ON", "country": "CA", "postalCode": "N0C1H0", "twitter": "None", "instagram": "None", "facebook": "None", "youtube": "None", "website": "None", "summary": "None", "logo": "None", "latitude": 44.31760806992337, "longitude": -80.6508448228706}, "118797117RR0001": {"name": "AUXILIARY TO CLINTON PUBLIC HOSPITAL", "designationCode": "C", "categoryCode": "19", "address": "34541 MILL ROAD               RR1", "city": "BAYFIELD", "province": "ON", "country": "CA", "postalCode": "N0M1G0", "twitter": "None", "instagram": "None", "facebook": "None", "youtube": "None", "website": "None", "summary": "None", "logo": "None", "latitude": 43.556136039119664, "longitude": -81.68822382513834}, "133583070RR0001": {"name": "AUXILIARY TO ENGLEHART & DISTRICT HOSPITAL", "designationCode": "C", "categoryCode": "19", "address": "PO BOX 233", "city": "ENGLEHART", "province": "ON", "country": "CA", "postalCode": "P0J1H0", "twitter": "None", "instagram": "None", "facebook": "None", "youtube": "None", "website": "None", "summary": "None", "logo": "None", "latitude": 47.81686000000008, "longitude": -79.86639999999994}, "118797141RR0001": {"name": "AUXILIARY TO FOUR COUNTIES HEALTH SERVICES", "designationCode": "C", "categoryCode": "15", "address": "1824 CONCESSION DRIVE", "city": "NEWBURY", "province": "ON", "country": "CA", "postalCode": "N0L1Z0", "twitter": "None", "instagram": "None", "facebook": "None", "youtube": "None", "website": "None", "summary": "None", "logo": "None", "latitude": 42.682423958268835, "longitude": -81.78890193124474}, "883058976RR0001": {"name": "AUXILIARY TO FRASER CANYON HOSPITAL & FRASER HOPE LODGE", "designationCode": "C", "categoryCode": "19", "address": "P.O. BOX 933", "city": "HOPE", "province": "BC", "country": "CA", "postalCode": "V0X1L0", "twitter": "None", "instagram": "None", "facebook": "None", "youtube": "None", "website": "None", "summary": "None", "logo": "None", "latitude": 49.37911800000006, "longitude": -121.44296149999994}, "892652561RR0001": {"name": "AUXILIARY TO G R BAKER MEMORIAL HOSPITAL", "designationCode": "A", "categoryCode": "13", "address": "460 REID ST", "city": "QUESNEL", "province": "BC", "country": "CA", "postalCode": "V2J2M6", "twitter": "None", "instagram": "None", "facebook": "None", "youtube": "None", "website": "None", "summary": "None", "logo": "None", "latitude": 52.9798524723873, "longitude": -122.49698615800146}, "888930591RR0001": {"name": "AUXILIARY TO LAKERIDGE HEALTH PORT PERRY", "designationCode": "C", "categoryCode": "19", "address": "451 PAXTON ST", "city": "PORT PERRY", "province": "ON", "country": "CA", "postalCode": "L9L1L9", "twitter": "None", "instagram": "None", "facebook": "None", "youtube": "None", "website": "None", "summary": "None", "logo": "None", "latitude": 44.10472097675289, "longitude": -78.95374950180265}, "890210578RR0001": {"name": "AUXILIARY TO MANITOU LODGE", "designationCode": "C", "categoryCode": "09", "address": "P.O. BOX 24", "city": "WATROUS", "province": "SK", "country": "CA", "postalCode": "S0K4T0", "twitter": "None", "instagram": "None", "facebook": "None", "youtube": "None", "website": "None", "summary": "None", "logo": "None", "latitude": 51.719579978192066, "longitude": -105.4459035}, "119459725RR0001": {"name": "AUXILIARY TO RIDGE MEADOWS HOSPITAL & HEALTH CARE CENTRE", "designationCode": "C", "categoryCode": "19", "address": "22377 DEWDNEY TRUNK RD", "city": "MAPLE RIDGE", "province": "BC", "country": "CA", "postalCode": "V2X3J4", "twitter": "None", "instagram": "None", "facebook": "None", "youtube": "None", "website": "None", "summary": "None", "logo": "None", "latitude": 49.2205737764454, "longitude": -122.60226297279917}, "864797881RR0001": {"name": "AUXILIARY TO ST. JOSEPH'S CARE GROUP", "designationCode": "C", "categoryCode": "19", "address": "PO BOX 3251 STN P", "city": "THUNDER BAY", "province": "ON", "country": "CA", "postalCode": "P7B5G7", "twitter": "None", "instagram": "None", "facebook": "None", "youtube": "None", "website": "None", "summary": "None", "logo": "None", "latitude": 48.38168400000005, "longitude": -89.24550199999993}, "118797075RR0001": {"name": "AUXILIARY TO THE ABBOTSFORD REGIONAL HOSPITAL", "designationCode": "C", "categoryCode": "19", "address": "32900 MARSHALL ROAD", "city": "ABBOTSFORD", "province": "BC", "country": "CA", "postalCode": "V2S0C2", "twitter": "None", "instagram": "None", "facebook": "None", "youtube": "None", "website": "None", "summary": "None", "logo": "None", "latitude": 49.03815047013695, "longitude": -122.3128527485429}, "131469181RR0001": {"name": "AUXILIARY TO THE COWICHAN DISTRICT HOSPITAL", "designationCode": "C", "categoryCode": "19", "address": "2154E SHAWNIGAN LAKE RD", "city": "SHAWNIGAN LAKE", "province": "BC", "country": "CA", "postalCode": "V0R2W5", "twitter": "None", "instagram": "None", "facebook": "None", "youtube": "None", "website": "None", "summary": "None", "logo": "None", "latitude": 48.62771655294385, "longitude": -123.63330774784015}, "863555967RR0001": {"name": "AUXILIARY TO THE ESTEVAN REGIONAL NURSING HOME", "designationCode": "C", "categoryCode": "19", "address": "1921 WELLOCK ROAD", "city": "ESTEVAN", "province": "SK", "country": "CA", "postalCode": "S4A2B5", "twitter": "None", "instagram": "None", "facebook": "None", "youtube": "None", "website": "None", "summary": "None", "logo": "None", "latitude": 49.154249336887666, "longitude": -102.9940004874488}, "862711967RR0001": {"name": "AUXILIARY TO THE GREAT WAR MEMORIAL HOSPITAL OF PERTH DISTRICT", "designationCode": "C", "categoryCode": "19", "address": "33 DRUMMOND STREET WEST", "city": "PERTH", "province": "ON", "country": "CA", "postalCode": "K7H3E3", "twitter": "None", "instagram": "None", "facebook": "None", "youtube": "None", "website": "None", "summary": "None", "logo": "None", "latitude": 44.905028621587554, "longitude": -76.25303835550673}, "865566137RR0003": {"name": "AUXILIARY TO THE HANNA GENERAL HOSPITAL", "designationCode": "C", "categoryCode": "19", "address": "P. O. BOX 23", "city": "HANNA", "province": "AB", "country": "CA", "postalCode": "T0J1P0", "twitter": "None", "instagram": "None", "facebook": "None", "youtube": "None", "website": "None", "summary": "None", "logo": "None", "latitude": 51.64780345530559, "longitude": -111.93814762829588}, "118797232RR0001": {"name": "AUXILIARY TO THE HERB BASSETT HOME", "designationCode": "C", "categoryCode": "19", "address": "PO BOX 2352", "city": "PRINCE ALBERT", "province": "SK", "country": "CA", "postalCode": "S6V6Z1", "twitter": "None", "instagram": "None", "facebook": "None", "youtube": "None", "website": "None", "summary": "None", "logo": "None", "latitude": 53.199456000000055, "longitude": -105.74863099999993}, "889858999RR0001": {"name": "AUXILIARY TO THE KAMSACK HOSPITAL", "designationCode": "A", "categoryCode": "15", "address": "PO BOX 221", "city": "KAMSACK", "province": "SK", "country": "CA", "postalCode": "S0A1S0", "twitter": "None", "instagram": "None", "facebook": "None", "youtube": "None", "website": "None", "summary": "None", "logo": "None", "latitude": 51.63817289172365, "longitude": -101.65758543154911}, "118797273RR0001": {"name": "AUXILIARY TO THE OVERLANDER EXTENDED CARE HOSPITAL", "designationCode": "C", "categoryCode": "11", "address": "953 SOUTHILL ST", "city": "KAMLOOPS", "province": "BC", "country": "CA", "postalCode": "V2B7Z9", "twitter": "None", "instagram": "None", "facebook": "None", "youtube": "None", "website": "None", "summary": "None", "logo": "None", "latitude": 50.703550795169946, "longitude": -120.39769728486951}, "891049249RR0001": {"name": "AUXILIARY TO THE PENTICTON REGIONAL HOSPITAL SOCIETY", "designationCode": "A", "categoryCode": "13", "address": "550 CARMI AVE", "city": "PENTICTON", "province": "BC", "country": "CA", "postalCode": "V2A3G6", "twitter": "None", "instagram": "None", "facebook": "None", "youtube": "None", "website": "None", "summary": "None", "logo": "None", "latitude": 49.48263050346246, "longitude": -119.5783335}, "890610249RR0001": {"name": "AUXILIARY TO THE WILLOW CREEK CONTINUING CARE CENTRE", "designationCode": "C", "categoryCode": "19", "address": "PO BOX 2305", "city": "CLARESHOLM", "province": "AB", "country": "CA", "postalCode": "T0L0T0", "twitter": "None", "instagram": "None", "facebook": "None", "youtube": "None", "website": "None", "summary": "None", "logo": "None", "latitude": 50.026080000000036, "longitude": -113.58213999999998}, "119302123RR0001": {"name": "AUXILIARY TO WOODSTOCK GENERAL HOSPITAL", "designationCode": "C", "categoryCode": "19", "address": "310 JULIANA DR", "city": "WOODSTOCK", "province": "ON", "country": "CA", "postalCode": "N4V0A4", "twitter": "None", "instagram": "None", "facebook": "None", "youtube": "None", "website": "None", "summary": "None", "logo": "None", "latitude": 43.10864965609687, "longitude": -80.75387677531887}, "106739550RR0001": {"name": "AVALON ALLIANCE CHURCH", "designationCode": "C", "categoryCode": "39", "address": "413 CASCADE ST", "city": "SASKATOON", "province": "SK", "country": "CA", "postalCode": "S7J0M6", "twitter": "None", "instagram": "None", "facebook": "None", "youtube": "None", "website": "None", "summary": "None", "logo": "None", "latitude": 52.097332325581256, "longitude": -106.6585483909342}, "118797356RR0001": {"name": "AVALON ARENA ASSOCIATION", "designationCode": "C", "categoryCode": "56", "address": "PO BOX 7266", "city": "ST JOHN'S", "province": "NL", "country": "CA", "postalCode": "A1E3Y4", "twitter": "None", "instagram": "None", "facebook": "None", "youtube": "None", "website": "None", "summary": "None", "logo": "None", "latitude": 47.56082100000006, "longitude": -52.71219349999993}, "119146363RR0001": {"name": "AVALON CENTRE SOCIETY", "designationCode": "C", "categoryCode": "09", "address": "1526 DRESDEN ROW              4TH FLOOR", "city": "HALIFAX", "province": "NS", "country": "CA", "postalCode": "B3J3K3", "twitter": "None", "instagram": "None", "facebook": "None", "youtube": "None", "website": "None", "summary": "None", "logo": "None", "latitude": 44.64339306327547, "longitude": -63.578185002106125}, "897921151RR0001": {"name": "AVALON RECOVERY SOCIETY", "designationCode": "C", "categoryCode": "57", "address": "5957 WEST BOULEVARD", "city": "VANCOUVER", "province": "BC", "country": "CA", "postalCode": "V6M3X1", "twitter": "None", "instagram": "None", "facebook": "None", "youtube": "None", "website": "None", "summary": "None", "logo": "None", "latitude": 49.23222063205228, "longitude": -123.15573467198722}, "118942564RR0001": {"name": "AVANT MINISTRIES CANADA", "designationCode": "C", "categoryCode": "47", "address": "2121 HENDERSON HWY", "city": "WINNIPEG", "province": "MB", "country": "CA", "postalCode": "R2G1P8", "twitter": "None", "instagram": "None", "facebook": "None", "youtube": "None", "website": "None", "summary": "None", "logo": "None", "latitude": 49.96003488646215, "longitude": -97.06829625044749}, "834194268RR0001": {"name": "AVANT TOUT, LES ENFANTS / CHILDREN NOW", "designationCode": "C", "categoryCode": "09", "address": "5167 JEAN - TALON EST         SUITE 260", "city": "MONTR\u00c9AL", "province": "QC", "country": "CA", "postalCode": "H1S1K8", "twitter": "None", "instagram": "None", "facebook": "None", "youtube": "None", "website": "None", "summary": "None", "logo": "None", "latitude": 45.57741194116793, "longitude": -73.58310381129877}, "107591851RR0001": {"name": "AVATIL", "designationCode": "C", "categoryCode": "11", "address": "387 AV 40E", "city": "LACHINE", "province": "QC", "country": "CA", "postalCode": "H8T2E7", "twitter": "None", "instagram": "None", "facebook": "None", "youtube": "None", "website": "None", "summary": "None", "logo": "None", "latitude": 45.43969213988115, "longitude": -73.70104128812947}, "886970672RR0001": {"name": "AVC-Aphasie Laval", "designationCode": "C", "categoryCode": "11", "address": "3350 BOUL. DAGENAIS OUEST", "city": "LAVAL", "province": "QC", "country": "CA", "postalCode": "H7P1V6", "twitter": "None", "instagram": "None", "facebook": "None", "youtube": "None", "website": "None", "summary": "None", "logo": "None", "latitude": 45.57894881652157, "longitude": -73.80487418705644}, "125586990RR0001": {"name": "AVE MARIA CENTRE OF PEACE INC.", "designationCode": "C", "categoryCode": "38", "address": "PO BOX 489  STATION U", "city": "TORONTO", "province": "ON", "country": "CA", "postalCode": "M8Z5Y8", "twitter": "None", "instagram": "None", "facebook": "None", "youtube": "None", "website": "None", "summary": "None", "logo": "None", "latitude": 43.64439900000005, "longitude": -79.56714049999994}, "838065910RR0001": {"name": "AVEC Association de Volontaires Engag\u00e9s aupr\u00e8s de Contrevants Les Samaritains engag\u00e9s", "designationCode": "C", "categoryCode": "59", "address": "4654 DES CHANTERELLES", "city": "SHERBROOKE", "province": "QC", "country": "CA", "postalCode": "J1N4L3", "twitter": "None", "instagram": "None", "facebook": "None", "youtube": "None", "website": "None", "summary": "None", "logo": "None", "latitude": 45.367150201223374, "longitude": -71.97638978132014}, "129975082RR0001": {"name": "AVEC DES ELLES INC", "designationCode": "C", "categoryCode": "01", "address": "158, RUE MARCEL", "city": "SAINT-GABRIEL-DE-BRANDON", "province": "QC", "country": "CA", "postalCode": "J0K2N0", "twitter": "None", "instagram": "None", "facebook": "None", "youtube": "None", "website": "None", "summary": "None", "logo": "None", "latitude": 46.290644110450785, "longitude": -73.37794857395129}, "863579553RR0001": {"name": "AVEC L'AMOUR DES CHEVAUX", "designationCode": "C", "categoryCode": "56", "address": "3513, RUE DU BARRAGE          NO.101", "city": "LAVAL", "province": "QC", "country": "CA", "postalCode": "H7E5A7", "twitter": "None", "instagram": "None", "facebook": "None", "youtube": "None", "website": "None", "summary": "None", "logo": "None", "latitude": 45.59266452123605, "longitude": -73.65594811547109}, "869643502RR0001": {"name": "AVENTA NEW MUSIC SOCIETY", "designationCode": "C", "categoryCode": "22", "address": "2161 FLORENCE ST", "city": "VICTORIA", "province": "BC", "country": "CA", "postalCode": "V8R5E7", "twitter": "None", "instagram": "None", "facebook": "None", "youtube": "None", "website": "None", "summary": "None", "logo": "None", "latitude": 48.43279001192705, "longitude": -123.32092264325908}, "129199634RR0001": {"name": "AVENTA TREATMENT FOUNDATION FOR WOMEN", "designationCode": "C", "categoryCode": "01", "address": "610 25 AVENUE SW", "city": "CALGARY", "province": "AB", "country": "CA", "postalCode": "T2S0L6", "twitter": "None", "instagram": "None", "facebook": "None", "youtube": "None", "website": "None", "summary": "None", "logo": "None", "latitude": 51.03059250043269, "longitude": -114.07399238773155}, "850979360RR0001": {"name": "AVENTURE MURDOCHVILLE", "designationCode": "C", "categoryCode": "09", "address": "640, AVENUE DES PIONNI\u00c8RES    C.P. 910", "city": "MURDOCHVILLE", "province": "QC", "country": "CA", "postalCode": "G0E1W0", "twitter": "None", "instagram": "None", "facebook": "None", "youtube": "None", "website": "None", "summary": "None", "logo": "None", "latitude": 48.962762632812016, "longitude": -65.49354820105049}, "118847656RR0001": {"name": "AVENUE DES JEUNES", "designationCode": "C", "categoryCode": "59", "address": "CP 82130 GR\u00c9BER", "city": "GATINEAU", "province": "QC", "country": "CA", "postalCode": "J8T3P8", "twitter": "None", "instagram": "None", "facebook": "None", "youtube": "None", "website": "None", "summary": "None", "logo": "None", "latitude": 45.48200664942165, "longitude": -75.7016049586335}, "106739907RR0001": {"name": "AVENUE II COMMUNITY PROGRAM SERVICES (THUNDER BAY) INC.", "designationCode": "C", "categoryCode": "59", "address": "122 S CUMBERLAND ST", "city": "THUNDER BAY", "province": "ON", "country": "CA", "postalCode": "P7B5R8", "twitter": "None", "instagram": "None", "facebook": "None", "youtube": "None", "website": "None", "summary": "None", "logo": "None", "latitude": 48.43079182737028, "longitude": -89.22356394578422}, "857079503RR0001": {"name": "AVENUE ROAD BAPTIST CHURCH", "designationCode": "C", "categoryCode": "31", "address": "465 AVENUE ROAD RR#3", "city": "CAMBRIDGE", "province": "ON", "country": "CA", "postalCode": "N1R5S4", "twitter": "None", "instagram": "None", "facebook": "None", "youtube": "None", "website": "None", "summary": "None", "logo": "None", "latitude": 43.38242102695407, "longitude": -80.28846581628802}, "853096238RR0001": {"name": "AVERBACH FAMILY FOUNDATION", "designationCode": "B", "categoryCode": "03", "address": "800-1030 WEST GEORGIA STREET", "city": "VANCOUVER", "province": "BC", "country": "CA", "postalCode": "V6E3B9", "twitter": "None", "instagram": "None", "facebook": "None", "youtube": "None", "website": "None", "summary": "None", "logo": "None", "latitude": 49.28473454397265, "longitude": -123.12168753944235}, "132530148RR0001": {"name": "AVERN PARDOE FOUNDATION", "designationCode": "B", "categoryCode": "05", "address": "130 KING STREET WEST 20TH FL  BOX 430 STN FIRST CANADIAN PLA", "city": "TORONTO", "province": "ON", "country": "CA", "postalCode": "M5X1K1", "twitter": "None", "instagram": "None", "facebook": "None", "youtube": "None", "website": "None", "summary": "None", "logo": "None", "latitude": 43.64868300000006, "longitude": -79.38544399999994}, "853363364RR0001": {"name": "AVIAN WELFARE CANADA INC.", "designationCode": "C", "categoryCode": "54", "address": "27 BURNTWOOD CRES", "city": "WINNIPEG", "province": "MB", "country": "CA", "postalCode": "R2J2Z9", "twitter": "None", "instagram": "None", "facebook": "None", "youtube": "None", "website": "None", "summary": "None", "logo": "None", "latitude": 49.845929467684115, "longitude": -97.07441302553522}}