{"898994280RR0001": {"name": "MOOSE JAW ART MUSEUM INCORPORATED", "designationCode": "C", "categoryCode": "50", "address": "461 LANGDON CRES", "city": "MOOSE JAW", "province": "SK", "country": "CA", "postalCode": "S6H0X6", "twitter": "None", "instagram": "None", "facebook": "None", "youtube": "None", "website": "None", "summary": "None", "logo": "None", "latitude": 50.39462292648759, "longitude": -105.53291049263844}, "817919582RR0001": {"name": "MOOSE JAW ASSOCIATION FOR COMMUNITY LIVING INC. W BRANCH", "designationCode": "C", "categoryCode": "11", "address": "#4-840 CHESTER ROAD", "city": "MOOSE JAW", "province": "SK", "country": "CA", "postalCode": "S6J0A8", "twitter": "None", "instagram": "None", "facebook": "None", "youtube": "None", "website": "None", "summary": "None", "logo": "None", "latitude": 50.410911274117666, "longitude": -105.51607077411767}, "889073839RR0001": {"name": "MOOSE JAW BAND AND CHORAL FESTIVAL INC.", "designationCode": "C", "categoryCode": "22", "address": "BOX 883", "city": "MOOSE JAW", "province": "SK", "country": "CA", "postalCode": "S6H4P5", "twitter": "None", "instagram": "None", "facebook": "None", "youtube": "None", "website": "None", "summary": "None", "logo": "None", "latitude": 50.39688300000006, "longitude": -105.53701399999993}, "890215973RR0001": {"name": "MOOSE JAW BAPTIST CHURCH", "designationCode": "C", "categoryCode": "31", "address": "1303 STADACONA ST. W.", "city": "MOOSE JAW", "province": "SK", "country": "CA", "postalCode": "S6H6L4", "twitter": "None", "instagram": "None", "facebook": "None", "youtube": "None", "website": "None", "summary": "None", "logo": "None", "latitude": 50.394293947074175, "longitude": -105.571938826734}, "107723306RR0001": {"name": "MOOSE JAW CHRISTIAN COUNSELLING CENTRE INC.", "designationCode": "C", "categoryCode": "09", "address": "54 STADACONA STREET W", "city": "MOOSE JAW", "province": "SK", "country": "CA", "postalCode": "S6H1Z1", "twitter": "None", "instagram": "None", "facebook": "None", "youtube": "None", "website": "None", "summary": "None", "logo": "None", "latitude": 50.39449159671684, "longitude": -105.53640425690834}, "119045565RR0001": {"name": "MOOSE JAW CRIME STOPPERS INC.", "designationCode": "C", "categoryCode": "59", "address": "PO BOX 921", "city": "MOOSE JAW", "province": "SK", "country": "CA", "postalCode": "S6H4P6", "twitter": "None", "instagram": "None", "facebook": "None", "youtube": "None", "website": "None", "summary": "None", "logo": "None", "latitude": 50.39688300000006, "longitude": -105.53701399999993}, "107723413RR0001": {"name": "MOOSE JAW DIVERSIFIED SERVICES FOR THE HANDICAPPED INC.", "designationCode": "C", "categoryCode": "01", "address": "11 WOODLILY DRIVE", "city": "MOOSE JAW", "province": "SK", "country": "CA", "postalCode": "S6J1H1", "twitter": "None", "instagram": "None", "facebook": "None", "youtube": "None", "website": "None", "summary": "None", "logo": "None", "latitude": 50.417502000000056, "longitude": -105.53839999999994}, "871342606RR0001": {"name": "MOOSE JAW FAMILIES FOR CHANGE FOUNDATION INC.", "designationCode": "A", "categoryCode": "03", "address": "1403 SMITH STREET", "city": "MOOSE JAW", "province": "SK", "country": "CA", "postalCode": "S6H6W6", "twitter": "None", "instagram": "None", "facebook": "None", "youtube": "None", "website": "None", "summary": "None", "logo": "None", "latitude": 50.37877843254754, "longitude": -105.57475636061767}, "867745523RR0001": {"name": "MOOSE JAW FAMILIES FOR CHANGE INC.", "designationCode": "C", "categoryCode": "09", "address": "#58-325 4TH AVE SW", "city": "MOOSE JAW", "province": "SK", "country": "CA", "postalCode": "S6H5V2", "twitter": "None", "instagram": "None", "facebook": "None", "youtube": "None", "website": "None", "summary": "None", "logo": "None", "latitude": 50.381848769628036, "longitude": -105.5446975399854}, "119045573RR0001": {"name": "MOOSE JAW FELLOWSHIP FOR EVANGELISM", "designationCode": "C", "categoryCode": "47", "address": "PO BOX 514", "city": "MOOSE JAW", "province": "SK", "country": "CA", "postalCode": "S6H4P2", "twitter": "None", "instagram": "None", "facebook": "None", "youtube": "None", "website": "None", "summary": "None", "logo": "None", "latitude": 50.39688300000006, "longitude": -105.53701399999993}, "119045581RR0001": {"name": "MOOSE JAW FESTIVAL OF DANCE ASSOCIATION", "designationCode": "C", "categoryCode": "22", "address": "PO BOX 1184 STN MAIN", "city": "MOOSE JAW", "province": "SK", "country": "CA", "postalCode": "S6H4P9", "twitter": "None", "instagram": "None", "facebook": "None", "youtube": "None", "website": "None", "summary": "None", "logo": "None", "latitude": 50.37724922856035, "longitude": -105.53464629643145}, "118929173RR0001": {"name": "MOOSE JAW HEALTH FOUNDATION INCORPORATED", "designationCode": "C", "categoryCode": "13", "address": "455 FAIRFORD ST E", "city": "MOOSE JAW", "province": "SK", "country": "CA", "postalCode": "S6H1H3", "twitter": "None", "instagram": "None", "facebook": "None", "youtube": "None", "website": "None", "summary": "None", "logo": "None", "latitude": 50.39263125424396, "longitude": -105.5233117607131}, "132517384RR0001": {"name": "MOOSE JAW MILITARY FAMILY RESOURCE CENTRE INC", "designationCode": "C", "categoryCode": "09", "address": "BOX 5000", "city": "MOOSE JAW", "province": "SK", "country": "CA", "postalCode": "S6H7Z8", "twitter": "None", "instagram": "None", "facebook": "None", "youtube": "None", "website": "None", "summary": "None", "logo": "None", "latitude": 50.39688300000006, "longitude": -105.53701399999993}, "119045623RR0001": {"name": "MOOSE JAW MUSIC FESTIVAL ASSOCIATION", "designationCode": "C", "categoryCode": "22", "address": "1045 2ND AVE NE", "city": "MOOSE JAW", "province": "SK", "country": "CA", "postalCode": "S6H1C2", "twitter": "None", "instagram": "None", "facebook": "None", "youtube": "None", "website": "None", "summary": "None", "logo": "None", "latitude": 50.39968827168272, "longitude": -105.52884422576393}, "119045649RR0001": {"name": "MOOSE JAW RIGHT TO LIFE", "designationCode": "C", "categoryCode": "09", "address": "PO BOX 1863 STN MAIN", "city": "MOOSE JAW", "province": "SK", "country": "CA", "postalCode": "S6H7N6", "twitter": "None", "instagram": "None", "facebook": "None", "youtube": "None", "website": "None", "summary": "None", "logo": "None", "latitude": 50.37724922856035, "longitude": -105.53464629643145}, "856266127RR0001": {"name": "MOOSE JAW RIVER WATERSHED STEWARDS INC.", "designationCode": "C", "categoryCode": "59", "address": "PO BOX 1682", "city": "MOOSE JAW", "province": "SK", "country": "CA", "postalCode": "S6H7K7", "twitter": "None", "instagram": "None", "facebook": "None", "youtube": "None", "website": "None", "summary": "None", "logo": "None", "latitude": 50.39688300000006, "longitude": -105.53701399999993}, "888901592RR0001": {"name": "MOOSE JAW SCHOOL DISTRICT NO. 1 BURSARY FUND INC.", "designationCode": "C", "categoryCode": "21", "address": "1075-9TH AVE NW", "city": "MOOSE JAW", "province": "SK", "country": "CA", "postalCode": "S6H4J6", "twitter": "None", "instagram": "None", "facebook": "None", "youtube": "None", "website": "None", "summary": "None", "logo": "None", "latitude": 50.40017427422497, "longitude": -105.55755422577502}, "866213366RR0001": {"name": "MOOSE JAW SEARCH & RESCUE INC.", "designationCode": "C", "categoryCode": "59", "address": "BOX 283", "city": "MOOSE JAW", "province": "SK", "country": "CA", "postalCode": "S6H4N9", "twitter": "None", "instagram": "None", "facebook": "None", "youtube": "None", "website": "None", "summary": "None", "logo": "None", "latitude": 50.39688300000006, "longitude": -105.53701399999993}, "119030666RR0041": {"name": "MOOSE JAW SEVENTH-DAY ADVENTIST CHURCH", "designationCode": "C", "categoryCode": "41", "address": "1004 VICTORIA AVE", "city": "SASKATOON", "province": "SK", "country": "CA", "postalCode": "S7N0Z8", "twitter": "None", "instagram": "None", "facebook": "None", "youtube": "None", "website": "None", "summary": "None", "logo": "None", "latitude": 52.115409, "longitude": -106.66240826773014}, "107723579RR0001": {"name": "MOOSE JAW WOMEN'S TRANSITION ASSOCIATION INC.", "designationCode": "C", "categoryCode": "01", "address": "PO BOX 1866 STN MAIN", "city": "MOOSE JAW", "province": "SK", "country": "CA", "postalCode": "S6H7N6", "twitter": "None", "instagram": "None", "facebook": "None", "youtube": "None", "website": "None", "summary": "None", "logo": "None", "latitude": 50.37724922856035, "longitude": -105.53464629643145}, "119045714RR0001": {"name": "MOOSE LAKE GOSPEL CAMP", "designationCode": "C", "categoryCode": "56", "address": "102 - 811 MANNING RD NE", "city": "CALGARY", "province": "AB", "country": "CA", "postalCode": "T2E7L4", "twitter": "None", "instagram": "None", "facebook": "None", "youtube": "None", "website": "None", "summary": "None", "logo": "None", "latitude": 51.05887834915458, "longitude": -114.01963876496019}, "119045722RR0001": {"name": "MOOSE LAKE PENTECOSTAL YOUTH CAMP SOCIETY", "designationCode": "C", "categoryCode": "56", "address": "P.O. BOX 445", "city": "GLENDON", "province": "AB", "country": "CA", "postalCode": "T0A1P0", "twitter": "None", "instagram": "None", "facebook": "None", "youtube": "None", "website": "None", "summary": "None", "logo": "None", "latitude": 54.247190000000046, "longitude": -111.15382999999997}, "889278578RR0001": {"name": "MOOSEHILL COMMUNITY CEMETARY FOUNDATION", "designationCode": "C", "categoryCode": "59", "address": "BOX 303", "city": "THORHILD", "province": "AB", "country": "CA", "postalCode": "T0A3J0", "twitter": "None", "instagram": "None", "facebook": "None", "youtube": "None", "website": "None", "summary": "None", "logo": "None", "latitude": 54.15764000000007, "longitude": -113.12560999999994}, "834005522RR0001": {"name": "MOOSEHORN BAPTIST CHURCH INC.", "designationCode": "C", "categoryCode": "31", "address": "BOX 63 28 LEVINE BLVD", "city": "MOOSEHORN", "province": "MB", "country": "CA", "postalCode": "R0C2E0", "twitter": "None", "instagram": "None", "facebook": "None", "youtube": "None", "website": "None", "summary": "None", "logo": "None", "latitude": 51.29112183204736, "longitude": -98.42539524792868}, "107723256RR0001": {"name": "MOOSEHORN HERITAGE MUSEUM INCORPORATED", "designationCode": "C", "categoryCode": "50", "address": "BOX 28", "city": "MOOSEHORN", "province": "MB", "country": "CA", "postalCode": "R0C2E0", "twitter": "None", "instagram": "None", "facebook": "None", "youtube": "None", "website": "None", "summary": "None", "logo": "None", "latitude": 51.29192000000006, "longitude": -98.42536999999999}, "888226867RR0001": {"name": "MOOSOMIN & DISTRICT HEALTH CARE FOUNDATION INC", "designationCode": "A", "categoryCode": "13", "address": "PO BOX 1470", "city": "MOOSOMIN", "province": "SK", "country": "CA", "postalCode": "S0G3N0", "twitter": "None", "instagram": "None", "facebook": "None", "youtube": "None", "website": "None", "summary": "None", "logo": "None", "latitude": 50.14728000000008, "longitude": -101.66300999999999}, "130823321RR0001": {"name": "MOOSOMIN AND DISTRICT ARTS COUNCIL", "designationCode": "C", "categoryCode": "22", "address": "PO BOX 1318", "city": "MOOSOMIN", "province": "SK", "country": "CA", "postalCode": "S0G3N0", "twitter": "None", "instagram": "None", "facebook": "None", "youtube": "None", "website": "None", "summary": "None", "logo": "None", "latitude": 50.14728000000008, "longitude": -101.66300999999999}, "119045797RR0001": {"name": "MOOSOMIN AND DISTRICT SENIORS' GROUP INC.", "designationCode": "C", "categoryCode": "01", "address": "BOX 872", "city": "MOOSOMIN", "province": "SK", "country": "CA", "postalCode": "S0G3N0", "twitter": "None", "instagram": "None", "facebook": "None", "youtube": "None", "website": "None", "summary": "None", "logo": "None", "latitude": 50.14728000000008, "longitude": -101.66300999999999}, "107723710RR0001": {"name": "MOOSOMIN BAPTIST CHURCH", "designationCode": "C", "categoryCode": "31", "address": "BOX 57", "city": "MOOSOMIN", "province": "SK", "country": "CA", "postalCode": "S0G3N0", "twitter": "None", "instagram": "None", "facebook": "None", "youtube": "None", "website": "None", "summary": "None", "logo": "None", "latitude": 50.14728000000008, "longitude": -101.66300999999999}, "899215008RR0001": {"name": "MOOSOMIN FAMILY RESOURCE CENTRE INC.", "designationCode": "C", "categoryCode": "09", "address": "BOX 869", "city": "MOOSOMIN", "province": "SK", "country": "CA", "postalCode": "S0G3N0", "twitter": "None", "instagram": "None", "facebook": "None", "youtube": "None", "website": "None", "summary": "None", "logo": "None", "latitude": 50.14728000000008, "longitude": -101.66300999999999}, "890030778RR0001": {"name": "MOOSOMIN MUSIC FESTIVAL ASSOCIATION", "designationCode": "C", "categoryCode": "22", "address": "BOX 336", "city": "ROCANVILLE", "province": "SK", "country": "CA", "postalCode": "S0A3L0", "twitter": "None", "instagram": "None", "facebook": "None", "youtube": "None", "website": "None", "summary": "None", "logo": "None", "latitude": 50.377500000000055, "longitude": -101.68600999999995}, "866617731RR0001": {"name": "MOOSOMIN REGIONAL MUSEUM INC.", "designationCode": "C", "categoryCode": "50", "address": "BOX 1654", "city": "MOOSOMIN", "province": "SK", "country": "CA", "postalCode": "S0G3N0", "twitter": "None", "instagram": "None", "facebook": "None", "youtube": "None", "website": "None", "summary": "None", "logo": "None", "latitude": 50.14728000000008, "longitude": -101.66300999999999}, "870272531RR0001": {"name": "MOOSONEE PENTECOSTAL ASSEMBLY", "designationCode": "C", "categoryCode": "36", "address": "PO BOX 98", "city": "MOOSONEE", "province": "ON", "country": "CA", "postalCode": "P0L1Y0", "twitter": "None", "instagram": "None", "facebook": "None", "youtube": "None", "website": "None", "summary": "None", "logo": "None", "latitude": 51.273540000000025, "longitude": -80.64088999999996}, "888756343RR0001": {"name": "MOPPET PARENT PARTICIPATING PRESCHOOL OF KITCHENER", "designationCode": "C", "categoryCode": "20", "address": "171 FREDERICK ST", "city": "KITCHENER", "province": "ON", "country": "CA", "postalCode": "N2H2M6", "twitter": "None", "instagram": "None", "facebook": "None", "youtube": "None", "website": "None", "summary": "None", "logo": "None", "latitude": 43.452898411824485, "longitude": -80.48323756988324}, "890729742RR0001": {"name": "MORAVIAN CHURCH IN NEWFOUNDLAND AND LABRADOR INC.", "designationCode": "C", "categoryCode": "39", "address": "E & M BOOKKEEPING LTD         P.O. BOX 220 STATION B", "city": "HAPPY VALLEY-GOOSE BAY", "province": "NL", "country": "CA", "postalCode": "A0P1E0", "twitter": "None", "instagram": "None", "facebook": "None", "youtube": "None", "website": "None", "summary": "None", "logo": "None", "latitude": 53.29581900000005, "longitude": -60.29593999999993}, "119045938RR0001": {"name": "MORAVIANTOWN UNITED CHURCH", "designationCode": "C", "categoryCode": "44", "address": "RR 3", "city": "THAMESVILLE", "province": "ON", "country": "CA", "postalCode": "N0P2K0", "twitter": "None", "instagram": "None", "facebook": "None", "youtube": "None", "website": "None", "summary": "None", "logo": "None", "latitude": 42.552033762935416, "longitude": -81.9733205565296}, "130523384RR0001": {"name": "MORDEN ALLIANCE CHURCH", "designationCode": "C", "categoryCode": "39", "address": "181-15TH STREET", "city": "MORDEN", "province": "MB", "country": "CA", "postalCode": "R6M1G3", "twitter": "None", "instagram": "None", "facebook": "None", "youtube": "None", "website": "None", "summary": "None", "logo": "None", "latitude": 49.191903419095155, "longitude": -98.11225043554204}, "139636914RR0001": {"name": "MORDEN AREA FOUNDATION INC", "designationCode": "A", "categoryCode": "03", "address": "100-379 STEPHEN ST", "city": "MORDEN", "province": "MB", "country": "CA", "postalCode": "R6M1V1", "twitter": "None", "instagram": "None", "facebook": "None", "youtube": "None", "website": "None", "summary": "None", "logo": "None", "latitude": 49.18989949711447, "longitude": -98.10236177699232}, "863351599RR0001": {"name": "MORDEN CARING & SHARING", "designationCode": "C", "categoryCode": "09", "address": "PO BOX 2485 STN MAIN", "city": "MORDEN", "province": "MB", "country": "CA", "postalCode": "R6M1C2", "twitter": "None", "instagram": "None", "facebook": "None", "youtube": "None", "website": "None", "summary": "None", "logo": "None", "latitude": 49.192296000000056, "longitude": -98.11329199999993}, "119045979RR0001": {"name": "MORDEN CHEER BOARD INC.", "designationCode": "C", "categoryCode": "09", "address": "BOX 2781", "city": "MORDEN", "province": "MB", "country": "CA", "postalCode": "R6M1C4", "twitter": "None", "instagram": "None", "facebook": "None", "youtube": "None", "website": "None", "summary": "None", "logo": "None"}, "119045961RR0001": {"name": "MORDEN CHRISTIAN PROGRAMS COMMITTEE", "designationCode": "C", "categoryCode": "39", "address": "21 LESLIE DR", "city": "MORDEN", "province": "MB", "country": "CA", "postalCode": "R6M1P7", "twitter": "None", "instagram": "None", "facebook": "None", "youtube": "None", "website": "None", "summary": "None", "logo": "None", "latitude": 49.19975346047074, "longitude": -98.10624086081135}, "132349762RR0001": {"name": "MORDEN COMMUNITY THRIFT SHOP INC", "designationCode": "C", "categoryCode": "09", "address": "PO BOX 5024 STN MAIN", "city": "MORDEN", "province": "MB", "country": "CA", "postalCode": "R6M1Y9", "twitter": "None", "instagram": "None", "facebook": "None", "youtube": "None", "website": "None", "summary": "None", "logo": "None", "latitude": 49.192296000000056, "longitude": -98.11329199999993}, "119046035RR0001": {"name": "MORDEN FESTIVAL OF THE PERFORMING ARTS", "designationCode": "C", "categoryCode": "22", "address": "P.O. BOX 493", "city": "MORDEN", "province": "MB", "country": "CA", "postalCode": "R6M1A5", "twitter": "None", "instagram": "None", "facebook": "None", "youtube": "None", "website": "None", "summary": "None", "logo": "None", "latitude": 49.192296000000056, "longitude": -98.11329199999993}, "119046043RR0001": {"name": "MORDEN HISTORICAL SOCIETY INC.", "designationCode": "C", "categoryCode": "52", "address": "514 STEPHEN STREET", "city": "MORDEN", "province": "MB", "country": "CA", "postalCode": "R6M1T7", "twitter": "None", "instagram": "None", "facebook": "None", "youtube": "None", "website": "None", "summary": "None", "logo": "None", "latitude": 49.189817536211045, "longitude": -98.10584172300767}, "869703116RR0001": {"name": "MORDEN SENIOR CITIZENS FRIENDSHIP CENTRE INC.", "designationCode": "C", "categoryCode": "56", "address": "306 NORTH RAILWAY", "city": "MORDEN", "province": "MB", "country": "CA", "postalCode": "R6M1S7", "twitter": "None", "instagram": "None", "facebook": "None", "youtube": "None", "website": "None", "summary": "None", "logo": "None", "latitude": 49.18892249235396, "longitude": -98.10225030391251}, "119046084RR0001": {"name": "MORDEN UNITED CHURCH", "designationCode": "C", "categoryCode": "44", "address": "2059 MORDEN RD                RR3", "city": "AYLESFORD", "province": "NS", "country": "CA", "postalCode": "B0P1C0", "twitter": "None", "instagram": "None", "facebook": "None", "youtube": "None", "website": "None", "summary": "None", "logo": "None", "latitude": 45.09459039909987, "longitude": -64.93349200057692}, "830426060RR0001": {"name": "MORE Project Canada", "designationCode": "C", "categoryCode": "09", "address": "33171 DALKE AVE", "city": "MISSION", "province": "BC", "country": "CA", "postalCode": "V2V0A3", "twitter": "None", "instagram": "None", "facebook": "None", "youtube": "None", "website": "None", "summary": "None", "logo": "None", "latitude": 49.158874961307674, "longitude": -122.3063031173802}, "845265149RR0001": {"name": "MORE THAN A ROOF FOUNDATION", "designationCode": "A", "categoryCode": "03", "address": "100-1515 CHARLES ST", "city": "VANCOUVER", "province": "BC", "country": "CA", "postalCode": "V5L2T2", "twitter": "None", "instagram": "None", "facebook": "None", "youtube": "None", "website": "None", "summary": "None", "logo": "None", "latitude": 49.27313444214887, "longitude": -123.07301932944775}, "130808363RR0001": {"name": "MORE THAN A ROOF MENNONITE HOUSING SOCIETY", "designationCode": "C", "categoryCode": "01", "address": "100-1515 CHARLES ST", "city": "VANCOUVER", "province": "BC", "country": "CA", "postalCode": "V5L2T2", "twitter": "None", "instagram": "None", "facebook": "None", "youtube": "None", "website": "None", "summary": "None", "logo": "None", "latitude": 49.27313444214887, "longitude": -123.07301932944775}, "119046100RR0001": {"name": "MORE THAN CHILD'S PLAY", "designationCode": "C", "categoryCode": "09", "address": "1488 QUEEN ST.W.              P.O. BOX 90008", "city": "TORONTO", "province": "ON", "country": "CA", "postalCode": "M6K1M4", "twitter": "None", "instagram": "None", "facebook": "None", "youtube": "None", "website": "None", "summary": "None", "logo": "None", "latitude": 43.64043618347842, "longitude": -79.4375877618731}, "103762464RR0001": {"name": "MORE THAN JUST BABYSITTING CHILD CARE CENTRE INC.", "designationCode": "C", "categoryCode": "01", "address": "21 STEWART DRIVE              RR#2", "city": "PRESCOTT", "province": "ON", "country": "CA", "postalCode": "K0E1T0", "twitter": "None", "instagram": "None", "facebook": "None", "youtube": "None", "website": "None", "summary": "None", "logo": "None", "latitude": 44.72423749668022, "longitude": -75.58174163720079}, "107724148RR0001": {"name": "MORELL EARLY CHILDHOOD DEVELOPMENT CENTRE", "designationCode": "C", "categoryCode": "01", "address": "P.O. BOX 225", "city": "MORELL", "province": "PE", "country": "CA", "postalCode": "C0A1S0", "twitter": "None", "instagram": "None", "facebook": "None", "youtube": "None", "website": "None", "summary": "None", "logo": "None", "latitude": 46.41615000000007, "longitude": -62.70426999999995}, "119046118RR0001": {"name": "MOREWOOD PRESBYTERIAN CHURCH", "designationCode": "C", "categoryCode": "37", "address": "BOX 204", "city": "MOREWOOD", "province": "ON", "country": "CA", "postalCode": "K0A2R0", "twitter": "None", "instagram": "None", "facebook": "None", "youtube": "None", "website": "None", "summary": "None", "logo": "None", "latitude": 45.18739598326441, "longitude": -75.25867457443702}, "889025375RR0001": {"name": "MORFEE MOUNTAIN TEEN PARENT OUTREACH SOCIETY", "designationCode": "C", "categoryCode": "01", "address": "PO BOX 940", "city": "MACKENZIE", "province": "BC", "country": "CA", "postalCode": "V0J2C0", "twitter": "None", "instagram": "None", "facebook": "None", "youtube": "None", "website": "None", "summary": "None", "logo": "None", "latitude": 54.35901764398257, "longitude": -128.53940735741423}, "119046126RR0001": {"name": "MORGAN ARBORETUM AND WOODLAND DEVELOPMENT ASSOCIATION", "designationCode": "C", "categoryCode": "52", "address": "PO BOX 186 MACDONALD COL.     MCGILL UNIVERSITY", "city": "STE ANNE DE BELLEVUE", "province": "QC", "country": "CA", "postalCode": "H9X3V9", "twitter": "None", "instagram": "None", "facebook": "None", "youtube": "None", "website": "None", "summary": "None", "logo": "None", "latitude": 45.40508700000005, "longitude": -73.93605199999993}, "107724346RR0001": {"name": "MORGAN'S POINT UNITED CHURCH", "designationCode": "C", "categoryCode": "44", "address": "11430 LAKESHORE ROAD          R.R.2", "city": "PORT COLBORNE", "province": "ON", "country": "CA", "postalCode": "L3K5V4", "twitter": "None", "instagram": "None", "facebook": "None", "youtube": "None", "website": "None", "summary": "None", "logo": "None", "latitude": 42.8702885823489, "longitude": -79.34545089163593}, "842953762RR0001": {"name": "MORGELLONS SOCIETY OF CANADA", "designationCode": "A", "categoryCode": "13", "address": "2698 BEAVERBROOK ROAD", "city": "FRUITVALE", "province": "BC", "country": "CA", "postalCode": "V0G1L1", "twitter": "None", "instagram": "None", "facebook": "None", "youtube": "None", "website": "None", "summary": "None", "logo": "None", "latitude": 49.141855844294746, "longitude": -117.51505266635196}, "119046167RR0001": {"name": "MORIAH FOUNDATION", "designationCode": "C", "categoryCode": "21", "address": "71 CHARLESWOOD DRIVE", "city": "TORONTO", "province": "ON", "country": "CA", "postalCode": "M3H1X5", "twitter": "None", "instagram": "None", "facebook": "None", "youtube": "None", "website": "None", "summary": "None", "logo": "None", "latitude": 43.737206816521585, "longitude": -79.43952457048883}, "119046209RR0001": {"name": "MORIN HEIGHTS UNITED CHURCH", "designationCode": "C", "categoryCode": "44", "address": "831 VILLAGE STREET", "city": "MORIN HEIGHTS", "province": "QC", "country": "CA", "postalCode": "J0R1H0", "twitter": "None", "instagram": "None", "facebook": "None", "youtube": "None", "website": "None", "summary": "None", "logo": "None", "latitude": 45.902199980581635, "longitude": -74.25194301416693}, "129472361RR0001": {"name": "MORINVILLE ALLIANCE CHURCH", "designationCode": "C", "categoryCode": "39", "address": "10017-99 ST.", "city": "MORINVILLE", "province": "AB", "country": "CA", "postalCode": "T8R1B3", "twitter": "None", "instagram": "None", "facebook": "None", "youtube": "None", "website": "None", "summary": "None", "logo": "None", "latitude": 53.80254960821292, "longitude": -113.64307325899352}, "133146274RR0001": {"name": "MORINVILLE BAPTIST CHURCH", "designationCode": "C", "categoryCode": "31", "address": "431 GRANDIN DRIVE", "city": "MORINVILLE", "province": "AB", "country": "CA", "postalCode": "T8R1J1", "twitter": "None", "instagram": "None", "facebook": "None", "youtube": "None", "website": "None", "summary": "None", "logo": "None", "latitude": 53.79613650678069, "longitude": -113.63053380544173}, "898313192RR0001": {"name": "MORINVILLE CHARITABLE TRUST", "designationCode": "B", "categoryCode": "39", "address": "PO BOX 3194 STN MAIN", "city": "STONY PLAIN", "province": "AB", "country": "CA", "postalCode": "T7Z1Y4", "twitter": "None", "instagram": "None", "facebook": "None", "youtube": "None", "website": "None", "summary": "None", "logo": "None", "latitude": 53.52496080545697, "longitude": -114.006528332913}, "119046258RR0001": {"name": "MORINVILLE HISTORICAL AND CULTURAL SOCIETY", "designationCode": "C", "categoryCode": "52", "address": "BOX 3252", "city": "MORINVILLE", "province": "AB", "country": "CA", "postalCode": "T8R1S2", "twitter": "None", "instagram": "None", "facebook": "None", "youtube": "None", "website": "None", "summary": "None", "logo": "None", "latitude": 53.800017000000054, "longitude": -113.64821449999994}, "107724528RR0001": {"name": "MORINVILLE PASTORAL CHARGE", "designationCode": "C", "categoryCode": "44", "address": "9610 MORINVILLE DR", "city": "MORINVILLE", "province": "AB", "country": "CA", "postalCode": "T8R1J1", "twitter": "None", "instagram": "None", "facebook": "None", "youtube": "None", "website": "None", "summary": "None", "logo": "None", "latitude": 53.79660432967703, "longitude": -113.63189231623765}, "131295842RR0001": {"name": "MORINVILLE PUBLIC LIBRARY", "designationCode": "C", "categoryCode": "50", "address": "10119 - 100 AVE", "city": "MORINVILLE", "province": "AB", "country": "CA", "postalCode": "T8R1P8", "twitter": "None", "instagram": "None", "facebook": "None", "youtube": "None", "website": "None", "summary": "None", "logo": "None", "latitude": 53.80170530395119, "longitude": -113.64762224647986}, "890777394RR0001": {"name": "MORINVILLE SENIORS RENDEZ VOUS CENTRE", "designationCode": "C", "categoryCode": "56", "address": "BOX 3117", "city": "MORINVILLE", "province": "AB", "country": "CA", "postalCode": "T8R1R8", "twitter": "None", "instagram": "None", "facebook": "None", "youtube": "None", "website": "None", "summary": "None", "logo": "None", "latitude": 53.800917000000055, "longitude": -113.65286299999994}, "107724502RR0001": {"name": "MORINVILLE TINY TOTS ASSOCIATION", "designationCode": "C", "categoryCode": "20", "address": "PO BOX 3196", "city": "MORINVILLE", "province": "AB", "country": "CA", "postalCode": "T8R1S1", "twitter": "None", "instagram": "None", "facebook": "None", "youtube": "None", "website": "None", "summary": "None", "logo": "None", "latitude": 53.800017000000054, "longitude": -113.64821449999994}, "132121914RR0001": {"name": "MORNING GATE CHURCH INC.", "designationCode": "C", "categoryCode": "39", "address": "74 MORNING GATE DRIVE", "city": "FREDERICTON", "province": "NB", "country": "CA", "postalCode": "E3B0G6", "twitter": "None", "instagram": "None", "facebook": "None", "youtube": "None", "website": "None", "summary": "None", "logo": "None", "latitude": 45.95273151318599, "longitude": -66.70015550848277}, "879763217RR0001": {"name": "MORNING SKY HEALTH AND WELLNESS SOCIETY", "designationCode": "C", "categoryCode": "11", "address": "GENERAL DELIVERY", "city": "FROG LAKE", "province": "AB", "country": "CA", "postalCode": "T0A1M0", "twitter": "None", "instagram": "None", "facebook": "None", "youtube": "None", "website": "None", "summary": "None", "logo": "None", "latitude": 53.83113900000005, "longitude": -110.40146449999993}, "891572596RR0001": {"name": "MORNING STAR BIBLE CAMP", "designationCode": "C", "categoryCode": "56", "address": "3031 MCIVER ROAD WEST", "city": "WESTBANK", "province": "BC", "country": "CA", "postalCode": "V4T1C4", "twitter": "None", "instagram": "None", "facebook": "None", "youtube": "None", "website": "None", "summary": "None", "logo": "None", "latitude": 49.83262190755397, "longitude": -119.66292641243005}, "870751344RR0001": {"name": "MORNING STAR DAY CARE INC.", "designationCode": "C", "categoryCode": "01", "address": "73 - 11TH STREET              P. O. BOX 603", "city": "BIRTLE", "province": "MB", "country": "CA", "postalCode": "R0M0C0", "twitter": "None", "instagram": "None", "facebook": "None", "youtube": "None", "website": "None", "summary": "None", "logo": "None", "latitude": 50.41912458090485, "longitude": -101.0415171051993}, "896223682RR0001": {"name": "MORNING STAR EVANGELICAL LUTHERAN CHURCH", "designationCode": "C", "categoryCode": "32", "address": "PO BOX 93", "city": "CARSTAIRS", "province": "AB", "country": "CA", "postalCode": "T0M0N0", "twitter": "None", "instagram": "None", "facebook": "None", "youtube": "None", "website": "None", "summary": "None", "logo": "None", "latitude": 51.562880000000064, "longitude": -114.09537999999998}, "119046340RR0001": {"name": "MORNING STAR MINISTRIES INC.", "designationCode": "C", "categoryCode": "39", "address": "3540 6TH AVENUE", "city": "REGINA", "province": "SK", "country": "CA", "postalCode": "S4T0N5", "twitter": "None", "instagram": "None", "facebook": "None", "youtube": "None", "website": "None", "summary": "None", "logo": "None", "latitude": 50.459921720263125, "longitude": -104.63171643649126}, "119288918RR0653": {"name": "MORNINGSIDE CONGREGATION OF JEHOVAH'S WITNESSES", "designationCode": "C", "categoryCode": "61", "address": "1425 MORNINGSIDE AVE", "city": "TORONTO", "province": "ON", "country": "CA", "postalCode": "M1B6J1", "twitter": "None", "instagram": "None", "facebook": "None", "youtube": "None", "website": "None", "summary": "None", "logo": "None", "latitude": 43.811110581193304, "longitude": -79.20358869908858}, "129853297RR0001": {"name": "MORNINGSIDE HIGH PARK PRESBYTERIAN CHURCH", "designationCode": "C", "categoryCode": "37", "address": "4 MORNINGSIDE AVE", "city": "TORONTO", "province": "ON", "country": "CA", "postalCode": "M6S1C2", "twitter": "None", "instagram": "None", "facebook": "None", "youtube": "None", "website": "None", "summary": "None", "logo": "None", "latitude": 43.64616319069178, "longitude": -79.47289828740833}, "106922933RR0001": {"name": "MORNINGSTAR CHRISTIAN FELLOWSHIP", "designationCode": "C", "categoryCode": "31", "address": "7601 SHEPPARD AVENUE", "city": "SCARBOROUGH", "province": "ON", "country": "CA", "postalCode": "M1B2Y7", "twitter": "None", "instagram": "None", "facebook": "None", "youtube": "None", "website": "None", "summary": "None", "logo": "None", "latitude": 43.80151584147988, "longitude": -79.20177625976697}, "859509606RR0001": {"name": "MORNINGSTAR FAMILY MINISTRIES OF CANADA INCORPORATED", "designationCode": "C", "categoryCode": "49", "address": "1117 SNYDER'S ROAD EAST", "city": "BADEN", "province": "ON", "country": "CA", "postalCode": "N3A3L2", "twitter": "None", "instagram": "None", "facebook": "None", "youtube": "None", "website": "None", "summary": "None", "logo": "None", "latitude": 43.40749946316477, "longitude": -80.64223349259598}, "889663043RR0001": {"name": "MORNINGSTAR FOUNDATION", "designationCode": "C", "categoryCode": "20", "address": "1800-1067 WEST CORDOVA ST", "city": "VANCOUVER", "province": "BC", "country": "CA", "postalCode": "V6C1C7", "twitter": "None", "instagram": "None", "facebook": "None", "youtube": "None", "website": "None", "summary": "None", "logo": "None", "latitude": 49.28816920901367, "longitude": -123.1179448262451}, "810637272RR0001": {"name": "MORNINGSTAR INTERNATIONAL SOCIETY", "designationCode": "C", "categoryCode": "29", "address": "1800 - 1067 WEST CORDOVA ST.", "city": "VANCOUVER", "province": "BC", "country": "CA", "postalCode": "V6C1C7", "twitter": "None", "instagram": "None", "facebook": "None", "youtube": "None", "website": "None", "summary": "None", "logo": "None", "latitude": 49.28816920901367, "longitude": -123.1179448262451}, "119046373RR0001": {"name": "MORPETH CEMETERY TRUST", "designationCode": "C", "categoryCode": "59", "address": "P.O. BOX 1387", "city": "RIDGETOWN", "province": "ON", "country": "CA", "postalCode": "N0P2C0", "twitter": "None", "instagram": "None", "facebook": "None", "youtube": "None", "website": "None", "summary": "None", "logo": "None", "latitude": 42.42687003390246, "longitude": -81.90498998889144}, "898006580RR0001": {"name": "MORPHEUS THEATRE SOCIETY", "designationCode": "C", "categoryCode": "22", "address": "3512 5TH AVE NW", "city": "CALGARY", "province": "AB", "country": "CA", "postalCode": "T2N0V7", "twitter": "None", "instagram": "None", "facebook": "None", "youtube": "None", "website": "None", "summary": "None", "logo": "None"}, "119046399RR0001": {"name": "MORRELL SANCTUARY SOCIETY FOR ENVIRONMENTAL EDUCATION", "designationCode": "C", "categoryCode": "52", "address": "787 NANAIMO LAKES RD", "city": "NANAIMO", "province": "BC", "country": "CA", "postalCode": "V9R3C2", "twitter": "None", "instagram": "None", "facebook": "None", "youtube": "None", "website": "None", "summary": "None", "logo": "None", "latitude": 49.14547794183082, "longitude": -123.97405731089287}, "119046407RR0001": {"name": "MORRIN AND DISTRICT AGRICULTURAL SOCIETY", "designationCode": "C", "categoryCode": "56", "address": "BOX 123", "city": "MORRIN", "province": "AB", "country": "CA", "postalCode": "T0J2B0", "twitter": "None", "instagram": "None", "facebook": "None", "youtube": "None", "website": "None", "summary": "None", "logo": "None", "latitude": 51.66683000000006, "longitude": -112.78517999999997}, "119046415RR0001": {"name": "MORRIN UNITED CHURCH", "designationCode": "C", "categoryCode": "44", "address": "BOX 252", "city": "MORRIN", "province": "AB", "country": "CA", "postalCode": "T0J2B0", "twitter": "None", "instagram": "None", "facebook": "None", "youtube": "None", "website": "None", "summary": "None", "logo": "None", "latitude": 51.66683000000006, "longitude": -112.78517999999997}, "119046423RR0001": {"name": "MORRIS AND DISTRICT CENTENNIAL MUSEUM INC.", "designationCode": "C", "categoryCode": "50", "address": "BOX 344", "city": "MORRIS", "province": "MB", "country": "CA", "postalCode": "R0G1K0", "twitter": "None", "instagram": "None", "facebook": "None", "youtube": "None", "website": "None", "summary": "None", "logo": "None", "latitude": 49.35468000000003, "longitude": -97.36605999999995}, "867662405RR0001": {"name": "MORRIS AND ROSALIND GOODMAN FAMILY FOUNDATION / FONDATION DE LA FAMILLE MORRIS ET ROSALIND GOODMAN", "designationCode": "B", "categoryCode": "03", "address": "6111 ROYALMOUNT AVENUE        SUITE 100", "city": "MONTREAL", "province": "QC", "country": "CA", "postalCode": "H4P2T4", "twitter": "None", "instagram": "None", "facebook": "None", "youtube": "None", "website": "None", "summary": "None", "logo": "None", "latitude": 45.48851307164267, "longitude": -73.67389287543962}, "107724981RR0001": {"name": "MORRIS CERULLO WORLD EVANGELISM OF CANADA", "designationCode": "C", "categoryCode": "47", "address": "PO BOX 3600", "city": "CONCORD", "province": "ON", "country": "CA", "postalCode": "L4K1B6", "twitter": "None", "instagram": "None", "facebook": "None", "youtube": "None", "website": "None", "summary": "None", "logo": "None", "latitude": 43.79934300000005, "longitude": -79.50300199999994}, "103767554RR0001": {"name": "MORRIS GRIEVER CHARITABLE FOUNDATION", "designationCode": "B", "categoryCode": "03", "address": "2000 STEELES AVE W SUITE 200", "city": "CONCORD", "province": "ON", "country": "CA", "postalCode": "L4K3E9", "twitter": "None", "instagram": "None", "facebook": "None", "youtube": "None", "website": "None", "summary": "None", "logo": "None", "latitude": 43.78380051569612, "longitude": -79.48751111858776}, "119046498RR0001": {"name": "MORRIS LODGE SOCIETY", "designationCode": "C", "categoryCode": "01", "address": "PO BOX 54", "city": "BANGOR", "province": "SK", "country": "CA", "postalCode": "S0A0E0", "twitter": "None", "instagram": "None", "facebook": "None", "youtube": "None", "website": "None", "summary": "None", "logo": "None", "latitude": 50.85631799999999, "longitude": -102.35471849999999}, "874718596RR0001": {"name": "MORRIS M.C.C. COMMUNITY ASSISTANCE CENTRE INC.", "designationCode": "A", "categoryCode": "09", "address": "BOX 62", "city": "MORRIS", "province": "MB", "country": "CA", "postalCode": "R0G1K0", "twitter": "None", "instagram": "None", "facebook": "None", "youtube": "None", "website": "None", "summary": "None", "logo": "None", "latitude": 49.35468000000003, "longitude": -97.36605999999995}, "119046563RR0001": {"name": "MORRIS UNITED CHURCH", "designationCode": "C", "categoryCode": "44", "address": "BOX 90", "city": "MORRIS", "province": "MB", "country": "CA", "postalCode": "R0G1K0", "twitter": "None", "instagram": "None", "facebook": "None", "youtube": "None", "website": "None", "summary": "None", "logo": "None", "latitude": 49.35468000000003, "longitude": -97.36605999999995}, "132152851RR0001": {"name": "MORRIS WINCHEVSKY SCHOOLS", "designationCode": "C", "categoryCode": "20", "address": "585 CRANBROOKE AVE", "city": "TORONTO", "province": "ON", "country": "CA", "postalCode": "M6A2X9", "twitter": "None", "instagram": "None", "facebook": "None", "youtube": "None", "website": "None", "summary": "None", "logo": "None", "latitude": 43.72357586037865, "longitude": -79.4297851831613}, "107591570RR0001": {"name": "MORRISBURG PASTORAL CHARGE", "designationCode": "C", "categoryCode": "44", "address": "PO BOX 26", "city": "MORRISBURG", "province": "ON", "country": "CA", "postalCode": "K0C1X0", "twitter": "None", "instagram": "None", "facebook": "None", "youtube": "None", "website": "None", "summary": "None", "logo": "None", "latitude": 44.89832000000007, "longitude": -75.19097999999997}, "871099628RR0001": {"name": "MORRISBURG PENTECOSTAL TABERNACLE", "designationCode": "C", "categoryCode": "36", "address": "PO BOX 655", "city": "MORRISBURG", "province": "ON", "country": "CA", "postalCode": "K0C1X0", "twitter": "None", "instagram": "None", "facebook": "None", "youtube": "None", "website": "None", "summary": "None", "logo": "None", "latitude": 44.89832000000007, "longitude": -75.19097999999997}, "107725335RR0001": {"name": "MORRISTOWN UNITED BAPTIST CHURCH", "designationCode": "C", "categoryCode": "31", "address": "6597 AYLESFORD RD", "city": "AYLESFORD", "province": "NS", "country": "CA", "postalCode": "B0P1C0", "twitter": "None", "instagram": "None", "facebook": "None", "youtube": "None", "website": "None", "summary": "None", "logo": "None", "latitude": 44.98869146943612, "longitude": -64.77212525823187}, "107725384RR0001": {"name": "MORROW AVENUE DAY CARE INC.", "designationCode": "C", "categoryCode": "20", "address": "PO BOX 211 RPO SOUTH          ST. VITAL", "city": "WINNIPEG", "province": "MB", "country": "CA", "postalCode": "R2N3X9", "twitter": "None", "instagram": "None", "facebook": "None", "youtube": "None", "website": "None", "summary": "None", "logo": "None", "latitude": 49.78970700000005, "longitude": -97.09262449999993}, "132667270RR0001": {"name": "MORROW GOSPEL CHURCH", "designationCode": "C", "categoryCode": "34", "address": "755 ST ANNE'S RD", "city": "WINNIPEG", "province": "MB", "country": "CA", "postalCode": "R2N4G6", "twitter": "None", "instagram": "None", "facebook": "None", "youtube": "None", "website": "None", "summary": "None", "logo": "None", "latitude": 49.82127143825375, "longitude": -97.08183860672946}, "107725475RR0001": {"name": "MORSE CULTURAL AND HERITAGE ASSOCIATION INC.", "designationCode": "C", "categoryCode": "50", "address": "BOX 308", "city": "MORSE", "province": "SK", "country": "CA", "postalCode": "S0H3C0", "twitter": "None", "instagram": "None", "facebook": "None", "youtube": "None", "website": "None", "summary": "None", "logo": "None", "latitude": 50.45771029269995, "longitude": -105.87074662359227}, "119046639RR0001": {"name": "MORSON COMMUNITY BIBLE FELLOWSHIP", "designationCode": "C", "categoryCode": "34", "address": "PO BOX 35", "city": "MORSON", "province": "ON", "country": "CA", "postalCode": "P0W1J0", "twitter": "None", "instagram": "None", "facebook": "None", "youtube": "None", "website": "None", "summary": "None", "logo": "None", "latitude": 49.10705000000007, "longitude": -94.30936999999994}, "895481190RR0001": {"name": "MORTAL COIL PERFORMANCE SOCIETY", "designationCode": "C", "categoryCode": "22", "address": "104 - 281 INDUSTRIAL AVE", "city": "VANCOUVER", "province": "BC", "country": "CA", "postalCode": "V6A2P2", "twitter": "None", "instagram": "None", "facebook": "None", "youtube": "None", "website": "None", "summary": "None", "logo": "None", "latitude": 49.27043402305374, "longitude": -123.09983612432924}}