{"129950804RR0023": {"name": "ST JOSEPH'S CHURCH", "designationCode": "C", "categoryCode": "38", "address": "BOX 287", "city": "TAHSIS", "province": "BC", "country": "CA", "postalCode": "V0P1X0", "twitter": "None", "instagram": "None", "facebook": "None", "youtube": "None", "website": "None", "summary": "None", "logo": "None", "latitude": 49.78331988056369, "longitude": -126.05044247435742}, "889681375RR0001": {"name": "ST JOSEPH'S CHURCH", "designationCode": "C", "categoryCode": "38", "address": "PO BOX 295", "city": "WHITEWOOD", "province": "SK", "country": "CA", "postalCode": "S0G5C0", "twitter": "None", "instagram": "None", "facebook": "None", "youtube": "None", "website": "None", "summary": "None", "logo": "None", "latitude": 50.332580000000064, "longitude": -102.25940999999995}, "887610194RR0001": {"name": "ST JOSEPH'S COLLEGE", "designationCode": "C", "categoryCode": "20", "address": "UNIVERSITY OF ALBERTA", "city": "EDMONTON", "province": "AB", "country": "CA", "postalCode": "T6G2J5", "twitter": "None", "instagram": "None", "facebook": "None", "youtube": "None", "website": "None", "summary": "None", "logo": "None", "latitude": 53.52503000000007, "longitude": -113.52540999999997}, "133444141RR0001": {"name": "ST JOSEPH'S COLONY MUSEUM AND SHRINE SOCIETY INC", "designationCode": "C", "categoryCode": "52", "address": "BOX 1241", "city": "UNITY", "province": "SK", "country": "CA", "postalCode": "S0K4L0", "twitter": "None", "instagram": "None", "facebook": "None", "youtube": "None", "website": "None", "summary": "None", "logo": "None", "latitude": 52.437110000000075, "longitude": -109.14557999999994}, "888544640RR0001": {"name": "ST JOSEPH'S COUNCIL 9989 CHARITABLE TRUST", "designationCode": "A", "categoryCode": "65", "address": "1100 MARY ST N", "city": "OSHAWA", "province": "ON", "country": "CA", "postalCode": "L1G5G8", "twitter": "None", "instagram": "None", "facebook": "None", "youtube": "None", "website": "None", "summary": "None", "logo": "None", "latitude": 43.925737076317226, "longitude": -78.87269502723731}, "119183259RR0001": {"name": "ST JOSEPH'S FOOD BANK (PEMBROKE) INC.", "designationCode": "C", "categoryCode": "09", "address": "P.O. BOX 753", "city": "PEMBROKE", "province": "ON", "country": "CA", "postalCode": "K8A6X9", "twitter": "None", "instagram": "None", "facebook": "None", "youtube": "None", "website": "None", "summary": "None", "logo": "None", "latitude": 45.826494000000054, "longitude": -77.11217449999994}, "119183473RR0001": {"name": "ST JOSEPH'S HEALTH CARE AUXILIARY", "designationCode": "C", "categoryCode": "19", "address": "1176 NICHOLSON RD", "city": "ESTEVAN", "province": "SK", "country": "CA", "postalCode": "S4A2V6", "twitter": "None", "instagram": "None", "facebook": "None", "youtube": "None", "website": "None", "summary": "None", "logo": "None", "latitude": 49.151318193343755, "longitude": -103.01136227216202}, "119183390RR0001": {"name": "ST JOSEPH'S HEALTH CARE FOUNDATION OF LONDON", "designationCode": "A", "categoryCode": "13", "address": "550 WELLINGTON RD", "city": "LONDON", "province": "ON", "country": "CA", "postalCode": "N6C0A7", "twitter": "None", "instagram": "None", "facebook": "None", "youtube": "None", "website": "None", "summary": "None", "logo": "None", "latitude": 42.954920869948474, "longitude": -81.22936951474995}, "119183671RR0002": {"name": "ST JOSEPH'S HEALTH CARE, LONDON", "designationCode": "C", "categoryCode": "10", "address": "268 GROSVENOR ST", "city": "LONDON", "province": "ON", "country": "CA", "postalCode": "N6A4V2", "twitter": "None", "instagram": "None", "facebook": "None", "youtube": "None", "website": "None", "summary": "None", "logo": "None", "latitude": 43.000065899272755, "longitude": -81.25388012421367}, "139846133RR0001": {"name": "ST JOSEPH'S HEALTH CENTRE", "designationCode": "C", "categoryCode": "10", "address": "30 BOND ST", "city": "TORONTO", "province": "ON", "country": "CA", "postalCode": "M5B1W8", "twitter": "None", "instagram": "None", "facebook": "None", "youtube": "None", "website": "None", "summary": "None", "logo": "None", "latitude": 43.653711971406366, "longitude": -79.37730546658757}, "866328578RR0001": {"name": "ST JOSEPH'S HEALTH CENTRE AUXILIARY - SUDBURY", "designationCode": "A", "categoryCode": "13", "address": "1250 SOUTH BAY RD", "city": "SUDBURY", "province": "ON", "country": "CA", "postalCode": "P3E6L9", "twitter": "None", "instagram": "None", "facebook": "None", "youtube": "None", "website": "None", "summary": "None", "logo": "None", "latitude": 46.46502005190716, "longitude": -80.96542416388715}, "874606791RR0001": {"name": "ST JOSEPH'S HEALTH CENTRE AUXILIARY LONDON", "designationCode": "A", "categoryCode": "03", "address": "268 GROSVENOR ST", "city": "LONDON", "province": "ON", "country": "CA", "postalCode": "N6A4V2", "twitter": "None", "instagram": "None", "facebook": "None", "youtube": "None", "website": "None", "summary": "None", "logo": "None", "latitude": 43.000065899272755, "longitude": -81.25388012421367}, "119183382RR0001": {"name": "ST JOSEPH'S HEALTH CENTRE FOUNDATION OF TORONTO", "designationCode": "A", "categoryCode": "13", "address": "30 THE QUEENSWAY", "city": "TORONTO", "province": "ON", "country": "CA", "postalCode": "M6R1B5", "twitter": "None", "instagram": "None", "facebook": "None", "youtube": "None", "website": "None", "summary": "None", "logo": "None", "latitude": 43.63918122344037, "longitude": -79.45011548528481}, "139029839RR0001": {"name": "ST JOSEPH'S HEALTH SYSTEM", "designationCode": "C", "categoryCode": "10", "address": "50 CHARLTON AVE E", "city": "HAMILTON", "province": "ON", "country": "CA", "postalCode": "L8N4A6", "twitter": "None", "instagram": "None", "facebook": "None", "youtube": "None", "website": "None", "summary": "None", "logo": "None", "latitude": 43.24918190034062, "longitude": -79.8696584834958}, "119183432RR0001": {"name": "ST JOSEPH'S HOME FOR THE AGED", "designationCode": "C", "categoryCode": "01", "address": "100 WESTMOUNT RD", "city": "GUELPH", "province": "ON", "country": "CA", "postalCode": "N1H5H8", "twitter": "None", "instagram": "None", "facebook": "None", "youtube": "None", "website": "None", "summary": "None", "logo": "None", "latitude": 43.55088010439057, "longitude": -80.27103337871628}, "119183499RR0001": {"name": "ST JOSEPH'S HOSPITAL EMPLOYEES' CHARITY FUND", "designationCode": "C", "categoryCode": "75", "address": "100 WESTMOUNT ROAD", "city": "GUELPH", "province": "ON", "country": "CA", "postalCode": "N1H5H8", "twitter": "None", "instagram": "None", "facebook": "None", "youtube": "None", "website": "None", "summary": "None", "logo": "None", "latitude": 43.55088010439057, "longitude": -80.27103337871628}, "899841381RR0001": {"name": "ST JOSEPH'S HOSPITAL FOUNDATION (ESTEVAN) INC", "designationCode": "A", "categoryCode": "13", "address": "1176 NICHOLSON RD", "city": "ESTEVAN", "province": "SK", "country": "CA", "postalCode": "S4A0H3", "twitter": "None", "instagram": "None", "facebook": "None", "youtube": "None", "website": "None", "summary": "None", "logo": "None", "latitude": 49.151318193343755, "longitude": -103.01136227216202}, "119183556RR0001": {"name": "ST JOSEPH'S HOSPITAL FOUNDATION OF CHATHAM", "designationCode": "A", "categoryCode": "13", "address": "402 - 700 RICHMOND ST", "city": "LONDON", "province": "ON", "country": "CA", "postalCode": "N6A5C7", "twitter": "None", "instagram": "None", "facebook": "None", "youtube": "None", "website": "None", "summary": "None", "logo": "None", "latitude": 42.99403521954524, "longitude": -81.25239318829719}, "891155749RR0001": {"name": "ST JOSEPH'S HOSPITAL/FOYER D'YOUVILLE FOUNDATION INC.", "designationCode": "A", "categoryCode": "13", "address": "P.O. BOX 810", "city": "GRAVELBOURG", "province": "SK", "country": "CA", "postalCode": "S0H1X0", "twitter": "None", "instagram": "None", "facebook": "None", "youtube": "None", "website": "None", "summary": "None", "logo": "None", "latitude": 49.87668000000008, "longitude": -106.55736999999999}, "119184075RR0001": {"name": "ST JOSEPH'S PARISH", "designationCode": "C", "categoryCode": "38", "address": "P.O. BOX 41", "city": "STONY MOUNTAIN", "province": "MB", "country": "CA", "postalCode": "R0C3A0", "twitter": "None", "instagram": "None", "facebook": "None", "youtube": "None", "website": "None", "summary": "None", "logo": "None", "latitude": 50.085920000000044, "longitude": -97.21850999999998}, "119184083RR0001": {"name": "ST JOSEPH'S PARISH", "designationCode": "C", "categoryCode": "38", "address": "BOX 179", "city": "STE ROSE", "province": "MB", "country": "CA", "postalCode": "R0L1S0", "twitter": "None", "instagram": "None", "facebook": "None", "youtube": "None", "website": "None", "summary": "None", "logo": "None", "latitude": 51.05911000000003, "longitude": -99.52392999999995}, "119184117RR0001": {"name": "ST JOSEPH'S PARISH", "designationCode": "C", "categoryCode": "38", "address": "BOX 9", "city": "BALGONIE", "province": "SK", "country": "CA", "postalCode": "S0G0E0", "twitter": "None", "instagram": "None", "facebook": "None", "youtube": "None", "website": "None", "summary": "None", "logo": "None", "latitude": 50.48924000000005, "longitude": -104.26885999999996}, "119184158RR0002": {"name": "ST JOSEPH'S PARISH", "designationCode": "C", "categoryCode": "38", "address": "FR. LOUIS SALDANHA            BOX 9", "city": "SPIRIT RIVER", "province": "AB", "country": "CA", "postalCode": "T0H3G0", "twitter": "None", "instagram": "None", "facebook": "None", "youtube": "None", "website": "None", "summary": "None", "logo": "None", "latitude": 55.781268000000054, "longitude": -118.84509349999993}, "122418601RR0010": {"name": "ST JOSEPH'S PARISH", "designationCode": "C", "categoryCode": "38", "address": "PO BOX 486", "city": "KENTVILLE", "province": "NS", "country": "CA", "postalCode": "B4N3X3", "twitter": "None", "instagram": "None", "facebook": "None", "youtube": "None", "website": "None", "summary": "None", "logo": "None", "latitude": 45.07663200000006, "longitude": -64.49369299999994}, "129950804RR0024": {"name": "ST JOSEPH'S PARISH", "designationCode": "C", "categoryCode": "38", "address": "753 BURNSIDE ROAD WEST", "city": "VICTORIA", "province": "BC", "country": "CA", "postalCode": "V8Z1M9", "twitter": "None", "instagram": "None", "facebook": "None", "youtube": "None", "website": "None", "summary": "None", "logo": "None", "latitude": 48.462032106244905, "longitude": -123.4024933852307}, "131621609RR0001": {"name": "ST JOSEPH'S PARISH", "designationCode": "C", "categoryCode": "38", "address": "BOX 68", "city": "INDIAN HEAD", "province": "SK", "country": "CA", "postalCode": "S0G2K0", "twitter": "None", "instagram": "None", "facebook": "None", "youtube": "None", "website": "None", "summary": "None", "logo": "None", "latitude": 50.52675000000005, "longitude": -103.66901999999999}, "131903668RR0001": {"name": "ST JOSEPH'S PARISH", "designationCode": "C", "categoryCode": "38", "address": "BOX 147", "city": "CEYLON", "province": "SK", "country": "CA", "postalCode": "S0C0T0", "twitter": "None", "instagram": "None", "facebook": "None", "youtube": "None", "website": "None", "summary": "None", "logo": "None", "latitude": 49.45007000000004, "longitude": -104.60106999999999}, "888611795RR0002": {"name": "ST JOSEPH'S PARISH", "designationCode": "C", "categoryCode": "38", "address": "BOX 773", "city": "LANGENBURG", "province": "SK", "country": "CA", "postalCode": "S0A2A0", "twitter": "None", "instagram": "None", "facebook": "None", "youtube": "None", "website": "None", "summary": "None", "logo": "None", "latitude": 50.84159000000005, "longitude": -101.69833999999997}, "888971462RR0001": {"name": "ST JOSEPH'S PROVINCE HOUSE INC", "designationCode": "C", "categoryCode": "23", "address": "5400 CARTIER ST", "city": "VANCOUVER", "province": "BC", "country": "CA", "postalCode": "V6M3A5", "twitter": "None", "instagram": "None", "facebook": "None", "youtube": "None", "website": "None", "summary": "None", "logo": "None", "latitude": 49.236596413266795, "longitude": -123.13699795169951}, "119264174RR0008": {"name": "ST JOSEPH'S RC CHURCH", "designationCode": "C", "categoryCode": "38", "address": "96 VAN HORNE AVE", "city": "DRYDEN", "province": "ON", "country": "CA", "postalCode": "P8N2B4", "twitter": "None", "instagram": "None", "facebook": "None", "youtube": "None", "website": "None", "summary": "None", "logo": "None", "latitude": 49.78025966472387, "longitude": -92.83636457848066}, "119184356RR0001": {"name": "ST JOSEPH'S ROMAN CATHOLIC CHURCH", "designationCode": "C", "categoryCode": "38", "address": "BOX 9", "city": "CANDIAC", "province": "SK", "country": "CA", "postalCode": "S0G0N0", "twitter": "None", "instagram": "None", "facebook": "None", "youtube": "None", "website": "None", "summary": "None", "logo": "None", "latitude": 50.21002000000004, "longitude": -103.25766999999996}, "119221380RR0002": {"name": "ST JOSEPH'S SCHOOL", "designationCode": "C", "categoryCode": "20", "address": "3665 BENVOULIN RD.", "city": "KELOWNA", "province": "BC", "country": "CA", "postalCode": "V1W4M7", "twitter": "None", "instagram": "None", "facebook": "None", "youtube": "None", "website": "None", "summary": "None", "logo": "None", "latitude": 49.85056104631423, "longitude": -119.46776856721908}, "119184414RR0001": {"name": "ST JOSEPH'S UKRAINIAN CATHOLIC PARISH", "designationCode": "C", "categoryCode": "38", "address": "P.O. BOX 101", "city": "THOMPSON", "province": "MB", "country": "CA", "postalCode": "R8N1M9", "twitter": "None", "instagram": "None", "facebook": "None", "youtube": "None", "website": "None", "summary": "None", "logo": "None", "latitude": 55.74417900000006, "longitude": -97.85067199999993}, "887586196RR0001": {"name": "ST JOSEPH'S UKRAINIAN CATHOLIC PARISH", "designationCode": "C", "categoryCode": "38", "address": "250 JEFFERSON AVENUE", "city": "WINNIPEG", "province": "MB", "country": "CA", "postalCode": "R2V0M6", "twitter": "None", "instagram": "None", "facebook": "None", "youtube": "None", "website": "None", "summary": "None", "logo": "None", "latitude": 49.93454811457705, "longitude": -97.12222266726269}, "135142834RR0001": {"name": "ST JOSEPH'S WORKERS FOR LIFE & FAMILY", "designationCode": "C", "categoryCode": "49", "address": "BOX 7369, STN. V", "city": "OTTAWA", "province": "ON", "country": "CA", "postalCode": "K1L8E4", "twitter": "None", "instagram": "None", "facebook": "None", "youtube": "None", "website": "None", "summary": "None", "logo": "None", "latitude": 45.42177300000006, "longitude": -75.69115999999994}, "119183598RR0001": {"name": "ST JOSEPHS HOSPITAL HAMILTON EMPLOYEES CHARITY TRUST", "designationCode": "C", "categoryCode": "75", "address": "50 CHARLTON AVENUE EAST", "city": "HAMILTON", "province": "ON", "country": "CA", "postalCode": "L8N3V5", "twitter": "None", "instagram": "None", "facebook": "None", "youtube": "None", "website": "None", "summary": "None", "logo": "None", "latitude": 43.24918190034062, "longitude": -79.8696584834958}, "119183788RR0001": {"name": "ST JOSEPHS PARISH MEMORIAL SCHOLARSHIP FUND", "designationCode": "C", "categoryCode": "25", "address": "235 BRANT AVENUE", "city": "BRANTFORD", "province": "ON", "country": "CA", "postalCode": "N3T3J4", "twitter": "None", "instagram": "None", "facebook": "None", "youtube": "None", "website": "None", "summary": "None", "logo": "None", "latitude": 43.147327327182055, "longitude": -80.27655515900035}, "119184315RR0001": {"name": "ST JOSEPHS POLISH NATIONAL CATHOLIC CHURCH", "designationCode": "C", "categoryCode": "39", "address": "1111 ASSINIBOINE AVENUE", "city": "BRANDON", "province": "MB", "country": "CA", "postalCode": "R7A0G9", "twitter": "None", "instagram": "None", "facebook": "None", "youtube": "None", "website": "None", "summary": "None", "logo": "None", "latitude": 49.850590493219336, "longitude": -99.9531315}, "131769960RR0001": {"name": "ST JUDE COMMUNITY HOMES", "designationCode": "C", "categoryCode": "09", "address": "431 DUNDAS ST E", "city": "TORONTO", "province": "ON", "country": "CA", "postalCode": "M5A2B1", "twitter": "None", "instagram": "None", "facebook": "None", "youtube": "None", "website": "None", "summary": "None", "logo": "None", "latitude": 43.65927581652158, "longitude": -79.36652688022974}, "126767706RR0001": {"name": "ST JUDE OSHAWA COMMUNITY CENTRE", "designationCode": "C", "categoryCode": "56", "address": "288 SHEFFIELD CRT", "city": "OSHAWA", "province": "ON", "country": "CA", "postalCode": "L1J8J3", "twitter": "None", "instagram": "None", "facebook": "None", "youtube": "None", "website": "None", "summary": "None", "logo": "None", "latitude": 43.88265676989453, "longitude": -78.87362583539169}, "119184588RR0002": {"name": "ST JUDE'S", "designationCode": "C", "categoryCode": "30", "address": "639 BOWAN", "city": "MOUNT BRYDGES", "province": "ON", "country": "CA", "postalCode": "N0L1W0", "twitter": "None", "instagram": "None", "facebook": "None", "youtube": "None", "website": "None", "summary": "None", "logo": "None", "latitude": 42.90807996168284, "longitude": -81.49415468301707}, "119184604RR0002": {"name": "ST JUDE'S CHURCH", "designationCode": "C", "categoryCode": "30", "address": "BOX 21", "city": "GRAND MARAIS", "province": "MB", "country": "CA", "postalCode": "R0E0T0", "twitter": "None", "instagram": "None", "facebook": "None", "youtube": "None", "website": "None", "summary": "None", "logo": "None", "latitude": 50.55020476890258, "longitude": -96.63362244326943}, "119184612RR0001": {"name": "ST JUDE'S CHURCH", "designationCode": "C", "categoryCode": "38", "address": "BOX 452", "city": "CARNDUFF", "province": "SK", "country": "CA", "postalCode": "S0C0S0", "twitter": "None", "instagram": "None", "facebook": "None", "youtube": "None", "website": "None", "summary": "None", "logo": "None", "latitude": 49.17721000000006, "longitude": -101.79901999999998}, "129481214RR0001": {"name": "ST JUDE'S CHURCH WEXFORD", "designationCode": "C", "categoryCode": "30", "address": "10 HOWARTH AVE", "city": "SCARBOROUGH", "province": "ON", "country": "CA", "postalCode": "M1R1H4", "twitter": "None", "instagram": "None", "facebook": "None", "youtube": "None", "website": "None", "summary": "None", "logo": "None", "latitude": 43.738812912285816, "longitude": -79.30564593730145}, "136529187RR0001": {"name": "ST JUDE'S MISSION INTERNATIONAL WORKING FOR THE UNDERPRIVILEGED", "designationCode": "C", "categoryCode": "47", "address": "57 FRONT ST", "city": "CAMPBELLS BAY", "province": "QC", "country": "CA", "postalCode": "J0X1K0", "twitter": "None", "instagram": "None", "facebook": "None", "youtube": "None", "website": "None", "summary": "None", "logo": "None", "latitude": 45.72905775076461, "longitude": -76.59839982361936}, "128967353RR0039": {"name": "ST JUDE'S PARISH", "designationCode": "C", "categoryCode": "38", "address": "372 GENEVIEVE ST", "city": "HAWKESBURY", "province": "ON", "country": "CA", "postalCode": "K6A2M1", "twitter": "None", "instagram": "None", "facebook": "None", "youtube": "None", "website": "None", "summary": "None", "logo": "None", "latitude": 45.60830235358587, "longitude": -74.61895922211106}, "129144549RR0041": {"name": "ST JUDES ANGLICAN CHURCH GREENWOOD BC", "designationCode": "C", "categoryCode": "30", "address": "BOX 187", "city": "MIDWAY", "province": "BC", "country": "CA", "postalCode": "V0H1M0", "twitter": "None", "instagram": "None", "facebook": "None", "youtube": "None", "website": "None", "summary": "None", "logo": "None", "latitude": 49.10113921679708, "longitude": -118.67616064840723}, "119184810RR0001": {"name": "ST LAMBERT UNITED CHURCH", "designationCode": "C", "categoryCode": "44", "address": "415 MERCILLE AVE", "city": "ST LAMBERT", "province": "QC", "country": "CA", "postalCode": "J4P2L6", "twitter": "None", "instagram": "None", "facebook": "None", "youtube": "None", "website": "None", "summary": "None", "logo": "None", "latitude": 45.50354253093091, "longitude": -73.51206205066642}, "119288918RR0079": {"name": "ST LAWRENCE CONGRAGATION OF JEHOVAH'S WITNESSES", "designationCode": "C", "categoryCode": "61", "address": "35 WELLINGTON ST", "city": "CORNWALL", "province": "ON", "country": "CA", "postalCode": "K6J5G7", "twitter": "None", "instagram": "None", "facebook": "None", "youtube": "None", "website": "None", "summary": "None", "logo": "None", "latitude": 45.050112334179595, "longitude": -74.75485322843203}, "888792264RR0001": {"name": "ST LAWRENCE DISTRICT MEDICAL CENTRE", "designationCode": "C", "categoryCode": "11", "address": "1012 PRINCE ST", "city": "LANSDOWNE", "province": "ON", "country": "CA", "postalCode": "K0E1L0", "twitter": "None", "instagram": "None", "facebook": "None", "youtube": "None", "website": "None", "summary": "None", "logo": "None", "latitude": 44.40132066028048, "longitude": -76.0180218580987}, "128136918RR0015": {"name": "ST LAWRENCE PARISH", "designationCode": "C", "categoryCode": "38", "address": "114 CREE ROAD", "city": "THOMPSON", "province": "MB", "country": "CA", "postalCode": "R8N0C1", "twitter": "None", "instagram": "None", "facebook": "None", "youtube": "None", "website": "None", "summary": "None", "logo": "None", "latitude": 55.74102370539543, "longitude": -97.86114145955705}, "119184976RR0001": {"name": "ST LAWRENCE PRESBYTERIAN CHURCH", "designationCode": "C", "categoryCode": "37", "address": "910 HURON ST", "city": "LONDON", "province": "ON", "country": "CA", "postalCode": "N5Y4K4", "twitter": "None", "instagram": "None", "facebook": "None", "youtube": "None", "website": "None", "summary": "None", "logo": "None", "latitude": 43.01470271720795, "longitude": -81.23341289260765}, "138852363RR0001": {"name": "ST LAWRENCE RIVER INSTITUTE OF ENVIRONMENTAL SCIENCES/L'INSTITUT DES SCIENCES ENVIRONNEMENTALES DU FLEUVE ST-LAURENT", "designationCode": "C", "categoryCode": "20", "address": "2 ST LAWRENCE  DR", "city": "CORNWALL", "province": "ON", "country": "CA", "postalCode": "K6H4Z1", "twitter": "None", "instagram": "None", "facebook": "None", "youtube": "None", "website": "None", "summary": "None", "logo": "None", "latitude": 45.0165729796055, "longitude": -74.70227853861323}, "119185015RR0001": {"name": "ST LAWRENCE VALLEY AGRICULTURAL SOCIETY", "designationCode": "C", "categoryCode": "52", "address": "P.O. BOX 7", "city": "WILLIAMSTOWN", "province": "ON", "country": "CA", "postalCode": "K0C2J0", "twitter": "None", "instagram": "None", "facebook": "None", "youtube": "None", "website": "None", "summary": "None", "logo": "None", "latitude": 45.14653000000004, "longitude": -74.57874999999996}, "119185023RR0001": {"name": "ST LAWRENCE YOUTH ASSOCIATION", "designationCode": "C", "categoryCode": "59", "address": "817 DIVISION ST", "city": "KINGSTON", "province": "ON", "country": "CA", "postalCode": "K7K4C2", "twitter": "None", "instagram": "None", "facebook": "None", "youtube": "None", "website": "None", "summary": "None", "logo": "None", "latitude": 44.2542312603439, "longitude": -76.49679357931831}, "135411510RR0001": {"name": "ST LAZARE PARISH", "designationCode": "C", "categoryCode": "38", "address": "BOX 9", "city": "ST LAZARE", "province": "MB", "country": "CA", "postalCode": "R0M1Y0", "twitter": "None", "instagram": "None", "facebook": "None", "youtube": "None", "website": "None", "summary": "None", "logo": "None", "latitude": 50.44891000000007, "longitude": -101.30323999999996}, "133951020RR0001": {"name": "ST LEONARD'S CHURCH", "designationCode": "C", "categoryCode": "30", "address": "25 WANLESS AVE", "city": "TORONTO", "province": "ON", "country": "CA", "postalCode": "M4N1V5", "twitter": "None", "instagram": "None", "facebook": "None", "youtube": "None", "website": "None", "summary": "None", "logo": "None", "latitude": 43.72657859253296, "longitude": -79.40174038715463}, "119185114RR0001": {"name": "ST LEONARD'S HOUSE (WINDSOR)", "designationCode": "C", "categoryCode": "59", "address": "491 VICTORIA AVE", "city": "WINDSOR", "province": "ON", "country": "CA", "postalCode": "N9A4N1", "twitter": "None", "instagram": "None", "facebook": "None", "youtube": "None", "website": "None", "summary": "None", "logo": "None", "latitude": 42.31443786565878, "longitude": -83.03947052556389}, "128967353RR0056": {"name": "ST LEOPOLD MANDIC CROATIAN PARISH", "designationCode": "C", "categoryCode": "38", "address": "67 LYNDALE AVE", "city": "OTTAWA", "province": "ON", "country": "CA", "postalCode": "K1Y2M7", "twitter": "None", "instagram": "None", "facebook": "None", "youtube": "None", "website": "None", "summary": "None", "logo": "None", "latitude": 45.40723999362338, "longitude": -75.73107761310516}, "129950804RR0025": {"name": "ST LOUIS DE MONTFORT CHURCH", "designationCode": "C", "categoryCode": "38", "address": "BOX 39", "city": "LAKE COWICHAN", "province": "BC", "country": "CA", "postalCode": "V0R2G0", "twitter": "None", "instagram": "None", "facebook": "None", "youtube": "None", "website": "None", "summary": "None", "logo": "None", "latitude": 48.810804726537235, "longitude": -123.97042104319344}, "119264174RR0009": {"name": "ST LOUIS ROMAN CATHOLIC PARISH", "designationCode": "C", "categoryCode": "38", "address": "P.O.BOX 843", "city": "KEEWATIN", "province": "ON", "country": "CA", "postalCode": "P0X1C0", "twitter": "None", "instagram": "None", "facebook": "None", "youtube": "None", "website": "None", "summary": "None", "logo": "None", "latitude": 49.75863000000005, "longitude": -94.54708249999993}, "122418601RR0005": {"name": "ST LOUIS' PARISH", "designationCode": "C", "categoryCode": "38", "address": "PO BOX 7", "city": "ANNAPOLIS ROYAL", "province": "NS", "country": "CA", "postalCode": "B0S1A0", "twitter": "None", "instagram": "None", "facebook": "None", "youtube": "None", "website": "None", "summary": "None", "logo": "None", "latitude": 44.74294007660574, "longitude": -65.518980048906}, "119185296RR0001": {"name": "ST LUKE LUTHERAN CHURCH", "designationCode": "C", "categoryCode": "32", "address": "BOX 301", "city": "EGANVILLE", "province": "ON", "country": "CA", "postalCode": "K0J1T0", "twitter": "None", "instagram": "None", "facebook": "None", "youtube": "None", "website": "None", "summary": "None", "logo": "None", "latitude": 45.57147000000006, "longitude": -77.04741949999993}, "134949262RR0001": {"name": "ST LUKE S UNITED CHURCH", "designationCode": "C", "categoryCode": "44", "address": "BOX 16 RR 1", "city": "DENBIGH", "province": "ON", "country": "CA", "postalCode": "K0H1L0", "twitter": "None", "instagram": "None", "facebook": "None", "youtube": "None", "website": "None", "summary": "None", "logo": "None", "latitude": 45.14277000000004, "longitude": -77.26546999999994}, "893177170RR0001": {"name": "ST LUKE/ST JOHN'S CHAPEL", "designationCode": "C", "categoryCode": "39", "address": "GARRISON EDMONTON             BOX 10500", "city": "EDMONTON", "province": "AB", "country": "CA", "postalCode": "T5J4J5", "twitter": "None", "instagram": "None", "facebook": "None", "youtube": "None", "website": "None", "summary": "None", "logo": "None", "latitude": 53.54623500000005, "longitude": -113.49037249999994}, "119185700RR0002": {"name": "ST LUKE'S", "designationCode": "C", "categoryCode": "30", "address": "RR#8                          674 LAKE RANGE DRIVE", "city": "KINCARDINE", "province": "ON", "country": "CA", "postalCode": "N2Z0B3", "twitter": "None", "instagram": "None", "facebook": "None", "youtube": "None", "website": "None", "summary": "None", "logo": "None", "latitude": 44.11169425428439, "longitude": -81.70742962885862}, "889986774RR0002": {"name": "ST LUKE'S (CRUMLIN) ANGLICAN CHURCH", "designationCode": "C", "categoryCode": "30", "address": "307-660 CHEAPSIDE ST", "city": "LONDON", "province": "ON", "country": "CA", "postalCode": "N5Y3Y2", "twitter": "None", "instagram": "None", "facebook": "None", "youtube": "None", "website": "None", "summary": "None", "logo": "None", "latitude": 43.00646485050998, "longitude": -81.23856962150195}, "119185403RR0002": {"name": "ST LUKE'S ANGLICAN CHURCH", "designationCode": "C", "categoryCode": "30", "address": "205 CAMERON STREET", "city": "THUNDER BAY", "province": "ON", "country": "CA", "postalCode": "P7C2H1", "twitter": "None", "instagram": "None", "facebook": "None", "youtube": "None", "website": "None", "summary": "None", "logo": "None", "latitude": 48.38880372442133, "longitude": -89.24202444405347}, "119185445RR0002": {"name": "ST LUKE'S ANGLICAN CHURCH", "designationCode": "C", "categoryCode": "30", "address": "BOX 390", "city": "BEAVERLODGE", "province": "AB", "country": "CA", "postalCode": "T0H0C0", "twitter": "None", "instagram": "None", "facebook": "None", "youtube": "None", "website": "None", "summary": "None", "logo": "None", "latitude": 55.209100000000035, "longitude": -119.42957999999999}, "119185692RR0002": {"name": "ST LUKE'S ANGLICAN CHURCH", "designationCode": "C", "categoryCode": "30", "address": "56486 HERITAGE LINE           BOX 254", "city": "STRAFFORDVILLE", "province": "ON", "country": "CA", "postalCode": "N0J1Y0", "twitter": "None", "instagram": "None", "facebook": "None", "youtube": "None", "website": "None", "summary": "None", "logo": "None", "latitude": 42.74830937068593, "longitude": -80.77222909042122}, "119208031RR0006": {"name": "ST LUKE'S ANGLICAN CHURCH", "designationCode": "C", "categoryCode": "30", "address": "PO BOX 104", "city": "OLD CROW", "province": "YT", "country": "CA", "postalCode": "Y0B1N0", "twitter": "None", "instagram": "None", "facebook": "None", "youtube": "None", "website": "None", "summary": "None", "logo": "None", "latitude": 67.57025000000004, "longitude": -139.82671}, "131135824RR0001": {"name": "ST LUKE'S ANGLICAN CHURCH", "designationCode": "C", "categoryCode": "30", "address": "3233 ARGYLE ROAD", "city": "REGINA", "province": "SK", "country": "CA", "postalCode": "S4S2B5", "twitter": "None", "instagram": "None", "facebook": "None", "youtube": "None", "website": "None", "summary": "None", "logo": "None", "latitude": 50.42714839780933, "longitude": -104.63029354116516}, "132232562RR0002": {"name": "ST LUKE'S ANGLICAN CHURCH", "designationCode": "C", "categoryCode": "30", "address": "1485 MARY ST", "city": "CAMBRIDGE", "province": "ON", "country": "CA", "postalCode": "N3H4N8", "twitter": "None", "instagram": "None", "facebook": "None", "youtube": "None", "website": "None", "summary": "None", "logo": "None", "latitude": 43.392578301142564, "longitude": -80.3397360459059}, "889542379RR0001": {"name": "ST LUKE'S ANGLICAN CHURCH", "designationCode": "C", "categoryCode": "30", "address": "ST.LUKES ANGLICAN CHURCH", "city": "BURNT RIVER", "province": "ON", "country": "CA", "postalCode": "K0M1C0", "twitter": "None", "instagram": "None", "facebook": "None", "youtube": "None", "website": "None", "summary": "None", "logo": "None", "latitude": 49.87624004385712, "longitude": -97.15075993392587}, "130488836RR0002": {"name": "ST LUKE'S ANGLICAN CHURCH-BROUGHDALE", "designationCode": "C", "categoryCode": "30", "address": "1204 RICHMOND ST", "city": "LONDON", "province": "ON", "country": "CA", "postalCode": "N6A3L4", "twitter": "None", "instagram": "None", "facebook": "None", "youtube": "None", "website": "None", "summary": "None", "logo": "None", "latitude": 43.01121821983368, "longitude": -81.2635382906979}, "119185502RR0002": {"name": "ST LUKE'S CATHEDRAL", "designationCode": "C", "categoryCode": "30", "address": "160 BROCK ST", "city": "SAULT STE. MARIE", "province": "ON", "country": "CA", "postalCode": "P6A3B7", "twitter": "None", "instagram": "None", "facebook": "None", "youtube": "None", "website": "None", "summary": "None", "logo": "None", "latitude": 46.51019639797469, "longitude": -84.3282277833403}, "889924577RR0001": {"name": "ST LUKE'S CHAPEL, CANADIAN FORCES BASE GAGETOWN", "designationCode": "C", "categoryCode": "39", "address": "CANADIAN FORCES BASE GAGETOWN P.O. BOX 17000, STN FORCES", "city": "OROMOCTO", "province": "NB", "country": "CA", "postalCode": "E2V4J5", "twitter": "None", "instagram": "None", "facebook": "None", "youtube": "None", "website": "None", "summary": "None", "logo": "None", "latitude": 45.83982000000003, "longitude": -66.46903999999995}, "119185585RR0001": {"name": "ST LUKE'S CHURCH", "designationCode": "C", "categoryCode": "30", "address": "120 PINE STREET", "city": "MAGOG", "province": "QC", "country": "CA", "postalCode": "J1X2H9", "twitter": "None", "instagram": "None", "facebook": "None", "youtube": "None", "website": "None", "summary": "None", "logo": "None", "latitude": 37.635532478792605, "longitude": -121.0083114970858}, "119185601RR0001": {"name": "ST LUKE'S CHURCH", "designationCode": "C", "categoryCode": "30", "address": "236 NELSON ST", "city": "KINGSTON", "province": "ON", "country": "CA", "postalCode": "K7K4M7", "twitter": "None", "instagram": "None", "facebook": "None", "youtube": "None", "website": "None", "summary": "None", "logo": "None", "latitude": 44.23770578351318, "longitude": -76.50207190510112}, "119185643RR0001": {"name": "ST LUKE'S CHURCH", "designationCode": "C", "categoryCode": "30", "address": "22 CAROLINE ST W.", "city": "CREEMORE", "province": "ON", "country": "CA", "postalCode": "L0M1G0", "twitter": "None", "instagram": "None", "facebook": "None", "youtube": "None", "website": "None", "summary": "None", "logo": "None", "latitude": 44.32565425287074, "longitude": -80.10837797766742}, "119185684RR0001": {"name": "ST LUKE'S CHURCH", "designationCode": "C", "categoryCode": "30", "address": "904 COXWELL AVE", "city": "TORONTO", "province": "ON", "country": "CA", "postalCode": "M4C3G3", "twitter": "None", "instagram": "None", "facebook": "None", "youtube": "None", "website": "None", "summary": "None", "logo": "None", "latitude": 43.69436446849217, "longitude": -79.32812560577624}, "119185817RR0002": {"name": "ST LUKE'S CHURCH", "designationCode": "C", "categoryCode": "30", "address": "PO BOX 255                    STN MAIN", "city": "OAKVILLE", "province": "MB", "country": "CA", "postalCode": "R0H0Y0", "twitter": "None", "instagram": "None", "facebook": "None", "youtube": "None", "website": "None", "summary": "None", "logo": "None", "latitude": 49.92975000000007, "longitude": -98.00394999999997}, "132946278RR0001": {"name": "ST LUKE'S CHURCH", "designationCode": "C", "categoryCode": "30", "address": "2951 26 AVE SE", "city": "CALGARY", "province": "AB", "country": "CA", "postalCode": "T2B2P2", "twitter": "None", "instagram": "None", "facebook": "None", "youtube": "None", "website": "None", "summary": "None", "logo": "None", "latitude": 51.030489470136935, "longitude": -113.98829013918865}, "893178772RR0002": {"name": "ST LUKE'S CHURCH", "designationCode": "C", "categoryCode": "30", "address": "420 COURT ST", "city": "WATERLOO", "province": "QC", "country": "CA", "postalCode": "J0E2N0", "twitter": "None", "instagram": "None", "facebook": "None", "youtube": "None", "website": "None", "summary": "None", "logo": "None", "latitude": 45.349098000000055, "longitude": -72.52319149999994}, "890110646RR0001": {"name": "ST LUKE'S CHURCH PRICE'S CORNERS", "designationCode": "C", "categoryCode": "30", "address": "BOX 362 STN MAIN", "city": "ORILLIA", "province": "ON", "country": "CA", "postalCode": "L3V6J8", "twitter": "None", "instagram": "None", "facebook": "None", "youtube": "None", "website": "None", "summary": "None", "logo": "None", "latitude": 44.58482747647954, "longitude": -79.42452845126093}, "119185890RR0001": {"name": "ST LUKE'S EVANGELICAL LUTHERAN CHURCH", "designationCode": "C", "categoryCode": "32", "address": "5105 HIGHWAY 325", "city": "BAKER SETTLEMENT", "province": "NS", "country": "CA", "postalCode": "B4V7E8", "twitter": "None", "instagram": "None", "facebook": "None", "youtube": "None", "website": "None", "summary": "None", "logo": "None", "latitude": 44.39716482654759, "longitude": -64.67837540632044}, "119185908RR0001": {"name": "ST LUKE'S EVANGELICAL LUTHERAN CHURCH", "designationCode": "C", "categoryCode": "32", "address": "13150 WEEGAR RD               RR #2", "city": "CHESTERVILLE", "province": "ON", "country": "CA", "postalCode": "K0C1H0", "twitter": "None", "instagram": "None", "facebook": "None", "youtube": "None", "website": "None", "summary": "None", "logo": "None", "latitude": 45.03536081181839, "longitude": -75.21124908658899}, "119185957RR0001": {"name": "ST LUKE'S LUTHERAN CHURCH", "designationCode": "C", "categoryCode": "32", "address": "12840 HIGHWAY 3", "city": "RHODES CORNER", "province": "NS", "country": "CA", "postalCode": "B4V5N3", "twitter": "None", "instagram": "None", "facebook": "None", "youtube": "None", "website": "None", "summary": "None", "logo": "None", "latitude": 44.37714003535722, "longitude": -64.42686737764684}, "139462600RR0001": {"name": "ST LUKE'S PLAYERS", "designationCode": "C", "categoryCode": "22", "address": "PO BOX 50044                  1594 FAIRFIELD ROAD", "city": "VICTORIA", "province": "BC", "country": "CA", "postalCode": "V8S3T5", "twitter": "None", "instagram": "None", "facebook": "None", "youtube": "None", "website": "None", "summary": "None", "logo": "None", "latitude": 48.41235038444201, "longitude": -123.33847692893424}, "119186062RR0001": {"name": "ST LUKE'S PRESBYTERIAN CHURCH", "designationCode": "C", "categoryCode": "37", "address": "RR#1 SALT", "city": "PICTOU COUNTY", "province": "NS", "country": "CA", "postalCode": "B0K1P0", "twitter": "None", "instagram": "None", "facebook": "None", "youtube": "None", "website": "None", "summary": "None", "logo": "None", "latitude": 45.546054000000055, "longitude": -62.877490999999935}, "119186070RR0001": {"name": "ST LUKE'S PRESBYTERIAN CHURCH", "designationCode": "C", "categoryCode": "37", "address": "395 MURRAY AVE", "city": "BATHURST", "province": "NB", "country": "CA", "postalCode": "E2A1T4", "twitter": "None", "instagram": "None", "facebook": "None", "youtube": "None", "website": "None", "summary": "None", "logo": "None", "latitude": 47.61885743519533, "longitude": -65.64970925838199}, "119186096RR0001": {"name": "ST LUKE'S PRESBYTERIAN CHURCH", "designationCode": "C", "categoryCode": "37", "address": "333 ROSSLAND RD W", "city": "OSHAWA", "province": "ON", "country": "CA", "postalCode": "L1J3G6", "twitter": "None", "instagram": "None", "facebook": "None", "youtube": "None", "website": "None", "summary": "None", "logo": "None", "latitude": 43.91234685980175, "longitude": -78.88335600830987}, "119186161RR0001": {"name": "ST LUKE'S UNITED CHURCH", "designationCode": "C", "categoryCode": "44", "address": "350 INDIAN RD", "city": "SARNIA", "province": "ON", "country": "CA", "postalCode": "N7T3W8", "twitter": "None", "instagram": "None", "facebook": "None", "youtube": "None", "website": "None", "summary": "None", "logo": "None", "latitude": 42.96736748506126, "longitude": -82.37615515118505}, "888848447RR0001": {"name": "ST LUKE'S UNITED CHURCH", "designationCode": "C", "categoryCode": "44", "address": "353 SHERBOURNE ST", "city": "TORONTO", "province": "ON", "country": "CA", "postalCode": "M5A2S3", "twitter": "None", "instagram": "None", "facebook": "None", "youtube": "None", "website": "None", "summary": "None", "logo": "None", "latitude": 43.66281244768881, "longitude": -79.37285681040473}, "889115747RR0002": {"name": "ST LUKE'S UNITED CHURCH", "designationCode": "C", "categoryCode": "44", "address": "5374 ST MARGARET'S BAY ROAD", "city": "UPPER TANTALLON", "province": "NS", "country": "CA", "postalCode": "B3Z2J1", "twitter": "None", "instagram": "None", "facebook": "None", "youtube": "None", "website": "None", "summary": "None", "logo": "None", "latitude": 44.69308721896832, "longitude": -63.88586462256888}, "132031527RR0001": {"name": "ST LUKE'S UNITED CHURCH ENDOWMENT FUND", "designationCode": "B", "categoryCode": "45", "address": "130 KING ST WEST  20TH FLOOR  BOX 430 STN FIRST CANADIAN PL", "city": "TORONTO", "province": "ON", "country": "CA", "postalCode": "M5X1K1", "twitter": "None", "instagram": "None", "facebook": "None", "youtube": "None", "website": "None", "summary": "None", "logo": "None", "latitude": 43.64826932503962, "longitude": -79.38190945606182}, "129144549RR0013": {"name": "ST LUKES ANGLICAN CHURCH", "designationCode": "C", "categoryCode": "30", "address": "PO BOX 1044", "city": "BLAIRMORE", "province": "AB", "country": "CA", "postalCode": "T0K0E0", "twitter": "None", "instagram": "None", "facebook": "None", "youtube": "None", "website": "None", "summary": "None", "logo": "None", "latitude": 49.491268008524564, "longitude": -113.94719278131039}, "119186120RR0001": {"name": "ST LUKES UNITED CHURCH", "designationCode": "C", "categoryCode": "44", "address": "2268 WEST RIVER SIDE RD.      R.R.#3", "city": "SALT SPRINGS PICTOU CO", "province": "NS", "country": "CA", "postalCode": "B0K1P0", "twitter": "None", "instagram": "None", "facebook": "None", "youtube": "None", "website": "None", "summary": "None", "logo": "None", "latitude": 45.54678463879855, "longitude": -62.86726937771427}, "879911527RR0001": {"name": "ST LUKES UNITED CHURCH", "designationCode": "C", "categoryCode": "44", "address": "1520 BANCROFT DRIVE", "city": "SUDBURY", "province": "ON", "country": "CA", "postalCode": "P3B1R4", "twitter": "None", "instagram": "None", "facebook": "None", "youtube": "None", "website": "None", "summary": "None", "logo": "None", "latitude": 46.491449508222985, "longitude": -80.9498520313636}, "890111248RR0001": {"name": "ST LUKES UNITED CHURCH", "designationCode": "C", "categoryCode": "44", "address": "560 DONKIN HWY", "city": "DONKIN", "province": "NS", "country": "CA", "postalCode": "B1A6X2", "twitter": "None", "instagram": "None", "facebook": "None", "youtube": "None", "website": "None", "summary": "None", "logo": "None", "latitude": 46.18185230725941, "longitude": -59.878175569103846}}