{"883046971RR0001": {"name": "NEUBERGTHAL HERITAGE FOUNDATION INC.", "designationCode": "C", "categoryCode": "52", "address": "P.O. BOX 2429", "city": "ALTONA", "province": "MB", "country": "CA", "postalCode": "R0G0B0", "twitter": "None", "instagram": "None", "facebook": "None", "youtube": "None", "website": "None", "summary": "None", "logo": "None", "latitude": 49.10353800000006, "longitude": -97.55120149999993}, "893301762RR0001": {"name": "NEUDORF CHARITABLE TRUST", "designationCode": "B", "categoryCode": "39", "address": "3425 - 2 AVENUE SOUTH", "city": "LETHBRIDGE", "province": "AB", "country": "CA", "postalCode": "T1J4V1", "twitter": "None", "instagram": "None", "facebook": "None", "youtube": "None", "website": "None", "summary": "None", "logo": "None", "latitude": 49.696839530439966, "longitude": -112.78914308381903}, "119053775RR0001": {"name": "NEUROFIBROMATOSIS SOCIETY OF ONTARIO", "designationCode": "C", "categoryCode": "11", "address": "UNIT 30 - 1814 SHORE ROAD", "city": "LONDON", "province": "ON", "country": "CA", "postalCode": "N6K0C6", "twitter": "None", "instagram": "None", "facebook": "None", "youtube": "None", "website": "None", "summary": "None", "logo": "None", "latitude": 42.969373392232285, "longitude": -81.3566457073402}, "105201156RR0001": {"name": "NEUROLOGICAL SCIENCES FOUNDATION OF CANADA INC.", "designationCode": "C", "categoryCode": "11", "address": "709-7015 MACLEOD TRAIL SW", "city": "CALGARY", "province": "AB", "country": "CA", "postalCode": "T2H2K6", "twitter": "None", "instagram": "None", "facebook": "None", "youtube": "None", "website": "None", "summary": "None", "logo": "None", "latitude": 50.99439991848855, "longitude": -114.0716953460148}, "132450776RR0001": {"name": "NEUTRAL GROUND INC", "designationCode": "C", "categoryCode": "22", "address": "203-1856 SCARTH ST", "city": "REGINA", "province": "SK", "country": "CA", "postalCode": "S4P2G3", "twitter": "None", "instagram": "None", "facebook": "None", "youtube": "None", "website": "None", "summary": "None", "logo": "None", "latitude": 50.44932, "longitude": -104.61085314963331}, "898328083RR0001": {"name": "NEUTRAL HILLS HISTORICAL SOCIETY", "designationCode": "C", "categoryCode": "50", "address": "P.O. BOX 250                  4902 50 ST", "city": "CONSORT", "province": "AB", "country": "CA", "postalCode": "T0C1B0", "twitter": "None", "instagram": "None", "facebook": "None", "youtube": "None", "website": "None", "summary": "None", "logo": "None", "latitude": 52.00734532944776, "longitude": -110.77545608840667}, "891682734RR0001": {"name": "NEUTROPENIA SUPPORT ASSOCIATION INC", "designationCode": "B", "categoryCode": "11", "address": "P.O. BOX 243                  971 CORYDON AVENUE", "city": "WINNIPEG", "province": "MB", "country": "CA", "postalCode": "R3M3S7", "twitter": "None", "instagram": "None", "facebook": "None", "youtube": "None", "website": "None", "summary": "None", "logo": "None", "latitude": 49.868005840412025, "longitude": -97.1618192290376}, "865000491RR0001": {"name": "NEW ALLEGRO THEATRE-LE NOUVEAU TH\u00c9\u00c2TRE ALLEGRO", "designationCode": "C", "categoryCode": "22", "address": "603 SHAW STREET", "city": "TORONTO", "province": "ON", "country": "CA", "postalCode": "M6G3L5", "twitter": "None", "instagram": "None", "facebook": "None", "youtube": "None", "website": "None", "summary": "None", "logo": "None", "latitude": 43.658907338334544, "longitude": -79.42179976322943}, "865105902RR0001": {"name": "NEW ALLIANCE CHRISTIAN CHURCH OF MISSISSAUGA", "designationCode": "C", "categoryCode": "39", "address": "2438 GLENGARRY RD.", "city": "MISSISSAUGA", "province": "ON", "country": "CA", "postalCode": "L5C1Y2", "twitter": "None", "instagram": "None", "facebook": "None", "youtube": "None", "website": "None", "summary": "None", "logo": "None", "latitude": 43.553565389376324, "longitude": -79.63742681934886}, "861066934RR0001": {"name": "NEW AND LIVING WAY CHRISTIAN CHURCH OF EDMONTON", "designationCode": "C", "categoryCode": "39", "address": "14204 - 54TH AVENUE N.W.", "city": "EDMONTON", "province": "AB", "country": "CA", "postalCode": "T6H0W1", "twitter": "None", "instagram": "None", "facebook": "None", "youtube": "None", "website": "None", "summary": "None", "logo": "None", "latitude": 53.49139746768411, "longitude": -113.56609427699232}, "891270399RR0001": {"name": "NEW ANNAN BELLGIFT CEMETERY COMPANY", "designationCode": "C", "categoryCode": "59", "address": "1470 HIGHWAY 246", "city": "TATAMAGOUCHE", "province": "NS", "country": "CA", "postalCode": "B0K1V0", "twitter": "None", "instagram": "None", "facebook": "None", "youtube": "None", "website": "None", "summary": "None", "logo": "None", "latitude": 45.63926584875042, "longitude": -63.36358736812041}, "119053858RR0001": {"name": "NEW ANNAN UNITED BAPTIST CHURCH", "designationCode": "C", "categoryCode": "31", "address": "906 BALMORAL RD               RR 2", "city": "TATAMAGOUCHE", "province": "NS", "country": "CA", "postalCode": "B0K1V0", "twitter": "None", "instagram": "None", "facebook": "None", "youtube": "None", "website": "None", "summary": "None", "logo": "None", "latitude": 45.633329469560046, "longitude": -63.3152036791506}, "118803618RR0001": {"name": "NEW ANOINTING CHRISTIAN FELLOWSHIP OF WINNIPEG INC.", "designationCode": "C", "categoryCode": "39", "address": "1425 MANITOBA AVE", "city": "WINNIPEG", "province": "MB", "country": "CA", "postalCode": "R2X0L3", "twitter": "None", "instagram": "None", "facebook": "None", "youtube": "None", "website": "None", "summary": "None", "logo": "None", "latitude": 49.929313943129834, "longitude": -97.18181381499237}, "107768558RR0001": {"name": "NEW APOSTOLIC CHURCH CANADA", "designationCode": "C", "categoryCode": "39", "address": "319 BRIDGEPORT ROAD EAST", "city": "WATERLOO", "province": "ON", "country": "CA", "postalCode": "N2J2K9", "twitter": "None", "instagram": "None", "facebook": "None", "youtube": "None", "website": "None", "summary": "None", "logo": "None", "latitude": 43.47261679098636, "longitude": -80.4979752964107}, "119053874RR0001": {"name": "NEW BANDON PASTORAL CHARGE", "designationCode": "C", "categoryCode": "44", "address": "6724 ROUTE 11", "city": "CLIFTON", "province": "NB", "country": "CA", "postalCode": "E2A5M4", "twitter": "None", "instagram": "None", "facebook": "None", "youtube": "None", "website": "None", "summary": "None", "logo": "None", "latitude": 47.74306257881197, "longitude": -65.36996648130845}, "119053882RR0001": {"name": "NEW BANDON PENTECOSTAL CHURCH", "designationCode": "C", "categoryCode": "36", "address": "7569 ROUTE 11", "city": "STONEHAVEN", "province": "NB", "country": "CA", "postalCode": "E2A5N7", "twitter": "None", "instagram": "None", "facebook": "None", "youtube": "None", "website": "None", "summary": "None", "logo": "None", "latitude": 47.75642361695699, "longitude": -65.33906406736595}, "858249071RR0001": {"name": "NEW BEGINNING BAPTIST FELLOWSHIP CHURCH", "designationCode": "C", "categoryCode": "31", "address": "3439 CHERRINGTON CRESCENT", "city": "MISSISSAUGA", "province": "ON", "country": "CA", "postalCode": "L5L5B8", "twitter": "None", "instagram": "None", "facebook": "None", "youtube": "None", "website": "None", "summary": "None", "logo": "None", "latitude": 43.52265659951518, "longitude": -79.6995010669108}, "895369650RR0001": {"name": "NEW BEGINNING CHRISTIAN CENTRE", "designationCode": "C", "categoryCode": "36", "address": "2110 FRONT RD", "city": "WINDSOR", "province": "ON", "country": "CA", "postalCode": "N9J2B9", "twitter": "None", "instagram": "None", "facebook": "None", "youtube": "None", "website": "None", "summary": "None", "logo": "None", "latitude": 42.228251884402134, "longitude": -83.10230044242209}, "118788405RR0001": {"name": "NEW BEGINNING MINISTRIES APOSTOLIC FAITH CHURCH", "designationCode": "C", "categoryCode": "39", "address": "183 WELLINGTON ST W", "city": "CHATHAM", "province": "ON", "country": "CA", "postalCode": "N7M1J7", "twitter": "None", "instagram": "None", "facebook": "None", "youtube": "None", "website": "None", "summary": "None", "logo": "None", "latitude": 42.40412437275657, "longitude": -82.18743729017828}, "119053908RR0001": {"name": "NEW BEGINNINGS (ESSEX COUNTY)", "designationCode": "C", "categoryCode": "09", "address": "1015 HIGHLAND AVE", "city": "WINDSOR", "province": "ON", "country": "CA", "postalCode": "N9A1R6", "twitter": "None", "instagram": "None", "facebook": "None", "youtube": "None", "website": "None", "summary": "None", "logo": "None", "latitude": 42.31115885844541, "longitude": -83.02684091231448}, "858842248RR0001": {"name": "NEW BEGINNINGS ASSEMBLY INC.", "designationCode": "C", "categoryCode": "39", "address": "PO BOX 26079", "city": "SASKATOON", "province": "SK", "country": "CA", "postalCode": "S7K8C1", "twitter": "None", "instagram": "None", "facebook": "None", "youtube": "None", "website": "None", "summary": "None", "logo": "None", "latitude": 52.13049000000005, "longitude": -106.65926449999994}, "891330979RR0001": {"name": "NEW BEGINNINGS BAPTIST CHURCH", "designationCode": "C", "categoryCode": "31", "address": "1587 FRANCES ST", "city": "VANCOUVER", "province": "BC", "country": "CA", "postalCode": "V5L1Z2", "twitter": "None", "instagram": "None", "facebook": "None", "youtube": "None", "website": "None", "summary": "None", "logo": "None", "latitude": 49.27946946768411, "longitude": -123.07296052553522}, "137529855RR0001": {"name": "NEW BEGINNINGS CHRISTIAN CENTER FELLOWSHIP OF EDMONTON", "designationCode": "C", "categoryCode": "36", "address": "517 TWIN BROOKS BAY NW", "city": "EDMONTON", "province": "AB", "country": "CA", "postalCode": "T6J6W6", "twitter": "None", "instagram": "None", "facebook": "None", "youtube": "None", "website": "None", "summary": "None", "logo": "None", "latitude": 53.443142466270466, "longitude": -113.53007252293816}, "859042988RR0001": {"name": "NEW BEGINNINGS CHRISTIAN CHURCH OF ALLISTON", "designationCode": "C", "categoryCode": "39", "address": "1043 CAMERON ST,PO BOX 252", "city": "BELLE EWART", "province": "ON", "country": "CA", "postalCode": "L0L1C0", "twitter": "None", "instagram": "None", "facebook": "None", "youtube": "None", "website": "None", "summary": "None", "logo": "None", "latitude": 44.27049897639802, "longitude": -79.5458748169256}, "859731499RR0001": {"name": "NEW BEGINNINGS CHRISTIAN MINISTRIES", "designationCode": "C", "categoryCode": "31", "address": "1151 BRIDGE ST                RR 5", "city": "KINGSTON", "province": "NS", "country": "CA", "postalCode": "B0P1R0", "twitter": "None", "instagram": "None", "facebook": "None", "youtube": "None", "website": "None", "summary": "None", "logo": "None", "latitude": 44.971024233683494, "longitude": -64.93997973137488}, "862738093RR0001": {"name": "NEW BEGINNINGS CHURCH INTERNATIONAL OF CALGARY", "designationCode": "C", "categoryCode": "39", "address": "14026 TOWNSHIP RD.264", "city": "ROCKY VIEW COUNTY", "province": "AB", "country": "CA", "postalCode": "T4B3L5", "twitter": "None", "instagram": "None", "facebook": "None", "youtube": "None", "website": "None", "summary": "None", "logo": "None", "latitude": 51.24160549336264, "longitude": -114.09640102553523}, "119285658RR0001": {"name": "NEW BEGINNINGS FAMILY CHURCH CALGARY", "designationCode": "C", "categoryCode": "39", "address": "8 EVERCREEK BLUFFS MEWS SW", "city": "CALGARY", "province": "AB", "country": "CA", "postalCode": "T2Y4V7", "twitter": "None", "instagram": "None", "facebook": "None", "youtube": "None", "website": "None", "summary": "None", "logo": "None", "latitude": 50.92481814100631, "longitude": -114.1240579593169}, "888202041RR0001": {"name": "NEW BEGINNINGS INTERNATIONAL CHRISTIAN SOCIETY", "designationCode": "C", "categoryCode": "34", "address": "25955-48TH AVE", "city": "ALDERGROVE", "province": "BC", "country": "CA", "postalCode": "V4W1J6", "twitter": "None", "instagram": "None", "facebook": "None", "youtube": "None", "website": "None", "summary": "None", "logo": "None", "latitude": 49.089315451093, "longitude": -122.50464219317328}, "864218730RR0001": {"name": "NEW BEGINNINGS LUTHERAN CHURCH INC.", "designationCode": "C", "categoryCode": "32", "address": "1037 VICTORIA AVE", "city": "REGINA", "province": "SK", "country": "CA", "postalCode": "S4P0N6", "twitter": "None", "instagram": "None", "facebook": "None", "youtube": "None", "website": "None", "summary": "None", "logo": "None", "latitude": 50.447087488458806, "longitude": -104.59597305107044}, "889820221RR0001": {"name": "NEW BEGINNINGS MINISTRIES", "designationCode": "C", "categoryCode": "39", "address": "26 CHERRY BROOK ROAD", "city": "CHERRY BROOK", "province": "NS", "country": "CA", "postalCode": "B2Z1A8", "twitter": "None", "instagram": "None", "facebook": "None", "youtube": "None", "website": "None", "summary": "None", "logo": "None", "latitude": 44.70462181978248, "longitude": -63.47228289719434}, "140774340RR0001": {"name": "NEW BEGINNINGS MINISTRIES INC.", "designationCode": "C", "categoryCode": "39", "address": "50 WEYBRIGHT COURT UNIT 26", "city": "SCARBOROUGH", "province": "ON", "country": "CA", "postalCode": "M1S5A8", "twitter": "None", "instagram": "None", "facebook": "None", "youtube": "None", "website": "None", "summary": "None", "logo": "None", "latitude": 43.781887564487555, "longitude": -79.27905505121468}, "864728225RR0001": {"name": "NEW BEGINNINGS SUPPORT PROGRAM", "designationCode": "C", "categoryCode": "59", "address": "202 - 120 CARLTON ST", "city": "TORONTO", "province": "ON", "country": "CA", "postalCode": "M5A4K2", "twitter": "None", "instagram": "None", "facebook": "None", "youtube": "None", "website": "None", "summary": "None", "logo": "None", "latitude": 43.66252315794319, "longitude": -79.37630931294355}, "867461915RR0001": {"name": "NEW BIRTH FELLOWSHIP OF CANADA", "designationCode": "C", "categoryCode": "39", "address": "80 ROYALCREST RD", "city": "ETOBICOKE", "province": "ON", "country": "CA", "postalCode": "M9V4C1", "twitter": "None", "instagram": "None", "facebook": "None", "youtube": "None", "website": "None", "summary": "None", "logo": "None", "latitude": 43.7505492129088, "longitude": -79.60692574744638}, "885506121RR0001": {"name": "NEW BOUNDARIES SOCIETY", "designationCode": "C", "categoryCode": "59", "address": "PO BOX 1075", "city": "WINDSOR", "province": "NS", "country": "CA", "postalCode": "B0N2T0", "twitter": "None", "instagram": "None", "facebook": "None", "youtube": "None", "website": "None", "summary": "None", "logo": "None", "latitude": 44.990170000000035, "longitude": -64.12904999999995}, "860952514RR0001": {"name": "NEW BRUNSWICK ADOPTION FOUNDATION INC. - FONDATION NOUVEAU-BRUNSWICK POUR L'ADOPTION INC.", "designationCode": "A", "categoryCode": "53", "address": "988 MAIN STREET", "city": "HAMPTON", "province": "NB", "country": "CA", "postalCode": "E5N6E7", "twitter": "None", "instagram": "None", "facebook": "None", "youtube": "None", "website": "None", "summary": "None", "logo": "None", "latitude": 45.53842885348242, "longitude": -65.83403850066382}, "107768749RR0001": {"name": "NEW BRUNSWICK ASSOCIATION FOR COMMUNITY LIVING INC./ASSOCIATION DU NOUVEAU BRUNSWICK POUR L'INTEGRATION COMMUNAUTAIRE INC.", "designationCode": "C", "categoryCode": "11", "address": "800 HANWELL RD", "city": "FREDERICTON", "province": "NB", "country": "CA", "postalCode": "E3B2R7", "twitter": "None", "instagram": "None", "facebook": "None", "youtube": "None", "website": "None", "summary": "None", "logo": "None", "latitude": 45.95439045822038, "longitude": -66.68279315361536}, "881396766RR0001": {"name": "NEW BRUNSWICK ASSOCIATION OF FOOD BANKS LTD.", "designationCode": "C", "categoryCode": "09", "address": "PO BOX 3212 STN MAIN", "city": "TRACADIE-SHEILA", "province": "NB", "country": "CA", "postalCode": "E1X1G5", "twitter": "None", "instagram": "None", "facebook": "None", "youtube": "None", "website": "None", "summary": "None", "logo": "None", "latitude": 47.52130200000006, "longitude": -64.91063149999994}, "119053999RR0001": {"name": "NEW BRUNSWICK BIBLE INSTITUTE INC.", "designationCode": "C", "categoryCode": "20", "address": "2335 RTE 103", "city": "VICTORIA CORNER", "province": "NB", "country": "CA", "postalCode": "E7P1C7", "twitter": "None", "instagram": "None", "facebook": "None", "youtube": "None", "website": "None", "summary": "None", "logo": "None", "latitude": 46.2702784032452, "longitude": -67.52713140432344}, "893192575RR0001": {"name": "NEW BRUNSWICK BLOCK PARENT ASSOCIATION INC", "designationCode": "C", "categoryCode": "59", "address": "47-100 HOWE COURT", "city": "OROMOCTO", "province": "NB", "country": "CA", "postalCode": "E2V2R3", "twitter": "None", "instagram": "None", "facebook": "None", "youtube": "None", "website": "None", "summary": "None", "logo": "None", "latitude": 45.843984753274775, "longitude": -66.50450920508985}, "892885963RR0001": {"name": "NEW BRUNSWICK BREAST CANCER NETWORK INC.- RESEAU NEO-BRUNSWICKOIS DU CANCER DU SEIN INC.", "designationCode": "C", "categoryCode": "19", "address": "27 WALKER CRES", "city": "HAMPTON", "province": "NB", "country": "CA", "postalCode": "E5N5Z7", "twitter": "None", "instagram": "None", "facebook": "None", "youtube": "None", "website": "None", "summary": "None", "logo": "None", "latitude": 45.544322512926165, "longitude": -65.82729112418501}, "139905053RR0001": {"name": "NEW BRUNSWICK CHAPTER OF THE CANADIAN HEMOPHILIA SOCIETY", "designationCode": "C", "categoryCode": "11", "address": "173 - 337 ROTHESAY AVE", "city": "SAINT JOHN", "province": "NB", "country": "CA", "postalCode": "E2J2C3", "twitter": "None", "instagram": "None", "facebook": "None", "youtube": "None", "website": "None", "summary": "None", "logo": "None", "latitude": 45.29908784208548, "longitude": -66.03814799267107}, "119054039RR0001": {"name": "NEW BRUNSWICK CHORAL FEDERATION, INC.", "designationCode": "C", "categoryCode": "22", "address": "P.O. BOX 714, STATION A", "city": "FREDERICTON", "province": "NB", "country": "CA", "postalCode": "E3B5B4", "twitter": "None", "instagram": "None", "facebook": "None", "youtube": "None", "website": "None", "summary": "None", "logo": "None", "latitude": 45.96062100000006, "longitude": -66.63911299999994}, "126153998RR0001": {"name": "NEW BRUNSWICK CIVIL AIR SEARCH AND RESCUE INC", "designationCode": "C", "categoryCode": "59", "address": "3991 LOCH LOMOND RD", "city": "SAINT JOHN", "province": "NB", "country": "CA", "postalCode": "E2N1C5", "twitter": "None", "instagram": "None", "facebook": "None", "youtube": "None", "website": "None", "summary": "None", "logo": "None", "latitude": 45.33309013572621, "longitude": -65.89933763696695}, "890729544RR0001": {"name": "NEW BRUNSWICK COMMUNITY LAND TRUST INC./SOCIETE DES TERRES CONFIEES \u00c0 LA COMMUNAUTE DU NOUVEAU-BRUNSWICK INC.", "designationCode": "C", "categoryCode": "52", "address": "10 SCHOOL LANE", "city": "SACKVILLE", "province": "NB", "country": "CA", "postalCode": "E4L3J9", "twitter": "None", "instagram": "None", "facebook": "None", "youtube": "None", "website": "None", "summary": "None", "logo": "None", "latitude": 45.92484855108198, "longitude": -64.359015076256}, "132854589RR0001": {"name": "NEW BRUNSWICK COMPETITIVE FESTIVAL OF MUSIC, INC,", "designationCode": "C", "categoryCode": "22", "address": "PO BOX 2022 STN MAIN", "city": "SAINT JOHN", "province": "NB", "country": "CA", "postalCode": "E2L3T5", "twitter": "None", "instagram": "None", "facebook": "None", "youtube": "None", "website": "None", "summary": "None", "logo": "None", "latitude": 45.274774384642015, "longitude": -66.0653109102771}, "866758865RR0001": {"name": "NEW BRUNSWICK CRAFTS FOUNDATION INC.", "designationCode": "C", "categoryCode": "22", "address": "P.O.BOX 1231", "city": "FREDERICTON", "province": "NB", "country": "CA", "postalCode": "E3B5C8", "twitter": "None", "instagram": "None", "facebook": "None", "youtube": "None", "website": "None", "summary": "None", "logo": "None", "latitude": 45.96062100000006, "longitude": -66.63911299999994}, "871887527RR0001": {"name": "NEW BRUNSWICK FEDERATION OF HOME AND SCHOOL ASSOCIATION, INC.", "designationCode": "C", "categoryCode": "21", "address": "202A - 212 QUEEN ST", "city": "FREDERICTON", "province": "NB", "country": "CA", "postalCode": "E3B1A8", "twitter": "None", "instagram": "None", "facebook": "None", "youtube": "None", "website": "None", "summary": "None", "logo": "None", "latitude": 45.9619590711279, "longitude": -66.64071054837424}, "887400992RR0001": {"name": "NEW BRUNSWICK FEDERATION OF MUSIC FESTIVALS INC-FEDERATION FESTIVALS MUSIQUE DU N B INC", "designationCode": "C", "categoryCode": "22", "address": "11119 ROUTE 130", "city": "SOMERVILLE", "province": "NB", "country": "CA", "postalCode": "E7P2S4", "twitter": "None", "instagram": "None", "facebook": "None", "youtube": "None", "website": "None", "summary": "None", "logo": "None", "latitude": 46.28755047548115, "longitude": -67.54939292050574}, "890107972RR0001": {"name": "NEW BRUNSWICK FEDERATION OF NATURALISTS INC. - FEDERATION DES NATURALISTES DU NOUVEAU-BRUNSWICK INC.", "designationCode": "C", "categoryCode": "52", "address": "259 BRUNSWICK ST, SUITE 103", "city": "FREDERICTON", "province": "NB", "country": "CA", "postalCode": "E3B1G9", "twitter": "None", "instagram": "None", "facebook": "None", "youtube": "None", "website": "None", "summary": "None", "logo": "None", "latitude": 45.962494406890144, "longitude": -66.64787893199266}, "130421530RR0001": {"name": "NEW BRUNSWICK FILMMAKERS CO-OPERATIVE LIMITED", "designationCode": "C", "categoryCode": "22", "address": "PO BOX 1537 STN A", "city": "FREDERICTON", "province": "NB", "country": "CA", "postalCode": "E3B5G2", "twitter": "None", "instagram": "None", "facebook": "None", "youtube": "None", "website": "None", "summary": "None", "logo": "None", "latitude": 45.96062100000006, "longitude": -66.63911299999994}, "893286765RR0001": {"name": "NEW BRUNSWICK FOUNDATION FOR THE ARTS INC./FONDATION DES ARTS DU NOUVEAU BRUNSWICK INC.", "designationCode": "A", "categoryCode": "23", "address": "201 - 225 KING ST", "city": "FREDERICTON", "province": "NB", "country": "CA", "postalCode": "E3B1E1", "twitter": "None", "instagram": "None", "facebook": "None", "youtube": "None", "website": "None", "summary": "None", "logo": "None", "latitude": 45.96377029032252, "longitude": -66.64783176865377}, "890947625RR0001": {"name": "NEW BRUNSWICK GENEALOGICAL SOCIETY", "designationCode": "C", "categoryCode": "50", "address": "124 GONDOLA BLVD.", "city": "QUISPAMSIS", "province": "NB", "country": "CA", "postalCode": "E2E1J1", "twitter": "None", "instagram": "None", "facebook": "None", "youtube": "None", "website": "None", "summary": "None", "logo": "None", "latitude": 45.432092609210045, "longitude": -65.98908704299171}, "887092500RR0001": {"name": "NEW BRUNSWICK HIGHLAND GAMES AND SCOTTISH FESTIVAL INC.", "designationCode": "C", "categoryCode": "22", "address": "P.O. BOX 1491, STATION A", "city": "FREDERICTON", "province": "NB", "country": "CA", "postalCode": "E3B5G2", "twitter": "None", "instagram": "None", "facebook": "None", "youtube": "None", "website": "None", "summary": "None", "logo": "None", "latitude": 45.96062100000006, "longitude": -66.63911299999994}, "107768996RR0001": {"name": "NEW BRUNSWICK HISTORICAL SOCIETY", "designationCode": "C", "categoryCode": "52", "address": "120 UNION ST", "city": "SAINT JOHN", "province": "NB", "country": "CA", "postalCode": "E2L1A3", "twitter": "None", "instagram": "None", "facebook": "None", "youtube": "None", "website": "None", "summary": "None", "logo": "None", "latitude": 45.274618729384336, "longitude": -66.06141628489817}, "119246965RR0001": {"name": "NEW BRUNSWICK LAW FOUNDATION SCHOLARSHIP TRUST/LE FONDS DE BOURSES DE LA FONDATION POUR L'AVANCEMENT DU DROIT AU N B", "designationCode": "C", "categoryCode": "21", "address": "68 AVONLEA COURT", "city": "FREDERICTON", "province": "NB", "country": "CA", "postalCode": "E3C1N8", "twitter": "None", "instagram": "None", "facebook": "None", "youtube": "None", "website": "None", "summary": "None", "logo": "None", "latitude": 45.94726431196261, "longitude": -66.68878871022574}, "107769044RR0001": {"name": "NEW BRUNSWICK LUNG ASSOCIATION INC.-ASSOCIATION PULMONAIRE DU NOUVEAU BRUNSWICK INC.", "designationCode": "C", "categoryCode": "11", "address": "65 BRUNSWICK STREET", "city": "FREDERICTON", "province": "NB", "country": "CA", "postalCode": "E3B1G5", "twitter": "None", "instagram": "None", "facebook": "None", "youtube": "None", "website": "None", "summary": "None", "logo": "None", "latitude": 45.96439337333348, "longitude": -66.6524763918865}, "119054344RR0001": {"name": "NEW BRUNSWICK MASONIC CHARITIES AND HOUSING COMPANY LTD.", "designationCode": "A", "categoryCode": "01", "address": "PO BOX 6442 RPO BRUNSWICK SQ", "city": "SAINT JOHN", "province": "NB", "country": "CA", "postalCode": "E2L4R8", "twitter": "None", "instagram": "None", "facebook": "None", "youtube": "None", "website": "None", "summary": "None", "logo": "None", "latitude": 45.28015277223757, "longitude": -66.05321408822462}, "803084672RR0001": {"name": "NEW BRUNSWICK MEDICAL SOCIETY FOUNDATION (2006) LIMITED / FONDATION LIMITEE (2006) DE LA SOCIETE MEDICALE DU NOUVEAU-BRUNSWICK", "designationCode": "C", "categoryCode": "21", "address": "21 ALISON BLVD", "city": "FREDERICTON", "province": "NB", "country": "CA", "postalCode": "E3C2N5", "twitter": "None", "instagram": "None", "facebook": "None", "youtube": "None", "website": "None", "summary": "None", "logo": "None", "latitude": 45.92184491646944, "longitude": -66.6378551956548}, "863145124RR0001": {"name": "NEW BRUNSWICK MONTHLY MEETING OF THE RELIGIOUS SOCIETY OF FRIENDS (QUAKERS)", "designationCode": "C", "categoryCode": "39", "address": "22 HOLLYBROOK ST", "city": "FREDERICTON", "province": "NB", "country": "CA", "postalCode": "E3A4N7", "twitter": "None", "instagram": "None", "facebook": "None", "youtube": "None", "website": "None", "summary": "None", "logo": "None", "latitude": 45.98905334416294, "longitude": -66.5931817307693}, "108089921RR0001": {"name": "NEW BRUNSWICK MUSEUM", "designationCode": "C", "categoryCode": "50", "address": "277 DOUGLAS AVE.", "city": "SAINT JOHN", "province": "NB", "country": "CA", "postalCode": "E2K1E5", "twitter": "None", "instagram": "None", "facebook": "None", "youtube": "None", "website": "None", "summary": "None", "logo": "None", "latitude": 45.26893714071786, "longitude": -66.08182870748443}, "891456972RR0001": {"name": "NEW BRUNSWICK PARAPLEGIC FOUNDATION INC", "designationCode": "A", "categoryCode": "13", "address": "440 WILSEY ROAD               SUITE 102", "city": "FREDERICTON", "province": "NB", "country": "CA", "postalCode": "E3B7G5", "twitter": "None", "instagram": "None", "facebook": "None", "youtube": "None", "website": "None", "summary": "None", "logo": "None", "latitude": 45.91798556148647, "longitude": -66.61787895155528}, "882439961RR0001": {"name": "NEW BRUNSWICK PEACE OFFICERS' MEMORIAL INC.-LA COMMEMORATIONDES AGENTS DE LA PAIX DU NOUVEAU-BRUNSWICK INC.", "designationCode": "C", "categoryCode": "59", "address": "P.O. BOX 3712, STATION B", "city": "FREDERICTON", "province": "NB", "country": "CA", "postalCode": "E3A5L7", "twitter": "None", "instagram": "None", "facebook": "None", "youtube": "None", "website": "None", "summary": "None", "logo": "None", "latitude": 45.958638328435796, "longitude": -66.62155541090102}, "871184826RR0001": {"name": "NEW BRUNSWICK POTATO MUSEUM INC.", "designationCode": "C", "categoryCode": "50", "address": "385 CENTREVILLE RD", "city": "FLORENCEVILLE", "province": "NB", "country": "CA", "postalCode": "E7L3K5", "twitter": "None", "instagram": "None", "facebook": "None", "youtube": "None", "website": "None", "summary": "None", "logo": "None", "latitude": 46.44408850813699, "longitude": -67.6430913282939}, "107769093RR0001": {"name": "NEW BRUNSWICK PROTESTANT ORPHANS' HOME", "designationCode": "A", "categoryCode": "01", "address": "66 WATERLOO STREET            SUITE 205", "city": "SAINT JOHN", "province": "NB", "country": "CA", "postalCode": "E2L3P4", "twitter": "None", "instagram": "None", "facebook": "None", "youtube": "None", "website": "None", "summary": "None", "logo": "None", "latitude": 45.27690796641469, "longitude": -66.05665330001739}, "891337990RR0001": {"name": "NEW BRUNSWICK RIGHT TO LIFE ASSOCIATION INC-ASSOCIATION POUR LE DROIT-A LA VIE DU N B INC", "designationCode": "C", "categoryCode": "09", "address": "PO BOX 113 STN A", "city": "FREDERICTON", "province": "NB", "country": "CA", "postalCode": "E3B4Y2", "twitter": "None", "instagram": "None", "facebook": "None", "youtube": "None", "website": "None", "summary": "None", "logo": "None", "latitude": 45.96062100000006, "longitude": -66.63911299999994}, "103861316RR0001": {"name": "NEW BRUNSWICK SAFETY COUNCIL INCORPORATED", "designationCode": "C", "categoryCode": "59", "address": "204-440 WILSEY RD", "city": "FREDERICTON", "province": "NB", "country": "CA", "postalCode": "E3B7G5", "twitter": "None", "instagram": "None", "facebook": "None", "youtube": "None", "website": "None", "summary": "None", "logo": "None", "latitude": 45.91125232958357, "longitude": -66.61415760881509}, "849933569RR0001": {"name": "NEW BRUNSWICK SIGNALLERS ASSOCIATION NB SIGS INC.", "designationCode": "A", "categoryCode": "21", "address": "PO BOX 17000 STN FORCES", "city": "OROMOCTO", "province": "NB", "country": "CA", "postalCode": "E2V4J5", "twitter": "None", "instagram": "None", "facebook": "None", "youtube": "None", "website": "None", "summary": "None", "logo": "None", "latitude": 45.84368400000005, "longitude": -66.48019099999993}, "132657206RR0001": {"name": "NEW BRUNSWICK SPECIAL OLYMPICS SOCIETY INC LA SOCIETE DES OLYMPIADES SPECIALES DU N B", "designationCode": "C", "categoryCode": "53", "address": "13-900 HANWELL RD", "city": "FREDERICTON", "province": "NB", "country": "CA", "postalCode": "E3B6A2", "twitter": "None", "instagram": "None", "facebook": "None", "youtube": "None", "website": "None", "summary": "None", "logo": "None", "latitude": 45.95627557751884, "longitude": -66.67743441602231}, "818274474RR0001": {"name": "NEW BRUNSWICK SPORTS HALL OF FAME INC./TEMPLE DE LA RENOMMEE SPORTIVE DU NOUVEAU-BRUNSWICK INC.", "designationCode": "C", "categoryCode": "50", "address": "503 QUEEN ST.                 P.O. BOX 6000", "city": "FREDERICTON", "province": "NB", "country": "CA", "postalCode": "E3B5H1", "twitter": "None", "instagram": "None", "facebook": "None", "youtube": "None", "website": "None", "summary": "None", "logo": "None", "latitude": 45.96198943242536, "longitude": -66.64070054134692}, "893220756RR0001": {"name": "NEW BRUNSWICK TRAILS COUNCIL INC./ SENTIERS NOUVEAU-BRUNSWICK INC.", "designationCode": "C", "categoryCode": "56", "address": "1111 WILSEY RD", "city": "RUSAGONIS", "province": "NB", "country": "CA", "postalCode": "E3B0K2", "twitter": "None", "instagram": "None", "facebook": "None", "youtube": "None", "website": "None", "summary": "None", "logo": "None", "latitude": 45.90060673104915, "longitude": -66.60480634880673}, "890664949RR0001": {"name": "NEW BRUNSWICK WELSH HERITAGE TRUST, INC.", "designationCode": "C", "categoryCode": "50", "address": "P O BOX 421 STATION A", "city": "FREDERICTON", "province": "NB", "country": "CA", "postalCode": "E3B4Z9", "twitter": "None", "instagram": "None", "facebook": "None", "youtube": "None", "website": "None", "summary": "None", "logo": "None", "latitude": 45.96062100000006, "longitude": -66.63911299999994}, "107769150RR0001": {"name": "NEW BRUNSWICK WOMEN'S INSTITUTE", "designationCode": "C", "categoryCode": "59", "address": "681 UNION STREET", "city": "FREDERICTON", "province": "NB", "country": "CA", "postalCode": "E3A3N8", "twitter": "None", "instagram": "None", "facebook": "None", "youtube": "None", "website": "None", "summary": "None", "logo": "None", "latitude": 45.96585773550117, "longitude": -66.62760253468183}, "119754810RR0001": {"name": "NEW BRUNSWICK YOUTH ORCHESTRA FOUNDATION INC", "designationCode": "A", "categoryCode": "22", "address": "220 RENSHAW ROAD", "city": "ROTHESAY", "province": "NB", "country": "CA", "postalCode": "E2H2S3", "twitter": "None", "instagram": "None", "facebook": "None", "youtube": "None", "website": "None", "summary": "None", "logo": "None", "latitude": 45.371896650816765, "longitude": -65.99817102472717}, "119054310RR0001": {"name": "NEW BRUNSWICK YOUTH ORCHESTRA, INC.", "designationCode": "C", "categoryCode": "22", "address": "PO BOX 1617 STN MAIN", "city": "MONCTON", "province": "NB", "country": "CA", "postalCode": "E1C9X4", "twitter": "None", "instagram": "None", "facebook": "None", "youtube": "None", "website": "None", "summary": "None", "logo": "None", "latitude": 46.08872243840578, "longitude": -64.77642630797114}, "119054328RR0001": {"name": "NEW BRUNSWICK 4-H COUNCIL LTD.", "designationCode": "C", "categoryCode": "29", "address": "5-267 CONNELL ST", "city": "WOODSTOCK", "province": "NB", "country": "CA", "postalCode": "E7M1L2", "twitter": "None", "instagram": "None", "facebook": "None", "youtube": "None", "website": "None", "summary": "None", "logo": "None", "latitude": 46.158251872569004, "longitude": -67.58994085528998}, "119054369RR0001": {"name": "NEW CANAAN CEMETERY SOCIETY", "designationCode": "C", "categoryCode": "59", "address": "R R # 3", "city": "SOUTHAMPTON", "province": "NS", "country": "CA", "postalCode": "B0M1W0", "twitter": "None", "instagram": "None", "facebook": "None", "youtube": "None", "website": "None", "summary": "None", "logo": "None"}, "119054377RR0001": {"name": "NEW CANAAN UNITED BAPTIST CHURCH", "designationCode": "C", "categoryCode": "31", "address": "6145 ROUTE 112", "city": "NEW CANAAN", "province": "NB", "country": "CA", "postalCode": "E4Z6A7", "twitter": "None", "instagram": "None", "facebook": "None", "youtube": "None", "website": "None", "summary": "None", "logo": "None", "latitude": 46.074580486381706, "longitude": -65.45196230333681}, "889421707RR0001": {"name": "NEW CANADA LAKESIDE CEMETERY SOCIETY", "designationCode": "C", "categoryCode": "59", "address": "463 SEAMONE RD", "city": "NEW CANADA", "province": "NS", "country": "CA", "postalCode": "B4V4W7", "twitter": "None", "instagram": "None", "facebook": "None", "youtube": "None", "website": "None", "summary": "None", "logo": "None", "latitude": 44.47760692174954, "longitude": -64.68126155692748}, "119054385RR0001": {"name": "NEW CANADA UNITED BAPTIST CHURCH", "designationCode": "C", "categoryCode": "31", "address": "463 SEAMONE RD", "city": "NEW CANADA", "province": "NS", "country": "CA", "postalCode": "B4V4W7", "twitter": "None", "instagram": "None", "facebook": "None", "youtube": "None", "website": "None", "summary": "None", "logo": "None", "latitude": 44.47760692174954, "longitude": -64.68126155692748}, "119054393RR0001": {"name": "NEW CANADIAN BAPTIST CHURCH", "designationCode": "C", "categoryCode": "31", "address": "1012 ST CLARE RD", "city": "MONTREAL", "province": "QC", "country": "CA", "postalCode": "H3R2N1", "twitter": "None", "instagram": "None", "facebook": "None", "youtube": "None", "website": "None", "summary": "None", "logo": "None", "latitude": 45.50638698084142, "longitude": -73.64628718679664}, "119091940RR0001": {"name": "NEW CANADIANS CENTRE PETERBOROUGH", "designationCode": "C", "categoryCode": "09", "address": "221 ROMANE STREET", "city": "PETERBOROUGH", "province": "ON", "country": "CA", "postalCode": "K9J2C3", "twitter": "None", "instagram": "None", "facebook": "None", "youtube": "None", "website": "None", "summary": "None", "logo": "None", "latitude": 44.29140187091024, "longitude": -78.32112372410421}, "890578347RR0001": {"name": "NEW CAR DEALERS FOUNDATION OF BC", "designationCode": "C", "categoryCode": "21", "address": "70-10551 SHELLBRIDGE WAY", "city": "RICHMOND", "province": "BC", "country": "CA", "postalCode": "V6X2W9", "twitter": "None", "instagram": "None", "facebook": "None", "youtube": "None", "website": "None", "summary": "None", "logo": "None", "latitude": 49.186826333110716, "longitude": -123.10720982378125}, "119054401RR0001": {"name": "NEW CARLISLE PASTORAL CHARGE", "designationCode": "C", "categoryCode": "44", "address": "229, CHEMIN DU VIEUX MOULIN", "city": "HOPETOWN", "province": "QC", "country": "CA", "postalCode": "G0C3C0", "twitter": "None", "instagram": "None", "facebook": "None", "youtube": "None", "website": "None", "summary": "None", "logo": "None", "latitude": 48.06991306549717, "longitude": -65.13383086415823}, "119054427RR0001": {"name": "NEW CASTLE CREEK UNITED BAPTIST CHURCH", "designationCode": "C", "categoryCode": "31", "address": "7 WHARF RD", "city": "NEWCASTLE CREEK", "province": "NB", "country": "CA", "postalCode": "E4B2J8", "twitter": "None", "instagram": "None", "facebook": "None", "youtube": "None", "website": "None", "summary": "None", "logo": "None", "latitude": 46.05755310825773, "longitude": -66.0082904121416}, "858223787RR0001": {"name": "NEW CENTURY CHARITABLE FOUNDATION", "designationCode": "A", "categoryCode": "03", "address": "2700-700 GEORGIA ST W", "city": "VANCOUVER", "province": "BC", "country": "CA", "postalCode": "V7Y1B8", "twitter": "None", "instagram": "None", "facebook": "None", "youtube": "None", "website": "None", "summary": "None", "logo": "None", "latitude": 49.28278674158102, "longitude": -123.11863379447699}, "869739268RR0001": {"name": "NEW CHELSEA PENTECOSTAL CEMETERY FUND COMMITTEE", "designationCode": "C", "categoryCode": "59", "address": "SITE 1, BOX 62", "city": "NEW CHELSEA", "province": "NL", "country": "CA", "postalCode": "A0B2N0", "twitter": "None", "instagram": "None", "facebook": "None", "youtube": "None", "website": "None", "summary": "None", "logo": "None", "latitude": 48.02558100000006, "longitude": -53.21940199999993}, "107769432RR0001": {"name": "NEW CHELSEA SOCIETY", "designationCode": "C", "categoryCode": "01", "address": "7501 SIXTH ST", "city": "BURNABY", "province": "BC", "country": "CA", "postalCode": "V3N3M2", "twitter": "None", "instagram": "None", "facebook": "None", "youtube": "None", "website": "None", "summary": "None", "logo": "None", "latitude": 49.223716552975574, "longitude": -122.93374945658095}, "891198491RR0001": {"name": "NEW CITY CHURCH BRANTFORD", "designationCode": "C", "categoryCode": "36", "address": "190 LYNDEN ROAD", "city": "BRANTFORD", "province": "ON", "country": "CA", "postalCode": "N3R8A3", "twitter": "None", "instagram": "None", "facebook": "None", "youtube": "None", "website": "None", "summary": "None", "logo": "None", "latitude": 43.175129713803756, "longitude": -80.23110540048484}, "107783888RR0001": {"name": "NEW CITY CHURCH OF CALGARY", "designationCode": "C", "categoryCode": "37", "address": "PO BOX 9 1116 ROYAL OAK", "city": "CALGARY", "province": "AB", "country": "CA", "postalCode": "T3G5W6", "twitter": "None", "instagram": "None", "facebook": "None", "youtube": "None", "website": "None", "summary": "None", "logo": "None", "latitude": 51.148903502076145, "longitude": -114.22687356374645}, "861450831RR0001": {"name": "NEW COMMANDMENT MINISTRIES", "designationCode": "A", "categoryCode": "43", "address": "112 SEXTON CRESCENT", "city": "TORONTO", "province": "ON", "country": "CA", "postalCode": "M2H2L6", "twitter": "None", "instagram": "None", "facebook": "None", "youtube": "None", "website": "None", "summary": "None", "logo": "None", "latitude": 43.80033661809682, "longitude": -79.34624247443611}, "893126904RR0001": {"name": "NEW CONNECTIONS MINISTRIES", "designationCode": "C", "categoryCode": "49", "address": "1390 PRINCE OF WALES SUITE 500", "city": "OTTAWA", "province": "ON", "country": "CA", "postalCode": "K2C3N6", "twitter": "None", "instagram": "None", "facebook": "None", "youtube": "None", "website": "None", "summary": "None", "logo": "None", "latitude": 45.3700778586479, "longitude": -75.70296026925935}, "863505079RR0001": {"name": "NEW CORNWALL MEMORIAL GARDENS", "designationCode": "C", "categoryCode": "59", "address": "688 HWY 325", "city": "BLOCKHOUSE", "province": "NS", "country": "CA", "postalCode": "B0J1E0", "twitter": "None", "instagram": "None", "facebook": "None", "youtube": "None", "website": "None", "summary": "None", "logo": "None", "latitude": 44.44440769899172, "longitude": -64.41968697657325}, "108114109RR0001": {"name": "NEW COVENANT ALLIANCE CHURCH OF THE CHRISTIAN & MISSIONARY ALLIANCE IN CANADA", "designationCode": "C", "categoryCode": "39", "address": "1490 BIRCHMOUNT RD", "city": "SCARBOROUGH", "province": "ON", "country": "CA", "postalCode": "M1P2E3", "twitter": "None", "instagram": "None", "facebook": "None", "youtube": "None", "website": "None", "summary": "None", "logo": "None", "latitude": 43.7555702314618, "longitude": -79.28816545703695}, "880645429RR0001": {"name": "NEW COVENANT APOSTOLIC CHURCH", "designationCode": "C", "categoryCode": "39", "address": "237 SILVERMOON CRESCENT", "city": "ORLEANS", "province": "ON", "country": "CA", "postalCode": "K4A0P8", "twitter": "None", "instagram": "None", "facebook": "None", "youtube": "None", "website": "None", "summary": "None", "logo": "None", "latitude": 45.44896427754058, "longitude": -75.46970994229311}, "133455824RR0001": {"name": "NEW COVENANT CHRISTIAN FELLOWSHIP", "designationCode": "C", "categoryCode": "39", "address": "22 HOLIDAY DR", "city": "BRANTFORD", "province": "ON", "country": "CA", "postalCode": "N3R7J4", "twitter": "None", "instagram": "None", "facebook": "None", "youtube": "None", "website": "None", "summary": "None", "logo": "None", "latitude": 43.16411395389255, "longitude": -80.24011417854501}, "860803394RR0001": {"name": "NEW COVENANT CHURCH (NCC)", "designationCode": "C", "categoryCode": "39", "address": "298 RUDAR ROAD", "city": "MISSISSAUGA", "province": "ON", "country": "CA", "postalCode": "L5A1S3", "twitter": "None", "instagram": "None", "facebook": "None", "youtube": "None", "website": "None", "summary": "None", "logo": "None", "latitude": 43.58329142463509, "longitude": -79.60508438576964}, "892324369RR0001": {"name": "NEW COVENANT CHURCH OF CANADA MINISTRIES", "designationCode": "C", "categoryCode": "36", "address": "17 DULVERTON DR", "city": "BRAMPTON", "province": "ON", "country": "CA", "postalCode": "L7A0P3", "twitter": "None", "instagram": "None", "facebook": "None", "youtube": "None", "website": "None", "summary": "None", "logo": "None", "latitude": 43.67873532416762, "longitude": -79.82372342879002}, "129951323RR0001": {"name": "NEW COVENANT COMMUNITY CHURCH ASSOCIATION", "designationCode": "C", "categoryCode": "47", "address": "6424 HWY. #1, RR #1", "city": "CAMBRIDGE", "province": "NS", "country": "CA", "postalCode": "B0P1G0", "twitter": "None", "instagram": "None", "facebook": "None", "youtube": "None", "website": "None", "summary": "None", "logo": "None", "latitude": 45.059055417613365, "longitude": -64.61271092737447}, "892732140RR0001": {"name": "NEW COVENANT MENNONITE FELLOWSHIP", "designationCode": "C", "categoryCode": "34", "address": "PO BOX 45", "city": "GLEN ALLEN", "province": "ON", "country": "CA", "postalCode": "N0B2S0", "twitter": "None", "instagram": "None", "facebook": "None", "youtube": "None", "website": "None", "summary": "None", "logo": "None", "latitude": 42.99842503935587, "longitude": -82.38596235688738}, "135807840RR0001": {"name": "NEW COVENANT MINISTRIES", "designationCode": "C", "categoryCode": "39", "address": "110 THORNE AVE", "city": "DARTMOUTH", "province": "NS", "country": "CA", "postalCode": "B3B1Z2", "twitter": "None", "instagram": "None", "facebook": "None", "youtube": "None", "website": "None", "summary": "None", "logo": "None", "latitude": 44.697264671417635, "longitude": -63.59462801217636}}