{"777483520RR0001": {"name": "Clark Builders Community Foundation", "designationCode": "B", "categoryCode": "03", "address": "4703 52 AVE NW", "city": "EDMONTON", "province": "AB", "country": "CA", "postalCode": "T6B3R6", "twitter": "None", "instagram": "None", "facebook": "None", "youtube": "None", "website": "None", "summary": "None", "logo": "None", "latitude": 53.48950153448028, "longitude": -113.41412010935426}, "823932488RR0001": {"name": "Clark Cawthra Coneybeare Foundation", "designationCode": "B", "categoryCode": "05", "address": "247 GARDEN AVE", "city": "TORONTO", "province": "ON", "country": "CA", "postalCode": "M6R1J2", "twitter": "None", "instagram": "None", "facebook": "None", "youtube": "None", "website": "None", "summary": "None", "logo": "None", "latitude": 43.64267877823308, "longitude": -79.45096161697164}, "750174898RR0001": {"name": "Clarke Education Foundation", "designationCode": "B", "categoryCode": "21", "address": "124 OSSINGTON AVENUE", "city": "OTTAWA", "province": "ON", "country": "CA", "postalCode": "K1S3B8", "twitter": "None", "instagram": "None", "facebook": "None", "youtube": "None", "website": "None", "summary": "None", "logo": "None", "latitude": 45.38954755646615, "longitude": -75.68706008130887}, "843384215RR0001": {"name": "Clarus Foundation / Fondation Clarus", "designationCode": "B", "categoryCode": "03", "address": "629 CLARKE AV", "city": "WESTMOUNT", "province": "QC", "country": "CA", "postalCode": "H3Y3E5", "twitter": "None", "instagram": "None", "facebook": "None", "youtube": "None", "website": "None", "summary": "None", "logo": "None", "latitude": 45.490544507357605, "longitude": -73.60281355121468}, "801019605RR0001": {"name": "Classis BC Northwest of the Christian Reformed Church of North America", "designationCode": "C", "categoryCode": "39", "address": "102 - 10715 135A ST", "city": "SURREY", "province": "BC", "country": "CA", "postalCode": "V3T4E3", "twitter": "None", "instagram": "None", "facebook": "None", "youtube": "None", "website": "None", "summary": "None", "logo": "None"}, "802618553RR0001": {"name": "Classis Chatham of the Christian Reformed Church in North America", "designationCode": "C", "categoryCode": "49", "address": "27 BUTTERY CRT                RR 6", "city": "STRATHROY", "province": "ON", "country": "CA", "postalCode": "N7G3H7", "twitter": "None", "instagram": "None", "facebook": "None", "youtube": "None", "website": "None", "summary": "None", "logo": "None", "latitude": 42.98218680151795, "longitude": -81.59006847847549}, "839605094RR0001": {"name": "Classis Eastern Canada of the Christian Reformed Church in North America", "designationCode": "C", "categoryCode": "49", "address": "11841 TOYES HILL RD", "city": "WILLIAMSBURG", "province": "ON", "country": "CA", "postalCode": "K0C2H0", "twitter": "None", "instagram": "None", "facebook": "None", "youtube": "None", "website": "None", "summary": "None", "logo": "None", "latitude": 45.00103164723873, "longitude": -75.32417296586642}, "830810826RR0001": {"name": "Classis Hamilton of the Christian Reformed Church", "designationCode": "C", "categoryCode": "49", "address": "30 HUNTSVILLE ST", "city": "HAMILTON", "province": "ON", "country": "CA", "postalCode": "L9A3M2", "twitter": "None", "instagram": "None", "facebook": "None", "youtube": "None", "website": "None", "summary": "None", "logo": "None", "latitude": 43.21967590674591, "longitude": -79.87704451846608}, "740699723RR0001": {"name": "Classis Huron of the Christian Reformed Church in North America", "designationCode": "C", "categoryCode": "59", "address": "78B WATERLOO ST", "city": "NEW HAMBURG", "province": "ON", "country": "CA", "postalCode": "N3A1V2", "twitter": "None", "instagram": "None", "facebook": "None", "youtube": "None", "website": "None", "summary": "None", "logo": "None", "latitude": 43.379070945228534, "longitude": -80.71524897002028}, "827864851RR0001": {"name": "Classis Niagara of The Christian Reformed Church of North America", "designationCode": "C", "categoryCode": "39", "address": "30 HUNTSVILLE ST", "city": "HAMILTON", "province": "ON", "country": "CA", "postalCode": "L9A3M2", "twitter": "None", "instagram": "None", "facebook": "None", "youtube": "None", "website": "None", "summary": "None", "logo": "None", "latitude": 43.21967590674591, "longitude": -79.87704451846608}, "807038153RR0001": {"name": "Classis Quinte of the Christian Reformed Church", "designationCode": "C", "categoryCode": "39", "address": "41 HUNT LANE                  RR 3", "city": "BRIGHTON", "province": "ON", "country": "CA", "postalCode": "K0K1H0", "twitter": "None", "instagram": "None", "facebook": "None", "youtube": "None", "website": "None", "summary": "None", "logo": "None", "latitude": 44.44573126817292, "longitude": -77.31768694697664}, "808206296RR0001": {"name": "Classis Toronto of the Christian Reformed Church", "designationCode": "C", "categoryCode": "39", "address": "183 MOORE PARK AVENUE,", "city": "TORONTO", "province": "ON", "country": "CA", "postalCode": "M2M1N3", "twitter": "None", "instagram": "None", "facebook": "None", "youtube": "None", "website": "None", "summary": "None", "logo": "None", "latitude": 43.79192186037867, "longitude": -79.42754787010217}, "832481774RR0001": {"name": "Classroom Agriculture Program Society", "designationCode": "C", "categoryCode": "21", "address": "PO BOX 25197 RPO DEER PARK", "city": "RED DEER", "province": "AB", "country": "CA", "postalCode": "T4R2M2", "twitter": "None", "instagram": "None", "facebook": "None", "youtube": "None", "website": "None", "summary": "None", "logo": "None", "latitude": 52.26852300000006, "longitude": -113.80901299999994}, "806545836RR0001": {"name": "Classroom Champions", "designationCode": "C", "categoryCode": "21", "address": "540 - 839 5 AVE SW", "city": "CALGARY", "province": "AB", "country": "CA", "postalCode": "T2P3C8", "twitter": "None", "instagram": "None", "facebook": "None", "youtube": "None", "website": "None", "summary": "None", "logo": "None", "latitude": 51.048860502885546, "longitude": -114.08056080544173}, "831879754RR0001": {"name": "Classrooms For Africa Association", "designationCode": "C", "categoryCode": "47", "address": "15417 110A AVE", "city": "SURREY", "province": "BC", "country": "CA", "postalCode": "V3R0X4", "twitter": "None", "instagram": "None", "facebook": "None", "youtube": "None", "website": "None", "summary": "None", "logo": "None", "latitude": 49.20338145657561, "longitude": -122.79479336081135}, "843866088RR0001": {"name": "Claude E. Jodoin & Karen Kear Family Foundation / Fondation familiale Claude E. Jodoin & Jodoin & Karen Kear", "designationCode": "B", "categoryCode": "03", "address": "800 PLACE VICTORIA", "city": "MONTR\u00c9AL", "province": "QC", "country": "CA", "postalCode": "H4Z1E9", "twitter": "None", "instagram": "None", "facebook": "None", "youtube": "None", "website": "None", "summary": "None", "logo": "None", "latitude": 45.43733512517629, "longitude": -73.67274911842355}, "119288918RR1506": {"name": "Clayton Congregation of Jehovah's Witnesses, Surrey, BritishColumbia", "designationCode": "C", "categoryCode": "61", "address": "8008-169 ST", "city": "SURREY", "province": "BC", "country": "CA", "postalCode": "V4N4Y7", "twitter": "None", "instagram": "None", "facebook": "None", "youtube": "None", "website": "None", "summary": "None", "logo": "None", "latitude": 49.148362875382304, "longitude": -122.75263070315661}, "119288918RR1571": {"name": "Clayton Park Congregation of Jehovah's Witnesses, Halifax, Nova Scotia", "designationCode": "C", "categoryCode": "61", "address": "210 PARKLAND DRIVE", "city": "HALIFAX", "province": "NS", "country": "CA", "postalCode": "B3S1S7", "twitter": "None", "instagram": "None", "facebook": "None", "youtube": "None", "website": "None", "summary": "None", "logo": "None", "latitude": 44.664388670263804, "longitude": -63.67104394592845}, "891932428RR0001": {"name": "Clean Economy Fund", "designationCode": "A", "categoryCode": "03", "address": "30 COMMERCIAL RD", "city": "EAST YORK", "province": "ON", "country": "CA", "postalCode": "M4G1Z4", "twitter": "None", "instagram": "None", "facebook": "None", "youtube": "None", "website": "None", "summary": "None", "logo": "None", "latitude": 43.710150183478426, "longitude": -79.35533570358929}, "863571956RR0001": {"name": "Clean Scene Network for Youth Society", "designationCode": "C", "categoryCode": "09", "address": "BOX 3494", "city": "SPRUCE GROVE", "province": "AB", "country": "CA", "postalCode": "T7X3A7", "twitter": "None", "instagram": "None", "facebook": "None", "youtube": "None", "website": "None", "summary": "None", "logo": "None", "latitude": 53.544624000000056, "longitude": -113.90185249999993}, "814449161RR0001": {"name": "Clear Hills Cemetery Society", "designationCode": "C", "categoryCode": "59", "address": "PO BOX 704", "city": "HINES CREEK", "province": "AB", "country": "CA", "postalCode": "T0H2A0", "twitter": "None", "instagram": "None", "facebook": "None", "youtube": "None", "website": "None", "summary": "None", "logo": "None", "latitude": 56.250050000000044, "longitude": -118.60277999999994}, "855697322RR0001": {"name": "Clear Lake Chamber Music Festival Inc.", "designationCode": "C", "categoryCode": "22", "address": "9 PARKLAND PLACE", "city": "BRANDON", "province": "MB", "country": "CA", "postalCode": "R7B3V8", "twitter": "None", "instagram": "None", "facebook": "None", "youtube": "None", "website": "None", "summary": "None", "logo": "None", "latitude": 49.82532594503442, "longitude": -99.9812545740086}, "820920650RR0001": {"name": "Clear Water Academy Property Foundation", "designationCode": "C", "categoryCode": "43", "address": "2521 DIEPPE AVE SW", "city": "CALGARY", "province": "AB", "country": "CA", "postalCode": "T3E7J9", "twitter": "None", "instagram": "None", "facebook": "None", "youtube": "None", "website": "None", "summary": "None", "logo": "None", "latitude": 51.01959447071387, "longitude": -114.120954}, "828083022RR0001": {"name": "Clearview Stayner Food Bank", "designationCode": "C", "categoryCode": "09", "address": "7271 HWY # 26 REAR", "city": "STAYNER", "province": "ON", "country": "CA", "postalCode": "L0M1S0", "twitter": "None", "instagram": "None", "facebook": "None", "youtube": "None", "website": "None", "summary": "None", "logo": "None", "latitude": 44.41985755629669, "longitude": -80.08864677840485}, "854558814RR0001": {"name": "Clearwater and District Hospice Society", "designationCode": "C", "categoryCode": "11", "address": "257D GLEN ROAD", "city": "CLEARWATER", "province": "BC", "country": "CA", "postalCode": "V0E1N2", "twitter": "None", "instagram": "None", "facebook": "None", "youtube": "None", "website": "None", "summary": "None", "logo": "None", "latitude": 51.64790380521149, "longitude": -120.07282438077716}, "828200923RR0001": {"name": "Clearwater Community Baptist Church", "designationCode": "C", "categoryCode": "31", "address": "PO BOX 414", "city": "CLEARWATER", "province": "BC", "country": "CA", "postalCode": "V0E1N0", "twitter": "None", "instagram": "None", "facebook": "None", "youtube": "None", "website": "None", "summary": "None", "logo": "None", "latitude": 51.64077309103135, "longitude": -120.0308705052101}, "740518691RR0001": {"name": "Clearwater Community Foundation Inc.", "designationCode": "A", "categoryCode": "03", "address": "115 BROADWAY AVENUE           BOX 10", "city": "CRYSTAL CITY", "province": "MB", "country": "CA", "postalCode": "R0K0N0", "twitter": "None", "instagram": "None", "facebook": "None", "youtube": "None", "website": "None", "summary": "None", "logo": "None", "latitude": 49.17791167731907, "longitude": -99.66753833323968}, "853259901RR0001": {"name": "Clearwater Cowboy Church", "designationCode": "C", "categoryCode": "39", "address": "POST OFFICE BOX 26            SITE 2, RR 3", "city": "ROCKY MOUNTAIN HOUSE", "province": "AB", "country": "CA", "postalCode": "T4T2A3", "twitter": "None", "instagram": "None", "facebook": "None", "youtube": "None", "website": "None", "summary": "None", "logo": "None", "latitude": 52.37758500000005, "longitude": -114.93030049999993}, "831381587RR0001": {"name": "Cleats for Kids London", "designationCode": "C", "categoryCode": "09", "address": "379 ADMIRAL DR", "city": "LONDON", "province": "ON", "country": "CA", "postalCode": "N5V1J3", "twitter": "None", "instagram": "None", "facebook": "None", "youtube": "None", "website": "None", "summary": "None", "logo": "None"}, "887274678RR0001": {"name": "Clergy Support Memorial Church", "designationCode": "C", "categoryCode": "39", "address": "2392 EIGHTH LINE ROAD         P O BOX 86", "city": "METCALFE", "province": "ON", "country": "CA", "postalCode": "K0A2P0", "twitter": "None", "instagram": "None", "facebook": "None", "youtube": "None", "website": "None", "summary": "None", "logo": "None", "latitude": 45.24646296834794, "longitude": -75.47830265589438}, "815507553RR0001": {"name": "Cliff Brenneman Trust Fund for the Conservation of Church Music", "designationCode": "C", "categoryCode": "22", "address": "11 LORRAINE DR", "city": "LINWOOD", "province": "ON", "country": "CA", "postalCode": "N0B2A0", "twitter": "None", "instagram": "None", "facebook": "None", "youtube": "None", "website": "None", "summary": "None", "logo": "None", "latitude": 43.578157325033, "longitude": -80.73243580166216}, "808583025RR0001": {"name": "Cliff Thayer Foundation", "designationCode": "B", "categoryCode": "15", "address": "1402 - 1 KING ST W", "city": "HAMILTON", "province": "ON", "country": "CA", "postalCode": "L8P1A4", "twitter": "None", "instagram": "None", "facebook": "None", "youtube": "None", "website": "None", "summary": "None", "logo": "None"}, "850927237RR0001": {"name": "Climb and Conquer Society Canada", "designationCode": "C", "categoryCode": "59", "address": "2-3180 ASH STREET", "city": "VANCOUVER", "province": "BC", "country": "CA", "postalCode": "V5Z3C9", "twitter": "None", "instagram": "None", "facebook": "None", "youtube": "None", "website": "None", "summary": "None", "logo": "None", "latitude": 49.257082894960945, "longitude": -123.11804371441659}, "841281835RR0001": {"name": "Climb Higher Ministries", "designationCode": "C", "categoryCode": "39", "address": "16 TERRANCE DRIVE", "city": "MARKHAM", "province": "ON", "country": "CA", "postalCode": "L6B0M2", "twitter": "None", "instagram": "None", "facebook": "None", "youtube": "None", "website": "None", "summary": "None", "logo": "None", "latitude": 43.8524411806798, "longitude": -79.22758707219093}, "781790928RR0001": {"name": "Clinique d'accompagnement juridique Droit de Cit\u00e9", "designationCode": "C", "categoryCode": "59", "address": "149 - 401 RUE SAINT-PAUL", "city": "QUEBEC", "province": "QC", "country": "CA", "postalCode": "G1K3X3", "twitter": "None", "instagram": "None", "facebook": "None", "youtube": "None", "website": "None", "summary": "None", "logo": "None", "latitude": 46.81652552120739, "longitude": -71.2148535}, "811458967RR0001": {"name": "Clinique de l'\u00c9ducation Ltd.", "designationCode": "C", "categoryCode": "21", "address": "314 EVANSDALE WAY NW", "city": "CALGARY", "province": "AB", "country": "CA", "postalCode": "T3P0B2", "twitter": "None", "instagram": "None", "facebook": "None", "youtube": "None", "website": "None", "summary": "None", "logo": "None", "latitude": 51.172286594783316, "longitude": -114.10812472468112}, "822097598RR0001": {"name": "Clinique juridique itin\u00e9rante Mobile Legal Clinic", "designationCode": "C", "categoryCode": "59", "address": "10332 RUE LAVERDURE", "city": "MONTREAL", "province": "QC", "country": "CA", "postalCode": "H3L2L4", "twitter": "None", "instagram": "None", "facebook": "None", "youtube": "None", "website": "None", "summary": "None", "logo": "None", "latitude": 45.55043107519202, "longitude": -73.66463114544972}, "124869637RR0001": {"name": "Clinique juridique populaire de Prescott et Russell Inc.", "designationCode": "C", "categoryCode": "59", "address": "352, RUE PRINCIPAL OUEST      BUREAU 201", "city": "HAWKESBURY", "province": "ON", "country": "CA", "postalCode": "K6A2H8", "twitter": "None", "instagram": "None", "facebook": "None", "youtube": "None", "website": "None", "summary": "None", "logo": "None", "latitude": 45.61053900000006, "longitude": -74.61958399999993}, "836826586RR0001": {"name": "Clinique Droits Devant", "designationCode": "C", "categoryCode": "59", "address": "105 RUE ONTARIO EST           BUREAU 204", "city": "MONTREAL", "province": "QC", "country": "CA", "postalCode": "H2X1G9", "twitter": "None", "instagram": "None", "facebook": "None", "youtube": "None", "website": "None", "summary": "None", "logo": "None", "latitude": 45.51231921593854, "longitude": -73.56649610690141}, "857919575RR0001": {"name": "Clinique Pro-Sant\u00e9 Marieville", "designationCode": "C", "categoryCode": "11", "address": "1344, RUE DU PONT", "city": "MARIEVILLE", "province": "QC", "country": "CA", "postalCode": "J3M1G2", "twitter": "None", "instagram": "None", "facebook": "None", "youtube": "None", "website": "None", "summary": "None", "logo": "None", "latitude": 45.43211169995395, "longitude": -73.16214626949049}, "801974510RR0001": {"name": "Cloudscape Comics Society", "designationCode": "C", "categoryCode": "22", "address": "5955 ROSS ST", "city": "VANCOUVER", "province": "BC", "country": "CA", "postalCode": "V5W1T7", "twitter": "None", "instagram": "None", "facebook": "None", "youtube": "None", "website": "None", "summary": "None", "logo": "None", "latitude": 49.23041220730542, "longitude": -123.08268165384648}, "823443114RR0001": {"name": "Cloverdale Lutheran Christian School Society", "designationCode": "C", "categoryCode": "20", "address": "5950 179TH ST", "city": "SURREY", "province": "BC", "country": "CA", "postalCode": "V3S4J9", "twitter": "None", "instagram": "None", "facebook": "None", "youtube": "None", "website": "None", "summary": "None", "logo": "None", "latitude": 49.110484043857085, "longitude": -122.72690998776632}, "717532097RR0001": {"name": "Cloverdale Rodeo Youth Initiative Foundation", "designationCode": "A", "categoryCode": "21", "address": "1250-1500 GEORGIA W ST", "city": "VANCOUVER", "province": "BC", "country": "CA", "postalCode": "V6G2Z6", "twitter": "None", "instagram": "None", "facebook": "None", "youtube": "None", "website": "None", "summary": "None", "logo": "None", "latitude": 49.290187500000016, "longitude": -123.130035}, "824219091RR0001": {"name": "Cloverleaf Charitable Trust", "designationCode": "B", "categoryCode": "45", "address": "3425 - 2ND AVENUE SOUTH       MEYERS NORRIS PENNY LLP", "city": "LETHBRIDGE", "province": "AB", "country": "CA", "postalCode": "T1J4V1", "twitter": "None", "instagram": "None", "facebook": "None", "youtube": "None", "website": "None", "summary": "None", "logo": "None", "latitude": 49.696839530439966, "longitude": -112.78914308381903}, "830810420RR0001": {"name": "Club action Hearst", "designationCode": "C", "categoryCode": "56", "address": "CP 1030", "city": "HEARST", "province": "ON", "country": "CA", "postalCode": "P0L1N0", "twitter": "None", "instagram": "None", "facebook": "None", "youtube": "None", "website": "None", "summary": "None", "logo": "None", "latitude": 49.68503700000005, "longitude": -83.65433749999994}, "118865955RR0001": {"name": "Club de l'amiti\u00e9 des handicap\u00e9s d'Abitibi-Ouest Inc.", "designationCode": "C", "categoryCode": "56", "address": "479, 2E RUE E.", "city": "LA SARRE", "province": "QC", "country": "CA", "postalCode": "J9Z2J2", "twitter": "None", "instagram": "None", "facebook": "None", "youtube": "None", "website": "None", "summary": "None", "logo": "None", "latitude": 48.79698341909517, "longitude": -79.20028879361209}, "866073133RR0001": {"name": "Club des petits d\u00e9jeuners du Canada - Breakfast Club of Can ada", "designationCode": "A", "categoryCode": "03", "address": "135G, BOUL. DE MORTAGNE", "city": "BOUCHERVILLE", "province": "QC", "country": "CA", "postalCode": "J4B6G4", "twitter": "None", "instagram": "None", "facebook": "None", "youtube": "None", "website": "None", "summary": "None", "logo": "None", "latitude": 45.57703651654725, "longitude": -73.44674670258121}, "815884259RR0001": {"name": "Club l'espoir jeunesse", "designationCode": "C", "categoryCode": "09", "address": "606 RUE CATHCART              BUREAU 615", "city": "MONTR\u00c9AL", "province": "QC", "country": "CA", "postalCode": "H3B1K9", "twitter": "None", "instagram": "None", "facebook": "None", "youtube": "None", "website": "None", "summary": "None", "logo": "None", "latitude": 45.50352944489019, "longitude": -73.56822896984849}, "118875541RR0001": {"name": "Co-operative Health Centre Volunteers' Foundation", "designationCode": "C", "categoryCode": "03", "address": "110 8TH STREET EAST", "city": "PRINCE ALBERT", "province": "SK", "country": "CA", "postalCode": "S6V0V7", "twitter": "None", "instagram": "None", "facebook": "None", "youtube": "None", "website": "None", "summary": "None", "logo": "None", "latitude": 53.20582545657561, "longitude": -105.7506435}, "860364959RR0001": {"name": "Co-Exist Global Aid", "designationCode": "C", "categoryCode": "21", "address": "1500 W. GEORGIA STREET, BOX 62SUITE 1250", "city": "VANCOUVER", "province": "BC", "country": "CA", "postalCode": "V6G2Z6", "twitter": "None", "instagram": "None", "facebook": "None", "youtube": "None", "website": "None", "summary": "None", "logo": "None", "latitude": 49.29013479542975, "longitude": -123.1300069287031}, "863761920RR0001": {"name": "Coalbanks Congregation of Jehovah's Witnesses, Lethbridge, Alberta", "designationCode": "C", "categoryCode": "61", "address": "1510 STAFFORD DR N", "city": "LETHBRIDGE", "province": "AB", "country": "CA", "postalCode": "T1H2C5", "twitter": "None", "instagram": "None", "facebook": "None", "youtube": "None", "website": "None", "summary": "None", "logo": "None", "latitude": 49.71847630994775, "longitude": -112.83266128099048}, "890978539RR0001": {"name": "Coaldale Community Food Bank Society", "designationCode": "C", "categoryCode": "09", "address": "BOX 45 - 1716 - 20TH AVENUE", "city": "COALDALE", "province": "AB", "country": "CA", "postalCode": "T1M1M2", "twitter": "None", "instagram": "None", "facebook": "None", "youtube": "None", "website": "None", "summary": "None", "logo": "None", "latitude": 49.72756151096428, "longitude": -112.61894336081136}, "833263023RR0001": {"name": "Coalition des amput\u00e9s du Canada/Amputee Coalition of Canada", "designationCode": "C", "categoryCode": "11", "address": "6363 CHEMIN HUDSON            BUREAU 104", "city": "MONTREAL", "province": "QC", "country": "CA", "postalCode": "H3S1M9", "twitter": "None", "instagram": "None", "facebook": "None", "youtube": "None", "website": "None", "summary": "None", "logo": "None", "latitude": 45.506335332015226, "longitude": -73.6301103941951}, "840885438RR0001": {"name": "Coalition des familles francophones d'Ottawa", "designationCode": "C", "categoryCode": "09", "address": "1449 PROMENADE YORK MILLS", "city": "OTTAWA", "province": "ON", "country": "CA", "postalCode": "K4A2N7", "twitter": "None", "instagram": "None", "facebook": "None", "youtube": "None", "website": "None", "summary": "None", "logo": "None", "latitude": 45.48060646378898, "longitude": -75.49346216746517}, "897606562RR0001": {"name": "Coalition for Equal Access to Education Society", "designationCode": "C", "categoryCode": "20", "address": "915 33 STREET NE", "city": "CALGARY", "province": "AB", "country": "CA", "postalCode": "T2A6T2", "twitter": "None", "instagram": "None", "facebook": "None", "youtube": "None", "website": "None", "summary": "None", "logo": "None", "latitude": 51.0602847485429, "longitude": -113.98603623968476}, "805883600RR0001": {"name": "Coalition to Cure Prostate Cancer", "designationCode": "A", "categoryCode": "03", "address": "400-725 GRANVILLE STREET      P.O. BOX 10325", "city": "VANCOUVER", "province": "BC", "country": "CA", "postalCode": "V7Y1G5", "twitter": "None", "instagram": "None", "facebook": "None", "youtube": "None", "website": "None", "summary": "None", "logo": "None", "latitude": 49.282226677852066, "longitude": -123.11861344130163}, "850177601RR0001": {"name": "Coalition Against Abuse in Relationships Inc./Coalition Contre l'Abus dans les Relations Inc.", "designationCode": "C", "categoryCode": "09", "address": "102 - 976 RUE CHAMPLAIN", "city": "DIEPPE", "province": "NB", "country": "CA", "postalCode": "E1A1P8", "twitter": "None", "instagram": "None", "facebook": "None", "youtube": "None", "website": "None", "summary": "None", "logo": "None", "latitude": 46.10299480209486, "longitude": -64.7111442053783}, "836121855RR0001": {"name": "Coalition Solidarit\u00e9 D\u00e9veloppement Durable (CSDD)", "designationCode": "C", "categoryCode": "09", "address": "310 SOMERVALE GARDENS, PORTE 1", "city": "POINTE-CLAIRE", "province": "QC", "country": "CA", "postalCode": "H9R3H8", "twitter": "None", "instagram": "None", "facebook": "None", "youtube": "None", "website": "None", "summary": "None", "logo": "None", "latitude": 45.453346128946045, "longitude": -73.82296839516324}, "831441514RR0001": {"name": "Coast Emergency Communications Association", "designationCode": "C", "categoryCode": "59", "address": "1415 WINGROVE STREET          ROOM 2", "city": "NANAIMO", "province": "BC", "country": "CA", "postalCode": "V9S3L8", "twitter": "None", "instagram": "None", "facebook": "None", "youtube": "None", "website": "None", "summary": "None", "logo": "None", "latitude": 49.204392427217094, "longitude": -123.97088279257716}, "118866524RR0001": {"name": "Coast Foundation Society (1974)", "designationCode": "C", "categoryCode": "59", "address": "293 11TH AVE E", "city": "VANCOUVER", "province": "BC", "country": "CA", "postalCode": "V5T2C4", "twitter": "None", "instagram": "None", "facebook": "None", "youtube": "None", "website": "None", "summary": "None", "logo": "None", "latitude": 49.26115546378896, "longitude": -123.09865166472387}, "837304286RR0001": {"name": "Coast Mountain Academy Society", "designationCode": "C", "categoryCode": "20", "address": "3295 MAMQUAM RD", "city": "SQUAMISH", "province": "BC", "country": "CA", "postalCode": "V8B0T8", "twitter": "None", "instagram": "None", "facebook": "None", "youtube": "None", "website": "None", "summary": "None", "logo": "None", "latitude": 49.73365100846144, "longitude": -123.1108608367297}, "812929974RR0001": {"name": "Coast Salish Arts and Cultural Society", "designationCode": "C", "categoryCode": "22", "address": "23684 GABRIEL LANE            PO BOX 1023", "city": "FORT LANGLEY", "province": "BC", "country": "CA", "postalCode": "V1M2S4", "twitter": "None", "instagram": "None", "facebook": "None", "youtube": "None", "website": "None", "summary": "None", "logo": "None", "latitude": 49.16854007718262, "longitude": -122.57416995556595}, "806423729RR0001": {"name": "Coastal Foundation for the Performing Arts", "designationCode": "A", "categoryCode": "23", "address": "2ND FL-295 7TH W AVE", "city": "VANCOUVER", "province": "BC", "country": "CA", "postalCode": "V5Y1L9", "twitter": "None", "instagram": "None", "facebook": "None", "youtube": "None", "website": "None", "summary": "None", "logo": "None", "latitude": 49.264827000000054, "longitude": -123.11015299999994}, "806388872RR0001": {"name": "Coastal Livelihoods Trust Inc.", "designationCode": "C", "categoryCode": "29", "address": "3 PRINCE OF WALES STREET", "city": "ST.ANDREWS", "province": "NB", "country": "CA", "postalCode": "E5B3W9", "twitter": "None", "instagram": "None", "facebook": "None", "youtube": "None", "website": "None", "summary": "None", "logo": "None", "latitude": 45.08264468607549, "longitude": -67.05892519014353}, "118866573RR0001": {"name": "Cobble Hill Christian Church", "designationCode": "C", "categoryCode": "31", "address": "3791 COBBLE HILL RD", "city": "COBBLE HILL", "province": "BC", "country": "CA", "postalCode": "V0R1L5", "twitter": "None", "instagram": "None", "facebook": "None", "youtube": "None", "website": "None", "summary": "None", "logo": "None", "latitude": 48.699057913409476, "longitude": -123.60648833668863}, "827729971RR0001": {"name": "Cobblestone Church (Paris)", "designationCode": "C", "categoryCode": "39", "address": "48 ABELES AVENUE", "city": "PARIS", "province": "ON", "country": "CA", "postalCode": "N3L3N9", "twitter": "None", "instagram": "None", "facebook": "None", "youtube": "None", "website": "None", "summary": "None", "logo": "None", "latitude": 43.20814794448616, "longitude": -80.40076490010945}, "851419010RR0001": {"name": "Cobequid Children First Foundation", "designationCode": "C", "categoryCode": "09", "address": "PO BOX 25036 RPO TRURO", "city": "TRURO", "province": "NS", "country": "CA", "postalCode": "B2N7B8", "twitter": "None", "instagram": "None", "facebook": "None", "youtube": "None", "website": "None", "summary": "None", "logo": "None", "latitude": 45.36602700000006, "longitude": -63.289042999999936}, "816339402RR0001": {"name": "Cobequid Society for Athletic Excellence", "designationCode": "C", "categoryCode": "56", "address": "72 NORTH STREET", "city": "TRURO", "province": "NS", "country": "CA", "postalCode": "B2N6M6", "twitter": "None", "instagram": "None", "facebook": "None", "youtube": "None", "website": "None", "summary": "None", "logo": "None", "latitude": 45.370813965171834, "longitude": -63.28087059482479}, "894945633RR0053": {"name": "Cobourg Alliance Church of the Christian and Missionary Alliance in Canada", "designationCode": "C", "categoryCode": "39", "address": "1333 ONTARIO ST               RR#4", "city": "COBOURG", "province": "ON", "country": "CA", "postalCode": "K9A4J7", "twitter": "None", "instagram": "None", "facebook": "None", "youtube": "None", "website": "None", "summary": "None", "logo": "None", "latitude": 43.990838203665476, "longitude": -78.19060009265527}, "812725703RR0001": {"name": "Cochrane and District Warm Water Therapy Pool Society", "designationCode": "A", "categoryCode": "03", "address": "POST OFFICE BOX 213", "city": "COCHRANE", "province": "AB", "country": "CA", "postalCode": "T4C1A5", "twitter": "None", "instagram": "None", "facebook": "None", "youtube": "None", "website": "None", "summary": "None", "logo": "None", "latitude": 51.19089900000006, "longitude": -114.46804249999994}, "818215790RR0001": {"name": "Cochrane Community Outreach and Performance Centre Inc.", "designationCode": "C", "categoryCode": "09", "address": "81 COCHRANE ST", "city": "ST. JOHN'S", "province": "NL", "country": "CA", "postalCode": "A1C3L7", "twitter": "None", "instagram": "None", "facebook": "None", "youtube": "None", "website": "None", "summary": "None", "logo": "None", "latitude": 47.571127538605, "longitude": -52.70430719584805}, "865083885RR0001": {"name": "Cochrane Pregnancy Care Centre Association", "designationCode": "C", "categoryCode": "09", "address": "BOX 1612", "city": "COCHRANE", "province": "AB", "country": "CA", "postalCode": "T4C1B5", "twitter": "None", "instagram": "None", "facebook": "None", "youtube": "None", "website": "None", "summary": "None", "logo": "None", "latitude": 51.19089900000006, "longitude": -114.46804249999994}, "860938588RR0001": {"name": "Code Universel", "designationCode": "C", "categoryCode": "22", "address": "310 BOULEVARD LANGELIER       SUITE 232", "city": "QU\u00c9BEC", "province": "QC", "country": "CA", "postalCode": "G1K5N3", "twitter": "None", "instagram": "None", "facebook": "None", "youtube": "None", "website": "None", "summary": "None", "logo": "None", "latitude": 46.81331448903572, "longitude": -71.23192493311785}, "823183736RR0001": {"name": "Codiac Concert Band/Harmonie Codiac Inc.", "designationCode": "C", "categoryCode": "22", "address": "UNIT 9                        380 CHAMPLAIN STREET", "city": "DIEPPE", "province": "NB", "country": "CA", "postalCode": "E1A1P3", "twitter": "None", "instagram": "None", "facebook": "None", "youtube": "None", "website": "None", "summary": "None", "logo": "None", "latitude": 46.09710681262645, "longitude": -64.74015844572689}, "771942521RR0001": {"name": "Cody's House Youth Centre", "designationCode": "C", "categoryCode": "09", "address": "POST OFFICE BOX 31006         MOLSON PARK PO", "city": "BARRIE", "province": "ON", "country": "CA", "postalCode": "L4N0B3", "twitter": "None", "instagram": "None", "facebook": "None", "youtube": "None", "website": "None", "summary": "None", "logo": "None", "latitude": 44.34939000000003, "longitude": -79.68171999999998}, "106951460RR0001": {"name": "Coe Hill-St. Ola-Pastoral Charge", "designationCode": "C", "categoryCode": "44", "address": "BOX 4", "city": "COE HILL", "province": "ON", "country": "CA", "postalCode": "K0L1P0", "twitter": "None", "instagram": "None", "facebook": "None", "youtube": "None", "website": "None", "summary": "None", "logo": "None", "latitude": 44.862280000000055, "longitude": -77.83811999999995}, "836816801RR0001": {"name": "Cohen Family Charitable Trust", "designationCode": "B", "categoryCode": "05", "address": "35 DENLOW BOULEVARD", "city": "TORONTO", "province": "ON", "country": "CA", "postalCode": "M3B1P6", "twitter": "None", "instagram": "None", "facebook": "None", "youtube": "None", "website": "None", "summary": "None", "logo": "None", "latitude": 43.74541780209484, "longitude": -79.36185631473256}, "106951759RR0001": {"name": "Colchester Community Support Society", "designationCode": "C", "categoryCode": "09", "address": "49 ESPLANADE ST", "city": "TRURO", "province": "NS", "country": "CA", "postalCode": "B2N5J7", "twitter": "None", "instagram": "None", "facebook": "None", "youtube": "None", "website": "None", "summary": "None", "logo": "None", "latitude": 45.36264789930852, "longitude": -63.27756271671117}, "814900536RR0001": {"name": "Cold Case Foundation Inc.", "designationCode": "A", "categoryCode": "59", "address": "222 PENRYN CRESCENT", "city": "SASKATOON", "province": "SK", "country": "CA", "postalCode": "S7H5G6", "twitter": "None", "instagram": "None", "facebook": "None", "youtube": "None", "website": "None", "summary": "None", "logo": "None", "latitude": 52.10507682209016, "longitude": -106.59679209553404}, "758985493RR0001": {"name": "Cold Lake Food Bank Society", "designationCode": "C", "categoryCode": "09", "address": "5216 55 ST", "city": "COLD LAKE", "province": "AB", "country": "CA", "postalCode": "T9M1R3", "twitter": "None", "instagram": "None", "facebook": "None", "youtube": "None", "website": "None", "summary": "None", "logo": "None", "latitude": 54.41631214091692, "longitude": -110.2157601083571}, "723361093RR0001": {"name": "Cold Lake John Howard Society", "designationCode": "C", "categoryCode": "59", "address": "5220 54 ST", "city": "COLD LAKE", "province": "AB", "country": "CA", "postalCode": "T9M1W2", "twitter": "None", "instagram": "None", "facebook": "None", "youtube": "None", "website": "None", "summary": "None", "logo": "None", "latitude": 54.41624175382303, "longitude": -110.21309452738156}, "846298560RR0001": {"name": "Cold Lake Seniors' Society", "designationCode": "C", "categoryCode": "56", "address": "PO BOX 1416", "city": "COLD LAKE", "province": "AB", "country": "CA", "postalCode": "T9M1P3", "twitter": "None", "instagram": "None", "facebook": "None", "youtube": "None", "website": "None", "summary": "None", "logo": "None", "latitude": 54.46502700000005, "longitude": -110.17379149999994}, "896019205RR0001": {"name": "Coldstream Christian Church", "designationCode": "C", "categoryCode": "39", "address": "9904 KALAMALKA LAKE ROAD", "city": "COLDSTREAM", "province": "BC", "country": "CA", "postalCode": "V1B2L7", "twitter": "None", "instagram": "None", "facebook": "None", "youtube": "None", "website": "None", "summary": "None", "logo": "None", "latitude": 50.223614502885525, "longitude": -119.2305915}, "839606654RR0001": {"name": "Coleman Leggitt Trust", "designationCode": "B", "categoryCode": "03", "address": "5105 MILBUROUGH LINE", "city": "BURLINGTON", "province": "ON", "country": "CA", "postalCode": "L7P0C6", "twitter": "None", "instagram": "None", "facebook": "None", "youtube": "None", "website": "None", "summary": "None", "logo": "None", "latitude": 43.38179959691716, "longitude": -79.90878698502688}, "893341321RR0001": {"name": "Coles Island Community Church", "designationCode": "C", "categoryCode": "36", "address": "11308 ROUTE 10", "city": "COLES ISLAND", "province": "NB", "country": "CA", "postalCode": "E4C2P7", "twitter": "None", "instagram": "None", "facebook": "None", "youtube": "None", "website": "None", "summary": "None", "logo": "None", "latitude": 45.92477116142247, "longitude": -65.79236588527897}, "802373589RR0001": {"name": "Coley's Point-Grace United Pastoral Charge", "designationCode": "C", "categoryCode": "44", "address": "23 KELLY'S ROAD               BOX 147", "city": "COLEY'S POINT", "province": "NL", "country": "CA", "postalCode": "A0A1X0", "twitter": "None", "instagram": "None", "facebook": "None", "youtube": "None", "website": "None", "summary": "None", "logo": "None"}, "836085415RR0001": {"name": "Colibri - Centre des femmes francophones du comt\u00e9 de Simcoe", "designationCode": "C", "categoryCode": "09", "address": "80 RUE BRADFORD               BUREAU 340", "city": "BARRIE", "province": "ON", "country": "CA", "postalCode": "L4N6S7", "twitter": "None", "instagram": "None", "facebook": "None", "youtube": "None", "website": "None", "summary": "None", "logo": "None", "latitude": 44.38314673688615, "longitude": -79.69383931308778}, "138795232RR0001": {"name": "Coll\u00e9ge Bor\u00e9al D'Arts Appliqu\u00e9s et de Technologie", "designationCode": "C", "categoryCode": "20", "address": "21, BOULEVARD LASALLE", "city": "SUDBURY", "province": "ON", "country": "CA", "postalCode": "P3A6B1", "twitter": "None", "instagram": "None", "facebook": "None", "youtube": "None", "website": "None", "summary": "None", "logo": "None", "latitude": 46.51572053836716, "longitude": -81.00132297305763}, "892800053RR0001": {"name": "Coll\u00e8ge Boisbriand 2016", "designationCode": "C", "categoryCode": "20", "address": "4747, RUE AMBROISE-LAFORTUNE", "city": "BOISBRIAND", "province": "QC", "country": "CA", "postalCode": "J7H0A4", "twitter": "None", "instagram": "None", "facebook": "None", "youtube": "None", "website": "None", "summary": "None", "logo": "None", "latitude": 45.64122553621103, "longitude": -73.86798988190317}, "106952856RR0001": {"name": "Coll\u00e8ge Champagneur", "designationCode": "C", "categoryCode": "20", "address": "3713 RUE QUEEN", "city": "RAWDON", "province": "QC", "country": "CA", "postalCode": "J0K1S0", "twitter": "None", "instagram": "None", "facebook": "None", "youtube": "None", "website": "None", "summary": "None", "logo": "None", "latitude": 46.044320075163384, "longitude": -73.70993034603792}, "102498250RR0001": {"name": "Coll\u00e8ge Charlemagne Inc.", "designationCode": "C", "categoryCode": "20", "address": "5000 RUE PILON", "city": "PIERREFONDS", "province": "QC", "country": "CA", "postalCode": "H9K1G4", "twitter": "None", "instagram": "None", "facebook": "None", "youtube": "None", "website": "None", "summary": "None", "logo": "None", "latitude": 45.460733806249806, "longitude": -73.91786012343427}, "888987245RR0001": {"name": "Coll\u00e8ge J\u00e9sus-Marie de Sillery", "designationCode": "C", "categoryCode": "20", "address": "2047 CHEMIN ST LOUIS", "city": "QUEBEC", "province": "QC", "country": "CA", "postalCode": "G1T1P3", "twitter": "None", "instagram": "None", "facebook": "None", "youtube": "None", "website": "None", "summary": "None", "logo": "None", "latitude": 46.777905094639074, "longitude": -71.25169706466045}, "119007292RR0001": {"name": "Coll\u00e8ge Lasalle / Lasalle College", "designationCode": "C", "categoryCode": "20", "address": "2000 STE-CATHERINE OUEST", "city": "MONTREAL", "province": "QC", "country": "CA", "postalCode": "H3H2T2", "twitter": "None", "instagram": "None", "facebook": "None", "youtube": "None", "website": "None", "summary": "None", "logo": "None", "latitude": 45.49149249402738, "longitude": -73.58192360975828}, "129960613RR0001": {"name": "Coll\u00e8ge Laurier", "designationCode": "C", "categoryCode": "20", "address": "4001 BOUL SAINTE-ROSE", "city": "LAVAL", "province": "QC", "country": "CA", "postalCode": "H7R1W6", "twitter": "None", "instagram": "None", "facebook": "None", "youtube": "None", "website": "None", "summary": "None", "logo": "None", "latitude": 45.572234570402365, "longitude": -73.83091309913591}, "106953722RR0001": {"name": "Coll\u00e8ge Servite", "designationCode": "C", "categoryCode": "20", "address": "470 RUE MAIN", "city": "AYER'S CLIFF", "province": "QC", "country": "CA", "postalCode": "J0B1C0", "twitter": "None", "instagram": "None", "facebook": "None", "youtube": "None", "website": "None", "summary": "None", "logo": "None", "latitude": 45.179547425646454, "longitude": -72.07096378411849}, "118867845RR0001": {"name": "Coll\u00e8ge Sup\u00e9rieur de Montr\u00e9al (C.S.M.) inc.", "designationCode": "C", "categoryCode": "20", "address": "800 BOUL DE MAISONNEUVE EST   5E ETAGE", "city": "MONTREAL", "province": "QC", "country": "CA", "postalCode": "H2L4L8", "twitter": "None", "instagram": "None", "facebook": "None", "youtube": "None", "website": "None", "summary": "None", "logo": "None", "latitude": 45.51644337743112, "longitude": -73.56001674513871}, "104780978RR0001": {"name": "Coll\u00e8ge Trinit\u00e9", "designationCode": "C", "categoryCode": "20", "address": "1475 CHEMIN DES VINGT", "city": "ST-BRUNO", "province": "QC", "country": "CA", "postalCode": "J3V4P6", "twitter": "None", "instagram": "None", "facebook": "None", "youtube": "None", "website": "None", "summary": "None", "logo": "None", "latitude": 45.534932006606894, "longitude": -73.30076994053803}, "140796327RR0001": {"name": "Coll\u00e8ge TAV / TAV College", "designationCode": "C", "categoryCode": "20", "address": "6333 BOUL. D\u00c9CARIE", "city": "MONTR\u00c9AL", "province": "QC", "country": "CA", "postalCode": "H3W3E1", "twitter": "None", "instagram": "None", "facebook": "None", "youtube": "None", "website": "None", "summary": "None", "logo": "None", "latitude": 45.490331199290125, "longitude": -73.64351810101572}, "853493716RR0001": {"name": "Collaboration Qu\u00e9bec N\u00e9pal", "designationCode": "C", "categoryCode": "09", "address": "1633 RUE DES DRAVEURS", "city": "LEVIS", "province": "QC", "country": "CA", "postalCode": "G6Z2L1", "twitter": "None", "instagram": "None", "facebook": "None", "youtube": "None", "website": "None", "summary": "None", "logo": "None", "latitude": 46.693132397166615, "longitude": -71.24495930627845}, "816984678RR0001": {"name": "Collaboration Qu\u00e9bec-Ha\u00efti", "designationCode": "C", "categoryCode": "09", "address": "309 PREMIERE RUE", "city": "SAINT-JEAN-SUR-RICHELIEU", "province": "QC", "country": "CA", "postalCode": "J2X3A5", "twitter": "None", "instagram": "None", "facebook": "None", "youtube": "None", "website": "None", "summary": "None", "logo": "None", "latitude": 45.31339737272792, "longitude": -73.2464883612727}}