{"107395519RR0001": {"name": "FORT ROUGE CO-OP DAY NURSERY INC.", "designationCode": "C", "categoryCode": "01", "address": "513 STRADBROOK AVE", "city": "WINNIPEG", "province": "MB", "country": "CA", "postalCode": "R3L0K2", "twitter": "None", "instagram": "None", "facebook": "None", "youtube": "None", "website": "None", "summary": "None", "logo": "None", "latitude": 49.8769919031679, "longitude": -97.14715887096756}, "119288918RR0183": {"name": "FORT ROUGE CONGREGATION OF JEHOVAH'S WITNESSES, WINNIPEG, MANITOBA", "designationCode": "C", "categoryCode": "61", "address": "227 LAKEWOOD BLVD", "city": "WINNIPEG", "province": "MB", "country": "CA", "postalCode": "R2J2N2", "twitter": "None", "instagram": "None", "facebook": "None", "youtube": "None", "website": "None", "summary": "None", "logo": "None", "latitude": 49.848209999999995, "longitude": -97.07698035097319}, "885410548RR0001": {"name": "FORT SACKVILLE FOUNDATION", "designationCode": "C", "categoryCode": "52", "address": "15 FORT SACKVILLE ROAD", "city": "BEDFORD", "province": "NS", "country": "CA", "postalCode": "B4A2G6", "twitter": "None", "instagram": "None", "facebook": "None", "youtube": "None", "website": "None", "summary": "None", "logo": "None", "latitude": 44.728986424115476, "longitude": -63.65953640305231}, "118928639RR0001": {"name": "FORT SASKATCHEWAN ALLIANCE CHURCH", "designationCode": "C", "categoryCode": "39", "address": "9935-93 AVENUE", "city": "FORT SASKATCHEWAN", "province": "AB", "country": "CA", "postalCode": "T8L1N5", "twitter": "None", "instagram": "None", "facebook": "None", "youtube": "None", "website": "None", "summary": "None", "logo": "None", "latitude": 53.70115055280215, "longitude": -113.21268273881938}, "118928647RR0001": {"name": "FORT SASKATCHEWAN BOYS & GIRLS CLUB", "designationCode": "C", "categoryCode": "09", "address": "10090 93RD AVENUE", "city": "FORT SASKATCHEWAN", "province": "AB", "country": "CA", "postalCode": "T8L1N4", "twitter": "None", "instagram": "None", "facebook": "None", "youtube": "None", "website": "None", "summary": "None", "logo": "None", "latitude": 53.70232335388646, "longitude": -113.20739012770477}, "131934416RR0001": {"name": "FORT SASKATCHEWAN CHURCH OF THE NAZARENE", "designationCode": "C", "categoryCode": "39", "address": "9802-104 ST", "city": "FORT SASKATCHEWAN", "province": "AB", "country": "CA", "postalCode": "T8L2E6", "twitter": "None", "instagram": "None", "facebook": "None", "youtube": "None", "website": "None", "summary": "None", "logo": "None", "latitude": 53.71004155231121, "longitude": -113.20850521706373}, "118928662RR0001": {"name": "FORT SASKATCHEWAN COMMUNITY BAND SOCIETY", "designationCode": "C", "categoryCode": "22", "address": "164 CRANSTON PL", "city": "FORT SASKATCHEWAN", "province": "AB", "country": "CA", "postalCode": "T8L0K9", "twitter": "None", "instagram": "None", "facebook": "None", "youtube": "None", "website": "None", "summary": "None", "logo": "None", "latitude": 53.68802278270513, "longitude": -113.21812165303845}, "107395634RR0001": {"name": "FORT SASKATCHEWAN COMMUNITY BAPTIST CHURCH", "designationCode": "C", "categoryCode": "31", "address": "7810 95A AVE", "city": "FORT SASKATCHEWAN", "province": "AB", "country": "CA", "postalCode": "T8L3X1", "twitter": "None", "instagram": "None", "facebook": "None", "youtube": "None", "website": "None", "summary": "None", "logo": "None", "latitude": 53.6879028593108, "longitude": -113.24918367640929}, "855013165RR0001": {"name": "FORT SASKATCHEWAN COMMUNITY HOSPITAL FOUNDATION", "designationCode": "A", "categoryCode": "03", "address": "ROOM 1C-012                   9401 86TH AVE", "city": "FORT SASKATCHEWAN", "province": "AB", "country": "CA", "postalCode": "T8L0C6", "twitter": "None", "instagram": "None", "facebook": "None", "youtube": "None", "website": "None", "summary": "None", "logo": "None", "latitude": 53.69308551664718, "longitude": -113.21336638946698}, "870827847RR0001": {"name": "FORT SASKATCHEWAN FAMILIES FIRST SOCIETY", "designationCode": "C", "categoryCode": "09", "address": "PO BOX 3285", "city": "FORT SASKATCHEWAN", "province": "AB", "country": "CA", "postalCode": "T8L2T3", "twitter": "None", "instagram": "None", "facebook": "None", "youtube": "None", "website": "None", "summary": "None", "logo": "None", "latitude": 53.71287900000006, "longitude": -113.21417149999994}, "130137938RR0001": {"name": "FORT SASKATCHEWAN FELLOWSHIP BAPTIST CHURCH", "designationCode": "C", "categoryCode": "31", "address": "9921 101 ST", "city": "FT-SASKATCHWN", "province": "AB", "country": "CA", "postalCode": "T8L1V6", "twitter": "None", "instagram": "None", "facebook": "None", "youtube": "None", "website": "None", "summary": "None", "logo": "None"}, "118928696RR0001": {"name": "FORT SASKATCHEWAN MUSIC FESTIVAL ASSOCIATION", "designationCode": "C", "categoryCode": "22", "address": "9 ALMOND BAY", "city": "FORT SASKATCHEWAN", "province": "AB", "country": "CA", "postalCode": "T8L0A4", "twitter": "None", "instagram": "None", "facebook": "None", "youtube": "None", "website": "None", "summary": "None", "logo": "None", "latitude": 53.683754984159656, "longitude": -113.26071483331422}, "107395618RR0001": {"name": "FORT SASKATCHEWAN PENTECOSTAL ASSEMBLY", "designationCode": "C", "categoryCode": "36", "address": "13 LANGLEY DR", "city": "FT-SASKATCHWN", "province": "AB", "country": "CA", "postalCode": "T8L2L6", "twitter": "None", "instagram": "None", "facebook": "None", "youtube": "None", "website": "None", "summary": "None", "logo": "None", "latitude": 53.70809602138028, "longitude": -113.20448658003947}, "107395725RR0001": {"name": "FORT SASKATCHEWAN PUBLIC LIBRARY BOARD", "designationCode": "C", "categoryCode": "50", "address": "10011 102 ST", "city": "FORT SASKATCHEWAN", "province": "AB", "country": "CA", "postalCode": "T8L2C5", "twitter": "None", "instagram": "None", "facebook": "None", "youtube": "None", "website": "None", "summary": "None", "logo": "None", "latitude": 53.713209225662084, "longitude": -113.21443911512532}, "870882339RR0001": {"name": "FORT SASKATCHEWAN WORD OF LIFE CENTRE CHURCH AND MINISTRIES", "designationCode": "C", "categoryCode": "39", "address": "PO BOX 3041", "city": "FORT SASKATCHEWAN", "province": "AB", "country": "CA", "postalCode": "T8L2T1", "twitter": "None", "instagram": "None", "facebook": "None", "youtube": "None", "website": "None", "summary": "None", "logo": "None", "latitude": 53.71287900000006, "longitude": -113.21417149999994}, "888692746RR0001": {"name": "FORT SIMPSON HISTORICAL SOCIETY", "designationCode": "C", "categoryCode": "50", "address": "BOX 59", "city": "FORT SIMPSON", "province": "NT", "country": "CA", "postalCode": "X0E0N0", "twitter": "None", "instagram": "None", "facebook": "None", "youtube": "None", "website": "None", "summary": "None", "logo": "None", "latitude": 61.866550000000075, "longitude": -121.36152999999996}, "891610396RR0001": {"name": "FORT SMITH ANIMAL SOCIETY", "designationCode": "C", "categoryCode": "54", "address": "BOX 722", "city": "FORT SMITH", "province": "NT", "country": "CA", "postalCode": "X0E0P0", "twitter": "None", "instagram": "None", "facebook": "None", "youtube": "None", "website": "None", "summary": "None", "logo": "None", "latitude": 60.01262014865944, "longitude": -112.05264672940851}, "895060556RR0001": {"name": "FORT SMITH CO-OPERATIVE NURSERY SCHOOL", "designationCode": "C", "categoryCode": "20", "address": "BOX 146", "city": "FORT SMITH", "province": "NT", "country": "CA", "postalCode": "X0E0P0", "twitter": "None", "instagram": "None", "facebook": "None", "youtube": "None", "website": "None", "summary": "None", "logo": "None", "latitude": 60.01262014865944, "longitude": -112.05264672940851}, "892784752RR0001": {"name": "FORT SMITH DISTRICT EDUCATION AUTHORITY", "designationCode": "C", "categoryCode": "21", "address": "BOX 131", "city": "FORT SMITH", "province": "NT", "country": "CA", "postalCode": "X0E0P0", "twitter": "None", "instagram": "None", "facebook": "None", "youtube": "None", "website": "None", "summary": "None", "logo": "None", "latitude": 60.01262014865944, "longitude": -112.05264672940851}, "119288918RR0431": {"name": "FORT ST JAMES CONGREGATION OF JEHOVAH'S WITNESSES", "designationCode": "C", "categoryCode": "61", "address": "KINGDOM HALL                  BOX 1467", "city": "FORT ST. JAMES", "province": "BC", "country": "CA", "postalCode": "V0J1P0", "twitter": "None", "instagram": "None", "facebook": "None", "youtube": "None", "website": "None", "summary": "None", "logo": "None", "latitude": 54.44540000000006, "longitude": -124.25099999999998}, "107395873RR0001": {"name": "FORT ST JAMES UNITED CHURCH", "designationCode": "C", "categoryCode": "44", "address": "BOX 1468", "city": "FORT ST JAMES", "province": "BC", "country": "CA", "postalCode": "V0J1P0", "twitter": "None", "instagram": "None", "facebook": "None", "youtube": "None", "website": "None", "summary": "None", "logo": "None", "latitude": 54.44540000000006, "longitude": -124.25099999999998}, "131892747RR0001": {"name": "FORT ST JOHN ALLIANCE CHURCH", "designationCode": "C", "categoryCode": "39", "address": "9804-99 AVENUE", "city": "FORT ST JOHN", "province": "BC", "country": "CA", "postalCode": "V1J3T8", "twitter": "None", "instagram": "None", "facebook": "None", "youtube": "None", "website": "None", "summary": "None", "logo": "None", "latitude": 56.24540045325739, "longitude": -120.84470091618097}, "871095832RR0001": {"name": "FORT ST JOHN GENERAL HOSPITAL AUXILIARY", "designationCode": "C", "categoryCode": "19", "address": "10912 96 ST", "city": "FORT ST. JOHN", "province": "BC", "country": "CA", "postalCode": "V1J3R7", "twitter": "None", "instagram": "None", "facebook": "None", "youtube": "None", "website": "None", "summary": "None", "logo": "None", "latitude": 56.255040104910854, "longitude": -120.84010758177021}, "892256298RR0001": {"name": "FORT ST JOHN LITERACY SOCIETY", "designationCode": "C", "categoryCode": "21", "address": "PO BOX 6196", "city": "FORT ST JOHN", "province": "BC", "country": "CA", "postalCode": "V1J4H7", "twitter": "None", "instagram": "None", "facebook": "None", "youtube": "None", "website": "None", "summary": "None", "logo": "None", "latitude": 56.25253500000005, "longitude": -120.84748099999993}, "890267446RR0001": {"name": "FORT ST JOHN PASTORAL CHARGE,", "designationCode": "C", "categoryCode": "44", "address": "BOX 6076", "city": "FORT ST JOHN", "province": "BC", "country": "CA", "postalCode": "V1J3T9", "twitter": "None", "instagram": "None", "facebook": "None", "youtube": "None", "website": "None", "summary": "None", "logo": "None", "latitude": 56.246145000000055, "longitude": -120.84401149999994}, "107354086RR0001": {"name": "FORT ST. JAMES EVANGELICAL FREE CHURCH", "designationCode": "C", "categoryCode": "39", "address": "BOX 465", "city": "FORT ST JAMES", "province": "BC", "country": "CA", "postalCode": "V0J1P0", "twitter": "None", "instagram": "None", "facebook": "None", "youtube": "None", "website": "None", "summary": "None", "logo": "None", "latitude": 54.44540000000006, "longitude": -124.25099999999998}, "118928738RR0001": {"name": "FORT ST. JAMES PUBLIC LIBRARY ASSOCIATION", "designationCode": "C", "categoryCode": "50", "address": "BOX 729", "city": "FORT ST JAMES", "province": "BC", "country": "CA", "postalCode": "V0J1P0", "twitter": "None", "instagram": "None", "facebook": "None", "youtube": "None", "website": "None", "summary": "None", "logo": "None", "latitude": 54.44540000000006, "longitude": -124.25099999999998}, "865672893RR0001": {"name": "FORT ST. JAMES SEARCH AND RESCUE SOCIETY", "designationCode": "C", "categoryCode": "59", "address": "P.O. BOX 898                  374 MORICE AV", "city": "FORT ST JAMES", "province": "BC", "country": "CA", "postalCode": "V0J1P0", "twitter": "None", "instagram": "None", "facebook": "None", "youtube": "None", "website": "None", "summary": "None", "logo": "None", "latitude": 54.44499943438728, "longitude": -124.25671541168023}, "867131690RR0001": {"name": "FORT ST. JOHN AND DISTRICT PALLIATIVE CARE SOCIETY", "designationCode": "C", "categoryCode": "01", "address": "9812 - 108 AVENUE", "city": "FORT ST JOHN", "province": "BC", "country": "CA", "postalCode": "V1J2R3", "twitter": "None", "instagram": "None", "facebook": "None", "youtube": "None", "website": "None", "summary": "None", "logo": "None", "latitude": 56.25381252986306, "longitude": -120.8449429417162}, "863824843RR0001": {"name": "FORT ST. JOHN COMMUNITY ENRICHMENT CENTRE FOUNDATION", "designationCode": "C", "categoryCode": "20", "address": "9228 105 AVE", "city": "FORT ST. JOHN", "province": "BC", "country": "CA", "postalCode": "V1J2L7", "twitter": "None", "instagram": "None", "facebook": "None", "youtube": "None", "website": "None", "summary": "None", "logo": "None", "latitude": 56.25110645325739, "longitude": -120.8341429417162}, "118928803RR0001": {"name": "FORT ST. JOHN FRIENDSHIP SOCIETY", "designationCode": "C", "categoryCode": "59", "address": "10208 95TH AVE", "city": "FORT ST JOHN", "province": "BC", "country": "CA", "postalCode": "V1J1J2", "twitter": "None", "instagram": "None", "facebook": "None", "youtube": "None", "website": "None", "summary": "None", "logo": "None", "latitude": 56.241470460470744, "longitude": -120.85187302553523}, "889340899RR0001": {"name": "FORT ST. JOHN HOSPITAL FOUNDATION", "designationCode": "C", "categoryCode": "19", "address": "8407 112TH AVE", "city": "FORT ST JOHN", "province": "BC", "country": "CA", "postalCode": "V1J0J5", "twitter": "None", "instagram": "None", "facebook": "None", "youtube": "None", "website": "None", "summary": "None", "logo": "None", "latitude": 56.25749549509524, "longitude": -120.81851269747244}, "107395998RR0001": {"name": "FORT ST. JOHN PRESBYTERIAN CHURCH", "designationCode": "C", "categoryCode": "37", "address": "9907-98TH STREET", "city": "FORT ST JOHN", "province": "BC", "country": "CA", "postalCode": "V1J3T9", "twitter": "None", "instagram": "None", "facebook": "None", "youtube": "None", "website": "None", "summary": "None", "logo": "None", "latitude": 56.245626000000016, "longitude": -120.84401053840406}, "107395964RR0001": {"name": "FORT ST. JOHN PUBLIC LIBRARY ASSOCIATION", "designationCode": "C", "categoryCode": "50", "address": "10015 100 AVE", "city": "FORT ST. JOHN", "province": "BC", "country": "CA", "postalCode": "V1J1Y7", "twitter": "None", "instagram": "None", "facebook": "None", "youtube": "None", "website": "None", "summary": "None", "logo": "None", "latitude": 56.24636923382872, "longitude": -120.84782968812686}, "118928878RR0001": {"name": "FORT ST. JOHN SENIOR CITIZENS ASSOCIATION BRANCH #58", "designationCode": "C", "categoryCode": "59", "address": "10908 100 ST", "city": "FORT ST. JOHN", "province": "BC", "country": "CA", "postalCode": "V1J3Z6", "twitter": "None", "instagram": "None", "facebook": "None", "youtube": "None", "website": "None", "summary": "None", "logo": "None", "latitude": 56.25438299999999, "longitude": -120.84751944327405}, "118818491RR0014": {"name": "FORT ST. JOHN SEVENTH-DAY ADVENTIST CHURCH", "designationCode": "C", "categoryCode": "41", "address": "PO 1000", "city": "ABBOTSFORD", "province": "BC", "country": "CA", "postalCode": "V2S4P5", "twitter": "None", "instagram": "None", "facebook": "None", "youtube": "None", "website": "None", "summary": "None", "logo": "None", "latitude": 49.03851300000005, "longitude": -122.29441549999993}, "868493305RR0001": {"name": "FORT STEELE CEMETERY SOCIETY", "designationCode": "C", "categoryCode": "59", "address": "1404 16TH ST S", "city": "CRANBROOK", "province": "BC", "country": "CA", "postalCode": "V1C6R5", "twitter": "None", "instagram": "None", "facebook": "None", "youtube": "None", "website": "None", "summary": "None", "logo": "None", "latitude": 49.49334043651016, "longitude": -115.75969140136583}, "131834442RR0001": {"name": "FORT WHOOP-UP INTERPRETIVE SOCIETY", "designationCode": "C", "categoryCode": "50", "address": "PO BOX 1074", "city": "LETHBRIDGE", "province": "AB", "country": "CA", "postalCode": "T1J4A2", "twitter": "None", "instagram": "None", "facebook": "None", "youtube": "None", "website": "None", "summary": "None", "logo": "None", "latitude": 49.69383000000006, "longitude": -112.83373249999994}, "867413692RR0001": {"name": "FORT YORK BRANCH 165, POPPY TRUST", "designationCode": "A", "categoryCode": "05", "address": "PO BOX 69009                  1421 YONGE ST", "city": "TORONTO", "province": "ON", "country": "CA", "postalCode": "M4T1Y7", "twitter": "None", "instagram": "None", "facebook": "None", "youtube": "None", "website": "None", "summary": "None", "logo": "None", "latitude": 43.6874996991459, "longitude": -79.39380904022174}, "867147464RR0001": {"name": "FORT YORK FOOD BANK, A NON-PROFIT CORPORATION", "designationCode": "C", "categoryCode": "09", "address": "797 DUNDAS ST. WEST", "city": "TORONTO", "province": "ON", "country": "CA", "postalCode": "M6J1V2", "twitter": "None", "instagram": "None", "facebook": "None", "youtube": "None", "website": "None", "summary": "None", "logo": "None", "latitude": 43.65188575823776, "longitude": -79.40794654065444}, "832482566RR0001": {"name": "FORT YORK FOUNDATION / FONDATION FORT YORK", "designationCode": "A", "categoryCode": "03", "address": "800-2 ST CLAIR AVE EAST", "city": "TORONTO", "province": "ON", "country": "CA", "postalCode": "M4T2T5", "twitter": "None", "instagram": "None", "facebook": "None", "youtube": "None", "website": "None", "summary": "None", "logo": "None", "latitude": 43.68819219458694, "longitude": -79.39364569637594}, "118928167RR0001": {"name": "FORTIER DANSE-CREATION INC.", "designationCode": "C", "categoryCode": "22", "address": "301-2022 RUE SHERBROOK EST", "city": "MONTREAL", "province": "QC", "country": "CA", "postalCode": "H2K1B9", "twitter": "None", "instagram": "None", "facebook": "None", "youtube": "None", "website": "None", "summary": "None", "logo": "None", "latitude": 45.53400108533833, "longitude": -73.56199564861863}, "888129244RR0001": {"name": "FORTIER GOSPEL CHAPEL", "designationCode": "C", "categoryCode": "39", "address": "BOX 262", "city": "OAKVILLE", "province": "MB", "country": "CA", "postalCode": "R0H0Y0", "twitter": "None", "instagram": "None", "facebook": "None", "youtube": "None", "website": "None", "summary": "None", "logo": "None", "latitude": 49.92975000000007, "longitude": -98.00394999999997}, "835780958RR0001": {"name": "FORTIUS FOUNDATION", "designationCode": "A", "categoryCode": "03", "address": "3713 KENSINGTON AVE", "city": "BURNABY", "province": "BC", "country": "CA", "postalCode": "V5B0A7", "twitter": "None", "instagram": "None", "facebook": "None", "youtube": "None", "website": "None", "summary": "None", "logo": "None", "latitude": 49.25303464244902, "longitude": -122.96668061872015}, "119018133RR0001": {"name": "FORTRESS LOUISBOURG ASSOCIATION", "designationCode": "C", "categoryCode": "52", "address": "265 PARK SERVICE ROAD", "city": "LOUISBOURG", "province": "NS", "country": "CA", "postalCode": "B1C2L2", "twitter": "None", "instagram": "None", "facebook": "None", "youtube": "None", "website": "None", "summary": "None", "logo": "None", "latitude": 45.90809448481358, "longitude": -60.00630939800252}, "107396285RR0001": {"name": "FORUM ART INSTITUTE", "designationCode": "C", "categoryCode": "22", "address": "120 EUGENIE STREET", "city": "WINNIPEG", "province": "MB", "country": "CA", "postalCode": "R2H0X7", "twitter": "None", "instagram": "None", "facebook": "None", "youtube": "None", "website": "None", "summary": "None", "logo": "None", "latitude": 49.879570506780674, "longitude": -97.12358185928214}, "132786039RR0001": {"name": "FORUM DES CITOYENS A\u00ceNES DE MONTR\u00c9AL /SENIOR CITIZENS' FORUMOF MONTR\u00c9AL", "designationCode": "C", "categoryCode": "09", "address": "363 - 6830 AV DU PARC", "city": "MONTREAL", "province": "QC", "country": "CA", "postalCode": "H3N1W7", "twitter": "None", "instagram": "None", "facebook": "None", "youtube": "None", "website": "None", "summary": "None", "logo": "None", "latitude": 45.52886965139367, "longitude": -73.61771531946442}, "133652651RR0001": {"name": "FORUM FOR YOUNG ALBERTANS ASSOCIATION", "designationCode": "C", "categoryCode": "21", "address": "PO BOX 7220", "city": "CALGARY", "province": "AB", "country": "CA", "postalCode": "T2P3M1", "twitter": "None", "instagram": "None", "facebook": "None", "youtube": "None", "website": "None", "summary": "None", "logo": "None", "latitude": 51.04531500000006, "longitude": -114.06301099999993}, "134202654RR0001": {"name": "FORUM ITALIA DAY CARE NON-PROFIT INC", "designationCode": "C", "categoryCode": "01", "address": "113-195 FORUM DR", "city": "MISSISSAUGA", "province": "ON", "country": "CA", "postalCode": "L4Z3M5", "twitter": "None", "instagram": "None", "facebook": "None", "youtube": "None", "website": "None", "summary": "None", "logo": "None", "latitude": 43.61164230062296, "longitude": -79.65061571316859}, "887251429RR0001": {"name": "FORUM OF FEDERATIONS/FORUM DES FEDERATIONS", "designationCode": "C", "categoryCode": "21", "address": "75 ALBERT STREET              SUITE 411", "city": "OTTAWA", "province": "ON", "country": "CA", "postalCode": "K1P5E7", "twitter": "None", "instagram": "None", "facebook": "None", "youtube": "None", "website": "None", "summary": "None", "logo": "None", "latitude": 45.42209635250147, "longitude": -75.69529427228912}, "132953068RR0001": {"name": "FORUM-JEUNESSE CHARLEVOIX-OUEST", "designationCode": "C", "categoryCode": "29", "address": "13 RUE DE LA LUMIERE", "city": "BAIE-SAINT-PAUL", "province": "QC", "country": "CA", "postalCode": "G3Z1Y3", "twitter": "None", "instagram": "None", "facebook": "None", "youtube": "None", "website": "None", "summary": "None", "logo": "None", "latitude": 47.436316911449104, "longitude": -70.50945746087477}, "887369791RR0001": {"name": "FORWARD BAPTIST CHURCH,", "designationCode": "C", "categoryCode": "31", "address": "1891 GERRARD ST E", "city": "TORONTO", "province": "ON", "country": "CA", "postalCode": "M4L2B9", "twitter": "None", "instagram": "None", "facebook": "None", "youtube": "None", "website": "None", "summary": "None", "logo": "None", "latitude": 43.68011283790187, "longitude": -79.31217232901506}, "832826549RR0001": {"name": "FORWARD BAPTIST CHURCH, CAMBRIDGE", "designationCode": "C", "categoryCode": "31", "address": "455 MYERS ROAD", "city": "CAMBRIDGE", "province": "ON", "country": "CA", "postalCode": "N1R5S2", "twitter": "None", "instagram": "None", "facebook": "None", "youtube": "None", "website": "None", "summary": "None", "logo": "None", "latitude": 43.34358072433535, "longitude": -80.28566763362006}, "891721912RR0001": {"name": "FORWARD HOUSE COMMUNITY SOCIETY", "designationCode": "C", "categoryCode": "11", "address": "PO BOX 752 STN MAIN", "city": "PARKSVILLE", "province": "BC", "country": "CA", "postalCode": "V9P2G8", "twitter": "None", "instagram": "None", "facebook": "None", "youtube": "None", "website": "None", "summary": "None", "logo": "None", "latitude": 49.31968200000006, "longitude": -124.31365099999994}, "898594064RR0001": {"name": "FORWARD HOUSE MINISTRIES INC.", "designationCode": "C", "categoryCode": "01", "address": "407 CHALMERS AVE", "city": "WINNIPEG", "province": "MB", "country": "CA", "postalCode": "R2L0G3", "twitter": "None", "instagram": "None", "facebook": "None", "youtube": "None", "website": "None", "summary": "None", "logo": "None", "latitude": 49.91157992091282, "longitude": -97.1034350091466}, "107396335RR0001": {"name": "FORWARD HOUSE OF LONDON", "designationCode": "C", "categoryCode": "01", "address": "402-111 WATERLOO ST", "city": "LONDON", "province": "ON", "country": "CA", "postalCode": "N6B2M4", "twitter": "None", "instagram": "None", "facebook": "None", "youtube": "None", "website": "None", "summary": "None", "logo": "None", "latitude": 42.97699346404877, "longitude": -81.2381310286223}, "887731008RR0001": {"name": "FOSTER FAMILY COALITION OF THE NORTHWEST TERRITORIES", "designationCode": "B", "categoryCode": "09", "address": "PO BOX 2022 STN MAIN", "city": "YELLOWKNIFE", "province": "NT", "country": "CA", "postalCode": "X1A2P5", "twitter": "None", "instagram": "None", "facebook": "None", "youtube": "None", "website": "None", "summary": "None", "logo": "None", "latitude": 62.45446200000005, "longitude": -114.37092349999993}, "897713830RR0001": {"name": "FOSTERTON OILFIELD HISTORICAL ASSOCIATION INC.", "designationCode": "C", "categoryCode": "50", "address": "BOX 11 SITE 2", "city": "CABRI", "province": "SK", "country": "CA", "postalCode": "S0N0J0", "twitter": "None", "instagram": "None", "facebook": "None", "youtube": "None", "website": "None", "summary": "None", "logo": "None", "latitude": 50.620695000000055, "longitude": -108.45713149999993}, "118929009RR0001": {"name": "FOSTERVILLE UNITED BAPTIST CHURCH", "designationCode": "C", "categoryCode": "31", "address": "4395 ROUTE 122", "city": "FOSTERVILLE", "province": "NB", "country": "CA", "postalCode": "E6H2A8", "twitter": "None", "instagram": "None", "facebook": "None", "youtube": "None", "website": "None", "summary": "None", "logo": "None", "latitude": 45.80386534155364, "longitude": -67.76623981184235}, "864335617RR0001": {"name": "FOTA RESCUE SOCIETY", "designationCode": "C", "categoryCode": "54", "address": "2476 124 ST", "city": "SURREY", "province": "BC", "country": "CA", "postalCode": "V4A3N2", "twitter": "None", "instagram": "None", "facebook": "None", "youtube": "None", "website": "None", "summary": "None", "logo": "None", "latitude": 49.04744441909517, "longitude": -122.87840910433394}, "140803826RR0001": {"name": "FOUNDATION BAPTIST CHURCH OF CALGARY", "designationCode": "C", "categoryCode": "31", "address": "226 BRIDLEWOOD ROAD SW", "city": "CALGARY", "province": "AB", "country": "CA", "postalCode": "T2Y3X2", "twitter": "None", "instagram": "None", "facebook": "None", "youtube": "None", "website": "None", "summary": "None", "logo": "None", "latitude": 50.902225522072776, "longitude": -114.10816402553523}, "886588995RR0001": {"name": "FOUNDATION CONSTANTIN MIRCEA DAN", "designationCode": "B", "categoryCode": "21", "address": "40 LAKESIDE AVENUE", "city": "OTTAWA", "province": "ON", "country": "CA", "postalCode": "K1S3H2", "twitter": "None", "instagram": "None", "facebook": "None", "youtube": "None", "website": "None", "summary": "None", "logo": "None", "latitude": 45.39596076406615, "longitude": -75.69867975754528}, "118929033RR0001": {"name": "FOUNDATION DE BOURSES D'ETUDES DU 25E ANNIVERSAIRE DE KIRKLAND-KIRKLAND 25TH ANNIVERSARY SCHOLARSHIP FOUNDATION", "designationCode": "C", "categoryCode": "21", "address": "488 OLYMPIC DR", "city": "BEACONSFIELD", "province": "QC", "country": "CA", "postalCode": "H9W1A4", "twitter": "None", "instagram": "None", "facebook": "None", "youtube": "None", "website": "None", "summary": "None", "logo": "None", "latitude": 45.43785770692777, "longitude": -73.87846570599221}, "836013102RR0001": {"name": "FOUNDATION FOR AN ENTREPRENEURIAL CANADA/FONDATION POUR UN CCANADA ENTREPRENEURIAL", "designationCode": "C", "categoryCode": "20", "address": "133 RICHMOND STREET WEST      SUITE 700", "city": "TORONTO", "province": "ON", "country": "CA", "postalCode": "M5H2L3", "twitter": "None", "instagram": "None", "facebook": "None", "youtube": "None", "website": "None", "summary": "None", "logo": "None", "latitude": 43.65034472548918, "longitude": -79.38489926949049}, "884090101RR0001": {"name": "FOUNDATION FOR ARTS AND CREATIVE ENRICHMENT / FONDATION POUR L'ART ET L'ENRICHISSEMENT CR\u00c9ATIF", "designationCode": "A", "categoryCode": "03", "address": "54 TWENTY FIFTH ST", "city": "ETOBICOKE", "province": "ON", "country": "CA", "postalCode": "M8V3P3", "twitter": "None", "instagram": "None", "facebook": "None", "youtube": "None", "website": "None", "summary": "None", "logo": "None", "latitude": 43.59373720633727, "longitude": -79.52246648741722}, "895034932RR0001": {"name": "FOUNDATION FOR ASSOCIATION RESEARCH AND EDUCATION/FONDATION DE RECHERCHE ET D'ENSEIGNEMENT POUR L'AVANCEMENT DES ASSOCIATIONS", "designationCode": "C", "categoryCode": "21", "address": "1100-10 KING ST E", "city": "TORONTO", "province": "ON", "country": "CA", "postalCode": "M5C1C3", "twitter": "None", "instagram": "None", "facebook": "None", "youtube": "None", "website": "None", "summary": "None", "logo": "None"}, "864934096RR0001": {"name": "FOUNDATION FOR ATHLETES AND SPORT TRAINING", "designationCode": "A", "categoryCode": "23", "address": "419 ACACIA AVE", "city": "OTTAWA", "province": "ON", "country": "CA", "postalCode": "K1M0M3", "twitter": "None", "instagram": "None", "facebook": "None", "youtube": "None", "website": "None", "summary": "None", "logo": "None", "latitude": 45.45148142769351, "longitude": -75.67707643340631}, "889472593RR0001": {"name": "FOUNDATION FOR CANADIAN PARKS AND WILDERNESS", "designationCode": "A", "categoryCode": "53", "address": "250 CITY CENTRE AVE           SUITE 506", "city": "OTTAWA", "province": "ON", "country": "CA", "postalCode": "K1R6K7", "twitter": "None", "instagram": "None", "facebook": "None", "youtube": "None", "website": "None", "summary": "None", "logo": "None", "latitude": 45.408701589214715, "longitude": -75.71772291222757}, "867589533RR0001": {"name": "FOUNDATION FOR CHORAL MUSIC IN MANITOBA INC", "designationCode": "A", "categoryCode": "03", "address": "5-276 MARION STREET", "city": "WINNIPEG", "province": "MB", "country": "CA", "postalCode": "R2H0T7", "twitter": "None", "instagram": "None", "facebook": "None", "youtube": "None", "website": "None", "summary": "None", "logo": "None", "latitude": 49.881597256368764, "longitude": -97.11889949258743}, "140949025RR0001": {"name": "FOUNDATION FOR CONTINUING EDUCATION & RESEARCH (C A O M S )", "designationCode": "C", "categoryCode": "11", "address": "1402 - 1 KING ST W", "city": "HAMILTON", "province": "ON", "country": "CA", "postalCode": "L8P1A4", "twitter": "None", "instagram": "None", "facebook": "None", "youtube": "None", "website": "None", "summary": "None", "logo": "None", "latitude": 43.26019321073324, "longitude": -79.88135629363086}, "108165747RR0001": {"name": "FOUNDATION FOR EARLY YEARS EDUCATION AND DEVELOPMENT", "designationCode": "C", "categoryCode": "20", "address": "550 FANSHAWE PARK ROAD EAST", "city": "LONDON", "province": "ON", "country": "CA", "postalCode": "N5X1L1", "twitter": "None", "instagram": "None", "facebook": "None", "youtube": "None", "website": "None", "summary": "None", "logo": "None", "latitude": 43.03397376487072, "longitude": -81.25807853470894}, "129462693RR0001": {"name": "FOUNDATION FOR EDUCATIONAL EXCHANGE BETWEEN CANADA AND THE UNITED STATES OF AMERICA", "designationCode": "C", "categoryCode": "21", "address": "350 ALBERT ST SUITE 2015", "city": "OTTAWA", "province": "ON", "country": "CA", "postalCode": "K1R1A4", "twitter": "None", "instagram": "None", "facebook": "None", "youtube": "None", "website": "None", "summary": "None", "logo": "None", "latitude": 45.418320406357466, "longitude": -75.7038507262314}, "133552091RR0001": {"name": "FOUNDATION FOR ENRICHING EDUCATION PERTH HURON", "designationCode": "C", "categoryCode": "21", "address": "62 CHALK ST N", "city": "SEAFORTH", "province": "ON", "country": "CA", "postalCode": "N0K1W0", "twitter": "None", "instagram": "None", "facebook": "None", "youtube": "None", "website": "None", "summary": "None", "logo": "None", "latitude": 43.554866766897575, "longitude": -81.38881906389746}, "894531193RR0001": {"name": "FOUNDATION FOR FELLOWSHIP BAPTIST MINISTRIES", "designationCode": "A", "categoryCode": "43", "address": "125-6165 HIGHWAY 17A", "city": "DELTA", "province": "BC", "country": "CA", "postalCode": "V4K5B8", "twitter": "None", "instagram": "None", "facebook": "None", "youtube": "None", "website": "None", "summary": "None", "logo": "None", "latitude": 49.11029597670904, "longitude": -123.05324789938778}, "872073549RR0001": {"name": "FOUNDATION FOR FREEDOM MINISTRIES INC.", "designationCode": "B", "categoryCode": "39", "address": "242 MANITOBA AVENUE", "city": "WINNIPEG", "province": "MB", "country": "CA", "postalCode": "R2W2E7", "twitter": "None", "instagram": "None", "facebook": "None", "youtube": "None", "website": "None", "summary": "None", "logo": "None", "latitude": 49.91372698415963, "longitude": -97.13339220373354}, "118929124RR0001": {"name": "FOUNDATION FOR HUMAN DEVELOPMENT", "designationCode": "C", "categoryCode": "03", "address": "2056 CANTERBURY DR", "city": "BURLINGTON", "province": "ON", "country": "CA", "postalCode": "L7P1N6", "twitter": "None", "instagram": "None", "facebook": "None", "youtube": "None", "website": "None", "summary": "None", "logo": "None", "latitude": 43.34662655508117, "longitude": -79.84711632252285}, "133652768RR0001": {"name": "FOUNDATION FOR INTERNATIONAL DEVELOPMENT ASSISTANCE-FONDATION POUR LE SOUTIEN DU D\u00c9VELOPPEMENT INTERNATIONAL", "designationCode": "C", "categoryCode": "09", "address": "155 FROBISHER DRIVE           UNIT G-215", "city": "WATERLOO", "province": "ON", "country": "CA", "postalCode": "N2V2C9", "twitter": "None", "instagram": "None", "facebook": "None", "youtube": "None", "website": "None", "summary": "None", "logo": "None", "latitude": 43.506639526199066, "longitude": -80.52708320644616}, "883688012RR0001": {"name": "FOUNDATION FOR LIFE CHRISTIAN MINISTRIES", "designationCode": "C", "categoryCode": "47", "address": "1995 WESTON ROAD, #736", "city": "TORONTO", "province": "ON", "country": "CA", "postalCode": "M9N3W9", "twitter": "None", "instagram": "None", "facebook": "None", "youtube": "None", "website": "None", "summary": "None", "logo": "None", "latitude": 43.701102008627004, "longitude": -79.5195066017082}, "123842759RR0001": {"name": "FOUNDATION FOR MONTESSORI EDUCATION", "designationCode": "C", "categoryCode": "20", "address": "291B JANE ST", "city": "TORONTO", "province": "ON", "country": "CA", "postalCode": "M6S3Z3", "twitter": "None", "instagram": "None", "facebook": "None", "youtube": "None", "website": "None", "summary": "None", "logo": "None", "latitude": 43.656270568312586, "longitude": -79.48726810584054}, "105004790RR0001": {"name": "FOUNDATION FOR QUALITY CHILD CARE INC.", "designationCode": "C", "categoryCode": "20", "address": "344 AVON STREET", "city": "WELLAND", "province": "ON", "country": "CA", "postalCode": "L3B6E5", "twitter": "None", "instagram": "None", "facebook": "None", "youtube": "None", "website": "None", "summary": "None", "logo": "None", "latitude": 42.97133646681872, "longitude": -79.24588272300768}, "118929231RR0001": {"name": "FOUNDATION FOR SUPPORT OF INTERNATIONAL MEDICAL TRAINING (CANADA)", "designationCode": "C", "categoryCode": "13", "address": "2162 GORDON ST", "city": "GUELPH", "province": "ON", "country": "CA", "postalCode": "N1L1G6", "twitter": "None", "instagram": "None", "facebook": "None", "youtube": "None", "website": "None", "summary": "None", "logo": "None", "latitude": 43.49211919428543, "longitude": -80.17772533903216}, "886686591RR0001": {"name": "FOUNDATION FOR SUPPORT OF THE KOREAN STUDIES AT THE UNIVERSITY OF TORONTO", "designationCode": "A", "categoryCode": "21", "address": "PH15 - 70 ROEHAMPTON AVENUE", "city": "TORONTO", "province": "ON", "country": "CA", "postalCode": "M4P1R2", "twitter": "None", "instagram": "None", "facebook": "None", "youtube": "None", "website": "None", "summary": "None", "logo": "None", "latitude": 43.70840619458692, "longitude": -79.39653911255691}, "854106689RR0001": {"name": "FOUNDATION FOR THE EDUCATION OF CHILDREN IN UGANDA (F.E.C.U.)/FONDATION POUR L'\u00c9DUCATION DES ENFANTS EN OUGANDA (F.\u00c9.E.O)", "designationCode": "C", "categoryCode": "09", "address": "10931 AVE POITRAS, APT. 1", "city": "MONTR\u00c9AL", "province": "QC", "country": "CA", "postalCode": "H1H5J3", "twitter": "None", "instagram": "None", "facebook": "None", "youtube": "None", "website": "None", "summary": "None", "logo": "None", "latitude": 45.58416516792653, "longitude": -73.65188814319936}, "118929272RR0001": {"name": "FOUNDATION FOR THE PUBLICATION OF A REFORMED SOCIAL-POLITICAL MAGAZINE INC.", "designationCode": "C", "categoryCode": "47", "address": "230 2ND AVENUE NW", "city": "CARMAN", "province": "MB", "country": "CA", "postalCode": "R0G0J0", "twitter": "None", "instagram": "None", "facebook": "None", "youtube": "None", "website": "None", "summary": "None", "logo": "None", "latitude": 49.51020995288298, "longitude": -98.01307277233043}, "118929454RR0001": {"name": "FOUNDATION FOR THE STUDY OF PROCESSES OF GOVERNMENT IN CANADA-FONDATION POUR L'ETUDE DES PROCESSURS DE GOVERNMENT AU CANADA", "designationCode": "C", "categoryCode": "21", "address": "FORUM FOR YOUNG CANADIANS     800-81 METCALFE STREET", "city": "OTTAWA", "province": "ON", "country": "CA", "postalCode": "K1P6K7", "twitter": "None", "instagram": "None", "facebook": "None", "youtube": "None", "website": "None", "summary": "None", "logo": "None", "latitude": 45.42119020289681, "longitude": -75.69602503577833}, "885240812RR0001": {"name": "FOUNDATION FOR WOMEN IN FILM AND TELEVISION - TORONTO", "designationCode": "C", "categoryCode": "22", "address": "110 EGLINTON AVE. E           SUITE 601", "city": "TORONTO", "province": "ON", "country": "CA", "postalCode": "M4P2Y1", "twitter": "None", "instagram": "None", "facebook": "None", "youtube": "None", "website": "None", "summary": "None", "logo": "None", "latitude": 43.70742517294684, "longitude": -79.39511966362736}, "890328040RR0001": {"name": "FOUNDATION FOR YIDDISH CULTURE IN HONOUR OF JACOB ZIPPER ANDSHLOIME WISEMAN/FONDATION DE LA CULTURE YIDDISH EN HONNEUR DE JACOB ZIPPER ET SHLOIME WISEMAN", "designationCode": "C", "categoryCode": "49", "address": "SUITE 17                      6338 VICTORIA STREET", "city": "MONTREAL", "province": "QC", "country": "CA", "postalCode": "H4W2S5", "twitter": "None", "instagram": "None", "facebook": "None", "youtube": "None", "website": "None", "summary": "None", "logo": "None", "latitude": 45.46023900000006, "longitude": -73.67772049999994}, "863441465RR0001": {"name": "FOUNDATION FOR YOUTH", "designationCode": "B", "categoryCode": "05", "address": "788 RICHARDS STREET", "city": "VANCOUVER", "province": "BC", "country": "CA", "postalCode": "V6B3A4", "twitter": "None", "instagram": "None", "facebook": "None", "youtube": "None", "website": "None", "summary": "None", "logo": "None", "latitude": 49.2801883837347, "longitude": -123.11758924833129}, "823287677RR0001": {"name": "FOUNDATION FOR YOUTH RIGHTS TO EDUCATION CANADA", "designationCode": "C", "categoryCode": "29", "address": "SUITE 3700, 205-5TH AVENUE SW BOW VALLEY SQUARE 2", "city": "CALGARY", "province": "AB", "country": "CA", "postalCode": "T2P2V7", "twitter": "None", "instagram": "None", "facebook": "None", "youtube": "None", "website": "None", "summary": "None", "logo": "None", "latitude": 51.04816000000005, "longitude": -114.06525999999997}, "891281941RR0001": {"name": "FOUNDATION OF CANADIAN FRIENDS OF THE CHILDREN OF THE CALIFORNIAS", "designationCode": "C", "categoryCode": "20", "address": "15 SIERRA MORENA GARDENS SW", "city": "CALGARY", "province": "AB", "country": "CA", "postalCode": "T3H3P4", "twitter": "None", "instagram": "None", "facebook": "None", "youtube": "None", "website": "None", "summary": "None", "logo": "None", "latitude": 51.01393550346246, "longitude": -114.18730163336026}, "894017938RR0001": {"name": "FOUNDATION OF CANADIAN WOMEN ENTREPRENEURS", "designationCode": "C", "categoryCode": "21", "address": "PO BOX 1063                   5420 LOOKOUT RIDGE PLACE", "city": "SUN PEAKS", "province": "BC", "country": "CA", "postalCode": "V0E5N0", "twitter": "None", "instagram": "None", "facebook": "None", "youtube": "None", "website": "None", "summary": "None", "logo": "None", "latitude": 50.88491555067282, "longitude": -119.86129153402668}, "867413460RR0001": {"name": "FOUNDATION OF CHATHAM-KENT HEALTH ALLIANCE", "designationCode": "A", "categoryCode": "13", "address": "9 URSULINE AVENUE             P.O. BOX 2030", "city": "CHATHAM", "province": "ON", "country": "CA", "postalCode": "N7M5L9", "twitter": "None", "instagram": "None", "facebook": "None", "youtube": "None", "website": "None", "summary": "None", "logo": "None", "latitude": 42.404613000000055, "longitude": -82.18960099999994}, "118929314RR0001": {"name": "FOUNDATION OF CHRISTIAN SERVICE", "designationCode": "C", "categoryCode": "47", "address": "9 TRACEY ROAD", "city": "ST CATHARINES", "province": "ON", "country": "CA", "postalCode": "L2N1P9", "twitter": "None", "instagram": "None", "facebook": "None", "youtube": "None", "website": "None", "summary": "None", "logo": "None", "latitude": 43.194141647815655, "longitude": -79.23461098655422}, "859761264RR0001": {"name": "FOUNDATION OF LIFE CHURCH INC.", "designationCode": "C", "categoryCode": "39", "address": "PO BOX 804", "city": "WEYBURN", "province": "SK", "country": "CA", "postalCode": "S4H2L1", "twitter": "None", "instagram": "None", "facebook": "None", "youtube": "None", "website": "None", "summary": "None", "logo": "None", "latitude": 49.66802700000005, "longitude": -103.85818999999994}, "806503546RR0001": {"name": "FOUNDATION OF LITERACY", "designationCode": "C", "categoryCode": "21", "address": "129 EDITH DRIVE", "city": "TORONTO", "province": "ON", "country": "CA", "postalCode": "M4R1Z4", "twitter": "None", "instagram": "None", "facebook": "None", "youtube": "None", "website": "None", "summary": "None", "logo": "None", "latitude": 43.709434982803316, "longitude": -79.40401054022175}, "876124819RR0001": {"name": "FOUNDATION OF RESOURCES FOR TEENS OF WEST NIAGARA", "designationCode": "C", "categoryCode": "01", "address": "30044 RPO EAST MAIN", "city": "GRIMSBY", "province": "ON", "country": "CA", "postalCode": "L3M0A3", "twitter": "None", "instagram": "None", "facebook": "None", "youtube": "None", "website": "None", "summary": "None", "logo": "None", "latitude": 43.199079000000054, "longitude": -79.58552299999994}, "118929348RR0001": {"name": "FOUNDATION OF THE VERY REVEREND MITRAT JOSEPH PULAK INC.", "designationCode": "A", "categoryCode": "43", "address": "P.O. BOX 4034", "city": "WINNIPEG", "province": "MB", "country": "CA", "postalCode": "R2W3K8", "twitter": "None", "instagram": "None", "facebook": "None", "youtube": "None", "website": "None", "summary": "None", "logo": "None", "latitude": 49.90776000000005, "longitude": -97.12760299999994}, "118929355RR0001": {"name": "FOUNDATION PROVIDENCE INC. - FONDATION PROVIDENCE INC.", "designationCode": "B", "categoryCode": "03", "address": "403 RUE MAIN", "city": "SHEDIAC", "province": "NB", "country": "CA", "postalCode": "E4P2B9", "twitter": "None", "instagram": "None", "facebook": "None", "youtube": "None", "website": "None", "summary": "None", "logo": "None", "latitude": 46.219689040431696, "longitude": -64.53812234927874}, "118929397RR0001": {"name": "FOUNDATION TO COMMEMORATE THE CHINESE RAILROAD WORKERS IN CANADA INCORPORATED", "designationCode": "C", "categoryCode": "52", "address": "49 AVIS CRES.", "city": "TORONTO", "province": "ON", "country": "CA", "postalCode": "M4B1B8", "twitter": "None", "instagram": "None", "facebook": "None", "youtube": "None", "website": "None", "summary": "None", "logo": "None", "latitude": 43.69980946794391, "longitude": -79.30011271270725}, "140262825RR0001": {"name": "FOUNDATION UNITED BAPTIST CHURCH", "designationCode": "C", "categoryCode": "39", "address": "4300 HWY # 7", "city": "PORTERS LAKE", "province": "NS", "country": "CA", "postalCode": "B3E1M1", "twitter": "None", "instagram": "None", "facebook": "None", "youtube": "None", "website": "None", "summary": "None", "logo": "None", "latitude": 44.74058448456366, "longitude": -63.323941500000004}}