{"107869794RR0001": {"name": "COLLEGE RABBINICAL DU CANADA / RABBINICAL COLLEGE OF CANADA", "designationCode": "C", "categoryCode": "20", "address": "6405 WESTBURY AVENUE", "city": "MONTREAL", "province": "QC", "country": "CA", "postalCode": "H3W2X5", "twitter": "None", "instagram": "None", "facebook": "None", "youtube": "None", "website": "None", "summary": "None", "logo": "None", "latitude": 45.49250642189378, "longitude": -73.64295204466514}, "891583049RR0001": {"name": "COLLEGE RABBINIQUE DE QUEBEC TOMCHEI TMIMIM BNEI MENACHEM/ RABBINICAL COLLEGE OF QUEBEC TOMCHEI TMIMIM BNEI MENACHEM", "designationCode": "C", "categoryCode": "20", "address": "4942 CARLTON AVENUE", "city": "MONTREAL", "province": "QC", "country": "CA", "postalCode": "H3W1G8", "twitter": "None", "instagram": "None", "facebook": "None", "youtube": "None", "website": "None", "summary": "None", "logo": "None", "latitude": 45.49288546182706, "longitude": -73.6416272063306}, "140795519RR0001": {"name": "COLLEGE REGINA ASSUMPTA (1995)", "designationCode": "C", "categoryCode": "20", "address": "1750 RUE SAURIOL E.", "city": "MONTREAL", "province": "QC", "country": "CA", "postalCode": "H2C1X4", "twitter": "None", "instagram": "None", "facebook": "None", "youtube": "None", "website": "None", "summary": "None", "logo": "None", "latitude": 45.56558205687018, "longitude": -73.65123906067933}, "107509085RR0001": {"name": "COLLEGE REINE-MARIE", "designationCode": "C", "categoryCode": "20", "address": "9300 BOUL SAINT-MICHEL", "city": "MONTREAL", "province": "QC", "country": "CA", "postalCode": "H1Z3H1", "twitter": "None", "instagram": "None", "facebook": "None", "youtube": "None", "website": "None", "summary": "None", "logo": "None", "latitude": 45.573638661348355, "longitude": -73.63216137500693}, "107621443RR0001": {"name": "COLLEGE RIVIER", "designationCode": "C", "categoryCode": "20", "address": "343 RUE ST-JACQUES NORD", "city": "COATICOOK", "province": "QC", "country": "CA", "postalCode": "J1A2R2", "twitter": "None", "instagram": "None", "facebook": "None", "youtube": "None", "website": "None", "summary": "None", "logo": "None", "latitude": 45.13723207833644, "longitude": -71.79684154405956}, "106954175RR0001": {"name": "COLLEGE SAINT-BERNARD", "designationCode": "C", "categoryCode": "20", "address": "25, AVENUE DES FRERES", "city": "DRUMMONDVILLE", "province": "QC", "country": "CA", "postalCode": "J2B6A2", "twitter": "None", "instagram": "None", "facebook": "None", "youtube": "None", "website": "None", "summary": "None", "logo": "None", "latitude": 45.88137725016476, "longitude": -72.47814544566553}, "119166858RR0001": {"name": "COLLEGE STANISLAS INCORPOR\u00c9", "designationCode": "C", "categoryCode": "20", "address": "780 BOUL DOLLARD", "city": "OUTREMONT", "province": "QC", "country": "CA", "postalCode": "H2V3G5", "twitter": "None", "instagram": "None", "facebook": "None", "youtube": "None", "website": "None", "summary": "None", "logo": "None", "latitude": 45.51821871299571, "longitude": -73.61466243271381}, "119167682RR0001": {"name": "COLLEGE STANSTEAD/STANSTEAD COLLEGE", "designationCode": "C", "categoryCode": "20", "address": "450 DUFFERIN", "city": "STANSTEAD", "province": "QC", "country": "CA", "postalCode": "J0B3E0", "twitter": "None", "instagram": "None", "facebook": "None", "youtube": "None", "website": "None", "summary": "None", "logo": "None", "latitude": 45.011957087757466, "longitude": -72.0961223661693}, "106954290RR0001": {"name": "COLLEGE STREET UNITED CHURCH", "designationCode": "C", "categoryCode": "44", "address": "454 COLLEGE ST", "city": "TORONTO", "province": "ON", "country": "CA", "postalCode": "M6G1A1", "twitter": "None", "instagram": "None", "facebook": "None", "youtube": "None", "website": "None", "summary": "None", "logo": "None", "latitude": 43.656439241762236, "longitude": -79.40811684277796}, "119286342RR0001": {"name": "COLLEGE VILLE-MARIE", "designationCode": "C", "categoryCode": "20", "address": "2850 SHERBROOKE EST", "city": "MONTREAL", "province": "QC", "country": "CA", "postalCode": "H2K1H3", "twitter": "None", "instagram": "None", "facebook": "None", "youtube": "None", "website": "None", "summary": "None", "logo": "None", "latitude": 45.539666004991666, "longitude": -73.55933052715133}, "118867985RR0001": {"name": "COLLEGE-MONTROSE CHILDREN'S PLACE", "designationCode": "C", "categoryCode": "01", "address": "180 SHAW ST", "city": "TORONTO", "province": "ON", "country": "CA", "postalCode": "M6J2W5", "twitter": "None", "instagram": "None", "facebook": "None", "youtube": "None", "website": "None", "summary": "None", "logo": "None", "latitude": 43.64695199694158, "longitude": -79.41723599933617}, "863501458RR0001": {"name": "COLLESTON CEMETERY CO-OPERATIVE LTD.", "designationCode": "C", "categoryCode": "59", "address": "RURAL ROUTE #1", "city": "PRINCE ALBERT", "province": "SK", "country": "CA", "postalCode": "S6V5P8", "twitter": "None", "instagram": "None", "facebook": "None", "youtube": "None", "website": "None", "summary": "None", "logo": "None", "latitude": 53.199456000000055, "longitude": -105.74863099999993}, "118868157RR0001": {"name": "COLLIER PLACE INC.", "designationCode": "C", "categoryCode": "01", "address": "108 COLLIER ST", "city": "BARRIE", "province": "ON", "country": "CA", "postalCode": "L4M5R5", "twitter": "None", "instagram": "None", "facebook": "None", "youtube": "None", "website": "None", "summary": "None", "logo": "None", "latitude": 44.39053337996319, "longitude": -79.68361679140823}, "118868165RR0001": {"name": "COLLIER STREET UNITED CHURCH", "designationCode": "C", "categoryCode": "44", "address": "112 COLLIER STREET", "city": "BARRIE", "province": "ON", "country": "CA", "postalCode": "L4M1H3", "twitter": "None", "instagram": "None", "facebook": "None", "youtube": "None", "website": "None", "summary": "None", "logo": "None", "latitude": 44.39048347489747, "longitude": -79.68350266763807}, "118868181RR0001": {"name": "COLLINGWOOD AGRICULTURAL SOCIETY", "designationCode": "C", "categoryCode": "56", "address": "P.O. BOX 523", "city": "STAYNER", "province": "ON", "country": "CA", "postalCode": "L0M1S0", "twitter": "None", "instagram": "None", "facebook": "None", "youtube": "None", "website": "None", "summary": "None", "logo": "None", "latitude": 44.42021839038064, "longitude": -80.10092542779911}, "118868199RR0001": {"name": "COLLINGWOOD AND DISTRICT INFORMATION CENTRE", "designationCode": "C", "categoryCode": "09", "address": "P O BOX 683", "city": "COLLINGWOOD", "province": "ON", "country": "CA", "postalCode": "L9Y4E8", "twitter": "None", "instagram": "None", "facebook": "None", "youtube": "None", "website": "None", "summary": "None", "logo": "None", "latitude": 44.49987600000006, "longitude": -80.21683249999994}, "118868215RR0001": {"name": "COLLINGWOOD BAPTIST CHURCH", "designationCode": "C", "categoryCode": "31", "address": "4847 JOYCE ST", "city": "VANCOUVER", "province": "BC", "country": "CA", "postalCode": "V5R4G4", "twitter": "None", "instagram": "None", "facebook": "None", "youtube": "None", "website": "None", "summary": "None", "logo": "None", "latitude": 49.24111757674991, "longitude": -123.02915795839328}, "118868231RR0001": {"name": "COLLINGWOOD CLASSIC AIRCRAFT FOUNDATION", "designationCode": "C", "categoryCode": "50", "address": "5195 HWY 26 E                 RR 2", "city": "STAYNER", "province": "ON", "country": "CA", "postalCode": "L0M1S0", "twitter": "None", "instagram": "None", "facebook": "None", "youtube": "None", "website": "None", "summary": "None", "logo": "None", "latitude": 44.444148854251274, "longitude": -79.96309530122888}, "898113709RR0001": {"name": "COLLINGWOOD COMMUNITY HALL", "designationCode": "C", "categoryCode": "56", "address": "635 WYVERN RD", "city": "COLLINGWOOD CUMB. CO", "province": "NS", "country": "CA", "postalCode": "B0M1E0", "twitter": "None", "instagram": "None", "facebook": "None", "youtube": "None", "website": "None", "summary": "None", "logo": "None", "latitude": 45.6010787871422, "longitude": -63.93910515675095}, "118868272RR0001": {"name": "COLLINGWOOD GENERAL & MARINE HOSPITAL FOUNDATION", "designationCode": "A", "categoryCode": "13", "address": "459 HUME ST", "city": "COLLINGWOOD", "province": "ON", "country": "CA", "postalCode": "L9Y1W9", "twitter": "None", "instagram": "None", "facebook": "None", "youtube": "None", "website": "None", "summary": "None", "logo": "None", "latitude": 44.498148068576114, "longitude": -80.20271127721982}, "870150968RR0001": {"name": "COLLINGWOOD HORTICULTURAL SOCIETY", "designationCode": "C", "categoryCode": "56", "address": "POST OFFICE BOX 618", "city": "COLLINGWOOD", "province": "ON", "country": "CA", "postalCode": "L9Y4E8", "twitter": "None", "instagram": "None", "facebook": "None", "youtube": "None", "website": "None", "summary": "None", "logo": "None", "latitude": 44.49987600000006, "longitude": -80.21683249999994}, "118868280RR0001": {"name": "COLLINGWOOD LAWN BOWLING CLUB", "designationCode": "C", "categoryCode": "56", "address": "528327                        RR 1", "city": "FEVERSHAM", "province": "ON", "country": "CA", "postalCode": "N0C1C0", "twitter": "None", "instagram": "None", "facebook": "None", "youtube": "None", "website": "None", "summary": "None", "logo": "None", "latitude": 44.330631000000054, "longitude": -80.38818799999993}, "138461488RR0001": {"name": "COLLINGWOOD LEISURE TIME CHARITY INC.", "designationCode": "C", "categoryCode": "56", "address": "100 MINNESOTA STREET", "city": "COLLINGWOOD", "province": "ON", "country": "CA", "postalCode": "L9Y4R3", "twitter": "None", "instagram": "None", "facebook": "None", "youtube": "None", "website": "None", "summary": "None", "logo": "None", "latitude": 44.50193627060024, "longitude": -80.21172065003182}, "864061569RR0001": {"name": "COLLINGWOOD MUSIC FESTIVAL ASSOCIATION", "designationCode": "C", "categoryCode": "22", "address": "RUSSELL, THOMPSON & ASSOCIATES150 ST. PAUL STREET SUITE 103", "city": "COLLINGWOOD", "province": "ON", "country": "CA", "postalCode": "L9Y3P2", "twitter": "None", "instagram": "None", "facebook": "None", "youtube": "None", "website": "None", "summary": "None", "logo": "None", "latitude": 44.50079374413915, "longitude": -80.21350876945871}, "118868298RR0001": {"name": "COLLINGWOOD NEIGHBOURHOOD HOUSE SOCIETY", "designationCode": "C", "categoryCode": "56", "address": "5288 JOYCE STREET", "city": "VANCOUVER", "province": "BC", "country": "CA", "postalCode": "V5R6C9", "twitter": "None", "instagram": "None", "facebook": "None", "youtube": "None", "website": "None", "summary": "None", "logo": "None", "latitude": 49.236783193433084, "longitude": -123.03327003673064}, "868680760RR0001": {"name": "COLLINGWOOD SCHOOL FOUNDATION", "designationCode": "A", "categoryCode": "23", "address": "70 MORVEN DRIVE", "city": "WEST VANCOUVER", "province": "BC", "country": "CA", "postalCode": "V7S1B2", "twitter": "None", "instagram": "None", "facebook": "None", "youtube": "None", "website": "None", "summary": "None", "logo": "None", "latitude": 49.361256549483926, "longitude": -123.1195924118818}, "107784399RR0001": {"name": "COLLINGWOOD SCHOOL SOCIETY", "designationCode": "C", "categoryCode": "20", "address": "70 MORVEN DRIVE", "city": "WEST VANCOUVER", "province": "BC", "country": "CA", "postalCode": "V7S1B2", "twitter": "None", "instagram": "None", "facebook": "None", "youtube": "None", "website": "None", "summary": "None", "logo": "None", "latitude": 49.361256549483926, "longitude": -123.1195924118818}, "829111947RR0001": {"name": "COLOMBIA PARA CRISTO SOCIETY", "designationCode": "C", "categoryCode": "47", "address": "16695 CHERRYHILL CRESCENT", "city": "SURREY", "province": "BC", "country": "CA", "postalCode": "V4N4M9", "twitter": "None", "instagram": "None", "facebook": "None", "youtube": "None", "website": "None", "summary": "None", "logo": "None", "latitude": 49.19698918373822, "longitude": -122.75787645723943}, "855970737RR0001": {"name": "COLON CANCER CANADA / CANCER DU COLON CANADA", "designationCode": "A", "categoryCode": "03", "address": "605 - 4576 YONGE ST", "city": "NORTH YORK", "province": "ON", "country": "CA", "postalCode": "M2N6N4", "twitter": "None", "instagram": "None", "facebook": "None", "youtube": "None", "website": "None", "summary": "None", "logo": "None", "latitude": 43.75643698531664, "longitude": -79.40976312757434}, "130334857RR0001": {"name": "COLONEL BY CHILD CARE CENTRE", "designationCode": "C", "categoryCode": "20", "address": "CARLETON UNIVERSITY           1125 COLONEL BY DR", "city": "OTTAWA", "province": "ON", "country": "CA", "postalCode": "K1S5B6", "twitter": "None", "instagram": "None", "facebook": "None", "youtube": "None", "website": "None", "summary": "None", "logo": "None", "latitude": 45.38353007487125, "longitude": -75.69717003289185}, "876333071RR0001": {"name": "COLONEL GRAY EDUCATION FOUNDATION INC.", "designationCode": "C", "categoryCode": "21", "address": "175 SPRING PARK ROAD", "city": "CHARLOTTETOWN", "province": "PE", "country": "CA", "postalCode": "C1A3Y8", "twitter": "None", "instagram": "None", "facebook": "None", "youtube": "None", "website": "None", "summary": "None", "logo": "None", "latitude": 46.2414197376942, "longitude": -63.13964529508303}, "130879976RR0001": {"name": "COLONEL GREY BAND COMMITTEE", "designationCode": "C", "categoryCode": "22", "address": "175 SPRING PARK ROAD", "city": "CHARLOTTETOWN", "province": "PE", "country": "CA", "postalCode": "C1A3Y8", "twitter": "None", "instagram": "None", "facebook": "None", "youtube": "None", "website": "None", "summary": "None", "logo": "None", "latitude": 46.2414197376942, "longitude": -63.13964529508303}, "118868355RR0001": {"name": "COLONEL HARLAND SANDERS CHARITABLE ORGANIZATION, INC.", "designationCode": "B", "categoryCode": "03", "address": "2017-44 CHARLES STREET WEST", "city": "TORONTO", "province": "ON", "country": "CA", "postalCode": "M4Y1R7", "twitter": "None", "instagram": "None", "facebook": "None", "youtube": "None", "website": "None", "summary": "None", "logo": "None", "latitude": 43.668442303095745, "longitude": -79.38745341550676}, "118868371RR0001": {"name": "COLONIE DE VACANCES DES GREVES INC.", "designationCode": "C", "categoryCode": "56", "address": "10 350, ROUTE MARIE-VICTORIN", "city": "CONTRECOEUR", "province": "QC", "country": "CA", "postalCode": "J0L1C0", "twitter": "None", "instagram": "None", "facebook": "None", "youtube": "None", "website": "None", "summary": "None", "logo": "None", "latitude": 45.81351622516299, "longitude": -73.2997420067042}, "121148290RR0001": {"name": "COLONIE LES BOSQUETS ALBERT HUDON", "designationCode": "C", "categoryCode": "56", "address": "2300, BOUL. REN\u00c9-L\u00c9VESQUE O.", "city": "MONTR\u00c9AL", "province": "QC", "country": "CA", "postalCode": "H3H2R5", "twitter": "None", "instagram": "None", "facebook": "None", "youtube": "None", "website": "None", "summary": "None", "logo": "None", "latitude": 45.4883134726471, "longitude": -73.58219016804209}, "118868447RR0001": {"name": "COLONSAY UNITED CHURCH", "designationCode": "C", "categoryCode": "44", "address": "BOX 263", "city": "COLONSAY", "province": "SK", "country": "CA", "postalCode": "S0K0Z0", "twitter": "None", "instagram": "None", "facebook": "None", "youtube": "None", "website": "None", "summary": "None", "logo": "None", "latitude": 51.98154711201623, "longitude": -105.86010910112017}, "896465325RR0001": {"name": "COLONY FARM PARK ASSOCIATION", "designationCode": "C", "categoryCode": "52", "address": "1388 CAMBRIDGE DRIVE", "city": "COQUITLAM", "province": "BC", "country": "CA", "postalCode": "V3J2P7", "twitter": "None", "instagram": "None", "facebook": "None", "youtube": "None", "website": "None", "summary": "None", "logo": "None", "latitude": 49.25801803719199, "longitude": -122.85512195063166}, "895890069RR0001": {"name": "COLONY OF AVALON FOUNDATION INC.", "designationCode": "C", "categoryCode": "52", "address": "P.O. BOX 119", "city": "FERRYLAND", "province": "NL", "country": "CA", "postalCode": "A0A2H0", "twitter": "None", "instagram": "None", "facebook": "None", "youtube": "None", "website": "None", "summary": "None", "logo": "None", "latitude": 47.02203000000003, "longitude": -52.889899999999955}, "866572423RR0001": {"name": "COLORECTAL CANCER ASSOCIATION OF CANADA/ASSOCIATION CANADIENNE DU CANCER COLORECTAL", "designationCode": "C", "categoryCode": "11", "address": "2 BLOOR STREET WEST           SUITE 700", "city": "TORONTO", "province": "ON", "country": "CA", "postalCode": "M4W3R1", "twitter": "None", "instagram": "None", "facebook": "None", "youtube": "None", "website": "None", "summary": "None", "logo": "None", "latitude": 43.67017015072983, "longitude": -79.38714742951117}, "869758607RR0001": {"name": "COLOURING THE CANADIAN LANDSCAPE FOUNDATION", "designationCode": "C", "categoryCode": "59", "address": "6303-125TH STREET N.W.", "city": "EDMONTON", "province": "AB", "country": "CA", "postalCode": "T6H3V8", "twitter": "None", "instagram": "None", "facebook": "None", "youtube": "None", "website": "None", "summary": "None", "logo": "None", "latitude": 53.50065499001668, "longitude": -113.54496323310657}, "855261772RR0001": {"name": "COLOURS OF FREEDOM FOUNDATION", "designationCode": "B", "categoryCode": "03", "address": "P.O. BOX 608                  5216 9TH LINE", "city": "ERIN", "province": "ON", "country": "CA", "postalCode": "N0B1T0", "twitter": "None", "instagram": "None", "facebook": "None", "youtube": "None", "website": "None", "summary": "None", "logo": "None", "latitude": 43.74630283602781, "longitude": -80.03186908413429}, "860906759RR0001": {"name": "COLOURS OF MUSIC", "designationCode": "C", "categoryCode": "22", "address": "POST OFFICE BOX 452", "city": "BARRIE", "province": "ON", "country": "CA", "postalCode": "L4M4T7", "twitter": "None", "instagram": "None", "facebook": "None", "youtube": "None", "website": "None", "summary": "None", "logo": "None", "latitude": 44.38929300000005, "longitude": -79.68626449999994}, "118868454RR0001": {"name": "COLPITTS UNITED CHURCH", "designationCode": "C", "categoryCode": "44", "address": "236 WHITEPINE ROAD", "city": "RIVERVIEW", "province": "NB", "country": "CA", "postalCode": "E1B2X1", "twitter": "None", "instagram": "None", "facebook": "None", "youtube": "None", "website": "None", "summary": "None", "logo": "None", "latitude": 46.05031034000799, "longitude": -64.81136445351719}, "866922610RR0001": {"name": "COLUMBIA BASIN ALLIANCE FOR LITERACY", "designationCode": "C", "categoryCode": "21", "address": "PO BOX 2619", "city": "INVERMERE", "province": "BC", "country": "CA", "postalCode": "V0A1K0", "twitter": "None", "instagram": "None", "facebook": "None", "youtube": "None", "website": "None", "summary": "None", "logo": "None", "latitude": 50.50916700000006, "longitude": -116.03037049999993}, "863956314RR0001": {"name": "COLUMBIA BASIN FAMILY RESOURCE SOCIETY", "designationCode": "C", "categoryCode": "09", "address": "1592-10TH AVE.                BOX 2054", "city": "FERNIE", "province": "BC", "country": "CA", "postalCode": "V0B1M0", "twitter": "None", "instagram": "None", "facebook": "None", "youtube": "None", "website": "None", "summary": "None", "logo": "None", "latitude": 49.51584382540839, "longitude": -115.06169716010757}, "106954993RR0001": {"name": "COLUMBIA BIBLE COLLEGE", "designationCode": "C", "categoryCode": "20", "address": "2940 CLEARBROOK ROAD", "city": "ABBOTSFORD", "province": "BC", "country": "CA", "postalCode": "V2T2Z8", "twitter": "None", "instagram": "None", "facebook": "None", "youtube": "None", "website": "None", "summary": "None", "logo": "None", "latitude": 49.055517335276136, "longitude": -122.33785904605013}, "118868504RR0001": {"name": "COLUMBIA COLLEGE", "designationCode": "C", "categoryCode": "21", "address": "438 TERMINAL AVE", "city": "VANCOUVER", "province": "BC", "country": "CA", "postalCode": "V6A0C1", "twitter": "None", "instagram": "None", "facebook": "None", "youtube": "None", "website": "None", "summary": "None", "logo": "None", "latitude": 49.271805074549164, "longitude": -123.09514856893843}, "119288918RR0534": {"name": "COLUMBIA CONGREGATION OF JEHOVAH'S WITNESSES", "designationCode": "C", "categoryCode": "61", "address": "490 DUTTON DR.                SUITE C9", "city": "WATERLOO", "province": "ON", "country": "CA", "postalCode": "N2L6H7", "twitter": "None", "instagram": "None", "facebook": "None", "youtube": "None", "website": "None", "summary": "None", "logo": "None", "latitude": 43.49395276244295, "longitude": -80.53872485967753}, "866197833RR0001": {"name": "COLUMBIA FOUNDATION", "designationCode": "B", "categoryCode": "03", "address": "510 - 1155 ROBSON ST", "city": "VANCOUVER", "province": "BC", "country": "CA", "postalCode": "V6E1B5", "twitter": "None", "instagram": "None", "facebook": "None", "youtube": "None", "website": "None", "summary": "None", "logo": "None", "latitude": 49.285490237318825, "longitude": -123.12614575004345}, "864500293RR0001": {"name": "COLUMBIA INSTITUTE", "designationCode": "C", "categoryCode": "23", "address": "502 - 1155 ROBSON ST", "city": "VANCOUVER", "province": "BC", "country": "CA", "postalCode": "V6E1B5", "twitter": "None", "instagram": "None", "facebook": "None", "youtube": "None", "website": "None", "summary": "None", "logo": "None", "latitude": 49.285490237318825, "longitude": -123.12614575004345}, "131915852RR0001": {"name": "COLUMBIA VALLEY ARTS COUNCIL", "designationCode": "C", "categoryCode": "22", "address": "BOX 2345", "city": "INVERMERE", "province": "BC", "country": "CA", "postalCode": "V0A1K0", "twitter": "None", "instagram": "None", "facebook": "None", "youtube": "None", "website": "None", "summary": "None", "logo": "None", "latitude": 50.50916700000006, "longitude": -116.03037049999993}, "882618713RR0001": {"name": "COLUMBIA VALLEY COMMUNITY FOUNDATION", "designationCode": "A", "categoryCode": "03", "address": "PO BOX 991", "city": "INVERMERE", "province": "BC", "country": "CA", "postalCode": "V0A1K0", "twitter": "None", "instagram": "None", "facebook": "None", "youtube": "None", "website": "None", "summary": "None", "logo": "None", "latitude": 50.50916700000006, "longitude": -116.03037049999993}, "888719010RR0001": {"name": "COLUMBIA VALLEY FOOD BANK", "designationCode": "C", "categoryCode": "09", "address": "BOX 2141", "city": "INVERMERE", "province": "BC", "country": "CA", "postalCode": "V0A1K0", "twitter": "None", "instagram": "None", "facebook": "None", "youtube": "None", "website": "None", "summary": "None", "logo": "None", "latitude": 50.50916700000006, "longitude": -116.03037049999993}, "872749767RR0001": {"name": "COLUMBIA VALLEY SEARCH AND RESCUE", "designationCode": "C", "categoryCode": "59", "address": "BOX 2123", "city": "INVERMERE", "province": "BC", "country": "CA", "postalCode": "V0A1K0", "twitter": "None", "instagram": "None", "facebook": "None", "youtube": "None", "website": "None", "summary": "None", "logo": "None", "latitude": 50.50916700000006, "longitude": -116.03037049999993}, "137975926RR0001": {"name": "COLUMBUS BOSCO HOMES A SOCIETY FOR CHILDREN AND ADOLESCENTS", "designationCode": "C", "categoryCode": "01", "address": "P.O. BOX 23010", "city": "SASKATOON", "province": "SK", "country": "CA", "postalCode": "S7J5H3", "twitter": "None", "instagram": "None", "facebook": "None", "youtube": "None", "website": "None", "summary": "None", "logo": "None", "latitude": 52.09428300000006, "longitude": -106.60963399999993}, "131160376RR0001": {"name": "COLUMBUS CHARITIES ASSOCIATION", "designationCode": "C", "categoryCode": "01", "address": "231 - 5589 BYRNE RD", "city": "BURNABY", "province": "BC", "country": "CA", "postalCode": "V5J3J1", "twitter": "None", "instagram": "None", "facebook": "None", "youtube": "None", "website": "None", "summary": "None", "logo": "None", "latitude": 49.20049582015692, "longitude": -122.98466735527143}, "889953592RR0001": {"name": "COLUMBUS CHARITIES YORKTON", "designationCode": "C", "categoryCode": "65", "address": "125-3RD AVE N", "city": "YORKTON", "province": "SK", "country": "CA", "postalCode": "S3N1C4", "twitter": "None", "instagram": "None", "facebook": "None", "youtube": "None", "website": "None", "summary": "None", "logo": "None", "latitude": 51.214707000000004, "longitude": -102.45995861431726}, "118868595RR0001": {"name": "COLUMBUS COUNCIL #6579 CHARITIES FOUNDATION", "designationCode": "C", "categoryCode": "65", "address": "20 HUGHSON STREET SOUTH       SUITE 705", "city": "HAMILTON", "province": "ON", "country": "CA", "postalCode": "L8N2A1", "twitter": "None", "instagram": "None", "facebook": "None", "youtube": "None", "website": "None", "summary": "None", "logo": "None", "latitude": 43.25532697085811, "longitude": -79.8683016947025}, "126451889RR0001": {"name": "COLUMBUS HOUSE (PEMBROKE) INC..", "designationCode": "C", "categoryCode": "09", "address": "PO BOX 1311                   278 NELSON ST", "city": "PEMBROKE", "province": "ON", "country": "CA", "postalCode": "K8A6Y6", "twitter": "None", "instagram": "None", "facebook": "None", "youtube": "None", "website": "None", "summary": "None", "logo": "None", "latitude": 45.82874462334828, "longitude": -77.10784907784642}, "118868603RR0001": {"name": "COLUMBUS LONG TERM CARE SOCIETY", "designationCode": "C", "categoryCode": "01", "address": "704 W 69TH AVE", "city": "VANCOUVER", "province": "BC", "country": "CA", "postalCode": "V6P2W3", "twitter": "None", "instagram": "None", "facebook": "None", "youtube": "None", "website": "None", "summary": "None", "logo": "None", "latitude": 49.2092974989904, "longitude": -123.12094355398463}, "137698577RR0001": {"name": "COLUMBUS NON-PROFIT CHARITABLE FOUNDATION (BELLEVILLE)", "designationCode": "A", "categoryCode": "03", "address": "296 CHURCH STREET", "city": "BELLEVILLE", "province": "ON", "country": "CA", "postalCode": "K8N3C6", "twitter": "None", "instagram": "None", "facebook": "None", "youtube": "None", "website": "None", "summary": "None", "logo": "None", "latitude": 44.16827081652158, "longitude": -77.382959903485}, "118868611RR0001": {"name": "COLUMBUS PASTORAL CHARGE", "designationCode": "C", "categoryCode": "44", "address": "3285 SIMCOE ST. N.", "city": "OSHAWA", "province": "ON", "country": "CA", "postalCode": "L1H7K4", "twitter": "None", "instagram": "None", "facebook": "None", "youtube": "None", "website": "None", "summary": "None", "logo": "None", "latitude": 43.98108918042001, "longitude": -78.91076776498979}, "140872466RR0001": {"name": "COLWOOD FIREFIGHTERS HISTORICAL SOCIETY", "designationCode": "C", "categoryCode": "50", "address": "3215 METCHOSIN ROAD", "city": "VICTORIA", "province": "BC", "country": "CA", "postalCode": "V9C2L4", "twitter": "None", "instagram": "None", "facebook": "None", "youtube": "None", "website": "None", "summary": "None", "logo": "None", "latitude": 48.42584819953254, "longitude": -123.48987756225857}, "118868645RR0001": {"name": "COLWOOD PENTECOSTAL CHURCH", "designationCode": "C", "categoryCode": "36", "address": "2250 SOOKE ROAD", "city": "VICTORIA", "province": "BC", "country": "CA", "postalCode": "V9B1X1", "twitter": "None", "instagram": "None", "facebook": "None", "youtube": "None", "website": "None", "summary": "None", "logo": "None", "latitude": 48.43416675327477, "longitude": -123.49321331891615}, "118871672RR0001": {"name": "COM-SPAN INCORPORATED", "designationCode": "C", "categoryCode": "01", "address": "102-66 MOORE AVE", "city": "WINNIPEG", "province": "MB", "country": "CA", "postalCode": "R2M2C4", "twitter": "None", "instagram": "None", "facebook": "None", "youtube": "None", "website": "None", "summary": "None", "logo": "None", "latitude": 49.83857520286814, "longitude": -97.11724465554862}, "118868744RR0001": {"name": "COM'FEMME INC.", "designationCode": "C", "categoryCode": "59", "address": "6035 ADAM", "city": "BROSSARD", "province": "QC", "country": "CA", "postalCode": "J4Z1A9", "twitter": "None", "instagram": "None", "facebook": "None", "youtube": "None", "website": "None", "summary": "None", "logo": "None", "latitude": 45.48160730945244, "longitude": -73.46377269995395}, "888037645RR0001": {"name": "COMART FOUNDATION", "designationCode": "B", "categoryCode": "03", "address": "57 EASTBOURNE AVE", "city": "TORONTO", "province": "ON", "country": "CA", "postalCode": "M5P2G1", "twitter": "None", "instagram": "None", "facebook": "None", "youtube": "None", "website": "None", "summary": "None", "logo": "None", "latitude": 43.70102675160133, "longitude": -79.40315833302576}, "888210846RR0001": {"name": "COMBER AGRICULTURAL SOCIETY", "designationCode": "C", "categoryCode": "56", "address": "6806 ESSEX RD 8               RR#1", "city": "STAPLES", "province": "ON", "country": "CA", "postalCode": "N0P2J0", "twitter": "None", "instagram": "None", "facebook": "None", "youtube": "None", "website": "None", "summary": "None", "logo": "None", "latitude": 42.168926424724994, "longitude": -82.55671116653598}, "873286363RR0001": {"name": "COMBER AND DISTRICT HISTORICAL SOCIETY", "designationCode": "C", "categoryCode": "50", "address": "22 CAMEO DR", "city": "LEAMINGTON", "province": "ON", "country": "CA", "postalCode": "N8H1J2", "twitter": "None", "instagram": "None", "facebook": "None", "youtube": "None", "website": "None", "summary": "None", "logo": "None", "latitude": 42.05356993308919, "longitude": -82.61346690714994}, "118868678RR0001": {"name": "COMBINED CHRISTMAS CHEER COMMITTEE OF SYDNEY MINES", "designationCode": "C", "categoryCode": "09", "address": "43 EVELYN'S AVENUE", "city": "GEORGE'S RIVER", "province": "NS", "country": "CA", "postalCode": "B1Y3G7", "twitter": "None", "instagram": "None", "facebook": "None", "youtube": "None", "website": "None", "summary": "None", "logo": "None", "latitude": 46.20921579684339, "longitude": -60.31326624981231}, "118868686RR0001": {"name": "COMBINED CHRISTMAS GIVING COMMITTEE", "designationCode": "C", "categoryCode": "09", "address": "217 JAMES ST", "city": "NEW WATERFORD", "province": "NS", "country": "CA", "postalCode": "B1H2X7", "twitter": "None", "instagram": "None", "facebook": "None", "youtube": "None", "website": "None", "summary": "None", "logo": "None", "latitude": 46.25751011157595, "longitude": -60.09470622704705}, "118868728RR0001": {"name": "COMBONI MISSIONARIES OF THE HEART OF JESUS (ONTARIO)", "designationCode": "C", "categoryCode": "47", "address": "148 MADISON AVENUE SOUTH", "city": "KITCHENER", "province": "ON", "country": "CA", "postalCode": "N2G3M6", "twitter": "None", "instagram": "None", "facebook": "None", "youtube": "None", "website": "None", "summary": "None", "logo": "None", "latitude": 43.442616519851086, "longitude": -80.48584714475723}, "863444790RR0001": {"name": "COME AND DINE CHURCH MINISTRIES INTERNATIONAL INC.", "designationCode": "C", "categoryCode": "39", "address": "91 KEARNEY DRIVE", "city": "AJAX", "province": "ON", "country": "CA", "postalCode": "L1T2V7", "twitter": "None", "instagram": "None", "facebook": "None", "youtube": "None", "website": "None", "summary": "None", "logo": "None", "latitude": 43.85914020788847, "longitude": -79.06073875365014}, "868109091RR0001": {"name": "COME OVER AND HELP AID ORGANIZATION INC.", "designationCode": "C", "categoryCode": "47", "address": "PO BOX 275 STN MAIN", "city": "BRANTFORD", "province": "ON", "country": "CA", "postalCode": "N3T5M8", "twitter": "None", "instagram": "None", "facebook": "None", "youtube": "None", "website": "None", "summary": "None", "logo": "None", "latitude": 43.14136200000006, "longitude": -80.26173349999993}, "823731146RR0001": {"name": "COME TO THE WATERS MINISTRIES", "designationCode": "C", "categoryCode": "47", "address": "143 HEALE AVE", "city": "SCARBOROUGH", "province": "ON", "country": "CA", "postalCode": "M1N3Y2", "twitter": "None", "instagram": "None", "facebook": "None", "youtube": "None", "website": "None", "summary": "None", "logo": "None", "latitude": 43.717057731894485, "longitude": -79.25186906575698}, "825854276RR0001": {"name": "COMFORT ZONE FOR KID-ELDER AFRICA", "designationCode": "C", "categoryCode": "09", "address": "708 THOMPSON ROAD SOUTH", "city": "MILTON", "province": "ON", "country": "CA", "postalCode": "L9T0C8", "twitter": "None", "instagram": "None", "facebook": "None", "youtube": "None", "website": "None", "summary": "None", "logo": "None", "latitude": 43.51290830875729, "longitude": -79.84653383447889}, "876165325RR0001": {"name": "COMING HOME SOCIETY", "designationCode": "C", "categoryCode": "57", "address": "303 CORDOVA ST E", "city": "VANCOUVER", "province": "BC", "country": "CA", "postalCode": "V6A1L4", "twitter": "None", "instagram": "None", "facebook": "None", "youtube": "None", "website": "None", "summary": "None", "logo": "None", "latitude": 49.2822545115412, "longitude": -123.09718997155059}, "830369831RR0001": {"name": "COMISSION DE LA BIBLIOTH\u00c8QUE LE CORMORAN", "designationCode": "C", "categoryCode": "50", "address": "67 CHEMIN RAGGED POINT", "city": "SAINT JOHN", "province": "NB", "country": "CA", "postalCode": "E2K5C3", "twitter": "None", "instagram": "None", "facebook": "None", "youtube": "None", "website": "None", "summary": "None", "logo": "None", "latitude": 45.29454225809355, "longitude": -66.11450077234643}, "890094196RR0001": {"name": "COMIT\u00c9 ACTION POPULAIRE LEMOYNE", "designationCode": "C", "categoryCode": "09", "address": "1058 RUE BERNARD-DARCHE", "city": "LEMOYNE", "province": "QC", "country": "CA", "postalCode": "J4R1T5", "twitter": "None", "instagram": "None", "facebook": "None", "youtube": "None", "website": "None", "summary": "None", "logo": "None", "latitude": 45.49978217375491, "longitude": -73.49428893337765}, "141397836RR0001": {"name": "COMIT\u00c9 CH\u00d4MAGE DU HAUT-RICHELIEU", "designationCode": "C", "categoryCode": "59", "address": "130 RUE JACQUES CARTIER NORD", "city": "ST-JEAN", "province": "QC", "country": "CA", "postalCode": "J3B6S6", "twitter": "None", "instagram": "None", "facebook": "None", "youtube": "None", "website": "None", "summary": "None", "logo": "None", "latitude": 45.3036954657222, "longitude": -73.25346949143031}, "885458927RR0001": {"name": "COMIT\u00c9 D'ENTRAIDE DE VERCH\u00c8RES", "designationCode": "C", "categoryCode": "09", "address": "579 MARIE-VICTORIN, LOCAL 101", "city": "VERCH\u00c8RES", "province": "QC", "country": "CA", "postalCode": "J0L2R0", "twitter": "None", "instagram": "None", "facebook": "None", "youtube": "None", "website": "None", "summary": "None", "logo": "None", "latitude": 45.77565813711117, "longitude": -73.35811513933287}, "142183359RR0001": {"name": "COMIT\u00c9 DE BASE POUR L'ACTION ET L'INFORMATION SUR LE LOGEMENT SOCIAL D'HOCHELAGA-MAISONNEUVE", "designationCode": "C", "categoryCode": "99", "address": "1475-1 BENNETT", "city": "MONTREAL", "province": "QC", "country": "CA", "postalCode": "H1V2S5", "twitter": "None", "instagram": "None", "facebook": "None", "youtube": "None", "website": "None", "summary": "None", "logo": "None", "latitude": 45.555487445877645, "longitude": -73.53992140251574}, "872538319RR0001": {"name": "COMIT\u00c9 DE PR\u00c9SERVATION DE L'\u00c9GLISE NOTRE DAME DE GR\u00c2CE DE MONTR\u00c9AL", "designationCode": "C", "categoryCode": "52", "address": "5333, RUE NOTRE DAME DE GR\u00c2CE", "city": "MONTR\u00c9AL", "province": "QC", "country": "CA", "postalCode": "H4A1L2", "twitter": "None", "instagram": "None", "facebook": "None", "youtube": "None", "website": "None", "summary": "None", "logo": "None", "latitude": 45.47673389566606, "longitude": -73.61583469308637}, "138393608RR0001": {"name": "COMIT\u00c9 DE PROTECTION DE LA BAIE DES CHALEURS", "designationCode": "C", "categoryCode": "59", "address": "180 AVENUE BEAUS\u00c9JOUR", "city": "BONAVENTURE", "province": "QC", "country": "CA", "postalCode": "G0C1E0", "twitter": "None", "instagram": "None", "facebook": "None", "youtube": "None", "website": "None", "summary": "None", "logo": "None", "latitude": 48.05297070835141, "longitude": -65.46585948912812}, "141249193RR0001": {"name": "COMIT\u00c9 DE SOLIDARIT\u00c9 TIERS-MONDE/FONDS DE CHARIT\u00c9 - T.-R.", "designationCode": "C", "categoryCode": "29", "address": "942 RUE SAINTE-GENEVIEVE", "city": "TROIS-RIVIERES", "province": "QC", "country": "CA", "postalCode": "G9A3X6", "twitter": "None", "instagram": "None", "facebook": "None", "youtube": "None", "website": "None", "summary": "None", "logo": "None", "latitude": 46.346367896762594, "longitude": -72.54361743326209}, "141477380RR0001": {"name": "COMIT\u00c9 DE SURVEILLANCE LOUIS-RIEL", "designationCode": "C", "categoryCode": "52", "address": "6751A RUE BEAUBIEN EST", "city": "MONTREAL", "province": "QC", "country": "CA", "postalCode": "H1M3B2", "twitter": "None", "instagram": "None", "facebook": "None", "youtube": "None", "website": "None", "summary": "None", "logo": "None", "latitude": 45.59107864935103, "longitude": -73.5590082775897}, "889770772RR0001": {"name": "COMIT\u00c9 DE TRANSPORT B\u00c9N\u00c9VOLE D'OTTER LAKE /OTTER LAKE VOLUNTEER TRANSPORT COMMITTEE", "designationCode": "C", "categoryCode": "09", "address": "CASE POSTALE 282", "city": "OTTER LAKE", "province": "QC", "country": "CA", "postalCode": "J0X2P0", "twitter": "None", "instagram": "None", "facebook": "None", "youtube": "None", "website": "None", "summary": "None", "logo": "None", "latitude": 45.84979500000006, "longitude": -76.42666699999994}, "891726739RR0001": {"name": "COMIT\u00c9 DES AFFAIRES CULTURELLES PAPINEAUVILLE STE-ANG\u00c9LIQUE", "designationCode": "C", "categoryCode": "50", "address": "100-188 JEANNE-D'ARC", "city": "PAPINEAUVILLE", "province": "QC", "country": "CA", "postalCode": "J0V1R0", "twitter": "None", "instagram": "None", "facebook": "None", "youtube": "None", "website": "None", "summary": "None", "logo": "None", "latitude": 45.61918390674591, "longitude": -75.01849406685349}, "890561590RR0001": {"name": "COMIT\u00c9 DES OEUVRES CHARITABLES DU CONSEIL LAVAL 2721", "designationCode": "C", "categoryCode": "65", "address": "709 RUE KIROUAC", "city": "QUEBEC", "province": "QC", "country": "CA", "postalCode": "G1N2J3", "twitter": "None", "instagram": "None", "facebook": "None", "youtube": "None", "website": "None", "summary": "None", "logo": "None", "latitude": 46.80440633579573, "longitude": -71.24165672407554}, "856542394RR0001": {"name": "COMIT\u00c9 DES R\u00c9PONDANTS DE L'ESCADRON 761 R\u00c9GION DU KAMOURASKA", "designationCode": "C", "categoryCode": "29", "address": "761 REGION DE KAMOURASKA      CASIER POSTALE 5001", "city": "LA POCATIERE", "province": "QC", "country": "CA", "postalCode": "G0R1Z0", "twitter": "None", "instagram": "None", "facebook": "None", "youtube": "None", "website": "None", "summary": "None", "logo": "None", "latitude": 47.35548000000006, "longitude": -70.06540999999999}, "118869353RR0001": {"name": "COMIT\u00c9 LOGEMENT DE LA PETITE PATRIE INC.", "designationCode": "C", "categoryCode": "59", "address": "6839A RUE DROLET", "city": "MONTREAL", "province": "QC", "country": "CA", "postalCode": "H2S2T1", "twitter": "None", "instagram": "None", "facebook": "None", "youtube": "None", "website": "None", "summary": "None", "logo": "None", "latitude": 45.53598767224107, "longitude": -73.6115378120771}, "106956758RR0001": {"name": "COMIT\u00c9 LOGEMENT VILLE-MARIE DE MONTR\u00c9AL", "designationCode": "C", "categoryCode": "09", "address": "1710, RUE BEAUDRY, LOCAL 2.6", "city": "MONTR\u00c9AL", "province": "QC", "country": "CA", "postalCode": "H2L3E7", "twitter": "None", "instagram": "None", "facebook": "None", "youtube": "None", "website": "None", "summary": "None", "logo": "None", "latitude": 45.5203528956374, "longitude": -73.55927210658429}, "107608085RR0001": {"name": "COMIT\u00c9 R\u00c9GIONAL TROISI\u00c8ME \u00c2GE PAPINEAU", "designationCode": "C", "categoryCode": "09", "address": "134 RUE PRINCIPALE", "city": "ST-ANDRE-AVELLIN", "province": "QC", "country": "CA", "postalCode": "J0V1W0", "twitter": "None", "instagram": "None", "facebook": "None", "youtube": "None", "website": "None", "summary": "None", "logo": "None", "latitude": 45.72544376380635, "longitude": -75.05373848430388}, "106957343RR0001": {"name": "COMIT\u00c9 SOCIAL CENTRE-SUD INC.", "designationCode": "C", "categoryCode": "59", "address": "1710 BEAUDRY", "city": "MONTREAL", "province": "QC", "country": "CA", "postalCode": "H2L3E7", "twitter": "None", "instagram": "None", "facebook": "None", "youtube": "None", "website": "None", "summary": "None", "logo": "None", "latitude": 45.5203528956374, "longitude": -73.55927210658429}, "886977875RR0001": {"name": "COMITE \"MAIN DANS LA MAIN\" DE LA CORNE", "designationCode": "C", "categoryCode": "09", "address": "351 RTE 111", "city": "LA CORNE", "province": "QC", "country": "CA", "postalCode": "J0Y1R0", "twitter": "None", "instagram": "None", "facebook": "None", "youtube": "None", "website": "None", "summary": "None", "logo": "None", "latitude": 48.35761770542921, "longitude": -77.99585729457081}, "887936961RR0001": {"name": "COMITE ACTION JEUNESSE DES ESCOUMINS", "designationCode": "C", "categoryCode": "09", "address": "2 RUE DE LA CROIX", "city": "LES ESCOUMINS", "province": "QC", "country": "CA", "postalCode": "G0T1K0", "twitter": "None", "instagram": "None", "facebook": "None", "youtube": "None", "website": "None", "summary": "None", "logo": "None", "latitude": 48.353000165416375, "longitude": -69.40095648335158}, "118868785RR0001": {"name": "COMITE AIDE FINANCIERE AUX ELEVES", "designationCode": "C", "categoryCode": "21", "address": "3400 BOUL NEUVIALLE", "city": "QUEBEC", "province": "QC", "country": "CA", "postalCode": "G1P3A8", "twitter": "None", "instagram": "None", "facebook": "None", "youtube": "None", "website": "None", "summary": "None", "logo": "None", "latitude": 46.815670372468105, "longitude": -71.31640007063305}, "118868801RR0001": {"name": "COMITE AU CANADA DE LA MAISON DES ETUDIANTS CANADIENS A PARIS", "designationCode": "A", "categoryCode": "21", "address": "2150 - 2000 AV MCGILL COLLEGE", "city": "MONTREAL", "province": "QC", "country": "CA", "postalCode": "H3A3H3", "twitter": "None", "instagram": "None", "facebook": "None", "youtube": "None", "website": "None", "summary": "None", "logo": "None", "latitude": 45.502789414749586, "longitude": -73.5731644067988}, "120587498RR0001": {"name": "COMITE BENEVOLE DE SAINT-LOUIS-DU-HA!HA!", "designationCode": "C", "categoryCode": "09", "address": "C.P. 230                      67, ST-PIERRE", "city": "ST-LOUIS DU HA HA", "province": "QC", "country": "CA", "postalCode": "G0L3S0", "twitter": "None", "instagram": "None", "facebook": "None", "youtube": "None", "website": "None", "summary": "None", "logo": "None", "latitude": 47.67276121259166, "longitude": -68.97157737065044}, "120816475RR0001": {"name": "COMITE BENEVOLE VIEILLIR C'EST LA VIE INC", "designationCode": "C", "categoryCode": "09", "address": "93 RUE PRINCIPALE", "city": "ST-HONORE", "province": "QC", "country": "CA", "postalCode": "G0L3K0", "twitter": "None", "instagram": "None", "facebook": "None", "youtube": "None", "website": "None", "summary": "None", "logo": "None", "latitude": 47.67692273189449, "longitude": -69.72390417444738}}