{"128967353RR0034": {"name": "PAROISSE ST BERNARD", "designationCode": "C", "categoryCode": "38", "address": "5142 CHEMIN DU COMTE 10", "city": "FOURNIER", "province": "ON", "country": "CA", "postalCode": "K0B1G0", "twitter": "None", "instagram": "None", "facebook": "None", "youtube": "None", "website": "None", "summary": "None", "logo": "None", "latitude": 45.440934000000055, "longitude": -74.89699099999993}, "128967353RR0083": {"name": "PAROISSE ST BERNARDIN", "designationCode": "C", "categoryCode": "38", "address": "119 RUE DE L'EGLISE,CP 33", "city": "ST-BERNARDIN", "province": "ON", "country": "CA", "postalCode": "K0B1N0", "twitter": "None", "instagram": "None", "facebook": "None", "youtube": "None", "website": "None", "summary": "None", "logo": "None", "latitude": 45.458313930786396, "longitude": -74.79910201465222}, "131516437RR0001": {"name": "PAROISSE ST CHARLES PARISH", "designationCode": "C", "categoryCode": "38", "address": "BOX 195", "city": "NAMPA", "province": "AB", "country": "CA", "postalCode": "T0H2R0", "twitter": "None", "instagram": "None", "facebook": "None", "youtube": "None", "website": "None", "summary": "None", "logo": "None", "latitude": 56.03880000000004, "longitude": -117.13430999999997}, "130091135RR0002": {"name": "PAROISSE ST CLEMENT PARISH", "designationCode": "C", "categoryCode": "38", "address": "14 CHURCH ST", "city": "PORT ELGIN", "province": "NB", "country": "CA", "postalCode": "E4M2C9", "twitter": "None", "instagram": "None", "facebook": "None", "youtube": "None", "website": "None", "summary": "None", "logo": "None", "latitude": 46.048477143924416, "longitude": -64.0893194342985}, "130599442RR0033": {"name": "PAROISSE ST DOMINIQUE", "designationCode": "C", "categoryCode": "38", "address": "365 RUE NORMAN", "city": "TIMMINS", "province": "ON", "country": "CA", "postalCode": "P4N4B6", "twitter": "None", "instagram": "None", "facebook": "None", "youtube": "None", "website": "None", "summary": "None", "logo": "None", "latitude": 48.47977165520124, "longitude": -81.35687192835184}, "132930074RR0001": {"name": "PAROISSE ST EDOUARD", "designationCode": "C", "categoryCode": "38", "address": "1304 RUE PRINCIPALE", "city": "FABRE", "province": "QC", "country": "CA", "postalCode": "J0Z1Z0", "twitter": "None", "instagram": "None", "facebook": "None", "youtube": "None", "website": "None", "summary": "None", "logo": "None", "latitude": 47.197755, "longitude": -79.36730054310728}, "128967353RR0046": {"name": "PAROISSE ST EUGENE", "designationCode": "C", "categoryCode": "38", "address": "CP70", "city": "ST-EUGENE", "province": "ON", "country": "CA", "postalCode": "K0B1P0", "twitter": "None", "instagram": "None", "facebook": "None", "youtube": "None", "website": "None", "summary": "None", "logo": "None", "latitude": 45.49812000000003, "longitude": -74.46230999999995}, "888757598RR0001": {"name": "PAROISSE ST EUGENE", "designationCode": "C", "categoryCode": "38", "address": "18 PRINCIPALE S.", "city": "ST-EUGENE-DE-GUIGUES", "province": "QC", "country": "CA", "postalCode": "J0Z3L0", "twitter": "None", "instagram": "None", "facebook": "None", "youtube": "None", "website": "None", "summary": "None", "logo": "None", "latitude": 47.51036874271452, "longitude": -79.35222063448545}, "135574531RR0001": {"name": "PAROISSE ST FELIX DE VALOIS", "designationCode": "C", "categoryCode": "38", "address": "BOX 57", "city": "DUNREA", "province": "MB", "country": "CA", "postalCode": "R0K0S0", "twitter": "None", "instagram": "None", "facebook": "None", "youtube": "None", "website": "None", "summary": "None", "logo": "None", "latitude": 49.40691000000004, "longitude": -99.73213999999996}, "890406648RR0001": {"name": "PAROISSE ST FELIX DE VALOIS", "designationCode": "C", "categoryCode": "38", "address": "85 PRINCIPALE", "city": "CHENEVILLE", "province": "QC", "country": "CA", "postalCode": "J0V1E0", "twitter": "None", "instagram": "None", "facebook": "None", "youtube": "None", "website": "None", "summary": "None", "logo": "None", "latitude": 45.88363799999999, "longitude": -75.05649299454699}, "128967353RR0011": {"name": "PAROISSE ST FRANCOIS D'ASSISE", "designationCode": "C", "categoryCode": "38", "address": "20 AVE FAIRMONT", "city": "OTTAWA", "province": "ON", "country": "CA", "postalCode": "K1Y2K2", "twitter": "None", "instagram": "None", "facebook": "None", "youtube": "None", "website": "None", "summary": "None", "logo": "None", "latitude": 45.40390513376432, "longitude": -75.72336519250946}, "130969256RR0001": {"name": "PAROISSE ST GREGOIRE DE NAZIANZE", "designationCode": "C", "categoryCode": "38", "address": "150 RUE MACLAREN EST", "city": "GATINEAU", "province": "QC", "country": "CA", "postalCode": "J8L1K1", "twitter": "None", "instagram": "None", "facebook": "None", "youtube": "None", "website": "None", "summary": "None", "logo": "None", "latitude": 45.5876726874605, "longitude": -75.4137484906805}, "128967353RR0048": {"name": "PAROISSE ST GUILLAUME", "designationCode": "C", "categoryCode": "38", "address": "5790 CH. BUCKLAND,            BOITE 2", "city": "VARS", "province": "ON", "country": "CA", "postalCode": "K0A3H0", "twitter": "None", "instagram": "None", "facebook": "None", "youtube": "None", "website": "None", "summary": "None", "logo": "None", "latitude": 45.35450247683072, "longitude": -75.35370123902094}, "135591063RR0001": {"name": "PAROISSE ST GUILLAUME", "designationCode": "C", "categoryCode": "38", "address": "2320 AV. GRANADA", "city": "ROUYN-NORANDA", "province": "QC", "country": "CA", "postalCode": "J9Y1H6", "twitter": "None", "instagram": "None", "facebook": "None", "youtube": "None", "website": "None", "summary": "None", "logo": "None", "latitude": 48.19218454120269, "longitude": -79.04121496214418}, "128967353RR0043": {"name": "PAROISSE ST HUGUES", "designationCode": "C", "categoryCode": "38", "address": "3464 SARSFIELD RD", "city": "SARSFIELD", "province": "ON", "country": "CA", "postalCode": "K0A3E0", "twitter": "None", "instagram": "None", "facebook": "None", "youtube": "None", "website": "None", "summary": "None", "logo": "None", "latitude": 45.44392284399005, "longitude": -75.34540220148223}, "128967353RR0033": {"name": "PAROISSE ST ISIDORE", "designationCode": "C", "categoryCode": "38", "address": "C.P.6, 4548 RUE STE-CATHERINE", "city": "ST-ISIDORE", "province": "ON", "country": "CA", "postalCode": "K0C2B0", "twitter": "None", "instagram": "None", "facebook": "None", "youtube": "None", "website": "None", "summary": "None", "logo": "None"}, "131581639RR0001": {"name": "PAROISSE ST ISIDORE", "designationCode": "C", "categoryCode": "38", "address": "16 ISIDORE EST                CP 37", "city": "LAVERLOCHERE", "province": "QC", "country": "CA", "postalCode": "J0Z2P0", "twitter": "None", "instagram": "None", "facebook": "None", "youtube": "None", "website": "None", "summary": "None", "logo": "None", "latitude": 47.42638950043268, "longitude": -79.30529125145709}, "128967353RR0027": {"name": "PAROISSE ST JACQUES", "designationCode": "C", "categoryCode": "38", "address": "CP 100", "city": "EMBRUN", "province": "ON", "country": "CA", "postalCode": "K0A1W0", "twitter": "None", "instagram": "None", "facebook": "None", "youtube": "None", "website": "None", "summary": "None", "logo": "None", "latitude": 45.27382200000005, "longitude": -75.31299799999994}, "128967353RR0026": {"name": "PAROISSE ST JEAN BAPTISTE", "designationCode": "C", "categoryCode": "38", "address": "1057 RUE QUEEN, P.O. BOX 360", "city": "L'ORIGINAL", "province": "ON", "country": "CA", "postalCode": "K0B1K0", "twitter": "None", "instagram": "None", "facebook": "None", "youtube": "None", "website": "None", "summary": "None", "logo": "None", "latitude": 45.61884710507859, "longitude": -74.6913211088292}, "129886420RR0001": {"name": "PAROISSE ST JEAN BAPTISTE", "designationCode": "C", "categoryCode": "38", "address": "4609 50 AVE", "city": "ST PAUL", "province": "AB", "country": "CA", "postalCode": "T0A3A3", "twitter": "None", "instagram": "None", "facebook": "None", "youtube": "None", "website": "None", "summary": "None", "logo": "None", "latitude": 53.99135148730496, "longitude": -111.28695202553523}, "121437305RR0001": {"name": "PAROISSE ST JOACHIM", "designationCode": "C", "categoryCode": "38", "address": "9928-110 RUE (ST.)", "city": "EDMONTON", "province": "AB", "country": "CA", "postalCode": "T5K1J3", "twitter": "None", "instagram": "None", "facebook": "None", "youtube": "None", "website": "None", "summary": "None", "logo": "None", "latitude": 53.53821911518264, "longitude": -113.5103161710136}, "128967353RR0022": {"name": "PAROISSE ST JOACHIM", "designationCode": "C", "categoryCode": "38", "address": "PO BOX 40", "city": "CHUTE A BLONDEAU", "province": "ON", "country": "CA", "postalCode": "K0B1B0", "twitter": "None", "instagram": "None", "facebook": "None", "youtube": "None", "website": "None", "summary": "None", "logo": "None", "latitude": 45.58825000000007, "longitude": -74.46886999999998}, "128967353RR0075": {"name": "PAROISSE ST LAURENT", "designationCode": "C", "categoryCode": "38", "address": "5958 8E LIGNE CP121", "city": "CARLSBAD SPRINGS", "province": "ON", "country": "CA", "postalCode": "K0A1K0", "twitter": "None", "instagram": "None", "facebook": "None", "youtube": "None", "website": "None", "summary": "None", "logo": "None", "latitude": 45.37248000000005, "longitude": -75.52522249999993}, "130599442RR0009": {"name": "PAROISSE ST LAURENT", "designationCode": "C", "categoryCode": "38", "address": "P.O.BOX 70", "city": "RAMORE", "province": "ON", "country": "CA", "postalCode": "P0K1R0", "twitter": "None", "instagram": "None", "facebook": "None", "youtube": "None", "website": "None", "summary": "None", "logo": "None", "latitude": 48.43262000000004, "longitude": -80.32541999999995}, "128967353RR0085": {"name": "PAROISSE ST LEON LE GRAND", "designationCode": "C", "categoryCode": "38", "address": "1560 CONCESSION 1", "city": "PLANTAGENET", "province": "ON", "country": "CA", "postalCode": "K0B1L0", "twitter": "None", "instagram": "None", "facebook": "None", "youtube": "None", "website": "None", "summary": "None", "logo": "None", "latitude": 45.58383115388532, "longitude": -75.05114317568145}, "131877169RR0001": {"name": "PAROISSE ST LOUIS DE BONNYVILLE", "designationCode": "C", "categoryCode": "39", "address": "4609 50 AVE", "city": "ST PAUL", "province": "AB", "country": "CA", "postalCode": "T0A3A3", "twitter": "None", "instagram": "None", "facebook": "None", "youtube": "None", "website": "None", "summary": "None", "logo": "None", "latitude": 53.99135148730496, "longitude": -111.28695202553523}, "890205172RR0001": {"name": "PAROISSE ST LOUIS DE FRANCE", "designationCode": "C", "categoryCode": "38", "address": "C.P.9", "city": "N\u00c9D\u00c9LEC", "province": "QC", "country": "CA", "postalCode": "J0Z2Z0", "twitter": "None", "instagram": "None", "facebook": "None", "youtube": "None", "website": "None", "summary": "None", "logo": "None", "latitude": 47.69259900000006, "longitude": -79.42656499999994}, "128967353RR0002": {"name": "PAROISSE ST LUC", "designationCode": "C", "categoryCode": "38", "address": "843 CH DE COMTE 19", "city": "CURRAN", "province": "ON", "country": "CA", "postalCode": "K0B1C0", "twitter": "None", "instagram": "None", "facebook": "None", "youtube": "None", "website": "None", "summary": "None", "logo": "None", "latitude": 45.48423300000006, "longitude": -75.08024449999994}, "130396880RR0001": {"name": "PAROISSE ST LUC", "designationCode": "C", "categoryCode": "38", "address": "150 RUE MACLAREN EST", "city": "GATINEAU", "province": "QC", "country": "CA", "postalCode": "J8L1K1", "twitter": "None", "instagram": "None", "facebook": "None", "youtube": "None", "website": "None", "summary": "None", "logo": "None", "latitude": 45.5876726874605, "longitude": -75.4137484906805}, "129930228RR0026": {"name": "PAROISSE ST MARTIN", "designationCode": "C", "categoryCode": "38", "address": "1356 ROUTE 260", "city": "SAINT-MARTIN-DE-RESTIGOUCHE", "province": "NB", "country": "CA", "postalCode": "E8A2M8", "twitter": "None", "instagram": "None", "facebook": "None", "youtube": "None", "website": "None", "summary": "None", "logo": "None", "latitude": 47.56889315810858, "longitude": -67.33669673926542}, "133810275RR0001": {"name": "PAROISSE ST MARTIN DE TOURS", "designationCode": "C", "categoryCode": "38", "address": "581 ROYALE", "city": "MALARTIC", "province": "QC", "country": "CA", "postalCode": "J0Y1Z0", "twitter": "None", "instagram": "None", "facebook": "None", "youtube": "None", "website": "None", "summary": "None", "logo": "None", "latitude": 48.13417284869325, "longitude": -78.12054736360997}, "128967353RR0015": {"name": "PAROISSE ST MATHIEU", "designationCode": "C", "categoryCode": "38", "address": "3130 CH GENDRON               CP 10", "city": "HAMMOND", "province": "ON", "country": "CA", "postalCode": "K0A2A0", "twitter": "None", "instagram": "None", "facebook": "None", "youtube": "None", "website": "None", "summary": "None", "logo": "None", "latitude": 45.441192321397665, "longitude": -75.24004400389514}, "129930228RR0016": {"name": "PAROISSE ST MICHEL", "designationCode": "C", "categoryCode": "38", "address": "1361 RUE TOBIQUE", "city": "DRUMMOND", "province": "NB", "country": "CA", "postalCode": "E3Y2P4", "twitter": "None", "instagram": "None", "facebook": "None", "youtube": "None", "website": "None", "summary": "None", "logo": "None", "latitude": 47.039159136997505, "longitude": -67.69019717134064}, "128967353RR0018": {"name": "PAROISSE ST PASCAL BAYLON", "designationCode": "C", "categoryCode": "38", "address": "2488 CHEMIN DU LAC            CP 11", "city": "ST-PASCAL", "province": "ON", "country": "CA", "postalCode": "K0A3N0", "twitter": "None", "instagram": "None", "facebook": "None", "youtube": "None", "website": "None", "summary": "None", "logo": "None", "latitude": 45.49129679877664, "longitude": -75.15383359062835}, "128967353RR0008": {"name": "PAROISSE ST PAUL", "designationCode": "C", "categoryCode": "38", "address": "CP 160", "city": "PLANTAGENET", "province": "ON", "country": "CA", "postalCode": "K0B1L0", "twitter": "None", "instagram": "None", "facebook": "None", "youtube": "None", "website": "None", "summary": "None", "logo": "None", "latitude": 45.53710800000006, "longitude": -75.02829199999994}, "131908428RR0001": {"name": "PAROISSE ST PHILIPPE", "designationCode": "C", "categoryCode": "38", "address": "1400 RTE ST-PHILIPPE", "city": "VAL D'OR", "province": "QC", "country": "CA", "postalCode": "J9P4N7", "twitter": "None", "instagram": "None", "facebook": "None", "youtube": "None", "website": "None", "summary": "None", "logo": "None", "latitude": 48.11330956264031, "longitude": -77.9471061554913}, "130599442RR0006": {"name": "PAROISSE ST PIERRE APOTRE", "designationCode": "C", "categoryCode": "38", "address": "C.P. 8", "city": "VIRGINIATOWN", "province": "ON", "country": "CA", "postalCode": "P0K1X0", "twitter": "None", "instagram": "None", "facebook": "None", "youtube": "None", "website": "None", "summary": "None", "logo": "None", "latitude": 38.88653000000005, "longitude": -121.23339999999996}, "132003724RR0001": {"name": "PAROISSE ST PIERRE APOTRE", "designationCode": "C", "categoryCode": "38", "address": "1201 VISITATION", "city": "MONTREAL", "province": "QC", "country": "CA", "postalCode": "H2L3B5", "twitter": "None", "instagram": "None", "facebook": "None", "youtube": "None", "website": "None", "summary": "None", "logo": "None", "latitude": 45.518444338074744, "longitude": -73.55349285149187}, "130828031RR0001": {"name": "PAROISSE ST PLACIDE", "designationCode": "C", "categoryCode": "38", "address": "CP 61", "city": "BEARN", "province": "QC", "country": "CA", "postalCode": "J0Z1G0", "twitter": "None", "instagram": "None", "facebook": "None", "youtube": "None", "website": "None", "summary": "None", "logo": "None", "latitude": 47.291973000000056, "longitude": -79.33101199999993}, "128967353RR0058": {"name": "PAROISSE ST REMI", "designationCode": "C", "categoryCode": "38", "address": "2821, AVENUE DUMAURIER", "city": "OTTAWA", "province": "ON", "country": "CA", "postalCode": "K2B7W3", "twitter": "None", "instagram": "None", "facebook": "None", "youtube": "None", "website": "None", "summary": "None", "logo": "None", "latitude": 45.35162712741632, "longitude": -75.79301116740692}, "129740619RR0001": {"name": "PAROISSE ST ROMUALD", "designationCode": "C", "categoryCode": "38", "address": "CP 6", "city": "MOFFET", "province": "QC", "country": "CA", "postalCode": "J0Z2W0", "twitter": "None", "instagram": "None", "facebook": "None", "youtube": "None", "website": "None", "summary": "None", "logo": "None", "latitude": 47.560542000000055, "longitude": -78.86163949999994}, "128967353RR0089": {"name": "PAROISSE ST THOMAS", "designationCode": "C", "categoryCode": "38", "address": "C.P. 39", "city": "LEFAIVRE", "province": "ON", "country": "CA", "postalCode": "K0B1J0", "twitter": "None", "instagram": "None", "facebook": "None", "youtube": "None", "website": "None", "summary": "None", "logo": "None", "latitude": 45.63159000000006, "longitude": -74.82764149999993}, "128967353RR0076": {"name": "PAROISSE ST THOMAS D'AQUIN", "designationCode": "C", "categoryCode": "38", "address": "1244, PLACE KILBORN", "city": "OTTAWA", "province": "ON", "country": "CA", "postalCode": "K1H6L1", "twitter": "None", "instagram": "None", "facebook": "None", "youtube": "None", "website": "None", "summary": "None", "logo": "None", "latitude": 45.38607052063048, "longitude": -75.67144136081134}, "129930228RR0010": {"name": "PAROISSE ST THOMAS D'AQUIN", "designationCode": "C", "categoryCode": "38", "address": "45 RUE DE L'EGLISE CP 532", "city": "LAC BAKER", "province": "NB", "country": "CA", "postalCode": "E7A1H8", "twitter": "None", "instagram": "None", "facebook": "None", "youtube": "None", "website": "None", "summary": "None", "logo": "None", "latitude": 47.3363059891513, "longitude": -68.64101875737238}, "130091135RR0010": {"name": "PAROISSE ST TIMOTHEE, SHEMOGUE", "designationCode": "C", "categoryCode": "38", "address": "1 - 2648 CH ACADIE", "city": "CAP-PELE", "province": "NB", "country": "CA", "postalCode": "E4N1E4", "twitter": "None", "instagram": "None", "facebook": "None", "youtube": "None", "website": "None", "summary": "None", "logo": "None", "latitude": 46.215320208631596, "longitude": -64.27098598822965}, "128967353RR0014": {"name": "PAROISSE ST VIATEUR", "designationCode": "C", "categoryCode": "38", "address": "C.P. 99", "city": "LIMOGES", "province": "ON", "country": "CA", "postalCode": "K0A2M0", "twitter": "None", "instagram": "None", "facebook": "None", "youtube": "None", "website": "None", "summary": "None", "logo": "None", "latitude": 45.351844764172824, "longitude": -75.26543719772546}, "891005381RR0001": {"name": "PAROISSE ST VIATEUR", "designationCode": "C", "categoryCode": "38", "address": "14 DE LA BAIE MILLER          C.P. 100", "city": "ANGLIERS", "province": "QC", "country": "CA", "postalCode": "J0Z1A0", "twitter": "None", "instagram": "None", "facebook": "None", "youtube": "None", "website": "None", "summary": "None", "logo": "None", "latitude": 47.54840543190577, "longitude": -79.23903562152968}, "128967353RR0074": {"name": "PAROISSE ST VICTOR", "designationCode": "C", "categoryCode": "38", "address": "C.P. 129", "city": "ALFRED", "province": "ON", "country": "CA", "postalCode": "K0B1A0", "twitter": "None", "instagram": "None", "facebook": "None", "youtube": "None", "website": "None", "summary": "None", "logo": "None", "latitude": 45.535431598182996, "longitude": -74.99495066911088}, "132152992RR0001": {"name": "PAROISSE ST VINCENT", "designationCode": "C", "categoryCode": "38", "address": "4609 50 AVE", "city": "ST PAUL", "province": "AB", "country": "CA", "postalCode": "T0A3A3", "twitter": "None", "instagram": "None", "facebook": "None", "youtube": "None", "website": "None", "summary": "None", "logo": "None", "latitude": 53.99135148730496, "longitude": -111.28695202553523}, "848439568RR0001": {"name": "PAROISSE ST. CHARLES", "designationCode": "C", "categoryCode": "38", "address": "P.O. BOX 100", "city": "CODERRE", "province": "SK", "country": "CA", "postalCode": "S0H0X0", "twitter": "None", "instagram": "None", "facebook": "None", "youtube": "None", "website": "None", "summary": "None", "logo": "None", "latitude": 50.13515000000007, "longitude": -106.38316999999995}, "856519566RR0001": {"name": "PAROISSE ST. IGNACE", "designationCode": "C", "categoryCode": "38", "address": "BOX 327", "city": "WILLOW BUNCH", "province": "SK", "country": "CA", "postalCode": "S0H4K0", "twitter": "None", "instagram": "None", "facebook": "None", "youtube": "None", "website": "None", "summary": "None", "logo": "None", "latitude": 49.38336000000004, "longitude": -105.63441999999998}, "107585515RR0003": {"name": "PAROISSE ST. JEAN BAPTISTE", "designationCode": "C", "categoryCode": "38", "address": "CP 510", "city": "LONGLAC", "province": "ON", "country": "CA", "postalCode": "P0T2A0", "twitter": "None", "instagram": "None", "facebook": "None", "youtube": "None", "website": "None", "summary": "None", "logo": "None", "latitude": 49.78052700000005, "longitude": -86.53505299999993}, "119109817RR0059": {"name": "PAROISSE ST. JEROME", "designationCode": "C", "categoryCode": "38", "address": "3739 YPRES ST", "city": "WINDSOR", "province": "ON", "country": "CA", "postalCode": "N8W1S9", "twitter": "None", "instagram": "None", "facebook": "None", "youtube": "None", "website": "None", "summary": "None", "logo": "None", "latitude": 42.302461540885574, "longitude": -82.9771529117089}, "119109817RR0037": {"name": "PAROISSE ST. JOSEPH PARISH", "designationCode": "C", "categoryCode": "38", "address": "9399 TOWNLINE ROAD            PAROISSE ST-JOSEPH", "city": "WINDSOR", "province": "ON", "country": "CA", "postalCode": "N9J2W6", "twitter": "None", "instagram": "None", "facebook": "None", "youtube": "None", "website": "None", "summary": "None", "logo": "None", "latitude": 42.22403700000005, "longitude": -83.06784799999993}, "107876476RR0056": {"name": "PAROISSE ST. MATHIEU PARISH", "designationCode": "C", "categoryCode": "38", "address": "1608 PIONEER RD", "city": "SUDBURY", "province": "ON", "country": "CA", "postalCode": "P3G1A8", "twitter": "None", "instagram": "None", "facebook": "None", "youtube": "None", "website": "None", "summary": "None", "logo": "None", "latitude": 46.43508748326466, "longitude": -80.93867319317329}, "817167513RR0001": {"name": "PAROISSE ST. PHILIPPE ET ST. JACQUES ROMAN CATHOLIC PARISH INC.", "designationCode": "C", "categoryCode": "38", "address": "CASIER POSTAL 80", "city": "WELLINGTON", "province": "PE", "country": "CA", "postalCode": "C0B2E0", "twitter": "None", "instagram": "None", "facebook": "None", "youtube": "None", "website": "None", "summary": "None", "logo": "None", "latitude": 46.45186878924578, "longitude": -63.992329254360634}, "863601191RR0001": {"name": "PAROISSE ST-ALPHONSE DE CAPLAN", "designationCode": "C", "categoryCode": "39", "address": "C.P. 39 ST-ALPHONSE DE CAPLAN", "city": "SAINT-ALPHONSE-DE-CAPLAN", "province": "QC", "country": "CA", "postalCode": "G0C2V0", "twitter": "None", "instagram": "None", "facebook": "None", "youtube": "None", "website": "None", "summary": "None", "logo": "None", "latitude": 48.15576, "longitude": -65.6488395}, "131207797RR0001": {"name": "PAROISSE ST-ANDRE", "designationCode": "C", "categoryCode": "38", "address": "C.P. 124, 251, 3E AVENUE", "city": "BELLETERRE", "province": "QC", "country": "CA", "postalCode": "J0Z1L0", "twitter": "None", "instagram": "None", "facebook": "None", "youtube": "None", "website": "None", "summary": "None", "logo": "None", "latitude": 47.39035248542905, "longitude": -78.70111138190317}, "107585515RR0010": {"name": "PAROISSE ST-ANTOINE DE PADOUE", "designationCode": "C", "categoryCode": "38", "address": "CP 122", "city": "OPASATIKA", "province": "ON", "country": "CA", "postalCode": "P0L1Z0", "twitter": "None", "instagram": "None", "facebook": "None", "youtube": "None", "website": "None", "summary": "None", "logo": "None", "latitude": 49.526979000000054, "longitude": -82.86549199999993}, "130091135RR0019": {"name": "PAROISSE ST-ANTOINE L'ERMITE", "designationCode": "C", "categoryCode": "38", "address": "20 DE L'EGLISE AVE", "city": "SAINT-ANTOINE", "province": "NB", "country": "CA", "postalCode": "E4V1M3", "twitter": "None", "instagram": "None", "facebook": "None", "youtube": "None", "website": "None", "summary": "None", "logo": "None", "latitude": 46.36300524361148, "longitude": -64.75497422491048}, "119083665RR0001": {"name": "PAROISSE ST-ANTOINE-ABBE", "designationCode": "C", "categoryCode": "38", "address": "1 RUE PRINCIPALE EST CP 8", "city": "LATULIPE", "province": "QC", "country": "CA", "postalCode": "J0Z2N0", "twitter": "None", "instagram": "None", "facebook": "None", "youtube": "None", "website": "None", "summary": "None", "logo": "None", "latitude": 47.427250533758205, "longitude": -79.03196413780367}, "119018737RR0047": {"name": "PAROISSE ST-ANTOINE-DE-PADOUE", "designationCode": "C", "categoryCode": "38", "address": "4 CENTRAL ST", "city": "CAMPBELLTON", "province": "NB", "country": "CA", "postalCode": "E3N1Z5", "twitter": "None", "instagram": "None", "facebook": "None", "youtube": "None", "website": "None", "summary": "None", "logo": "None", "latitude": 48.00584310750667, "longitude": -66.67064434014542}, "119109791RR0030": {"name": "PAROISSE ST-ANTOINE-DE-PADOUE, NIAGARA FALLS", "designationCode": "C", "categoryCode": "38", "address": "4570 RUE PORTAGE", "city": "NIAGARA FALLS", "province": "ON", "country": "CA", "postalCode": "L2E6A8", "twitter": "None", "instagram": "None", "facebook": "None", "youtube": "None", "website": "None", "summary": "None", "logo": "None", "latitude": 43.10764696476993, "longitude": -79.09548385908059}, "119018737RR0019": {"name": "PAROISSE ST-AUGUSTIN", "designationCode": "C", "categoryCode": "38", "address": "738, RUE PRINCIPALE", "city": "NEGUAC", "province": "NB", "country": "CA", "postalCode": "E9G1N5", "twitter": "None", "instagram": "None", "facebook": "None", "youtube": "None", "website": "None", "summary": "None", "logo": "None", "latitude": 47.24668719054302, "longitude": -65.07892040349515}, "119018737RR0062": {"name": "PAROISSE ST-AUGUSTIN", "designationCode": "C", "categoryCode": "38", "address": "4 CENTRAL ST", "city": "CAMPBELLTON", "province": "NB", "country": "CA", "postalCode": "E3N1Z5", "twitter": "None", "instagram": "None", "facebook": "None", "youtube": "None", "website": "None", "summary": "None", "logo": "None", "latitude": 48.00584310750667, "longitude": -66.67064434014542}, "119083772RR0001": {"name": "PAROISSE ST-AUGUSTIN", "designationCode": "C", "categoryCode": "38", "address": "9632-E, BOULEVARD RIDEAU", "city": "ROUYN-NORANDA", "province": "QC", "country": "CA", "postalCode": "J0Z2X0", "twitter": "None", "instagram": "None", "facebook": "None", "youtube": "None", "website": "None", "summary": "None", "logo": "None", "latitude": 48.04598052758404, "longitude": -79.25904274055013}, "119083814RR0001": {"name": "PAROISSE ST-BENOIT", "designationCode": "C", "categoryCode": "38", "address": "4609 50 AVE", "city": "ST PAUL", "province": "AB", "country": "CA", "postalCode": "T0A3A3", "twitter": "None", "instagram": "None", "facebook": "None", "youtube": "None", "website": "None", "summary": "None", "logo": "None", "latitude": 53.99135148730496, "longitude": -111.28695202553523}, "119018737RR0045": {"name": "PAROISSE ST-BERNARD", "designationCode": "C", "categoryCode": "38", "address": "4 CENTRAL ST", "city": "CAMPBELLTON", "province": "NB", "country": "CA", "postalCode": "E3N1Z5", "twitter": "None", "instagram": "None", "facebook": "None", "youtube": "None", "website": "None", "summary": "None", "logo": "None", "latitude": 48.00584310750667, "longitude": -66.67064434014542}, "119083897RR0001": {"name": "PAROISSE ST-BRUNO", "designationCode": "C", "categoryCode": "38", "address": "27 RUE PRINCIPALE NORD", "city": "ST BRUNO DE GUIGUES", "province": "QC", "country": "CA", "postalCode": "J0Z2G0", "twitter": "None", "instagram": "None", "facebook": "None", "youtube": "None", "website": "None", "summary": "None", "logo": "None", "latitude": 47.46461400000001, "longitude": -79.43805184272064}, "107876476RR0039": {"name": "PAROISSE ST-CHARLES-BORROMEE", "designationCode": "C", "categoryCode": "38", "address": "BOX 68", "city": "ST-CHARLES", "province": "ON", "country": "CA", "postalCode": "P0M2W0", "twitter": "None", "instagram": "None", "facebook": "None", "youtube": "None", "website": "None", "summary": "None", "logo": "None", "latitude": 45.97608237185804, "longitude": -81.50821869507774}, "107876476RR0023": {"name": "PAROISSE ST-DAVID", "designationCode": "C", "categoryCode": "38", "address": "CP 126", "city": "NOELVILLE", "province": "ON", "country": "CA", "postalCode": "P0M2N0", "twitter": "None", "instagram": "None", "facebook": "None", "youtube": "None", "website": "None", "summary": "None", "logo": "None", "latitude": 46.13402000000008, "longitude": -80.43163999999996}, "107876476RR0053": {"name": "PAROISSE ST-DOMINIQUE", "designationCode": "C", "categoryCode": "38", "address": "1241 RUE DIANE", "city": "SUDBURY", "province": "ON", "country": "CA", "postalCode": "P3A4H4", "twitter": "None", "instagram": "None", "facebook": "None", "youtube": "None", "website": "None", "summary": "None", "logo": "None", "latitude": 46.52451554088869, "longitude": -80.9199948720191}, "119084523RR0001": {"name": "PAROISSE ST-FELIX", "designationCode": "C", "categoryCode": "38", "address": "CP 114                        1, RUE PRINCIPALE", "city": "LAC BLUE SEA", "province": "QC", "country": "CA", "postalCode": "J0X1C0", "twitter": "None", "instagram": "None", "facebook": "None", "youtube": "None", "website": "None", "summary": "None", "logo": "None", "latitude": 46.18264248542906, "longitude": -76.06047253719198}, "119122778RR0026": {"name": "PAROISSE ST-FELIX-DE-VALOIS", "designationCode": "C", "categoryCode": "38", "address": "ST. FELIX                     620 BOULEVARD GLENGARRY", "city": "CORNWALL", "province": "ON", "country": "CA", "postalCode": "K6H6E7", "twitter": "None", "instagram": "None", "facebook": "None", "youtube": "None", "website": "None", "summary": "None", "logo": "None", "latitude": 45.02932693559935, "longitude": -74.70437243181978}, "107020331RR0036": {"name": "PAROISSE ST-FRANCOIS DE SALES", "designationCode": "C", "categoryCode": "38", "address": "291 BOAR'S HEAD RD", "city": "SAINT JOHN", "province": "NB", "country": "CA", "postalCode": "E2K5B7", "twitter": "None", "instagram": "None", "facebook": "None", "youtube": "None", "website": "None", "summary": "None", "logo": "None", "latitude": 45.292270736597686, "longitude": -66.10408699209414}, "107585515RR0028": {"name": "PAROISSE ST-FRANCOIS XAVIER", "designationCode": "C", "categoryCode": "38", "address": "CP 40", "city": "MATTICE", "province": "ON", "country": "CA", "postalCode": "P0L1T0", "twitter": "None", "instagram": "None", "facebook": "None", "youtube": "None", "website": "None", "summary": "None", "logo": "None", "latitude": 43.64703098309178, "longitude": -79.53722773065373}, "130091135RR0024": {"name": "PAROISSE ST-FRANCOIS-DE-SALES", "designationCode": "C", "categoryCode": "38", "address": "11111 RUE PRINCIPALE", "city": "ROGERSVILLE", "province": "NB", "country": "CA", "postalCode": "E4Y2N3", "twitter": "None", "instagram": "None", "facebook": "None", "youtube": "None", "website": "None", "summary": "None", "logo": "None", "latitude": 46.7317621494972, "longitude": -65.42680858119846}, "119018737RR0020": {"name": "PAROISSE ST-FRANCOIS-XAVIER", "designationCode": "C", "categoryCode": "38", "address": "340 CHURCH LANE", "city": "DALHOUSIE", "province": "NB", "country": "CA", "postalCode": "E8C1L5", "twitter": "None", "instagram": "None", "facebook": "None", "youtube": "None", "website": "None", "summary": "None", "logo": "None", "latitude": 48.062855116026505, "longitude": -66.3665788765237}, "119084614RR0002": {"name": "PAROISSE ST-FRANCOIS-XAVIER", "designationCode": "C", "categoryCode": "38", "address": "BOX 176", "city": "EAGLESHAM", "province": "AB", "country": "CA", "postalCode": "T0H1H0", "twitter": "None", "instagram": "None", "facebook": "None", "youtube": "None", "website": "None", "summary": "None", "logo": "None"}, "119018737RR0005": {"name": "PAROISSE ST-GABRIEL", "designationCode": "C", "categoryCode": "38", "address": "PO BOX 1008 STN A", "city": "BELLEDUNE", "province": "NB", "country": "CA", "postalCode": "E8G2X9", "twitter": "None", "instagram": "None", "facebook": "None", "youtube": "None", "website": "None", "summary": "None", "logo": "None", "latitude": 47.86756800000006, "longitude": -65.86688149999993}, "128967353RR0009": {"name": "PAROISSE ST-GABRIEL'S PARISH", "designationCode": "C", "categoryCode": "38", "address": "55 RUE APPLEFORD", "city": "GLOUCESTER", "province": "ON", "country": "CA", "postalCode": "K1J6T6", "twitter": "None", "instagram": "None", "facebook": "None", "youtube": "None", "website": "None", "summary": "None", "logo": "None", "latitude": 45.44046404974278, "longitude": -75.6043802682784}, "119084697RR0001": {"name": "PAROISSE ST-GUY", "designationCode": "C", "categoryCode": "38", "address": "CP 260", "city": "GUY", "province": "AB", "country": "CA", "postalCode": "T0H1Y0", "twitter": "None", "instagram": "None", "facebook": "None", "youtube": "None", "website": "None", "summary": "None", "logo": "None", "latitude": 55.57041600000005, "longitude": -117.13135399999993}, "119084721RR0001": {"name": "PAROISSE ST-IGNACE DE LOYOLA DE CLOUTIER", "designationCode": "C", "categoryCode": "38", "address": "10195, BOUL. TEMISCAMINGUE", "city": "ROUYN-NORANDA", "province": "QC", "country": "CA", "postalCode": "J0Z1S0", "twitter": "None", "instagram": "None", "facebook": "None", "youtube": "None", "website": "None", "summary": "None", "logo": "None", "latitude": 48.01097711518264, "longitude": -79.1508809164121}, "119018737RR0064": {"name": "PAROISSE ST-IRENEE", "designationCode": "C", "categoryCode": "38", "address": "C.P. 3238 SUCC BUREAU CHEF", "city": "TRACADIE-SHEILA", "province": "NB", "country": "CA", "postalCode": "E1X1G5", "twitter": "None", "instagram": "None", "facebook": "None", "youtube": "None", "website": "None", "summary": "None", "logo": "None", "latitude": 47.52130200000006, "longitude": -64.91063149999994}, "119018737RR0035": {"name": "PAROISSE ST-ISIDORE", "designationCode": "C", "categoryCode": "38", "address": "4 CENTRAL ST", "city": "CAMPBELLTON", "province": "NB", "country": "CA", "postalCode": "E3N1Z5", "twitter": "None", "instagram": "None", "facebook": "None", "youtube": "None", "website": "None", "summary": "None", "logo": "None", "latitude": 48.00584310750667, "longitude": -66.67064434014542}, "119084788RR0001": {"name": "PAROISSE ST-ISIDORE", "designationCode": "C", "categoryCode": "38", "address": "4609 50 AVE", "city": "ST PAUL", "province": "AB", "country": "CA", "postalCode": "T0A3A3", "twitter": "None", "instagram": "None", "facebook": "None", "youtube": "None", "website": "None", "summary": "None", "logo": "None"}, "119084796RR0001": {"name": "PAROISSE ST-ISIDORE", "designationCode": "C", "categoryCode": "38", "address": "PO BOX 1254", "city": "ST ISIDORE", "province": "AB", "country": "CA", "postalCode": "T0H3B0", "twitter": "None", "instagram": "None", "facebook": "None", "youtube": "None", "website": "None", "summary": "None", "logo": "None", "latitude": 56.20010000000008, "longitude": -117.10266999999999}, "119084838RR0001": {"name": "PAROISSE ST-JACQUES", "designationCode": "C", "categoryCode": "38", "address": "46 BOULEVARD COTE", "city": "HANMER", "province": "ON", "country": "CA", "postalCode": "P3P1X5", "twitter": "None", "instagram": "None", "facebook": "None", "youtube": "None", "website": "None", "summary": "None", "logo": "None", "latitude": 46.650306349792, "longitude": -80.94253506155405}, "119085058RR0001": {"name": "PAROISSE ST-JEAN", "designationCode": "C", "categoryCode": "38", "address": "BOX 20", "city": "DELEAU", "province": "MB", "country": "CA", "postalCode": "R0M0L0", "twitter": "None", "instagram": "None", "facebook": "None", "youtube": "None", "website": "None", "summary": "None", "logo": "None", "latitude": 49.581660000000056, "longitude": -100.57625999999999}, "107876476RR0055": {"name": "PAROISSE ST-JEAN DE BREBEUF", "designationCode": "C", "categoryCode": "38", "address": "26 KATHLEEN", "city": "SUDBURY", "province": "ON", "country": "CA", "postalCode": "P3C2M1", "twitter": "None", "instagram": "None", "facebook": "None", "youtube": "None", "website": "None", "summary": "None", "logo": "None", "latitude": 46.50183365603473, "longitude": -80.98769231945248}, "107818536RR0001": {"name": "PAROISSE ST-JEAN DE BREBEUF DE MALLAIG", "designationCode": "C", "categoryCode": "38", "address": "4609 50 AVE", "city": "ST PAUL", "province": "AB", "country": "CA", "postalCode": "T0A3A3", "twitter": "None", "instagram": "None", "facebook": "None", "youtube": "None", "website": "None", "summary": "None", "logo": "None", "latitude": 53.99135148730496, "longitude": -111.28695202553523}, "107876476RR0062": {"name": "PAROISSE ST-JEAN-BAPTISTE", "designationCode": "C", "categoryCode": "38", "address": "C.P. 99", "city": "VERNER", "province": "ON", "country": "CA", "postalCode": "P0H2M0", "twitter": "None", "instagram": "None", "facebook": "None", "youtube": "None", "website": "None", "summary": "None", "logo": "None", "latitude": 46.40693100000006, "longitude": -80.12398399999994}, "119018737RR0021": {"name": "PAROISSE ST-JEAN-BAPTISTE", "designationCode": "C", "categoryCode": "38", "address": "PO BOX 5187 STN MAIN", "city": "DALHOUSIE", "province": "NB", "country": "CA", "postalCode": "E8C3B9", "twitter": "None", "instagram": "None", "facebook": "None", "youtube": "None", "website": "None", "summary": "None", "logo": "None", "latitude": 48.03472100336684, "longitude": -66.37459785483613}, "130599442RR0005": {"name": "PAROISSE ST-JEAN-BAPTISTE", "designationCode": "C", "categoryCode": "38", "address": "CP 8", "city": "EARLTON", "province": "ON", "country": "CA", "postalCode": "P0J1E0", "twitter": "None", "instagram": "None", "facebook": "None", "youtube": "None", "website": "None", "summary": "None", "logo": "None", "latitude": 47.7112815, "longitude": -79.82695575}, "119018737RR0022": {"name": "PAROISSE ST-JEAN-BOSCO/ST. JOHN BOSCO PARISH", "designationCode": "C", "categoryCode": "38", "address": "PO BOX 1008 STN A", "city": "BELLEDUNE", "province": "NB", "country": "CA", "postalCode": "E8G2X9", "twitter": "None", "instagram": "None", "facebook": "None", "youtube": "None", "website": "None", "summary": "None", "logo": "None", "latitude": 47.86756800000006, "longitude": -65.86688149999993}, "119084994RR0001": {"name": "PAROISSE ST-JEAN-DE-BREBOEUF", "designationCode": "C", "categoryCode": "38", "address": "RUE CHURCH", "city": "SULTAN", "province": "ON", "country": "CA", "postalCode": "P0M2Z0", "twitter": "None", "instagram": "None", "facebook": "None", "youtube": "None", "website": "None", "summary": "None", "logo": "None", "latitude": 46.49191226469308, "longitude": -80.54410661373612}, "119018737RR0058": {"name": "PAROISSE ST-JEAN-L'EVANGELISTE", "designationCode": "C", "categoryCode": "38", "address": "PO BOX 1008 STN A", "city": "BELLEDUNE", "province": "NB", "country": "CA", "postalCode": "E8G2X9", "twitter": "None", "instagram": "None", "facebook": "None", "youtube": "None", "website": "None", "summary": "None", "logo": "None", "latitude": 47.86756800000006, "longitude": -65.86688149999993}, "119018737RR0060": {"name": "PAROISSE ST-JEAN-VIANNEY", "designationCode": "C", "categoryCode": "38", "address": "PO BOX 5187 STN MAIN", "city": "DALHOUSIE", "province": "NB", "country": "CA", "postalCode": "E8C3B9", "twitter": "None", "instagram": "None", "facebook": "None", "youtube": "None", "website": "None", "summary": "None", "logo": "None", "latitude": 48.03472100336684, "longitude": -66.37459785483613}, "119018737RR0030": {"name": "PAROISSE ST-JEROME", "designationCode": "C", "categoryCode": "38", "address": "4 CENTRAL ST", "city": "CAMPBELLTON", "province": "NB", "country": "CA", "postalCode": "E3N1Z5", "twitter": "None", "instagram": "None", "facebook": "None", "youtube": "None", "website": "None", "summary": "None", "logo": "None", "latitude": 48.00584310750667, "longitude": -66.67064434014542}, "119018737RR0013": {"name": "PAROISSE ST-JOACHIM", "designationCode": "C", "categoryCode": "38", "address": "213 BOUL. ST-PIERRE OUEST", "city": "CARAQUET", "province": "NB", "country": "CA", "postalCode": "E1W1A5", "twitter": "None", "instagram": "None", "facebook": "None", "youtube": "None", "website": "None", "summary": "None", "logo": "None", "latitude": 47.78971263154629, "longitude": -64.96383676474412}}