{"860348077RR0001": {"name": "CONGREGATION KEHAL TOLDOS YAKOV YOSEF", "designationCode": "C", "categoryCode": "39", "address": "6019 DUROCHER", "city": "MONTREAL", "province": "QC", "country": "CA", "postalCode": "H2V3Y7", "twitter": "None", "instagram": "None", "facebook": "None", "youtube": "None", "website": "None", "summary": "None", "logo": "None", "latitude": 45.523213301431035, "longitude": -73.60870052732423}, "141195024RR0001": {"name": "CONGREGATION MAGHEN DAVID", "designationCode": "C", "categoryCode": "42", "address": "4691 RUE VAN HORNE", "city": "MONTREAL", "province": "QC", "country": "CA", "postalCode": "H3W1H8", "twitter": "None", "instagram": "None", "facebook": "None", "youtube": "None", "website": "None", "summary": "None", "logo": "None", "latitude": 45.49530578963004, "longitude": -73.6368464839285}, "892951971RR0001": {"name": "CONGREGATION MELECH YISRAEL OF TORONTO", "designationCode": "C", "categoryCode": "47", "address": "272 RANEE AVENUE", "city": "TORONTO", "province": "ON", "country": "CA", "postalCode": "M6A1N6", "twitter": "None", "instagram": "None", "facebook": "None", "youtube": "None", "website": "None", "summary": "None", "logo": "None", "latitude": 43.72310514351647, "longitude": -79.44947728019497}, "118873652RR0001": {"name": "CONGREGATION MISSIONNAIRE DE MARIANNHILL", "designationCode": "C", "categoryCode": "20", "address": "2075 CH. DE SAINTE-CATHERINE", "city": "SHERBROOKE", "province": "QC", "country": "CA", "postalCode": "J1N1E7", "twitter": "None", "instagram": "None", "facebook": "None", "youtube": "None", "website": "None", "summary": "None", "logo": "None", "latitude": 45.349892964121274, "longitude": -71.953714268044}, "868677741RR0001": {"name": "CONGREGATION MITA DU CANADA INC", "designationCode": "C", "categoryCode": "39", "address": "2325 LIONEL GROULX            APP 2", "city": "MONTREAL", "province": "QC", "country": "CA", "postalCode": "H3J1J5", "twitter": "None", "instagram": "None", "facebook": "None", "youtube": "None", "website": "None", "summary": "None", "logo": "None", "latitude": 45.485328226210335, "longitude": -73.57537774744638}, "894443076RR0001": {"name": "CONGREGATION NER TAMID OF HALIFAX-DARTMOUTH", "designationCode": "C", "categoryCode": "39", "address": "PO BOX 20064                  RPO SPRYFIELD", "city": "HALIFAX", "province": "NS", "country": "CA", "postalCode": "B3P1L1", "twitter": "None", "instagram": "None", "facebook": "None", "youtube": "None", "website": "None", "summary": "None", "logo": "None", "latitude": 44.606310000000065, "longitude": -63.620529999999974}, "889800579RR0001": {"name": "CONGREGATION NUSACH HOARI", "designationCode": "C", "categoryCode": "42", "address": "5001 RUE VEZINA", "city": "MONTREAL", "province": "QC", "country": "CA", "postalCode": "H3W1C2", "twitter": "None", "instagram": "None", "facebook": "None", "youtube": "None", "website": "None", "summary": "None", "logo": "None", "latitude": 45.494674647527205, "longitude": -73.645394702637}, "119288918RR0078": {"name": "CONGREGATION OF JEHOVAH'S WITNESSES CLINTON ONTARIO", "designationCode": "C", "categoryCode": "61", "address": "PO BOX 1402", "city": "CLINTON", "province": "ON", "country": "CA", "postalCode": "N0M1L0", "twitter": "None", "instagram": "None", "facebook": "None", "youtube": "None", "website": "None", "summary": "None", "logo": "None", "latitude": 43.617650000000026, "longitude": -81.53971999999999}, "119288918RR1117": {"name": "CONGREGATION OF JEHOVAH'S WITNESSES COBDEN ONTARIO", "designationCode": "C", "categoryCode": "61", "address": "1154 GRANT SETTLEMENT RD      RR 1", "city": "FORESTERS FALLS", "province": "ON", "country": "CA", "postalCode": "K0J1V0", "twitter": "None", "instagram": "None", "facebook": "None", "youtube": "None", "website": "None", "summary": "None", "logo": "None", "latitude": 45.70500992249841, "longitude": -76.73530914605904}, "119288918RR0272": {"name": "CONGREGATION OF JEHOVAH'S WITNESSES COBOURG ONTARIO", "designationCode": "C", "categoryCode": "61", "address": "PO BOX 22", "city": "BALTIMORE", "province": "ON", "country": "CA", "postalCode": "K0K1C0", "twitter": "None", "instagram": "None", "facebook": "None", "youtube": "None", "website": "None", "summary": "None", "logo": "None", "latitude": 44.020822076724436, "longitude": -78.14816303836223}, "119288918RR0149": {"name": "CONGREGATION OF JEHOVAH'S WITNESSES COOKSVILLE ONTARIO", "designationCode": "C", "categoryCode": "61", "address": "2342 ALTERSEN PL", "city": "MISSISSAUGA", "province": "ON", "country": "CA", "postalCode": "L5A1N8", "twitter": "None", "instagram": "None", "facebook": "None", "youtube": "None", "website": "None", "summary": "None", "logo": "None", "latitude": 43.58299545155529, "longitude": -79.60028013240797}, "119288918RR0415": {"name": "CONGREGATION OF JEHOVAH'S WITNESSES DEEP RIVER", "designationCode": "C", "categoryCode": "61", "address": "KINGDOM HALL                  33853 HWY 17", "city": "DEEP RIVER", "province": "ON", "country": "CA", "postalCode": "K0J1P0", "twitter": "None", "instagram": "None", "facebook": "None", "youtube": "None", "website": "None", "summary": "None", "logo": "None", "latitude": 46.1132357468613, "longitude": -77.53073012214489}, "119288918RR0083": {"name": "CONGREGATION OF JEHOVAH'S WITNESSES DOWLING ONTARIO", "designationCode": "C", "categoryCode": "61", "address": "12 PINE ST                    BOX 231", "city": "ONAPING", "province": "ON", "country": "CA", "postalCode": "P0M2R0", "twitter": "None", "instagram": "None", "facebook": "None", "youtube": "None", "website": "None", "summary": "None", "logo": "None", "latitude": 46.622124670004, "longitude": -81.41731362611826}, "119288918RR0278": {"name": "CONGREGATION OF JEHOVAH'S WITNESSES DRYDEN ONTARIO", "designationCode": "C", "categoryCode": "61", "address": "SITE 200 COMP 32 RR 3", "city": "DRYDEN", "province": "ON", "country": "CA", "postalCode": "P8N3G2", "twitter": "None", "instagram": "None", "facebook": "None", "youtube": "None", "website": "None", "summary": "None", "logo": "None", "latitude": 49.77985200000006, "longitude": -92.83282999999993}, "119288918RR0036": {"name": "CONGREGATION OF JEHOVAH'S WITNESSES TRENTON ONT", "designationCode": "C", "categoryCode": "61", "address": "35 PRINCE EDWARD STREET       P.O. BOX 837", "city": "BRIGHTON", "province": "ON", "country": "CA", "postalCode": "K0K1H0", "twitter": "None", "instagram": "None", "facebook": "None", "youtube": "None", "website": "None", "summary": "None", "logo": "None", "latitude": 44.04141936080552, "longitude": -77.73660985232958}, "118873926RR0001": {"name": "CONGREGATION OF JEHOVAH'S WITNESSES TURNER VALLEY ALBERTA", "designationCode": "C", "categoryCode": "61", "address": "PRESIDING OVERSEER            BOX 475", "city": "BLACK DIAMOND", "province": "AB", "country": "CA", "postalCode": "T0L0H0", "twitter": "None", "instagram": "None", "facebook": "None", "youtube": "None", "website": "None", "summary": "None", "logo": "None", "latitude": 50.68839300000006, "longitude": -114.23446999999993}, "119288918RR0303": {"name": "CONGREGATION OF JEHOVAH'S WITNESSES TURTLEFORD SASK", "designationCode": "C", "categoryCode": "61", "address": "BOX 598", "city": "TURTLEFORD", "province": "SK", "country": "CA", "postalCode": "S0M2Y0", "twitter": "None", "instagram": "None", "facebook": "None", "youtube": "None", "website": "None", "summary": "None", "logo": "None", "latitude": 53.38348000000008, "longitude": -108.95143999999999}, "119288918RR0453": {"name": "CONGREGATION OF JEHOVAH'S WITNESSES VANDERHOOF BC", "designationCode": "C", "categoryCode": "61", "address": "BOX 771", "city": "VANDERHOOF", "province": "BC", "country": "CA", "postalCode": "V0J3A0", "twitter": "None", "instagram": "None", "facebook": "None", "youtube": "None", "website": "None", "summary": "None", "logo": "None", "latitude": 54.01397400000006, "longitude": -124.01297449999993}, "119288918RR1145": {"name": "CONGREGATION OF JEHOVAH'S WITNESSES VIRDEN MANITOBA", "designationCode": "C", "categoryCode": "61", "address": "BOX 299", "city": "VIRDEN", "province": "MB", "country": "CA", "postalCode": "R0M2C0", "twitter": "None", "instagram": "None", "facebook": "None", "youtube": "None", "website": "None", "summary": "None", "logo": "None", "latitude": 49.85688000000005, "longitude": -100.92262999999997}, "118873900RR0001": {"name": "CONGREGATION OF JEHOVAH'S WITNESSES WAINWRIGHT ALBERTA", "designationCode": "C", "categoryCode": "61", "address": "1110 21 ST", "city": "WAINWRIGHT", "province": "AB", "country": "CA", "postalCode": "T9W1N3", "twitter": "None", "instagram": "None", "facebook": "None", "youtube": "None", "website": "None", "summary": "None", "logo": "None", "latitude": 52.84108920483004, "longitude": -110.84070835446337}, "118873876RR0001": {"name": "CONGREGATION OF JEHOVAH'S WITNESSES WAKAW SASKATCHEWAN", "designationCode": "C", "categoryCode": "61", "address": "PO BOX 98", "city": "WAKAW", "province": "SK", "country": "CA", "postalCode": "S0K4P0", "twitter": "None", "instagram": "None", "facebook": "None", "youtube": "None", "website": "None", "summary": "None", "logo": "None", "latitude": 52.65295000000003, "longitude": -105.74270999999999}, "119288918RR0593": {"name": "CONGREGATION OF JEHOVAH'S WITNESSES WALNUT GROVE", "designationCode": "C", "categoryCode": "61", "address": "65 - 21579 88B AVE", "city": "LANGLEY", "province": "BC", "country": "CA", "postalCode": "V1M2X4", "twitter": "None", "instagram": "None", "facebook": "None", "youtube": "None", "website": "None", "summary": "None", "logo": "None", "latitude": 49.16378253375819, "longitude": -122.62506155398464}, "863768321RR0001": {"name": "CONGREGATION OF JEHOVAH'S WITNESSES WATROUS SASKATCHEWAN", "designationCode": "C", "categoryCode": "61", "address": "BOX 1348", "city": "WATROUS", "province": "SK", "country": "CA", "postalCode": "S0K4T0", "twitter": "None", "instagram": "None", "facebook": "None", "youtube": "None", "website": "None", "summary": "None", "logo": "None", "latitude": 51.719579978192066, "longitude": -105.4459035}, "893521518RR0001": {"name": "CONGREGATION OF NOTRE DAME VISITATION PROVINCE INC.", "designationCode": "C", "categoryCode": "21", "address": "1336 BEDFORD HWY", "city": "BEDFORD", "province": "NS", "country": "CA", "postalCode": "B4A1C9", "twitter": "None", "instagram": "None", "facebook": "None", "youtube": "None", "website": "None", "summary": "None", "logo": "None", "latitude": 44.72738379684339, "longitude": -63.665516586473416}, "118874023RR0001": {"name": "CONGREGATION OF OUR LADY OF CHARITY OF THE GOOD SHEPHERD", "designationCode": "C", "categoryCode": "20", "address": "490 RATHBURN RD", "city": "ETOBICOKE", "province": "ON", "country": "CA", "postalCode": "M9C3S8", "twitter": "None", "instagram": "None", "facebook": "None", "youtube": "None", "website": "None", "summary": "None", "logo": "None", "latitude": 43.652029074124165, "longitude": -79.57691989967677}, "118874049RR0001": {"name": "CONGREGATION OF OUR LADY OF SION / Congregation des religieuses de Notre-Dame de Sion", "designationCode": "C", "categoryCode": "39", "address": "160 MARION ST", "city": "TORONTO", "province": "ON", "country": "CA", "postalCode": "M6R1E8", "twitter": "None", "instagram": "None", "facebook": "None", "youtube": "None", "website": "None", "summary": "None", "logo": "None", "latitude": 43.64093613962134, "longitude": -79.44771832015691}, "118874114RR0001": {"name": "CONGREGATION OF THE ANTONINE SISTERS CANADA / CONGREGATION DES SOEURS ANTONINES CANADA", "designationCode": "C", "categoryCode": "49", "address": "998 FRANCES ST", "city": "OTTAWA", "province": "ON", "country": "CA", "postalCode": "K1K3K5", "twitter": "None", "instagram": "None", "facebook": "None", "youtube": "None", "website": "None", "summary": "None", "logo": "None", "latitude": 45.42740884762538, "longitude": -75.64774937933475}, "131908394RR0001": {"name": "CONGREGATION OF THE CATHEDRAL CHURCH OF ALL SAINTS, HALIFAX", "designationCode": "C", "categoryCode": "30", "address": "1340 MARTELLO ST", "city": "HALIFAX", "province": "NS", "country": "CA", "postalCode": "B3H2Z1", "twitter": "None", "instagram": "None", "facebook": "None", "youtube": "None", "website": "None", "summary": "None", "logo": "None", "latitude": 44.64051669885744, "longitude": -63.579855245109115}, "118874056RR0001": {"name": "CONGREGATION OF THE CHURCH OF CHRIST", "designationCode": "C", "categoryCode": "39", "address": "BOX 200", "city": "EDWIN", "province": "MB", "country": "CA", "postalCode": "R0H0G0", "twitter": "None", "instagram": "None", "facebook": "None", "youtube": "None", "website": "None", "summary": "None", "logo": "None", "latitude": 49.89390000000003, "longitude": -98.51456999999999}, "888188042RR0001": {"name": "CONGREGATION OF THE COMMUNITY OF PREFONTAINE", "designationCode": "C", "categoryCode": "43", "address": "384 RUE BERNARD O", "city": "MONTREAL", "province": "QC", "country": "CA", "postalCode": "H2V1T7", "twitter": "None", "instagram": "None", "facebook": "None", "youtube": "None", "website": "None", "summary": "None", "logo": "None", "latitude": 45.52310217040802, "longitude": -73.6059900710371}, "108148263RR0130": {"name": "CONGREGATION OF THE DESCENT OF THE HOLY GHOST", "designationCode": "C", "categoryCode": "39", "address": "P.O. BOX 1828                 RR 2", "city": "CANORA", "province": "SK", "country": "CA", "postalCode": "S0A0L0", "twitter": "None", "instagram": "None", "facebook": "None", "youtube": "None", "website": "None", "summary": "None", "logo": "None", "latitude": 51.62535661313478, "longitude": -102.4443087080291}, "118874098RR0001": {"name": "CONGREGATION OF THE FOLLOWERS OF THE RABBI OF LUBAVITCH", "designationCode": "C", "categoryCode": "42", "address": "6405 WESTBURY AVE", "city": "MONTREAL", "province": "QC", "country": "CA", "postalCode": "H3W2X5", "twitter": "None", "instagram": "None", "facebook": "None", "youtube": "None", "website": "None", "summary": "None", "logo": "None", "latitude": 45.49250642189378, "longitude": -73.64295204466514}, "118874106RR0001": {"name": "CONGREGATION OF THE MARIST SISTERS - CONGREGATION DES SOEURS MARISTES", "designationCode": "C", "categoryCode": "46", "address": "37 37I\u00c8ME AVENUE", "city": "EDMUNSTON", "province": "NB", "country": "CA", "postalCode": "E3V2W6", "twitter": "None", "instagram": "None", "facebook": "None", "youtube": "None", "website": "None", "summary": "None", "logo": "None", "latitude": 47.37099531523377, "longitude": -68.32461962710723}, "132975202RR0001": {"name": "CONGREGATION OF THE OLD COLONY MENNONITE CHURCH, A RELIGIOUS SOCIETY IN THE POSTAL DISTRICT OF WINKLER", "designationCode": "C", "categoryCode": "34", "address": "PO BOX 271", "city": "WINKLER", "province": "MB", "country": "CA", "postalCode": "R6W4A5", "twitter": "None", "instagram": "None", "facebook": "None", "youtube": "None", "website": "None", "summary": "None", "logo": "None"}, "118874122RR0001": {"name": "CONGREGATION OF THE ORDER ANTONIN MARONITE IN ONTARIO", "designationCode": "C", "categoryCode": "46", "address": "5700 OUTER DR                 RR 1", "city": "WINDSOR", "province": "ON", "country": "CA", "postalCode": "N9A6J3", "twitter": "None", "instagram": "None", "facebook": "None", "youtube": "None", "website": "None", "summary": "None", "logo": "None", "latitude": 42.233239800253926, "longitude": -82.98398298960198}, "118874130RR0001": {"name": "CONGREGATION OF THE PASSIONIST SISTERS OF SAN PAOLO DELLA CROCE", "designationCode": "C", "categoryCode": "46", "address": "1431 CLARENCE ST", "city": "VAUGHAN", "province": "ON", "country": "CA", "postalCode": "L4H3C4", "twitter": "None", "instagram": "None", "facebook": "None", "youtube": "None", "website": "None", "summary": "None", "logo": "None", "latitude": 43.82043780740364, "longitude": -79.60745554809894}, "118874148RR0002": {"name": "CONGREGATION OF THE RESURRECTION", "designationCode": "C", "categoryCode": "46", "address": "265 WESTMOUNT ROAD NORTH", "city": "WATERLOO", "province": "ON", "country": "CA", "postalCode": "N2L3G7", "twitter": "None", "instagram": "None", "facebook": "None", "youtube": "None", "website": "None", "summary": "None", "logo": "None", "latitude": 43.4684333030185, "longitude": -80.54872971908294}, "883053175RR0001": {"name": "CONGREGATION OF THE SISTERS OF MERCIFUL JESUS", "designationCode": "C", "categoryCode": "46", "address": "P.O. BOX 128", "city": "MASKWACIS", "province": "AB", "country": "CA", "postalCode": "T0C1N0", "twitter": "None", "instagram": "None", "facebook": "None", "youtube": "None", "website": "None", "summary": "None", "logo": "None", "latitude": 52.83422000000007, "longitude": -113.44605999999999}, "118874163RR0001": {"name": "CONGREGATION OF THE SISTERS OF THE HOLY NAMES OF JESUS AND MARY", "designationCode": "C", "categoryCode": "46", "address": "215 MCEWAN AVE", "city": "WINDSOR", "province": "ON", "country": "CA", "postalCode": "N9B2E3", "twitter": "None", "instagram": "None", "facebook": "None", "youtube": "None", "website": "None", "summary": "None", "logo": "None", "latitude": 42.31344697501304, "longitude": -83.05853862380964}, "119067684RR0001": {"name": "CONGREGATION OF THE SONS OF THE IMMACULATE CONCEPTION", "designationCode": "C", "categoryCode": "38", "address": "300 ANSLEY GROVE RD", "city": "WOODBRIDGE", "province": "ON", "country": "CA", "postalCode": "L4L3W4", "twitter": "None", "instagram": "None", "facebook": "None", "youtube": "None", "website": "None", "summary": "None", "logo": "None", "latitude": 43.79717565944377, "longitude": -79.56307929967068}, "889042669RR0001": {"name": "CONGREGATION OHAV ZADECK,", "designationCode": "C", "categoryCode": "42", "address": "60-70 MACKLIN STREET", "city": "HAMILTON", "province": "ON", "country": "CA", "postalCode": "L8S3S1", "twitter": "None", "instagram": "None", "facebook": "None", "youtube": "None", "website": "None", "summary": "None", "logo": "None", "latitude": 43.264223340816045, "longitude": -79.89572967063917}, "131123135RR0001": {"name": "CONGREGATION OR SHALOM AT LONDON, ONTARIO", "designationCode": "C", "categoryCode": "42", "address": "534 HURON STREET", "city": "LONDON", "province": "ON", "country": "CA", "postalCode": "N5Y4J5", "twitter": "None", "instagram": "None", "facebook": "None", "youtube": "None", "website": "None", "summary": "None", "logo": "None", "latitude": 43.01135472998133, "longitude": -81.24491406691818}, "840697122RR0001": {"name": "CONGREGATION REISHIS CHOCHMO OF TORONTO", "designationCode": "C", "categoryCode": "42", "address": "50 BRISBANE RD", "city": "NORTH YORK", "province": "ON", "country": "CA", "postalCode": "M3J2K2", "twitter": "None", "instagram": "None", "facebook": "None", "youtube": "None", "website": "None", "summary": "None", "logo": "None", "latitude": 43.77196112245333, "longitude": -79.47367805386907}, "118874197RR0001": {"name": "CONGREGATION RESHITH CHOCHMA, FIRST MESIFTA OF CANADA", "designationCode": "C", "categoryCode": "42", "address": "2325 EKERS AVE", "city": "MONT-ROYAL", "province": "QC", "country": "CA", "postalCode": "H3S1C6", "twitter": "None", "instagram": "None", "facebook": "None", "youtube": "None", "website": "None", "summary": "None", "logo": "None", "latitude": 45.514682213168584, "longitude": -73.62876971775621}, "118874221RR0001": {"name": "CONGREGATION SCHARA TZEDECK", "designationCode": "C", "categoryCode": "42", "address": "3476 OAK ST", "city": "VANCOUVER", "province": "BC", "country": "CA", "postalCode": "V6H2L8", "twitter": "None", "instagram": "None", "facebook": "None", "youtube": "None", "website": "None", "summary": "None", "logo": "None", "latitude": 49.25460560199668, "longitude": -123.12732152383312}, "134524693RR0001": {"name": "CONGREGATION SEPHARADE OR HAHAYIN", "designationCode": "C", "categoryCode": "42", "address": "5700 AV EINSTEIN", "city": "COTE-SAINT-LUC", "province": "QC", "country": "CA", "postalCode": "H4W1W3", "twitter": "None", "instagram": "None", "facebook": "None", "youtube": "None", "website": "None", "summary": "None", "logo": "None", "latitude": 45.47032255646614, "longitude": -73.66267263448545}, "119147197RR0001": {"name": "CONGREGATION SHAAR HASHOMAYIM", "designationCode": "C", "categoryCode": "42", "address": "450 KENSINGTON AVENUE", "city": "WESTMOUNT", "province": "QC", "country": "CA", "postalCode": "H3Y3A2", "twitter": "None", "instagram": "None", "facebook": "None", "youtube": "None", "website": "None", "summary": "None", "logo": "None", "latitude": 45.4849769866698, "longitude": -73.59726301846608}, "130273675RR0001": {"name": "CONGREGATION SHAAR HASHOMAYIM", "designationCode": "C", "categoryCode": "42", "address": "115 GILES BLVD E", "city": "WINDSOR", "province": "ON", "country": "CA", "postalCode": "N9A4C1", "twitter": "None", "instagram": "None", "facebook": "None", "youtube": "None", "website": "None", "summary": "None", "logo": "None", "latitude": 42.30619257810622, "longitude": -83.02895054036597}, "119147098RR0001": {"name": "CONGREGATION SHAAREI ZEDEK, LIMITED", "designationCode": "C", "categoryCode": "42", "address": "PO BOX 2041", "city": "SAINT JOHN", "province": "NB", "country": "CA", "postalCode": "E2L3T5", "twitter": "None", "instagram": "None", "facebook": "None", "youtube": "None", "website": "None", "summary": "None", "logo": "None", "latitude": 45.27342600000006, "longitude": -66.06407149999993}, "890986946RR0001": {"name": "CONGREGATION SHAAREY ZEDEK OF WINDSOR", "designationCode": "C", "categoryCode": "42", "address": "1371 VICTORIA AVE", "city": "WINDSOR", "province": "ON", "country": "CA", "postalCode": "N8X1N9", "twitter": "None", "instagram": "None", "facebook": "None", "youtube": "None", "website": "None", "summary": "None", "logo": "None", "latitude": 42.302009923942585, "longitude": -83.0314089928153}, "865121776RR0001": {"name": "CONGREGATION SHIR CHADASH INC", "designationCode": "C", "categoryCode": "39", "address": "ROOM 26                       610 CLARENCE AVENUE SOUTH", "city": "SASKATOON", "province": "SK", "country": "CA", "postalCode": "S7H2E2", "twitter": "None", "instagram": "None", "facebook": "None", "youtube": "None", "website": "None", "summary": "None", "logo": "None", "latitude": 52.119306136274474, "longitude": -106.6464372666059}, "819632340RR0001": {"name": "CONGREGATION SHIR TIKVAH", "designationCode": "C", "categoryCode": "42", "address": "4305-65 SWINDON WAY", "city": "WINNIPEG", "province": "MB", "country": "CA", "postalCode": "R3P0T8", "twitter": "None", "instagram": "None", "facebook": "None", "youtube": "None", "website": "None", "summary": "None", "logo": "None", "latitude": 49.85448751211812, "longitude": -97.21450197584976}, "808430474RR0001": {"name": "CONGREGATION SHOAVEI MAYIM", "designationCode": "C", "categoryCode": "42", "address": "302 - 333 WILSON AVE", "city": "NORTH YORK", "province": "ON", "country": "CA", "postalCode": "M3H1T2", "twitter": "None", "instagram": "None", "facebook": "None", "youtube": "None", "website": "None", "summary": "None", "logo": "None", "latitude": 43.737049856483516, "longitude": -79.43551650109652}, "802078741RR0001": {"name": "CONGREGATION TEHILA LEDOVID", "designationCode": "C", "categoryCode": "42", "address": "57 RIDGEVALE DR", "city": "TORONTO", "province": "ON", "country": "CA", "postalCode": "M6A1K9", "twitter": "None", "instagram": "None", "facebook": "None", "youtube": "None", "website": "None", "summary": "None", "logo": "None", "latitude": 43.72478186037865, "longitude": -79.43718678628315}, "888451648RR0001": {"name": "CONGREGATION TEHILATH YERUSHALAYIM OF TORONTO", "designationCode": "C", "categoryCode": "42", "address": "1121 STEELES AVENUE WEST      #1204", "city": "TORONTO", "province": "ON", "country": "CA", "postalCode": "M2R3W7", "twitter": "None", "instagram": "None", "facebook": "None", "youtube": "None", "website": "None", "summary": "None", "logo": "None", "latitude": 43.79146782474548, "longitude": -79.4501556276188}, "892582248RR0001": {"name": "CONGREGATION THORA VEHAIM", "designationCode": "C", "categoryCode": "42", "address": "790 MARCEL LAURIN SUITE 104", "city": "VILLE ST-LAURENT", "province": "QC", "country": "CA", "postalCode": "H4M2M6", "twitter": "None", "instagram": "None", "facebook": "None", "youtube": "None", "website": "None", "summary": "None", "logo": "None", "latitude": 45.507107788216395, "longitude": -73.68347664198727}, "133723643RR0001": {"name": "CONGREGATION TIFERES YAAKOV", "designationCode": "C", "categoryCode": "42", "address": "500-3625 DUFFERIN ST", "city": "TORONTO", "province": "ON", "country": "CA", "postalCode": "M3K1N4", "twitter": "None", "instagram": "None", "facebook": "None", "youtube": "None", "website": "None", "summary": "None", "logo": "None", "latitude": 43.73098330919264, "longitude": -79.45857671963213}, "119265411RR0001": {"name": "CONGREGATION TOLDOS YAKOV YOSEF", "designationCode": "C", "categoryCode": "42", "address": "101A-2795 BATES", "city": "MONTREAL", "province": "QC", "country": "CA", "postalCode": "H3S1B5", "twitter": "None", "instagram": "None", "facebook": "None", "youtube": "None", "website": "None", "summary": "None", "logo": "None", "latitude": 45.51214593173288, "longitude": -73.63242777243335}, "891828642RR0001": {"name": "CONGREGATION YESHIVA GEDOLA", "designationCode": "C", "categoryCode": "39", "address": "6155 CH DEACON", "city": "MONTREAL", "province": "QC", "country": "CA", "postalCode": "H3S2P4", "twitter": "None", "instagram": "None", "facebook": "None", "youtube": "None", "website": "None", "summary": "None", "logo": "None", "latitude": 45.51243223261563, "longitude": -73.62056003494162}, "136523206RR0001": {"name": "CONGREGATIONAL CHRISTIAN CHURCHES IN CANADA", "designationCode": "C", "categoryCode": "39", "address": "442H GREY ST.", "city": "BRANTFORD", "province": "ON", "country": "CA", "postalCode": "N3S7N3", "twitter": "None", "instagram": "None", "facebook": "None", "youtube": "None", "website": "None", "summary": "None", "logo": "None", "latitude": 43.14734671724794, "longitude": -80.23470777062234}, "106968019RR0001": {"name": "CONGREGATIONAL SONS OF ISRAEL", "designationCode": "C", "categoryCode": "42", "address": "PO BOX 442", "city": "SYDNEY", "province": "NS", "country": "CA", "postalCode": "B1P6H2", "twitter": "None", "instagram": "None", "facebook": "None", "youtube": "None", "website": "None", "summary": "None", "logo": "None", "latitude": 46.137372000000056, "longitude": -60.19552249999994}, "119288918RR0834": {"name": "CONGREGATIONS DES TEMOINS DE JEHOVAH BAIE DES CHALEURS N B", "designationCode": "C", "categoryCode": "61", "address": "68, ALEXANDER CP 115", "city": "POINTE-A-LA-CROIX", "province": "QC", "country": "CA", "postalCode": "G0C1L0", "twitter": "None", "instagram": "None", "facebook": "None", "youtube": "None", "website": "None", "summary": "None", "logo": "None", "latitude": 48.017601151883675, "longitude": -66.6797077793869}, "119288918RR0147": {"name": "CONGREGATON OF JEHOVAH'S WITNESSES WATERFORD ONTARIO", "designationCode": "C", "categoryCode": "61", "address": "5 RUSSELL ST BOX 670", "city": "WATERFORD", "province": "ON", "country": "CA", "postalCode": "N0E1Y0", "twitter": "None", "instagram": "None", "facebook": "None", "youtube": "None", "website": "None", "summary": "None", "logo": "None", "latitude": 43.07313279727517, "longitude": -80.31465491796817}, "118874254RR0002": {"name": "CONGREGAZIONE PENTECOSTALE ITALIANA", "designationCode": "C", "categoryCode": "36", "address": "3350 WESTON RD", "city": "NORTH YORK", "province": "ON", "country": "CA", "postalCode": "M9M2V1", "twitter": "None", "instagram": "None", "facebook": "None", "youtube": "None", "website": "None", "summary": "None", "logo": "None", "latitude": 43.74560543935026, "longitude": -79.54101016380024}, "889957171RR0001": {"name": "CONINGSBY CEMETERY", "designationCode": "C", "categoryCode": "59", "address": "#9135 SIDEROAD SEVENTEEN, ERIN", "city": "HILLSBURGH", "province": "ON", "country": "CA", "postalCode": "N0B1Z0", "twitter": "None", "instagram": "None", "facebook": "None", "youtube": "None", "website": "None", "summary": "None", "logo": "None", "latitude": 43.73770938423793, "longitude": -80.13116761541237}, "118874338RR0001": {"name": "CONN'S MILLS CEMETERY INCORPORATED", "designationCode": "C", "categoryCode": "59", "address": "APT.19, 39 HARBOUR VIEW LANE", "city": "PUGWASH", "province": "NS", "country": "CA", "postalCode": "B0K1L0", "twitter": "None", "instagram": "None", "facebook": "None", "youtube": "None", "website": "None", "summary": "None", "logo": "None", "latitude": 45.85453315072985, "longitude": -63.662937615471094}, "887428803RR0001": {"name": "CONNAIGRE PENINSULA CANCER BENEFIT/SUPPORT GROUP", "designationCode": "C", "categoryCode": "11", "address": "P.O. BOX 714", "city": "HARBOUR BRETON", "province": "NL", "country": "CA", "postalCode": "A0H1P0", "twitter": "None", "instagram": "None", "facebook": "None", "youtube": "None", "website": "None", "summary": "None", "logo": "None", "latitude": 47.483250000000055, "longitude": -55.798329999999964}, "118874262RR0001": {"name": "CONNAUGHT AGRICULTURAL SOCIETY", "designationCode": "C", "categoryCode": "56", "address": "BOX 2023", "city": "TISDALE", "province": "SK", "country": "CA", "postalCode": "S0E1T0", "twitter": "None", "instagram": "None", "facebook": "None", "youtube": "None", "website": "None", "summary": "None", "logo": "None", "latitude": 52.84785000000005, "longitude": -104.04749999999996}, "867960734RR0001": {"name": "CONNAUGHT HEIGHTS PENTECOSTAL ASSEMBLY", "designationCode": "C", "categoryCode": "36", "address": "2201 8TH AVE.", "city": "NEW-WESTMINSTER", "province": "BC", "country": "CA", "postalCode": "V3M2T9", "twitter": "None", "instagram": "None", "facebook": "None", "youtube": "None", "website": "None", "summary": "None", "logo": "None", "latitude": 49.20083537998921, "longitude": -122.95222693487753}, "869971184RR0001": {"name": "CONNEC TRA SOCIETY", "designationCode": "C", "categoryCode": "03", "address": "318-425 CARRALL STREET", "city": "VANCOUVER", "province": "BC", "country": "CA", "postalCode": "V6B6E3", "twitter": "None", "instagram": "None", "facebook": "None", "youtube": "None", "website": "None", "summary": "None", "logo": "None", "latitude": 49.28107458090486, "longitude": -123.10442464770009}, "107631368RR0001": {"name": "CONNECT CHURCH SOCIETY", "designationCode": "C", "categoryCode": "39", "address": "103A - 31120 PEARDONVILLE ROAD", "city": "ABBOTSFORD", "province": "BC", "country": "CA", "postalCode": "V2T6K7", "twitter": "None", "instagram": "None", "facebook": "None", "youtube": "None", "website": "None", "summary": "None", "logo": "None", "latitude": 49.045952495672175, "longitude": -122.36230149861503}, "131401168RR0001": {"name": "CONNECT EMPLOYMENT SERVICES INC.", "designationCode": "C", "categoryCode": "09", "address": "188 GOULET ST", "city": "WINNIPEG", "province": "MB", "country": "CA", "postalCode": "R2H0R8", "twitter": "None", "instagram": "None", "facebook": "None", "youtube": "None", "website": "None", "summary": "None", "logo": "None", "latitude": 49.88243553563412, "longitude": -97.1199828337469}, "106732092RR0001": {"name": "CONNECT SOCIETY - DEAFNESS, EDUCATION, ADVOCACY & FAMILY SERVICES", "designationCode": "C", "categoryCode": "11", "address": "6240-113 STREET", "city": "EDMONTON", "province": "AB", "country": "CA", "postalCode": "T6H3L2", "twitter": "None", "instagram": "None", "facebook": "None", "youtube": "None", "website": "None", "summary": "None", "logo": "None", "latitude": 53.49892280066808, "longitude": -113.52285148480861}, "855420147RR0001": {"name": "CONNECT YOUTH INC.", "designationCode": "C", "categoryCode": "09", "address": "S GRENVILLE DIST HIGH SCHOOL  100 EDWARD ST P.O BOX 1307", "city": "PRESCOTT", "province": "ON", "country": "CA", "postalCode": "K0E1T0", "twitter": "None", "instagram": "None", "facebook": "None", "youtube": "None", "website": "None", "summary": "None", "logo": "None", "latitude": 44.710097364138335, "longitude": -75.512378349358}, "880469218RR0001": {"name": "CONNECTION TO FREEDOM JAIL AND STREET OUTREACH SOCIETY", "designationCode": "C", "categoryCode": "11", "address": "854 PHOENIX ST", "city": "VICTORIA", "province": "BC", "country": "CA", "postalCode": "V9A5T7", "twitter": "None", "instagram": "None", "facebook": "None", "youtube": "None", "website": "None", "summary": "None", "logo": "None", "latitude": 48.43942275437129, "longitude": -123.39708139607009}, "890700347RR0001": {"name": "CONNECTIONS COUNSELLING AND CONSULTING FOUNDATION", "designationCode": "B", "categoryCode": "09", "address": "510 - 1716 16 AVE NW", "city": "CALGARY", "province": "AB", "country": "CA", "postalCode": "T2M0L7", "twitter": "None", "instagram": "None", "facebook": "None", "youtube": "None", "website": "None", "summary": "None", "logo": "None", "latitude": 51.06706350764605, "longitude": -114.10065072300767}, "128534765RR0001": {"name": "CONNEXION EMPLOI RESSOURCES FEMMES", "designationCode": "C", "categoryCode": "59", "address": "1201 RUE CHARLES-RODRIGUE", "city": "LEVIS", "province": "QC", "country": "CA", "postalCode": "G6W0N1", "twitter": "None", "instagram": "None", "facebook": "None", "youtube": "None", "website": "None", "summary": "None", "logo": "None", "latitude": 46.786376193296796, "longitude": -71.18221569743656}, "887973048RR0001": {"name": "CONNEXION JUSTICE SOCIALE / SOCIAL JUSTICE CONNECTION", "designationCode": "C", "categoryCode": "59", "address": "1857 BOUL. DE MAISONNEUVE O   SUITE 320", "city": "MONTREAL", "province": "QC", "country": "CA", "postalCode": "H3H1J9", "twitter": "None", "instagram": "None", "facebook": "None", "youtube": "None", "website": "None", "summary": "None", "logo": "None"}, "866144702RR0001": {"name": "CONNEXIONS FDV /CONNECTIONS FDV", "designationCode": "C", "categoryCode": "39", "address": "3502, RUE DE LYON", "city": "LONGUEUIL", "province": "QC", "country": "CA", "postalCode": "J4L4K6", "twitter": "None", "instagram": "None", "facebook": "None", "youtube": "None", "website": "None", "summary": "None", "logo": "None", "latitude": 45.51046555395599, "longitude": -73.44788099847078}, "898708409RR0001": {"name": "CONNEXIONS MINISTRIES OF CANADA INC.", "designationCode": "B", "categoryCode": "39", "address": "4580 DUFFERIN ST. SUITE 501", "city": "TORONTO", "province": "ON", "country": "CA", "postalCode": "M3H5Y2", "twitter": "None", "instagram": "None", "facebook": "None", "youtube": "None", "website": "None", "summary": "None", "logo": "None", "latitude": 43.769752994719894, "longitude": -79.46715846341358}, "118874312RR0001": {"name": "CONNORS HILL GOSPEL HALL", "designationCode": "C", "categoryCode": "39", "address": "954 RICE ROAD", "city": "EDMONTON", "province": "AB", "country": "CA", "postalCode": "T6R1A1", "twitter": "None", "instagram": "None", "facebook": "None", "youtube": "None", "website": "None", "summary": "None", "logo": "None", "latitude": 53.478660099659386, "longitude": -113.58889428201265}, "868548306RR0001": {"name": "CONOR MILLAR MEMORIAL SCHOLARSHIP FUND INC.", "designationCode": "C", "categoryCode": "21", "address": "650-333 25TH ST E", "city": "SASKATOON", "province": "SK", "country": "CA", "postalCode": "S7K0L4", "twitter": "None", "instagram": "None", "facebook": "None", "youtube": "None", "website": "None", "summary": "None", "logo": "None", "latitude": 52.13312100000001, "longitude": -106.65954675}, "118874353RR0001": {"name": "CONQUERALL BANK FIRE DEPARTMENT", "designationCode": "C", "categoryCode": "59", "address": "2228 CONQUERALL RD", "city": "CONQUERALL BANK", "province": "NS", "country": "CA", "postalCode": "B4V0J7", "twitter": "None", "instagram": "None", "facebook": "None", "youtube": "None", "website": "None", "summary": "None", "logo": "None", "latitude": 44.358131715217404, "longitude": -64.46269748551596}, "118874411RR0001": {"name": "CONRAD GREBEL UNIVERSITY COLLEGE", "designationCode": "C", "categoryCode": "20", "address": "140 WESTMOUNT RD NORTH", "city": "WATERLOO", "province": "ON", "country": "CA", "postalCode": "N2L3G6", "twitter": "None", "instagram": "None", "facebook": "None", "youtube": "None", "website": "None", "summary": "None", "logo": "None", "latitude": 43.465611731757114, "longitude": -80.54457678428436}, "118874437RR0001": {"name": "CONSECON PASTORAL CHARGE", "designationCode": "C", "categoryCode": "44", "address": "BOX 21", "city": "CONSECON", "province": "ON", "country": "CA", "postalCode": "K0K1T0", "twitter": "None", "instagram": "None", "facebook": "None", "youtube": "None", "website": "None", "summary": "None", "logo": "None", "latitude": 43.95994425935102, "longitude": -77.35752987765406}, "881276497RR0001": {"name": "CONSEIL CANADIEN DES AVEUGLES DE LONGUEUIL", "designationCode": "C", "categoryCode": "09", "address": "1255 BEAUREGARD", "city": "LONGUEUIL", "province": "QC", "country": "CA", "postalCode": "J4K2M3", "twitter": "None", "instagram": "None", "facebook": "None", "youtube": "None", "website": "None", "summary": "None", "logo": "None", "latitude": 45.510308757718164, "longitude": -73.48676269669305}, "861162006RR0001": {"name": "CONSEIL CANADIEN DES AVEUGLES DU QUEBEC - REGION DRUMMOND INC.", "designationCode": "C", "categoryCode": "09", "address": "605, RUE MELANCON", "city": "DRUMMONDVILLE", "province": "QC", "country": "CA", "postalCode": "J2C4S2", "twitter": "None", "instagram": "None", "facebook": "None", "youtube": "None", "website": "None", "summary": "None", "logo": "None", "latitude": 45.876629524294465, "longitude": -72.49431090135022}, "888735925RR0001": {"name": "CONSEIL CANADIEN DU RENOUVEAU CHARISMATIQUE (CCRC)", "designationCode": "C", "categoryCode": "47", "address": "1073 BOUL RENE-LEVESQUE OUEST", "city": "QU\u00c9BEC", "province": "QC", "country": "CA", "postalCode": "G1S4R5", "twitter": "None", "instagram": "None", "facebook": "None", "youtube": "None", "website": "None", "summary": "None", "logo": "None", "latitude": 46.79480836547074, "longitude": -71.24324980090242}, "107766131RR0001": {"name": "CONSEIL COMMUNAUTAIRE NOTRE-DAME-DE-GRACE INC.", "designationCode": "C", "categoryCode": "56", "address": "5964 AVE NOTRE-DAME-DE-GRACE  SUITE 204", "city": "MONTREAL", "province": "QC", "country": "CA", "postalCode": "H4A1N1", "twitter": "None", "instagram": "None", "facebook": "None", "youtube": "None", "website": "None", "summary": "None", "logo": "None", "latitude": 45.469622410756614, "longitude": -73.62215713693828}, "897529152RR0001": {"name": "CONSEIL D'ALPHAB\u00c9TISATION LAURENTIEN INC. LAURENTIAN LITERACY COUNCIL INC.", "designationCode": "C", "categoryCode": "21", "address": "505, AV. BETHANY, PORTE 302", "city": "LACHUTE", "province": "QC", "country": "CA", "postalCode": "J8H4A6", "twitter": "None", "instagram": "None", "facebook": "None", "youtube": "None", "website": "None", "summary": "None", "logo": "None", "latitude": 45.63761963092684, "longitude": -74.32708035442741}, "893419366RR0001": {"name": "CONSEIL D'ALPHABETISATION - TORONTO INC.", "designationCode": "C", "categoryCode": "21", "address": "90 RICHMOND ST STE 302", "city": "TORONTO", "province": "ON", "country": "CA", "postalCode": "M5C1P1", "twitter": "None", "instagram": "None", "facebook": "None", "youtube": "None", "website": "None", "summary": "None", "logo": "None", "latitude": 43.65267715794321, "longitude": -79.37454768096826}, "890850548RR0001": {"name": "CONSEIL D'ALPHABETISATION DE L'OUEST DU QUEBEC/THE WESTERN QUEBEC LITERACY COUNCIL", "designationCode": "C", "categoryCode": "20", "address": "106 FRONT ST                  PO BOX 158", "city": "CAMPBELL'S BAY", "province": "QC", "country": "CA", "postalCode": "J0X1K0", "twitter": "None", "instagram": "None", "facebook": "None", "youtube": "None", "website": "None", "summary": "None", "logo": "None", "latitude": 45.7323355206878, "longitude": -76.60092445749923}, "132712241RR0001": {"name": "CONSEIL D'INTERVENTION POUR L'ACCES DES FEMMES AU TRAVAIL (CIAFT) DU QUEBEC INC", "designationCode": "C", "categoryCode": "29", "address": "307 - 469 RUE JEAN-TALON O", "city": "MONTREAL", "province": "QC", "country": "CA", "postalCode": "H3N1R4", "twitter": "None", "instagram": "None", "facebook": "None", "youtube": "None", "website": "None", "summary": "None", "logo": "None", "latitude": 45.52880036291907, "longitude": -73.62317347366287}, "819170341RR0001": {"name": "CONSEIL DE BASSIN DE LA RIVIERE DU CAP ROUGE", "designationCode": "C", "categoryCode": "52", "address": "4473 RUE SAINT-FELIX", "city": "QUEBEC", "province": "QC", "country": "CA", "postalCode": "G1Y3A6", "twitter": "None", "instagram": "None", "facebook": "None", "youtube": "None", "website": "None", "summary": "None", "logo": "None", "latitude": 46.741389298892194, "longitude": -71.35496781995536}, "101098234RR0001": {"name": "CONSEIL DE DEVELOPPEMENT DU LOISIR SCIENTIFIQUE", "designationCode": "C", "categoryCode": "21", "address": "4545 PIERRE-DE-COUBERTIN", "city": "MONTREAL", "province": "QC", "country": "CA", "postalCode": "H1V0B2", "twitter": "None", "instagram": "None", "facebook": "None", "youtube": "None", "website": "None", "summary": "None", "logo": "None", "latitude": 45.555920590080106, "longitude": -73.55036240097485}, "122864804RR0001": {"name": "CONSEIL DE DISTRICT CATHOLIQUE DU CENTRE-EST DE L'ONTARIO", "designationCode": "C", "categoryCode": "20", "address": "4000 RUE LABELLE", "city": "GLOUCESTER", "province": "ON", "country": "CA", "postalCode": "K1J1A1", "twitter": "None", "instagram": "None", "facebook": "None", "youtube": "None", "website": "None", "summary": "None", "logo": "None", "latitude": 45.42189952063049, "longitude": -75.63337897293557}, "106969207RR0001": {"name": "CONSEIL DE LA CULTURE DE L'ABITIBI-TEMISCAMINGUE", "designationCode": "C", "categoryCode": "22", "address": "150 AVENUE DU LAC", "city": "ROUYN-NORANDA", "province": "QC", "country": "CA", "postalCode": "J9X4N5", "twitter": "None", "instagram": "None", "facebook": "None", "youtube": "None", "website": "None", "summary": "None", "logo": "None", "latitude": 48.239306707455796, "longitude": -79.01779522817223}, "118874510RR0001": {"name": "CONSEIL DE LA CULTURE DE L'ESTRIE", "designationCode": "C", "categoryCode": "22", "address": "17 BELV\u00c9D\u00c8RE NORD", "city": "SHERBROOKE", "province": "QC", "country": "CA", "postalCode": "J1H4A7", "twitter": "None", "instagram": "None", "facebook": "None", "youtube": "None", "website": "None", "summary": "None", "logo": "None", "latitude": 45.39894547348382, "longitude": -71.89700156650677}, "123440372RR0001": {"name": "CONSEIL DE LA CULTURE DES LAURENTIDES", "designationCode": "C", "categoryCode": "22", "address": "400-223 RUE SAINT-GEORGES", "city": "ST-JEROME", "province": "QC", "country": "CA", "postalCode": "J7Z5A1", "twitter": "None", "instagram": "None", "facebook": "None", "youtube": "None", "website": "None", "summary": "None", "logo": "None", "latitude": 45.774194468780635, "longitude": -74.00273667926616}, "107766164RR0001": {"name": "CONSEIL DES AINES ET DES AINEES DE N.D.G. INC.- N.D.G. SENIOR CITIZENS' COUNCIL INC.", "designationCode": "C", "categoryCode": "09", "address": "88 BALLANTYNE AVE. N.", "city": "MONTREAL WEST", "province": "QC", "country": "CA", "postalCode": "H4X2B8", "twitter": "None", "instagram": "None", "facebook": "None", "youtube": "None", "website": "None", "summary": "None", "logo": "None", "latitude": 45.454003439898514, "longitude": -73.64647416431984}}