{"119142271RR0001": {"name": "Scarborough and Rouge Hospital", "designationCode": "C", "categoryCode": "10", "address": "3050 LAWRENCE AVE E", "city": "SCARBOROUGH", "province": "ON", "country": "CA", "postalCode": "M1P2V5", "twitter": "None", "instagram": "None", "facebook": "None", "youtube": "None", "website": "None", "summary": "None", "logo": "None", "latitude": 43.75524318520918, "longitude": -79.24708716420427}, "119142263RR0001": {"name": "Scarborough and Rouge Hospital Foundation", "designationCode": "A", "categoryCode": "11", "address": "108 - 3030 LAWRENCE AVE E", "city": "SCARBOROUGH", "province": "ON", "country": "CA", "postalCode": "M1P2T7", "twitter": "None", "instagram": "None", "facebook": "None", "youtube": "None", "website": "None", "summary": "None", "logo": "None", "latitude": 43.753936499999995, "longitude": -79.25329575}, "130364276RR0001": {"name": "Scarborough Centre for Healthy Communities", "designationCode": "C", "categoryCode": "59", "address": "2 - 629 MARKHAM RD", "city": "SCARBOROUGH", "province": "ON", "country": "CA", "postalCode": "M1H2A4", "twitter": "None", "instagram": "None", "facebook": "None", "youtube": "None", "website": "None", "summary": "None", "logo": "None", "latitude": 43.7604403748056, "longitude": -79.22549703623059}, "894945633RR0071": {"name": "Scarborough Community Alliance Church of the Christian and Missionary Alliance in Canada", "designationCode": "C", "categoryCode": "39", "address": "135 SILVER STAR BOULEVARD", "city": "TORONTO", "province": "ON", "country": "CA", "postalCode": "M1V4V8", "twitter": "None", "instagram": "None", "facebook": "None", "youtube": "None", "website": "None", "summary": "None", "logo": "None", "latitude": 43.80734203303704, "longitude": -79.29217114040074}, "816613087RR0001": {"name": "Scarborough Family Christian Church (SFCC)", "designationCode": "C", "categoryCode": "39", "address": "43 TINBURY PLACE", "city": "SCARBOROUGH", "province": "ON", "country": "CA", "postalCode": "M1B1J7", "twitter": "None", "instagram": "None", "facebook": "None", "youtube": "None", "website": "None", "summary": "None", "logo": "None", "latitude": 43.79441011241268, "longitude": -79.22490994212022}, "119288918RR1714": {"name": "Scarborough Iloko Congregation of Jehovah's Witnesses", "designationCode": "C", "categoryCode": "61", "address": "701 ELLESMERE RD", "city": "SCARBOROUGH", "province": "ON", "country": "CA", "postalCode": "M1P2W1", "twitter": "None", "instagram": "None", "facebook": "None", "youtube": "None", "website": "None", "summary": "None", "logo": "None", "latitude": 43.763910896445466, "longitude": -79.28908519135561}, "823061767RR0001": {"name": "Scarborough Mandarin Christian Church", "designationCode": "C", "categoryCode": "39", "address": "38 COURVILLE COACHWAY,", "city": "NORTH YORK", "province": "ON", "country": "CA", "postalCode": "M2J3V5", "twitter": "None", "instagram": "None", "facebook": "None", "youtube": "None", "website": "None", "summary": "None", "logo": "None", "latitude": 43.79312611962603, "longitude": -79.33871209062835}, "865937809RR0001": {"name": "Scarborough Music Theatre Inc.", "designationCode": "C", "categoryCode": "22", "address": "25 EAGLEWOOD BLVD", "city": "MISSISSAUGA", "province": "ON", "country": "CA", "postalCode": "L5G1V5", "twitter": "None", "instagram": "None", "facebook": "None", "youtube": "None", "website": "None", "summary": "None", "logo": "None", "latitude": 43.55940298141834, "longitude": -79.58609334987574}, "119288918RR1641": {"name": "Scarborough Tagalog Congregation of Jehovah's Witnesses, Toronto, Ontario", "designationCode": "C", "categoryCode": "61", "address": "701 ELLESMERE ROAD", "city": "SCARBOROUGH", "province": "ON", "country": "CA", "postalCode": "M1P2M1", "twitter": "None", "instagram": "None", "facebook": "None", "youtube": "None", "website": "None", "summary": "None", "logo": "None", "latitude": 43.763910896445466, "longitude": -79.28908519135561}, "834665283RR0001": {"name": "Scaredy Cat Rescue", "designationCode": "C", "categoryCode": "54", "address": "69 PRATT ST", "city": "CORNER BROOK", "province": "NL", "country": "CA", "postalCode": "A2H7E1", "twitter": "None", "instagram": "None", "facebook": "None", "youtube": "None", "website": "None", "summary": "None", "logo": "None", "latitude": 48.9298345944948, "longitude": -57.93757845640425}, "787247725RR0001": {"name": "Scharaf Family Charitable Trust", "designationCode": "B", "categoryCode": "05", "address": "134 CEDAR COVE", "city": "WHITE LAKE", "province": "ON", "country": "CA", "postalCode": "K0A3L0", "twitter": "None", "instagram": "None", "facebook": "None", "youtube": "None", "website": "None", "summary": "None", "logo": "None", "latitude": 45.261992538952335, "longitude": -76.5054388082117}, "801288929RR0001": {"name": "Schinkels Legacy Foundation", "designationCode": "B", "categoryCode": "03", "address": "9104 MCDOWELL LINE,", "city": "CHATHAM", "province": "ON", "country": "CA", "postalCode": "N7M5J4", "twitter": "None", "instagram": "None", "facebook": "None", "youtube": "None", "website": "None", "summary": "None", "logo": "None", "latitude": 42.41820925976698, "longitude": -82.16159077433792}, "738610120RR0001": {"name": "Schlegel Villages Benevolent Fund", "designationCode": "B", "categoryCode": "03", "address": "201 - 325 MAX BECKER DR", "city": "KITCHENER", "province": "ON", "country": "CA", "postalCode": "N2E4H5", "twitter": "None", "instagram": "None", "facebook": "None", "youtube": "None", "website": "None", "summary": "None", "logo": "None", "latitude": 43.40526405020508, "longitude": -80.50102470090624}, "878679729RR0001": {"name": "Schlegel Villages Charitable Foundation", "designationCode": "C", "categoryCode": "10", "address": "201-325 MAX BECKER DR", "city": "KITCHENER", "province": "ON", "country": "CA", "postalCode": "N2E4H5", "twitter": "None", "instagram": "None", "facebook": "None", "youtube": "None", "website": "None", "summary": "None", "logo": "None", "latitude": 43.40526405020508, "longitude": -80.50102470090624}, "717231526RR0001": {"name": "Schmelke Family Charitable Foundation", "designationCode": "B", "categoryCode": "03", "address": "4554 2ND AVE W", "city": "VANCOUVER", "province": "BC", "country": "CA", "postalCode": "V6R1K8", "twitter": "None", "instagram": "None", "facebook": "None", "youtube": "None", "website": "None", "summary": "None", "logo": "None", "latitude": 49.271335513994046, "longitude": -123.20992311226846}, "826519274RR0001": {"name": "Scholarship Foundation of the Pacific", "designationCode": "C", "categoryCode": "21", "address": "BOX 505", "city": "LITTLE FORT", "province": "BC", "country": "CA", "postalCode": "V0E2C0", "twitter": "None", "instagram": "None", "facebook": "None", "youtube": "None", "website": "None", "summary": "None", "logo": "None", "latitude": 51.42637000000008, "longitude": -120.21096999999997}, "821058054RR0001": {"name": "Scholarship Trust Fund under the will of Marial Laura Morse Mosher", "designationCode": "B", "categoryCode": "25", "address": "(THE CANADA TRUST CO.)        PO BOX 10085", "city": "VANCOUVER", "province": "BC", "country": "CA", "postalCode": "V7Y1B6", "twitter": "None", "instagram": "None", "facebook": "None", "youtube": "None", "website": "None", "summary": "None", "logo": "None", "latitude": 49.28294993392596, "longitude": -123.11892994113924}, "805195377RR0001": {"name": "Scholarship/Bursary for Indigenous Students in the Neuland Settlement Region of the Chaco of Paraguay (SBISNSRCP)", "designationCode": "C", "categoryCode": "21", "address": "117 RALSTON PLACE", "city": "WATERLOO", "province": "ON", "country": "CA", "postalCode": "N2T1C7", "twitter": "None", "instagram": "None", "facebook": "None", "youtube": "None", "website": "None", "summary": "None", "logo": "None", "latitude": 43.45445531279931, "longitude": -80.56296032151323}, "842866006RR0001": {"name": "Scholmark Foundation", "designationCode": "A", "categoryCode": "03", "address": "2400 - 333 BAY ST", "city": "TORONTO", "province": "ON", "country": "CA", "postalCode": "M5H2T6", "twitter": "None", "instagram": "None", "facebook": "None", "youtube": "None", "website": "None", "summary": "None", "logo": "None", "latitude": 43.65025349737428, "longitude": -79.38084819908858}, "830245411RR0001": {"name": "School for Kids in Laos Inc.", "designationCode": "C", "categoryCode": "21", "address": "245 THOMAS BERRY STREET", "city": "WINNIPEG", "province": "MB", "country": "CA", "postalCode": "R2H0R2", "twitter": "None", "instagram": "None", "facebook": "None", "youtube": "None", "website": "None", "summary": "None", "logo": "None", "latitude": 49.88350251875455, "longitude": -97.11698314071786}, "827301672RR0001": {"name": "School of the Photographic Arts: Ottawa", "designationCode": "C", "categoryCode": "20", "address": "77 PAMILLA ST", "city": "OTTAWA", "province": "ON", "country": "CA", "postalCode": "K1S3K7", "twitter": "None", "instagram": "None", "facebook": "None", "youtube": "None", "website": "None", "summary": "None", "logo": "None", "latitude": 45.39954586262902, "longitude": -75.70800174369546}, "834047730RR0001": {"name": "School of Dread Champions", "designationCode": "C", "categoryCode": "49", "address": "30 PARKVIEW BLVD", "city": "WHITBY", "province": "ON", "country": "CA", "postalCode": "L1N3M7", "twitter": "None", "instagram": "None", "facebook": "None", "youtube": "None", "website": "None", "summary": "None", "logo": "None", "latitude": 43.902580136303115, "longitude": -78.91219030864438}, "107961344RR0001": {"name": "School District No. 40 (New Westminster)", "designationCode": "C", "categoryCode": "20", "address": "811 ONTARIO ST", "city": "NEW WESTMINSTER", "province": "BC", "country": "CA", "postalCode": "V3M0J7", "twitter": "None", "instagram": "None", "facebook": "None", "youtube": "None", "website": "None", "summary": "None", "logo": "None", "latitude": 49.20357447300803, "longitude": -122.91537302699199}, "801616319RR0001": {"name": "School Orchards Africa Society", "designationCode": "C", "categoryCode": "21", "address": "331 FESTUBERT ST", "city": "DUNCAN", "province": "BC", "country": "CA", "postalCode": "V9L3T1", "twitter": "None", "instagram": "None", "facebook": "None", "youtube": "None", "website": "None", "summary": "None", "logo": "None", "latitude": 48.77754316763807, "longitude": -123.70209415531748}, "836461665RR0001": {"name": "Schools for South Sudan", "designationCode": "C", "categoryCode": "20", "address": "40 APPLEBY DR", "city": "ROTHESAY", "province": "NB", "country": "CA", "postalCode": "E2H1P2", "twitter": "None", "instagram": "None", "facebook": "None", "youtube": "None", "website": "None", "summary": "None", "logo": "None", "latitude": 45.36654626031523, "longitude": -66.01098979239998}, "829955657RR0001": {"name": "Schools Building Schools", "designationCode": "C", "categoryCode": "01", "address": "3934 PANDORA ST", "city": "BURNABY", "province": "BC", "country": "CA", "postalCode": "V5C2A7", "twitter": "None", "instagram": "None", "facebook": "None", "youtube": "None", "website": "None", "summary": "None", "logo": "None", "latitude": 49.282855513994036, "longitude": -123.01791219317329}, "812231678RR0001": {"name": "Schwartz / Reisman Centre", "designationCode": "C", "categoryCode": "56", "address": "4600 BATHURST STREET          SUITE 500", "city": "TORONTO", "province": "ON", "country": "CA", "postalCode": "M2R3V2", "twitter": "None", "instagram": "None", "facebook": "None", "youtube": "None", "website": "None", "summary": "None", "logo": "None", "latitude": 43.764549213428396, "longitude": -79.4407190577642}, "828722132RR0001": {"name": "Science of the Soul Study Centre Canada Inc. / Centre d'\u00e9 tude de la science de l'\u00e2me", "designationCode": "C", "categoryCode": "35", "address": "6566 SIXTH LINE", "city": "MILTON", "province": "ON", "country": "CA", "postalCode": "L9E0X7", "twitter": "None", "instagram": "None", "facebook": "None", "youtube": "None", "website": "None", "summary": "None", "logo": "None", "latitude": 43.54072730407344, "longitude": -79.81228759072135}, "817023260RR0001": {"name": "Science on Stage Canada", "designationCode": "C", "categoryCode": "21", "address": "429 RUE ESTHER-BLONDIN", "city": "VAUDREUIL-DORION", "province": "QC", "country": "CA", "postalCode": "J7V2R2", "twitter": "None", "instagram": "None", "facebook": "None", "youtube": "None", "website": "None", "summary": "None", "logo": "None", "latitude": 45.39948485374223, "longitude": -74.02840965540439}, "815251798RR0001": {"name": "Science FUNdamentals Foundation of Alberta", "designationCode": "C", "categoryCode": "21", "address": "8900 114 STREET", "city": "EDMONTON", "province": "AB", "country": "CA", "postalCode": "T6G2J7", "twitter": "None", "instagram": "None", "facebook": "None", "youtube": "None", "website": "None", "summary": "None", "logo": "None", "latitude": 53.52455561556965, "longitude": -113.52562974368432}, "842484453RR0001": {"name": "Science Media Centre of Canada / Centre Canadien Sciences et Medias", "designationCode": "C", "categoryCode": "21", "address": "300 - 881 LADY ELLEN PL", "city": "OTTAWA", "province": "ON", "country": "CA", "postalCode": "K1Z5L3", "twitter": "None", "instagram": "None", "facebook": "None", "youtube": "None", "website": "None", "summary": "None", "logo": "None", "latitude": 45.37906331891616, "longitude": -75.74257607600009}, "129578514RR0001": {"name": "Scl\u00e9rose en plaques Haute-Yamaska-Richelieu", "designationCode": "C", "categoryCode": "11", "address": "24 RUE SAINT-JOSEPH", "city": "GRANBY", "province": "QC", "country": "CA", "postalCode": "J2G6T6", "twitter": "None", "instagram": "None", "facebook": "None", "youtube": "None", "website": "None", "summary": "None", "logo": "None", "latitude": 45.399595687812834, "longitude": -72.72806822943724}, "869588772RR0001": {"name": "Scleroderma Canada", "designationCode": "C", "categoryCode": "11", "address": "41 KING WILLIAM ST. SUITE 206", "city": "HAMILTON", "province": "ON", "country": "CA", "postalCode": "L8R1A2", "twitter": "None", "instagram": "None", "facebook": "None", "youtube": "None", "website": "None", "summary": "None", "logo": "None", "latitude": 43.25714476048813, "longitude": -79.86720524617697}, "841682818RR0001": {"name": "Scleroderma Society of Ontario", "designationCode": "C", "categoryCode": "11", "address": "202 - 41 KING WILLIAM ST", "city": "HAMILTON", "province": "ON", "country": "CA", "postalCode": "L8R1A2", "twitter": "None", "instagram": "None", "facebook": "None", "youtube": "None", "website": "None", "summary": "None", "logo": "None", "latitude": 43.25714476048813, "longitude": -79.86720524617697}, "820732154RR0001": {"name": "Scotch Line Cemetery", "designationCode": "C", "categoryCode": "59", "address": "164 ALTHORPE ROAD             RR#7", "city": "PERTH", "province": "ON", "country": "CA", "postalCode": "K7H3C9", "twitter": "None", "instagram": "None", "facebook": "None", "youtube": "None", "website": "None", "summary": "None", "logo": "None", "latitude": 44.825044868721136, "longitude": -76.39026304343612}, "808525968RR0001": {"name": "Scotch Settlement Cemetery Company Ltd.", "designationCode": "C", "categoryCode": "59", "address": "684 SCOTCH SETTLEMENT RD", "city": "SCOTCH SETTLEMENT", "province": "NB", "country": "CA", "postalCode": "E1H1Y4", "twitter": "None", "instagram": "None", "facebook": "None", "youtube": "None", "website": "None", "summary": "None", "logo": "None", "latitude": 46.241284761382154, "longitude": -64.74487017626133}, "119288918RR1598": {"name": "Scott Congregation of Jehovah's Witnesses, Surrey, British Columbia", "designationCode": "C", "categoryCode": "61", "address": "8130 157A ST", "city": "SURREY", "province": "BC", "country": "CA", "postalCode": "V4N0S5", "twitter": "None", "instagram": "None", "facebook": "None", "youtube": "None", "website": "None", "summary": "None", "logo": "None", "latitude": 49.150612288649086, "longitude": -122.78559065208617}, "119288918RR1680": {"name": "Scott Hindi Congregation of Jehovah's Witnesses, Surrey, British Columbia", "designationCode": "C", "categoryCode": "61", "address": "11955 90 AVE", "city": "DELTA", "province": "BC", "country": "CA", "postalCode": "V4C3H5", "twitter": "None", "instagram": "None", "facebook": "None", "youtube": "None", "website": "None", "summary": "None", "logo": "None", "latitude": 49.16691247936953, "longitude": -122.89175991618097}, "839194453RR0001": {"name": "Scottish Clans of Canada Education Fund", "designationCode": "C", "categoryCode": "21", "address": "159 PLEASANT DR.              RR2 PICTOU", "city": "LYONS BROOK", "province": "NS", "country": "CA", "postalCode": "B0K1H0", "twitter": "None", "instagram": "None", "facebook": "None", "youtube": "None", "website": "None", "summary": "None", "logo": "None", "latitude": 45.645210800941015, "longitude": -62.80540761956778}, "874856461RR0001": {"name": "Scout Properties (B.C./Yukon)", "designationCode": "C", "categoryCode": "29", "address": "300 - 3665 KINGSWAY", "city": "VANCOUVER", "province": "BC", "country": "CA", "postalCode": "V5R5W2", "twitter": "None", "instagram": "None", "facebook": "None", "youtube": "None", "website": "None", "summary": "None", "logo": "None", "latitude": 49.232301482687745, "longitude": -123.02414490758262}, "107761694RR0028": {"name": "Scouts Canada", "designationCode": "C", "categoryCode": "29", "address": "1345 BASELINE RD.", "city": "OTTAWA", "province": "ON", "country": "CA", "postalCode": "K2C0A7", "twitter": "None", "instagram": "None", "facebook": "None", "youtube": "None", "website": "None", "summary": "None", "logo": "None", "latitude": 45.36323425483263, "longitude": -75.73574151710977}, "107761694RR0194": {"name": "Scouts Canada - Tri-Shores Region", "designationCode": "C", "categoryCode": "29", "address": "531 WINDERMERE ROAD", "city": "LONDON", "province": "ON", "country": "CA", "postalCode": "N5X2T1", "twitter": "None", "instagram": "None", "facebook": "None", "youtube": "None", "website": "None", "summary": "None", "logo": "None", "latitude": 43.01890216175238, "longitude": -81.26344331401141}, "107761694RR0020": {"name": "Scouts Canada -Northern Lights Council", "designationCode": "C", "categoryCode": "29", "address": "14205 109 TH AVENUE", "city": "EDMONTON", "province": "AB", "country": "CA", "postalCode": "T5N1H5", "twitter": "None", "instagram": "None", "facebook": "None", "youtube": "None", "website": "None", "summary": "None", "logo": "None", "latitude": 53.55412951399404, "longitude": -113.5664232485429}, "107761694RR0204": {"name": "Scouts Canada Voyageur Council", "designationCode": "C", "categoryCode": "29", "address": "1345 BASELINE ROAD            SUITE 200", "city": "OTTAWA", "province": "ON", "country": "CA", "postalCode": "K2C0A7", "twitter": "None", "instagram": "None", "facebook": "None", "youtube": "None", "website": "None", "summary": "None", "logo": "None", "latitude": 45.36323425483263, "longitude": -75.73574151710977}, "107761694RR0205": {"name": "Scouts Canada White Pine Council", "designationCode": "C", "categoryCode": "29", "address": "10 KODIAK CRES", "city": "NORTH YORK", "province": "ON", "country": "CA", "postalCode": "M3J3G5", "twitter": "None", "instagram": "None", "facebook": "None", "youtube": "None", "website": "None", "summary": "None", "logo": "None", "latitude": 43.75254960202533, "longitude": -79.46610633461229}, "819604158RR0001": {"name": "Scouts Marins du Grand Montr\u00e9al", "designationCode": "C", "categoryCode": "29", "address": "2345 AV RAYMOND", "city": "SAINT-HYACINTHE", "province": "QC", "country": "CA", "postalCode": "J2S5W2", "twitter": "None", "instagram": "None", "facebook": "None", "youtube": "None", "website": "None", "summary": "None", "logo": "None", "latitude": 45.62805589618566, "longitude": -72.95822946921331}, "839087541RR0001": {"name": "Scrap Cars not Kids Society", "designationCode": "C", "categoryCode": "49", "address": "PO BOX 16132                  RPO SUMAS MOUNTAIN", "city": "ABBOTSFORD", "province": "BC", "country": "CA", "postalCode": "V3G0C6", "twitter": "None", "instagram": "None", "facebook": "None", "youtube": "None", "website": "None", "summary": "None", "logo": "None", "latitude": 49.11576302439391, "longitude": -122.19183393463035}, "861728061RR0001": {"name": "Screaming Weenie Productions", "designationCode": "C", "categoryCode": "22", "address": "220-111 WEST HASTINGS STREET", "city": "VANCOUVER", "province": "BC", "country": "CA", "postalCode": "V6B1H4", "twitter": "None", "instagram": "None", "facebook": "None", "youtube": "None", "website": "None", "summary": "None", "logo": "None", "latitude": 49.282138914441255, "longitude": -123.10753795129177}, "825252315RR0001": {"name": "Scribble Me Silly Art for Kids", "designationCode": "C", "categoryCode": "09", "address": "273 MONARCH PARK AVENUE", "city": "TORONTO", "province": "ON", "country": "CA", "postalCode": "M4J4S6", "twitter": "None", "instagram": "None", "facebook": "None", "youtube": "None", "website": "None", "summary": "None", "logo": "None", "latitude": 43.687096700530894, "longitude": -79.32897722035328}, "809419344RR0001": {"name": "Scugog Council for the Arts", "designationCode": "C", "categoryCode": "22", "address": "181 PERRY STREET", "city": "PORT PERRY", "province": "ON", "country": "CA", "postalCode": "L9L1A7", "twitter": "None", "instagram": "None", "facebook": "None", "youtube": "None", "website": "None", "summary": "None", "logo": "None", "latitude": 44.10511464920064, "longitude": -78.94499972756665}, "836013714RR0001": {"name": "Sea to Sea Foundation", "designationCode": "A", "categoryCode": "03", "address": "226 MACLAREN ST", "city": "OTTAWA", "province": "ON", "country": "CA", "postalCode": "K2P0L6", "twitter": "None", "instagram": "None", "facebook": "None", "youtube": "None", "website": "None", "summary": "None", "logo": "None", "latitude": 45.416585673033765, "longitude": -75.69119006007281}, "841632953RR0001": {"name": "Sea to Sky Forestry Centre Society", "designationCode": "C", "categoryCode": "50", "address": "BOX 390 1555 PEMBERTON AVE", "city": "SQUAMISH", "province": "BC", "country": "CA", "postalCode": "V8B0A3", "twitter": "None", "instagram": "None", "facebook": "None", "youtube": "None", "website": "None", "summary": "None", "logo": "None", "latitude": 49.70193303026709, "longitude": -123.14591045948978}, "852636851RR0001": {"name": "Sea to Sky Invasive Species Council", "designationCode": "C", "categoryCode": "52", "address": "28-8119 MCKEEVERS PLACE       BOX 845", "city": "WHISTLER", "province": "BC", "country": "CA", "postalCode": "V0N1B8", "twitter": "None", "instagram": "None", "facebook": "None", "youtube": "None", "website": "None", "summary": "None", "logo": "None", "latitude": 50.1486032712076, "longitude": -122.96310314767618}, "851641605RR0001": {"name": "Seacliff Foundation", "designationCode": "B", "categoryCode": "03", "address": "305-1788 5TH AVE W", "city": "VANCOUVER", "province": "BC", "country": "CA", "postalCode": "V6J1P2", "twitter": "None", "instagram": "None", "facebook": "None", "youtube": "None", "website": "None", "summary": "None", "logo": "None", "latitude": 49.2671245100989, "longitude": -123.14515274715794}, "811730787RR0001": {"name": "Search and Rescue Dog Association of Victoria", "designationCode": "C", "categoryCode": "59", "address": "864 OLD ESQUIMALT RD", "city": "VICTORIA", "province": "BC", "country": "CA", "postalCode": "V9A4X2", "twitter": "None", "instagram": "None", "facebook": "None", "youtube": "None", "website": "None", "summary": "None", "logo": "None", "latitude": 48.432963518754555, "longitude": -123.39867133236194}, "840914550RR0001": {"name": "Seaside Community Baptist Church", "designationCode": "C", "categoryCode": "31", "address": "202 - 5288 ST MARGARETS BAY RD", "city": "UPPER TANTALLON", "province": "NS", "country": "CA", "postalCode": "B3Z2J1", "twitter": "None", "instagram": "None", "facebook": "None", "youtube": "None", "website": "None", "summary": "None", "logo": "None", "latitude": 44.692238591703614, "longitude": -63.88495370276342}, "836129205RR0001": {"name": "Seat of Honor Ministries", "designationCode": "C", "categoryCode": "39", "address": "21A BANNER RD", "city": "NEPEAN", "province": "ON", "country": "CA", "postalCode": "K2H8T3", "twitter": "None", "instagram": "None", "facebook": "None", "youtube": "None", "website": "None", "summary": "None", "logo": "None", "latitude": 45.33221518720192, "longitude": -75.78487286213701}, "846457190RR0001": {"name": "Seaway Valley Community Health Centre Inc.", "designationCode": "C", "categoryCode": "10", "address": "353 PITT STREET", "city": "CORNWALL", "province": "ON", "country": "CA", "postalCode": "K6J3R1", "twitter": "None", "instagram": "None", "facebook": "None", "youtube": "None", "website": "None", "summary": "None", "logo": "None", "latitude": 45.021043696924195, "longitude": -74.73021022534495}, "809646003RR0001": {"name": "Sechelt Groves Society", "designationCode": "C", "categoryCode": "52", "address": "7000 SECHELT INLET ROAD", "city": "SECHELT", "province": "BC", "country": "CA", "postalCode": "V0N3A4", "twitter": "None", "instagram": "None", "facebook": "None", "youtube": "None", "website": "None", "summary": "None", "logo": "None", "latitude": 49.526032958983905, "longitude": -123.75626410687977}, "889157194RR0001": {"name": "Sechelt Hospital Foundation Society", "designationCode": "A", "categoryCode": "13", "address": "PO BOX 1761", "city": "SECHELT", "province": "BC", "country": "CA", "postalCode": "V0N3A0", "twitter": "None", "instagram": "None", "facebook": "None", "youtube": "None", "website": "None", "summary": "None", "logo": "None", "latitude": 49.473460000000046, "longitude": -123.75460999999996}, "119288918RR1587": {"name": "Sechelt, British Columbia Congregation of Jehovah's Witnesses", "designationCode": "C", "categoryCode": "61", "address": "6333 JASPER ROAD", "city": "SECHELT", "province": "BC", "country": "CA", "postalCode": "V0N3A7", "twitter": "None", "instagram": "None", "facebook": "None", "youtube": "None", "website": "None", "summary": "None", "logo": "None", "latitude": 49.47144208327202, "longitude": -123.79267722738332}, "810622860RR0001": {"name": "Second Chance Bible Church", "designationCode": "C", "categoryCode": "39", "address": "PO BOX 34", "city": "TILBURY", "province": "ON", "country": "CA", "postalCode": "N0P2L0", "twitter": "None", "instagram": "None", "facebook": "None", "youtube": "None", "website": "None", "summary": "None", "logo": "None", "latitude": 42.246438000000055, "longitude": -82.43606599999994}, "835113465RR0001": {"name": "Second Chance Ministry", "designationCode": "C", "categoryCode": "09", "address": "509 LESPERANCE ROAD,", "city": "TECUMSEH", "province": "ON", "country": "CA", "postalCode": "N8N1W2", "twitter": "None", "instagram": "None", "facebook": "None", "youtube": "None", "website": "None", "summary": "None", "logo": "None", "latitude": 42.3232973684304, "longitude": -82.88920055437747}, "851167858RR0001": {"name": "Second Chance Pet Network", "designationCode": "C", "categoryCode": "54", "address": "PO BOX 343 STN MAIN", "city": "DRYDEN", "province": "ON", "country": "CA", "postalCode": "P8N2Z1", "twitter": "None", "instagram": "None", "facebook": "None", "youtube": "None", "website": "None", "summary": "None", "logo": "None", "latitude": 49.782039000000054, "longitude": -92.83759099999993}, "825174402RR0001": {"name": "Second Mile Food Bank / Banque Alimentaire Deuxi\u00e8me Chance Inc.", "designationCode": "C", "categoryCode": "09", "address": "59 CHURCH STREET", "city": "MONCTON", "province": "NB", "country": "CA", "postalCode": "E1C4Z3", "twitter": "None", "instagram": "None", "facebook": "None", "youtube": "None", "website": "None", "summary": "None", "logo": "None", "latitude": 46.0900700671706, "longitude": -64.77862641061239}, "815602131RR0001": {"name": "Second North River Baptist Church Inc.", "designationCode": "C", "categoryCode": "31", "address": "3327, RTE 112", "city": "SECOND NORTH RIVER", "province": "NB", "country": "CA", "postalCode": "E4J2T8", "twitter": "None", "instagram": "None", "facebook": "None", "youtube": "None", "website": "None", "summary": "None", "logo": "None", "latitude": 46.064295083567195, "longitude": -65.09975655940131}, "119298693RR0001": {"name": "Second Stage Housing Association of Dartmouth", "designationCode": "C", "categoryCode": "01", "address": "PO BOX 333 STN MAIN", "city": "DARTMOUTH", "province": "NS", "country": "CA", "postalCode": "B2Y3Y5", "twitter": "None", "instagram": "None", "facebook": "None", "youtube": "None", "website": "None", "summary": "None", "logo": "None", "latitude": 44.67403500000006, "longitude": -63.57535099999993}, "850857566RR0001": {"name": "Second Wind Ministries", "designationCode": "C", "categoryCode": "47", "address": "2954 SULLIVAN CRES", "city": "PRINCE GEORGE", "province": "BC", "country": "CA", "postalCode": "V2N5H6", "twitter": "None", "instagram": "None", "facebook": "None", "youtube": "None", "website": "None", "summary": "None", "logo": "None", "latitude": 53.87090250043268, "longitude": -122.78679527852152}, "795158294RR0001": {"name": "Secours Lapins Quebec Quebec Rabbit Rescue", "designationCode": "C", "categoryCode": "54", "address": "303 - 2150 BOUL SAINT-JOSEPH", "city": "LACHINE", "province": "QC", "country": "CA", "postalCode": "H8S2N7", "twitter": "None", "instagram": "None", "facebook": "None", "youtube": "None", "website": "None", "summary": "None", "logo": "None", "latitude": 45.43371403084401, "longitude": -73.68433323270253}, "835297607RR0001": {"name": "Secutor Charitable Foundation", "designationCode": "B", "categoryCode": "05", "address": "1167 CALEDONIA ROAD", "city": "TORONTO", "province": "ON", "country": "CA", "postalCode": "M6A2X1", "twitter": "None", "instagram": "None", "facebook": "None", "youtube": "None", "website": "None", "summary": "None", "logo": "None", "latitude": 43.715961449910516, "longitude": -79.46763574418641}, "835608035RR0001": {"name": "Sedin Family Foundation", "designationCode": "B", "categoryCode": "03", "address": "175-4438 10TH AVENUE WEST", "city": "VANCOUVER", "province": "BC", "country": "CA", "postalCode": "V6R4R8", "twitter": "None", "instagram": "None", "facebook": "None", "youtube": "None", "website": "None", "summary": "None", "logo": "None", "latitude": 49.26366487439966, "longitude": -123.19647424916266}, "801520198RR0001": {"name": "Seed of the Lamb Ministries, Edmonton", "designationCode": "C", "categoryCode": "39", "address": "8401 114 AVE NW", "city": "EDMONTON", "province": "AB", "country": "CA", "postalCode": "T5B0K2", "twitter": "None", "instagram": "None", "facebook": "None", "youtube": "None", "website": "None", "summary": "None", "logo": "None", "latitude": 53.56422749235396, "longitude": -113.47073966472387}, "820387140RR0001": {"name": "Seed International Mission of Canada (Seed Canada)", "designationCode": "C", "categoryCode": "47", "address": "12969 CRESCENT RD", "city": "SURREY", "province": "BC", "country": "CA", "postalCode": "V4P1J8", "twitter": "None", "instagram": "None", "facebook": "None", "youtube": "None", "website": "None", "summary": "None", "logo": "None", "latitude": 49.05468789733951, "longitude": -122.86269416657021}, "839858107RR0001": {"name": "Seed Programs Canada", "designationCode": "C", "categoryCode": "09", "address": "52 ROAD O-12 RR 1", "city": "LOMBARDY", "province": "ON", "country": "CA", "postalCode": "K0G1L0", "twitter": "None", "instagram": "None", "facebook": "None", "youtube": "None", "website": "None", "summary": "None", "logo": "None", "latitude": 44.824006827559124, "longitude": -76.08823347197237}, "823482310RR0001": {"name": "Seeds of Love and Hope International Society", "designationCode": "C", "categoryCode": "09", "address": "20496 123 AVE", "city": "MAPLE RIDGE", "province": "BC", "country": "CA", "postalCode": "V2X4A7", "twitter": "None", "instagram": "None", "facebook": "None", "youtube": "None", "website": "None", "summary": "None", "logo": "None", "latitude": 49.226254513994036, "longitude": -122.65346211226844}, "810825711RR0001": {"name": "Seeds of Promise International Child Welfare", "designationCode": "C", "categoryCode": "01", "address": "88 CAPTAIN MORGANS BLVD", "city": "NANAIMO", "province": "BC", "country": "CA", "postalCode": "V9R6R1", "twitter": "None", "instagram": "None", "facebook": "None", "youtube": "None", "website": "None", "summary": "None", "logo": "None", "latitude": 49.17868414793122, "longitude": -123.91891370370486}, "816456545RR0001": {"name": "Seeds Housing Inc.", "designationCode": "C", "categoryCode": "09", "address": "215 CANORA STREET", "city": "WINNIPEG", "province": "MB", "country": "CA", "postalCode": "R3G1T3", "twitter": "None", "instagram": "None", "facebook": "None", "youtube": "None", "website": "None", "summary": "None", "logo": "None", "latitude": 49.884605381903185, "longitude": -97.16624993378169}, "814335709RR0001": {"name": "SeedCare International Ministries", "designationCode": "C", "categoryCode": "49", "address": "203-5053 VICTORIA DR", "city": "VANCOUVER", "province": "BC", "country": "CA", "postalCode": "V5P3T9", "twitter": "None", "instagram": "None", "facebook": "None", "youtube": "None", "website": "None", "summary": "None", "logo": "None", "latitude": 49.23877469608749, "longitude": -123.06543606719927}, "813466141RR0001": {"name": "Seekers Christian Fellowship", "designationCode": "C", "categoryCode": "39", "address": "32 PIRIE DR", "city": "DUNDAS", "province": "ON", "country": "CA", "postalCode": "L9H6X6", "twitter": "None", "instagram": "None", "facebook": "None", "youtube": "None", "website": "None", "summary": "None", "logo": "None", "latitude": 43.258351325581266, "longitude": -79.98505811824106}, "847484508RR0001": {"name": "SeekersHub Toronto", "designationCode": "C", "categoryCode": "60", "address": "16 - 5650 TOMKEN RD", "city": "MISSISSAUGA", "province": "ON", "country": "CA", "postalCode": "L4W4P1", "twitter": "None", "instagram": "None", "facebook": "None", "youtube": "None", "website": "None", "summary": "None", "logo": "None", "latitude": 43.638394917248824, "longitude": -79.64830227427967}, "859804833RR0001": {"name": "Segal Centre for Performing Arts/Centre Segal des arts de lasc\u00e8ne", "designationCode": "C", "categoryCode": "22", "address": "5170 COTE STE-CATHERINE", "city": "MONTREAL", "province": "QC", "country": "CA", "postalCode": "H3W1M7", "twitter": "None", "instagram": "None", "facebook": "None", "youtube": "None", "website": "None", "summary": "None", "logo": "None", "latitude": 45.488632673322215, "longitude": -73.63627529113059}, "119070423RR0001": {"name": "Seguin Pioneer United Church", "designationCode": "C", "categoryCode": "44", "address": "56 RANKIN LAKE RD", "city": "SEGUIN", "province": "ON", "country": "CA", "postalCode": "P2A0B2", "twitter": "None", "instagram": "None", "facebook": "None", "youtube": "None", "website": "None", "summary": "None", "logo": "None", "latitude": 45.30372236943836, "longitude": -79.94656713613023}, "836517755RR0001": {"name": "Seigneurie mon toit", "designationCode": "C", "categoryCode": "09", "address": "6 ROUTE DU RANG 2", "city": "CAUSAPSCAL", "province": "QC", "country": "CA", "postalCode": "G0J1J0", "twitter": "None", "instagram": "None", "facebook": "None", "youtube": "None", "website": "None", "summary": "None", "logo": "None", "latitude": 48.36589470863827, "longitude": -67.23299760124591}, "818034134RR0001": {"name": "Seize Your Future / Ton avenir en main", "designationCode": "C", "categoryCode": "20", "address": "1514, AVE DU DOCTEUR PENFIELD 3RD FLOOR", "city": "MONTREAL", "province": "QC", "country": "CA", "postalCode": "H3B1B9", "twitter": "None", "instagram": "None", "facebook": "None", "youtube": "None", "website": "None", "summary": "None", "logo": "None", "latitude": 45.498310826533555, "longitude": -73.58501856852693}, "833094840RR0001": {"name": "Selah Fire", "designationCode": "C", "categoryCode": "39", "address": "36 MAPLE STREET", "city": "DRAYTON", "province": "ON", "country": "CA", "postalCode": "N0G1P0", "twitter": "None", "instagram": "None", "facebook": "None", "youtube": "None", "website": "None", "summary": "None", "logo": "None", "latitude": 43.74992444350312, "longitude": -80.67092327660012}, "844198812RR0001": {"name": "Selcare International", "designationCode": "C", "categoryCode": "11", "address": "P.O. BOX 726", "city": "CAMBRIDGE", "province": "ON", "country": "CA", "postalCode": "N1R5W6", "twitter": "None", "instagram": "None", "facebook": "None", "youtube": "None", "website": "None", "summary": "None", "logo": "None", "latitude": 43.36140300000005, "longitude": -80.31533299999994}, "801236522RR0001": {"name": "Selihom God's Church Calgary", "designationCode": "C", "categoryCode": "39", "address": "PO BOX 167                    1500 14 ST SW", "city": "CALGARY", "province": "AB", "country": "CA", "postalCode": "T3C1C9", "twitter": "None", "instagram": "None", "facebook": "None", "youtube": "None", "website": "None", "summary": "None", "logo": "None", "latitude": 51.039320732080775, "longitude": -114.09466623208077}, "819418831RR0001": {"name": "Selkirk Christian Chapel", "designationCode": "C", "categoryCode": "39", "address": "PO BOX 372", "city": "CAYUGA", "province": "ON", "country": "CA", "postalCode": "N0A1E0", "twitter": "None", "instagram": "None", "facebook": "None", "youtube": "None", "website": "None", "summary": "None", "logo": "None", "latitude": 43.05211602453395, "longitude": -80.02801470351909}, "781106125RR0001": {"name": "Selkirk CHurch of Christ", "designationCode": "C", "categoryCode": "39", "address": "58 ERIE ST N", "city": "SELKIRK", "province": "ON", "country": "CA", "postalCode": "N0A1P0", "twitter": "None", "instagram": "None", "facebook": "None", "youtube": "None", "website": "None", "summary": "None", "logo": "None", "latitude": 42.83584209516879, "longitude": -79.9326134781182}, "818864597RR0001": {"name": "Selkirk Gospel Chapel Inc.", "designationCode": "C", "categoryCode": "39", "address": "211 EATON AVE", "city": "SELKIRK", "province": "MB", "country": "CA", "postalCode": "R1A0W7", "twitter": "None", "instagram": "None", "facebook": "None", "youtube": "None", "website": "None", "summary": "None", "logo": "None", "latitude": 50.14263390937571, "longitude": -96.87101505937527}, "119144673RR0001": {"name": "Selkirk Pastoral Charge", "designationCode": "C", "categoryCode": "44", "address": "202 MCLEAN AVE", "city": "SELKIRK", "province": "MB", "country": "CA", "postalCode": "R1A0T6", "twitter": "None", "instagram": "None", "facebook": "None", "youtube": "None", "website": "None", "summary": "None", "logo": "None", "latitude": 50.14129669090617, "longitude": -96.87220203389357}, "823139167RR0001": {"name": "Selma Community Cemetery", "designationCode": "C", "categoryCode": "59", "address": "7815 215 HWY", "city": "MAITLAND", "province": "NS", "country": "CA", "postalCode": "B0N1T0", "twitter": "None", "instagram": "None", "facebook": "None", "youtube": "None", "website": "None", "summary": "None", "logo": "None", "latitude": 45.32093315351618, "longitude": -63.5008675256939}, "863709770RR0001": {"name": "Semiahmoo Baptist Church", "designationCode": "C", "categoryCode": "31", "address": "100-15875 20 AVENUE", "city": "SURREY", "province": "BC", "country": "CA", "postalCode": "V4A2B1", "twitter": "None", "instagram": "None", "facebook": "None", "youtube": "None", "website": "None", "summary": "None", "logo": "None", "latitude": 49.03833750764604, "longitude": -122.78267941326678}, "786796482RR0001": {"name": "Senft Family Foundation", "designationCode": "B", "categoryCode": "03", "address": "200-1111 WEST HASTINGS STREET", "city": "VANCOUVER", "province": "BC", "country": "CA", "postalCode": "V6E2J3", "twitter": "None", "instagram": "None", "facebook": "None", "youtube": "None", "website": "None", "summary": "None", "logo": "None", "latitude": 49.28806299030513, "longitude": -123.12011596390452}, "812829604RR0001": {"name": "Senior Activities for Southwest Hamilton Inc.", "designationCode": "C", "categoryCode": "09", "address": "38 1/2 CHATHAM STREET", "city": "HAMILTON", "province": "ON", "country": "CA", "postalCode": "L8P2B4", "twitter": "None", "instagram": "None", "facebook": "None", "youtube": "None", "website": "None", "summary": "None", "logo": "None", "latitude": 43.254677213436835, "longitude": -79.88781685556873}, "119145217RR0001": {"name": "Senior Citizens Organization #33 of Carrot River Inc.", "designationCode": "C", "categoryCode": "56", "address": "1021 MAIN STREET              PO BOX 578", "city": "CARROT RIVER", "province": "SK", "country": "CA", "postalCode": "S0E0L0", "twitter": "None", "instagram": "None", "facebook": "None", "youtube": "None", "website": "None", "summary": "None", "logo": "None", "latitude": 53.282591999999994, "longitude": -103.58600265143988}, "119145258RR0001": {"name": "Senior Citizens Special Services Society of West Vancouver", "designationCode": "C", "categoryCode": "09", "address": "695-21ST STREET", "city": "WEST VANCOUVER", "province": "BC", "country": "CA", "postalCode": "V7V4A7", "twitter": "None", "instagram": "None", "facebook": "None", "youtube": "None", "website": "None", "summary": "None", "logo": "None", "latitude": 49.33115077990652, "longitude": -123.16812517381221}, "898259619RR0001": {"name": "Senior Link - Independent Living Society", "designationCode": "C", "categoryCode": "09", "address": "100 - 12031 2ND AVE", "city": "RICHMOND", "province": "BC", "country": "CA", "postalCode": "V7E3L6", "twitter": "None", "instagram": "None", "facebook": "None", "youtube": "None", "website": "None", "summary": "None", "logo": "None", "latitude": 49.12601669764374, "longitude": -123.18431862346011}, "807185764RR0001": {"name": "Senior Persons Living Connected", "designationCode": "C", "categoryCode": "09", "address": "3333 FINCH AVE E", "city": "SCARBOROUGH", "province": "ON", "country": "CA", "postalCode": "M1W2R9", "twitter": "None", "instagram": "None", "facebook": "None", "youtube": "None", "website": "None", "summary": "None", "logo": "None", "latitude": 43.796452162329274, "longitude": -79.31696211030655}, "849438114RR0001": {"name": "Senior Wish Association", "designationCode": "C", "categoryCode": "09", "address": "92 COLLEGE CRESCENT", "city": "BARRIE", "province": "ON", "country": "CA", "postalCode": "L4M5C8", "twitter": "None", "instagram": "None", "facebook": "None", "youtube": "None", "website": "None", "summary": "None", "logo": "None", "latitude": 44.40920865277866, "longitude": -79.66511592936695}}