{"826332850RR0001": {"name": "Senior's and Kid's Intergenerational Programs", "designationCode": "C", "categoryCode": "09", "address": "18 MARIGOLD STREET", "city": "BRANTFORD", "province": "ON", "country": "CA", "postalCode": "N3R5W7", "twitter": "None", "instagram": "None", "facebook": "None", "youtube": "None", "website": "None", "summary": "None", "logo": "None", "latitude": 43.162201277280786, "longitude": -80.28826876715321}, "838990919RR0001": {"name": "Senior's Dream Inc. (Peterborough)", "designationCode": "C", "categoryCode": "56", "address": "509 GILCHRIST STREET", "city": "PETERBOROUGH", "province": "ON", "country": "CA", "postalCode": "K9H4N7", "twitter": "None", "instagram": "None", "facebook": "None", "youtube": "None", "website": "None", "summary": "None", "logo": "None", "latitude": 44.30813946737146, "longitude": -78.33158243270363}, "813744133RR0001": {"name": "Seniors on The Bow of Cochrane and Area Society", "designationCode": "C", "categoryCode": "09", "address": "POST OFFICE BOX 1002", "city": "COCHRANE", "province": "AB", "country": "CA", "postalCode": "T4C1B1", "twitter": "None", "instagram": "None", "facebook": "None", "youtube": "None", "website": "None", "summary": "None", "logo": "None", "latitude": 51.19089900000006, "longitude": -114.46804249999994}, "845007152RR0001": {"name": "Seniors Information Centre Inc./Centre d'information pour personnes ag\u00e9es Inc.", "designationCode": "C", "categoryCode": "59", "address": "70 KING ST", "city": "MONCTON", "province": "NB", "country": "CA", "postalCode": "E1C4M6", "twitter": "None", "instagram": "None", "facebook": "None", "youtube": "None", "website": "None", "summary": "None", "logo": "None", "latitude": 46.09235660199668, "longitude": -64.77074939053017}, "138176821RR0001": {"name": "Seniors Resource Centre (Salmon Arm) Society", "designationCode": "C", "categoryCode": "59", "address": "320A 2ND AVE NE", "city": "SALMON ARM", "province": "BC", "country": "CA", "postalCode": "V1E1H1", "twitter": "None", "instagram": "None", "facebook": "None", "youtube": "None", "website": "None", "summary": "None", "logo": "None", "latitude": 50.70057873583351, "longitude": -119.28047704501174}, "890155575RR0001": {"name": "Seniors' Fifth Avenue Activity Centre Association", "designationCode": "C", "categoryCode": "56", "address": "PO BOX 83 STN MAIN", "city": "SALMON ARM", "province": "BC", "country": "CA", "postalCode": "V1E4N2", "twitter": "None", "instagram": "None", "facebook": "None", "youtube": "None", "website": "None", "summary": "None", "logo": "None", "latitude": 50.70318000000006, "longitude": -119.26884049999992}, "120654645RR0001": {"name": "Seniors' Services of Antler River Inc.", "designationCode": "C", "categoryCode": "09", "address": "BOX 413", "city": "MELITA", "province": "MB", "country": "CA", "postalCode": "R0M1L0", "twitter": "None", "instagram": "None", "facebook": "None", "youtube": "None", "website": "None", "summary": "None", "logo": "None", "latitude": 49.26665000000003, "longitude": -100.96985999999998}, "847647625RR0001": {"name": "Seniors' Wish Foundation", "designationCode": "C", "categoryCode": "09", "address": "300 - 182 DAVENPORT RD", "city": "TORONTO", "province": "ON", "country": "CA", "postalCode": "M5R1J2", "twitter": "None", "instagram": "None", "facebook": "None", "youtube": "None", "website": "None", "summary": "None", "logo": "None", "latitude": 43.67502716515655, "longitude": -79.39520676187311}, "808298806RR0001": {"name": "Sentier du Nouveau Jour", "designationCode": "C", "categoryCode": "57", "address": "146 CH DE LA SABLIERE", "city": "LANTIER", "province": "QC", "country": "CA", "postalCode": "J0T1V0", "twitter": "None", "instagram": "None", "facebook": "None", "youtube": "None", "website": "None", "summary": "None", "logo": "None", "latitude": 46.144085799095635, "longitude": -74.23092699841158}, "881405427RR0001": {"name": "Sentier International des Appalaches Qu\u00e9bec", "designationCode": "C", "categoryCode": "56", "address": "968 AV DU PHARE O", "city": "MATANE", "province": "QC", "country": "CA", "postalCode": "G4W1V7", "twitter": "None", "instagram": "None", "facebook": "None", "youtube": "None", "website": "None", "summary": "None", "logo": "None", "latitude": 48.849896125194626, "longitude": -67.5486503370938}, "808109607RR0001": {"name": "Sentiers Chelsea / Chelsea Trails", "designationCode": "C", "categoryCode": "56", "address": "120 MUSIE LOOP", "city": "CHELSEA", "province": "QC", "country": "CA", "postalCode": "J9B1Y6", "twitter": "None", "instagram": "None", "facebook": "None", "youtube": "None", "website": "None", "summary": "None", "logo": "None", "latitude": 45.53500844685208, "longitude": -75.82458589783045}, "138676820RR0001": {"name": "Sequoia Breast Cancer Association of Ontario", "designationCode": "C", "categoryCode": "11", "address": "12-111 FOURTH AVENUE          SUITE 184", "city": "ST.CATHARINES", "province": "ON", "country": "CA", "postalCode": "L2S3P5", "twitter": "None", "instagram": "None", "facebook": "None", "youtube": "None", "website": "None", "summary": "None", "logo": "None", "latitude": 43.15709070235222, "longitude": -79.26002970794204}, "813562667RR0001": {"name": "Sera Mey Food Fund", "designationCode": "C", "categoryCode": "01", "address": "300 - 247 NORTH SERVICE RD W", "city": "OAKVILLE", "province": "ON", "country": "CA", "postalCode": "L6M3E6", "twitter": "None", "instagram": "None", "facebook": "None", "youtube": "None", "website": "None", "summary": "None", "logo": "None", "latitude": 43.4287818207343, "longitude": -79.72054200421685}, "797117496RR0001": {"name": "Serbs for Serbs Canada", "designationCode": "C", "categoryCode": "09", "address": "635 THE QUEENSWAY, LOWER LEVEL", "city": "TORONTO", "province": "ON", "country": "CA", "postalCode": "M8Y1K6", "twitter": "None", "instagram": "None", "facebook": "None", "youtube": "None", "website": "None", "summary": "None", "logo": "None", "latitude": 43.62750289312724, "longitude": -79.49726442117263}, "820683282RR0001": {"name": "Servant Partners Foundation", "designationCode": "A", "categoryCode": "03", "address": "1250-1500 WEST GEORGIA STREET POST OFFICE BOX 62", "city": "VANCOUVER", "province": "BC", "country": "CA", "postalCode": "V6G2Z6", "twitter": "None", "instagram": "None", "facebook": "None", "youtube": "None", "website": "None", "summary": "None", "logo": "None", "latitude": 49.290187500000016, "longitude": -123.130035}, "811973908RR0001": {"name": "Servant Partners Mission Association", "designationCode": "C", "categoryCode": "47", "address": "1250-1500 WEST GEORGIA STREET POST OFFICE BOX 62", "city": "VANCOUVER", "province": "BC", "country": "CA", "postalCode": "V6G2Z6", "twitter": "None", "instagram": "None", "facebook": "None", "youtube": "None", "website": "None", "summary": "None", "logo": "None", "latitude": 49.290187500000016, "longitude": -123.130035}, "805831914RR0001": {"name": "Servant-Leader of the El Shaddai DWXI Prayer Partners Fellowship International Inc., Canada", "designationCode": "C", "categoryCode": "39", "address": "715 LAWRENCE AVENUE WEST", "city": "TORONTO", "province": "ON", "country": "CA", "postalCode": "M6A1B4", "twitter": "None", "instagram": "None", "facebook": "None", "youtube": "None", "website": "None", "summary": "None", "logo": "None", "latitude": 43.71523586759203, "longitude": -79.44812742838599}, "855750659RR0001": {"name": "Servant's Heart Ministries", "designationCode": "C", "categoryCode": "47", "address": "211 PEARL ST", "city": "WILEVILLE", "province": "NS", "country": "CA", "postalCode": "B4V5H6", "twitter": "None", "instagram": "None", "facebook": "None", "youtube": "None", "website": "None", "summary": "None", "logo": "None", "latitude": 44.37302871331282, "longitude": -64.53678200914659}, "836348813RR0001": {"name": "Servants of the Cross", "designationCode": "C", "categoryCode": "46", "address": "33 AURORA CRES", "city": "NEPEAN", "province": "ON", "country": "CA", "postalCode": "K2G0Z6", "twitter": "None", "instagram": "None", "facebook": "None", "youtube": "None", "website": "None", "summary": "None", "logo": "None", "latitude": 45.329537734664456, "longitude": -75.76580319513519}, "852265198RR0001": {"name": "Servants of the Immaculate Heart of Mary - Fathers", "designationCode": "C", "categoryCode": "49", "address": "368 MELVILLE AVENUE", "city": "MAPLE", "province": "ON", "country": "CA", "postalCode": "L6A2N8", "twitter": "None", "instagram": "None", "facebook": "None", "youtube": "None", "website": "None", "summary": "None", "logo": "None", "latitude": 43.86077396557799, "longitude": -79.53441682157055}, "811706902RR0001": {"name": "Servants of the Lord and Virgin of Matara of Canada", "designationCode": "C", "categoryCode": "46", "address": "16 ARTECH CRT", "city": "NORTH YORK", "province": "ON", "country": "CA", "postalCode": "M3N1R4", "twitter": "None", "instagram": "None", "facebook": "None", "youtube": "None", "website": "None", "summary": "None", "logo": "None", "latitude": 43.76268546768411, "longitude": -79.52273069903032}, "784819328RR0001": {"name": "ServeCity Church", "designationCode": "C", "categoryCode": "39", "address": "18 - 1275 MORNINGSIDE AVE", "city": "SCARBOROUGH", "province": "ON", "country": "CA", "postalCode": "M1B3W1", "twitter": "None", "instagram": "None", "facebook": "None", "youtube": "None", "website": "None", "summary": "None", "logo": "None", "latitude": 43.803274420768595, "longitude": -79.20011439901388}, "895420768RR0001": {"name": "Service budg\u00e9taire de Saint-F\u00e9licien", "designationCode": "C", "categoryCode": "09", "address": "1209 BOULEVARD SACR\u00c9-COEUR", "city": "ST-F\u00c9LICIEN", "province": "QC", "country": "CA", "postalCode": "G8K2P8", "twitter": "None", "instagram": "None", "facebook": "None", "youtube": "None", "website": "None", "summary": "None", "logo": "None", "latitude": 48.65290164472859, "longitude": -72.44648229727608}, "119145951RR0001": {"name": "Service budg\u00e9taire Lac-Saint-Jean-Est", "designationCode": "C", "categoryCode": "09", "address": "415, RUE COLLARD O. C.P.2034", "city": "ALMA", "province": "QC", "country": "CA", "postalCode": "G8B5W1", "twitter": "None", "instagram": "None", "facebook": "None", "youtube": "None", "website": "None", "summary": "None", "logo": "None", "latitude": 48.54795372191117, "longitude": -71.64876576559536}, "806653663RR0001": {"name": "Service d'aide \u00e0 la famille immigrante de la MRC de l'Assomption (SAFIMA)", "designationCode": "C", "categoryCode": "09", "address": "30, RUE ADRIEN                BUREAU 205", "city": "REPENTIGNY", "province": "QC", "country": "CA", "postalCode": "J6A4S9", "twitter": "None", "instagram": "None", "facebook": "None", "youtube": "None", "website": "None", "summary": "None", "logo": "None", "latitude": 45.74207562917666, "longitude": -73.44541242979963}, "830790531RR0001": {"name": "Service d'aide aux chomeurs", "designationCode": "C", "categoryCode": "09", "address": "355, AVENUE BOUCHARD", "city": "SAINT-PASCAL-DE-KAMOURASKA", "province": "QC", "country": "CA", "postalCode": "G0L3Y0", "twitter": "None", "instagram": "None", "facebook": "None", "youtube": "None", "website": "None", "summary": "None", "logo": "None", "latitude": 47.52262076773015, "longitude": -69.8061317275084}, "807555958RR0001": {"name": "Service d'entraide Rocamadour", "designationCode": "C", "categoryCode": "09", "address": "2301 1\u00c8RE AVENUE", "city": "QU\u00c9BEC", "province": "QC", "country": "CA", "postalCode": "G1L3M9", "twitter": "None", "instagram": "None", "facebook": "None", "youtube": "None", "website": "None", "summary": "None", "logo": "None", "latitude": 46.83305526187793, "longitude": -71.24104108555136}, "841214224RR0001": {"name": "Service de soutien \u00e0 l'adoption de nouveau-n\u00e9s canadiens vivere / Vivere Canadian Newborn Adoption Support Service", "designationCode": "C", "categoryCode": "09", "address": "15 RUE PRINCIPALE N", "city": "MONTCERF-LYTTON", "province": "QC", "country": "CA", "postalCode": "J0W1N0", "twitter": "None", "instagram": "None", "facebook": "None", "youtube": "None", "website": "None", "summary": "None", "logo": "None", "latitude": 46.53935750652088, "longitude": -76.04398237056353}, "858836117RR0001": {"name": "Service de R\u00e9pit Familial \"La Bouff\u00e9e d'Air\"", "designationCode": "C", "categoryCode": "09", "address": "195, BOUL. GIROUARD", "city": "ST-EUSTACHE", "province": "QC", "country": "CA", "postalCode": "J7R5H1", "twitter": "None", "instagram": "None", "facebook": "None", "youtube": "None", "website": "None", "summary": "None", "logo": "None", "latitude": 45.57252121039865, "longitude": -73.92519180073853}, "124030453RR0001": {"name": "Service de Transport Adapt\u00e9 de la capitale (STAC)", "designationCode": "C", "categoryCode": "09", "address": "2750, BOULEVARD WILFRID-HAMEL", "city": "QUEBEC", "province": "QC", "country": "CA", "postalCode": "G1P2J1", "twitter": "None", "instagram": "None", "facebook": "None", "youtube": "None", "website": "None", "summary": "None", "logo": "None", "latitude": 46.80645346826104, "longitude": -71.3021429701656}, "867380495RR0002": {"name": "Service des loisirs St-Jacques de Montr\u00e9al", "designationCode": "C", "categoryCode": "09", "address": "2 - 142 RUE ONTARIO E", "city": "MONTREAL", "province": "QC", "country": "CA", "postalCode": "H2X1H1", "twitter": "None", "instagram": "None", "facebook": "None", "youtube": "None", "website": "None", "summary": "None", "logo": "None", "latitude": 45.513575482756764, "longitude": -73.56600868678228}, "839107349RR0001": {"name": "Service m\u00e9dical d'urgence - Groupe Paradoxe (SMU)", "designationCode": "C", "categoryCode": "59", "address": "5959 BOUL MONK", "city": "MONTREAL", "province": "QC", "country": "CA", "postalCode": "H4E3H5", "twitter": "None", "instagram": "None", "facebook": "None", "youtube": "None", "website": "None", "summary": "None", "logo": "None", "latitude": 45.45873502969018, "longitude": -73.59614452738155}, "761372291RR0001": {"name": "Service populaire d'accompagnement psychosocial (SPAP)", "designationCode": "C", "categoryCode": "11", "address": "310 CH VINCELETTE", "city": "SAINT-JOACHIM-DE-SHEFFORD", "province": "QC", "country": "CA", "postalCode": "J0E2G0", "twitter": "None", "instagram": "None", "facebook": "None", "youtube": "None", "website": "None", "summary": "None", "logo": "None", "latitude": 45.412033157943206, "longitude": -72.54014192596273}, "875890931RR0001": {"name": "Service r\u00e9gional d'admissions au coll\u00e9gial de Qu\u00e9bec Inc.", "designationCode": "C", "categoryCode": "21", "address": "7112 BOUL WILFRID-HAMEL", "city": "QUEBEC", "province": "QC", "country": "CA", "postalCode": "G2G1B5", "twitter": "None", "instagram": "None", "facebook": "None", "youtube": "None", "website": "None", "summary": "None", "logo": "None", "latitude": 46.78578440885203, "longitude": -71.35965782892815}, "837227107RR0001": {"name": "Service r\u00e9sidentiel East Broughton", "designationCode": "C", "categoryCode": "09", "address": "320, RUE GRONDIN", "city": "EAST BROUGHTON", "province": "QC", "country": "CA", "postalCode": "G0N1G0", "twitter": "None", "instagram": "None", "facebook": "None", "youtube": "None", "website": "None", "summary": "None", "logo": "None", "latitude": 46.218905036355274, "longitude": -71.07997528336895}, "741428890RR0001": {"name": "Service AUTO-nomie Madawaska Inc.", "designationCode": "C", "categoryCode": "09", "address": "48 RUE MARTIN", "city": "EDMUNDSTON", "province": "NB", "country": "CA", "postalCode": "E3V2M3", "twitter": "None", "instagram": "None", "facebook": "None", "youtube": "None", "website": "None", "summary": "None", "logo": "None", "latitude": 47.37320805216697, "longitude": -68.32655642604871}, "899968952RR0001": {"name": "Service R\u00e9gional d'Interpr\u00e9tariat de Lanaudi\u00e8re", "designationCode": "C", "categoryCode": "09", "address": "144, RUE ST-JOSEPH            SUITE # 100", "city": "JOLIETTE", "province": "QC", "country": "CA", "postalCode": "J6E5C4", "twitter": "None", "instagram": "None", "facebook": "None", "youtube": "None", "website": "None", "summary": "None", "logo": "None", "latitude": 46.026606530122855, "longitude": -73.44158207325879}, "845779800RR0001": {"name": "Services animaliers de Salaberry-de-Valleyfield", "designationCode": "C", "categoryCode": "54", "address": "2555,BLVD MONSEIGNEUR LANGLOIS", "city": "SALABERRY-DE-VALLEYFIELD", "province": "QC", "country": "CA", "postalCode": "J6S5P7", "twitter": "None", "instagram": "None", "facebook": "None", "youtube": "None", "website": "None", "summary": "None", "logo": "None", "latitude": 45.27218551933147, "longitude": -74.10839352844941}, "830578324RR0001": {"name": "Services aux victimes Prescott Russell Victim Services", "designationCode": "C", "categoryCode": "09", "address": "1,RUE PRINCIPALE E.           BUREAU 110", "city": "HAWKESBURY", "province": "ON", "country": "CA", "postalCode": "K6A1A1", "twitter": "None", "instagram": "None", "facebook": "None", "youtube": "None", "website": "None", "summary": "None", "logo": "None", "latitude": 45.58925188589345, "longitude": -74.47270159446204}, "106880032RR0001": {"name": "Services communautaires collectifs / Collective Community Services", "designationCode": "C", "categoryCode": "09", "address": "451 RUE DE L'EGLISE", "city": "VERDUN", "province": "QC", "country": "CA", "postalCode": "H4G2M6", "twitter": "None", "instagram": "None", "facebook": "None", "youtube": "None", "website": "None", "summary": "None", "logo": "None", "latitude": 45.4629204676841, "longitude": -73.5695827754631}, "832961106RR0001": {"name": "Services d'Entraide \"Le Relais\"", "designationCode": "C", "categoryCode": "09", "address": "305 CHEMIN DE LA GRANDE-C\u00d4TE", "city": "BOISBRIAND", "province": "QC", "country": "CA", "postalCode": "J7G1B3", "twitter": "None", "instagram": "None", "facebook": "None", "youtube": "None", "website": "None", "summary": "None", "logo": "None", "latitude": 45.61038970944633, "longitude": -73.83098029009138}, "890244890RR0001": {"name": "Services de placement Horizon-travail", "designationCode": "C", "categoryCode": "11", "address": "605-980 RUE ST-ANTOINE O.", "city": "MONTREAL", "province": "QC", "country": "CA", "postalCode": "H3C1A8", "twitter": "None", "instagram": "None", "facebook": "None", "youtube": "None", "website": "None", "summary": "None", "logo": "None", "latitude": 45.49693899227025, "longitude": -73.56674962220217}, "826008302RR0001": {"name": "Services de sant\u00e9 communautaire Sainte-\u00c9lisabeth", "designationCode": "C", "categoryCode": "11", "address": "301-5165 RUE SHERBROOKE OUEST", "city": "MONTR\u00c9AL", "province": "QC", "country": "CA", "postalCode": "H4A1T6", "twitter": "None", "instagram": "None", "facebook": "None", "youtube": "None", "website": "None", "summary": "None", "logo": "None", "latitude": 45.47163213429537, "longitude": -73.61372184752473}, "850186917RR0001": {"name": "Services de soutien \u00e0 la famille Hay Doun", "designationCode": "C", "categoryCode": "09", "address": "615, STUART", "city": "MONTREAL", "province": "QC", "country": "CA", "postalCode": "H2V3H2", "twitter": "None", "instagram": "None", "facebook": "None", "youtube": "None", "website": "None", "summary": "None", "logo": "None", "latitude": 45.51780118875856, "longitude": -73.61138857879871}, "131110470RR0001": {"name": "Services et Formation aux Immigrants en Mont\u00e9r\u00e9gie (SFIM)", "designationCode": "C", "categoryCode": "20", "address": "3258 GRANDE ALLEE", "city": "ST-HUBERT", "province": "QC", "country": "CA", "postalCode": "J4T2S5", "twitter": "None", "instagram": "None", "facebook": "None", "youtube": "None", "website": "None", "summary": "None", "logo": "None", "latitude": 45.49717396696297, "longitude": -73.47702977589579}, "840941736RR0001": {"name": "Services Ren\u00e9-Verrier", "designationCode": "C", "categoryCode": "11", "address": "2200 BOUL ALLARD", "city": "DRUMMONDVILLE", "province": "QC", "country": "CA", "postalCode": "J2B8B5", "twitter": "None", "instagram": "None", "facebook": "None", "youtube": "None", "website": "None", "summary": "None", "logo": "None", "latitude": 45.85958746378896, "longitude": -72.44951005482136}, "106716434RR0001": {"name": "Serving And Learning Together (SALT) Community of Believers", "designationCode": "C", "categoryCode": "31", "address": "BOX 212", "city": "ANOLA", "province": "MB", "country": "CA", "postalCode": "R0E0A0", "twitter": "None", "instagram": "None", "facebook": "None", "youtube": "None", "website": "None", "summary": "None", "logo": "None", "latitude": 49.88506000000007, "longitude": -96.64108999999996}, "739303097RR0001": {"name": "Set Free Durham", "designationCode": "A", "categoryCode": "05", "address": "3 PHILLPOT LANE", "city": "AJAX", "province": "ON", "country": "CA", "postalCode": "L1T4C9", "twitter": "None", "instagram": "None", "facebook": "None", "youtube": "None", "website": "None", "summary": "None", "logo": "None", "latitude": 43.87908592645274, "longitude": -79.0407563480294}, "843837972RR0001": {"name": "Settlers Foundation Inc.", "designationCode": "B", "categoryCode": "03", "address": "22ND FLOOR 333 MAIN STREET", "city": "WINNIPEG", "province": "MB", "country": "CA", "postalCode": "R3C4E2", "twitter": "None", "instagram": "None", "facebook": "None", "youtube": "None", "website": "None", "summary": "None", "logo": "None", "latitude": 49.894839387183296, "longitude": -97.13795044529421}, "837720804RR0001": {"name": "Settlers, Rails & Trails, Inc.", "designationCode": "C", "categoryCode": "50", "address": "PO BOX 66", "city": "ARGYLE", "province": "MB", "country": "CA", "postalCode": "R0C0B0", "twitter": "None", "instagram": "None", "facebook": "None", "youtube": "None", "website": "None", "summary": "None", "logo": "None", "latitude": 50.20882202440996, "longitude": -97.66000346025281}, "140914706RR0001": {"name": "Seu Kwang Sa Buddhist Temple Society, Branch of Tong Do Sa Buddhist Temple, Chogye Order, Korea", "designationCode": "C", "categoryCode": "35", "address": "203-5701 GRANVILLE ST", "city": "VANCOUVER", "province": "BC", "country": "CA", "postalCode": "V6M4J7", "twitter": "None", "instagram": "None", "facebook": "None", "youtube": "None", "website": "None", "summary": "None", "logo": "None", "latitude": 49.23394267055227, "longitude": -123.13968409662962}, "831710009RR0001": {"name": "Seva International Charitable Foundation", "designationCode": "B", "categoryCode": "03", "address": "122 EDENBRIDGE DRIVE", "city": "ETOBICOKE", "province": "ON", "country": "CA", "postalCode": "M9A3G4", "twitter": "None", "instagram": "None", "facebook": "None", "youtube": "None", "website": "None", "summary": "None", "logo": "None", "latitude": 43.67170226729747, "longitude": -79.51543781432854}, "746856327RR0001": {"name": "Seva4Life Canada Inc.", "designationCode": "C", "categoryCode": "09", "address": "1675 ENTERPRISE RD", "city": "MISSISSAUGA", "province": "ON", "country": "CA", "postalCode": "L4W4L4", "twitter": "None", "instagram": "None", "facebook": "None", "youtube": "None", "website": "None", "summary": "None", "logo": "None", "latitude": 43.654367313376234, "longitude": -79.63664368711376}, "882141153RR0001": {"name": "Seven Oaks Sadok Inc.", "designationCode": "C", "categoryCode": "01", "address": "25 MORRISON ST", "city": "WINNIPEG", "province": "MB", "country": "CA", "postalCode": "R2V3B3", "twitter": "None", "instagram": "None", "facebook": "None", "youtube": "None", "website": "None", "summary": "None", "logo": "None", "latitude": 49.94671787313196, "longitude": -97.1480556432576}, "119150340RR0001": {"name": "Seven South Street Treatment Centre", "designationCode": "C", "categoryCode": "57", "address": "7 SOUTH STREET", "city": "ORILLIA", "province": "ON", "country": "CA", "postalCode": "L3V3T1", "twitter": "None", "instagram": "None", "facebook": "None", "youtube": "None", "website": "None", "summary": "None", "logo": "None", "latitude": 44.618642830611094, "longitude": -79.42917154059408}, "806974028RR0001": {"name": "Seven Wells Ministries (Canada) Inc.", "designationCode": "C", "categoryCode": "09", "address": "71 LEISURE BAY", "city": "WINNIPEG", "province": "MB", "country": "CA", "postalCode": "R2Y0W9", "twitter": "None", "instagram": "None", "facebook": "None", "youtube": "None", "website": "None", "summary": "None", "logo": "None", "latitude": 49.8942864676841, "longitude": -97.29366024992788}, "824923528RR0001": {"name": "Seventh Stage Theatre Productions", "designationCode": "C", "categoryCode": "22", "address": "510 ST. CLARENS AVE.", "city": "TORONTO", "province": "ON", "country": "CA", "postalCode": "M6H3W5", "twitter": "None", "instagram": "None", "facebook": "None", "youtube": "None", "website": "None", "summary": "None", "logo": "None", "latitude": 43.66029395697964, "longitude": -79.4424539587973}, "118793074RR0053": {"name": "Seventh-day Adventist Church - Mount Carmel", "designationCode": "C", "categoryCode": "41", "address": "PO BOX 63600 CSP", "city": "MONTREAL", "province": "QC", "country": "CA", "postalCode": "H3W3H8", "twitter": "None", "instagram": "None", "facebook": "None", "youtube": "None", "website": "None", "summary": "None", "logo": "None", "latitude": 45.490173000000055, "longitude": -73.63104649999994}, "107797383RR0034": {"name": "Seventh-day Adventist Community Church", "designationCode": "C", "categoryCode": "41", "address": "16 SCHOOL STREET", "city": "HOLLANL LANDING", "province": "ON", "country": "CA", "postalCode": "L9N1K9", "twitter": "None", "instagram": "None", "facebook": "None", "youtube": "None", "website": "None", "summary": "None", "logo": "None", "latitude": 44.09708631447276, "longitude": -79.4895968186277}, "855668554RR0001": {"name": "Sew on Fire Ministries", "designationCode": "C", "categoryCode": "09", "address": "240 APPLEVALE CRT", "city": "BURLINGTON", "province": "ON", "country": "CA", "postalCode": "L7L2B9", "twitter": "None", "instagram": "None", "facebook": "None", "youtube": "None", "website": "None", "summary": "None", "logo": "None", "latitude": 43.34921220592656, "longitude": -79.76143305303233}, "831030705RR0001": {"name": "Sewa Charitable Foundation", "designationCode": "B", "categoryCode": "13", "address": "1 - 1332 KHALSA DRIVE", "city": "MISSISSAUGA", "province": "ON", "country": "CA", "postalCode": "L5S0A2", "twitter": "None", "instagram": "None", "facebook": "None", "youtube": "None", "website": "None", "summary": "None", "logo": "None", "latitude": 43.67382286537033, "longitude": -79.67866002146718}, "894387885RR0001": {"name": "Sexplique", "designationCode": "C", "categoryCode": "09", "address": "23 BOUL DES ALLIES", "city": "QUEBEC", "province": "QC", "country": "CA", "postalCode": "G1L1X8", "twitter": "None", "instagram": "None", "facebook": "None", "youtube": "None", "website": "None", "summary": "None", "logo": "None", "latitude": 46.83197527226045, "longitude": -71.24091186412957}, "871713970RR0001": {"name": "Sexual Assault Services of Saskatchewan Inc.", "designationCode": "C", "categoryCode": "09", "address": "103 - 1102 8TH AVE", "city": "REGINA", "province": "SK", "country": "CA", "postalCode": "S4R1C9", "twitter": "None", "instagram": "None", "facebook": "None", "youtube": "None", "website": "None", "summary": "None", "logo": "None", "latitude": 50.45675150432782, "longitude": -104.59636994171619}, "119094415RR0001": {"name": "Sexual Health Nova Scotia Society", "designationCode": "B", "categoryCode": "11", "address": "11 ELMWOOD DR", "city": "AMHERST", "province": "NS", "country": "CA", "postalCode": "B4H2G7", "twitter": "None", "instagram": "None", "facebook": "None", "youtube": "None", "website": "None", "summary": "None", "logo": "None", "latitude": 45.83683533943107, "longitude": -64.20111820356063}, "129795514RR0001": {"name": "Sexual Health Options, Resources & Education Centre", "designationCode": "C", "categoryCode": "09", "address": "130 - 235 KING ST E", "city": "KITCHENER", "province": "ON", "country": "CA", "postalCode": "N2G4N5", "twitter": "None", "instagram": "None", "facebook": "None", "youtube": "None", "website": "None", "summary": "None", "logo": "None", "latitude": 43.44819569467385, "longitude": -80.48540487151583}, "807925151RR0001": {"name": "Sexual Wellness and Education Society of Campbell River", "designationCode": "C", "categoryCode": "11", "address": "980 ALDER ST", "city": "CAMPBELL RIVER", "province": "BC", "country": "CA", "postalCode": "V9W2P9", "twitter": "None", "instagram": "None", "facebook": "None", "youtube": "None", "website": "None", "summary": "None", "logo": "None", "latitude": 50.02505661658591, "longitude": -125.2443628148525}, "119147031RR0001": {"name": "Sgoolai Israel Synagogue Inc.", "designationCode": "C", "categoryCode": "42", "address": "P.O. BOX 32, STATION A", "city": "FREDERICTON", "province": "NB", "country": "CA", "postalCode": "E3B4Y2", "twitter": "None", "instagram": "None", "facebook": "None", "youtube": "None", "website": "None", "summary": "None", "logo": "None", "latitude": 45.96062100000006, "longitude": -66.63911299999994}, "851370213RR0001": {"name": "Shaarei Tzedec Congregation", "designationCode": "C", "categoryCode": "42", "address": "397 MARKHAM STREET", "city": "TORONTO", "province": "ON", "country": "CA", "postalCode": "M6G2K8", "twitter": "None", "instagram": "None", "facebook": "None", "youtube": "None", "website": "None", "summary": "None", "logo": "None", "latitude": 43.659420338334556, "longitude": -79.41019824490756}, "807451752RR0001": {"name": "Shaban Family Foundation", "designationCode": "B", "categoryCode": "03", "address": "330 HIGHWAY 7 EAST SUITE 201", "city": "RICHMOND HILL", "province": "ON", "country": "CA", "postalCode": "L4B3P8", "twitter": "None", "instagram": "None", "facebook": "None", "youtube": "None", "website": "None", "summary": "None", "logo": "None", "latitude": 43.840710812502245, "longitude": -79.3991704209694}, "813906971RR0001": {"name": "Shabbat Shel Shalom Messianic Fellowship", "designationCode": "C", "categoryCode": "39", "address": "13 - 2475 EMERSON ST", "city": "ABBOTSFORD", "province": "BC", "country": "CA", "postalCode": "V2T4W5", "twitter": "None", "instagram": "None", "facebook": "None", "youtube": "None", "website": "None", "summary": "None", "logo": "None", "latitude": 49.04680557591319, "longitude": -122.31820404420286}, "118830025RR0001": {"name": "Shad Canada", "designationCode": "C", "categoryCode": "20", "address": "350 - 100 REGINA ST S", "city": "WATERLOO", "province": "ON", "country": "CA", "postalCode": "N2J4P9", "twitter": "None", "instagram": "None", "facebook": "None", "youtube": "None", "website": "None", "summary": "None", "logo": "None", "latitude": 43.46389946529493, "longitude": -80.5208912346399}, "835493131RR0001": {"name": "Shades of Hope Wildlife Refuge", "designationCode": "C", "categoryCode": "54", "address": "87 ROUTLEY AVENUE", "city": "PEFFERLAW", "province": "ON", "country": "CA", "postalCode": "L0E1N0", "twitter": "None", "instagram": "None", "facebook": "None", "youtube": "None", "website": "None", "summary": "None", "logo": "None", "latitude": 44.30221244991049, "longitude": -79.19813791612366}, "865761803RR0001": {"name": "Shadowpath Theatre Productions", "designationCode": "C", "categoryCode": "22", "address": "1006 - 7165 YONGE ST", "city": "THORNHILL", "province": "ON", "country": "CA", "postalCode": "L3T0C9", "twitter": "None", "instagram": "None", "facebook": "None", "youtube": "None", "website": "None", "summary": "None", "logo": "None", "latitude": 43.80240495089144, "longitude": -79.42118651985201}, "840334890RR0001": {"name": "Shafiq Malik Foundation", "designationCode": "B", "categoryCode": "03", "address": "UNIT 4                        28 WESTWYN COURT", "city": "MISSISSAUGA", "province": "ON", "country": "CA", "postalCode": "L6T4T5", "twitter": "None", "instagram": "None", "facebook": "None", "youtube": "None", "website": "None", "summary": "None", "logo": "None", "latitude": 43.68509760169637, "longitude": -79.6948389661583}, "891781841RR0001": {"name": "Shakespeare by the Sea Festival Inc.", "designationCode": "C", "categoryCode": "22", "address": "14 SCOTT ST", "city": "ST. JOHN'S", "province": "NL", "country": "CA", "postalCode": "A1C2P7", "twitter": "None", "instagram": "None", "facebook": "None", "youtube": "None", "website": "None", "summary": "None", "logo": "None", "latitude": 47.56510674381105, "longitude": -52.71776712447347}, "829282508RR0001": {"name": "Shakespeare in the Ruff", "designationCode": "C", "categoryCode": "22", "address": "85B SWANWICK AVE", "city": "TORONTO", "province": "ON", "country": "CA", "postalCode": "M4E1Z6", "twitter": "None", "instagram": "None", "facebook": "None", "youtube": "None", "website": "None", "summary": "None", "logo": "None", "latitude": 43.68260393821767, "longitude": -79.29710740933774}, "851524926RR0001": {"name": "Shakespeare Link Canada", "designationCode": "C", "categoryCode": "22", "address": "51 NORMAN STREET", "city": "STRATFORD", "province": "ON", "country": "CA", "postalCode": "N5A5R8", "twitter": "None", "instagram": "None", "facebook": "None", "youtube": "None", "website": "None", "summary": "None", "logo": "None", "latitude": 43.373419858993685, "longitude": -80.98935534070047}, "845130178RR0001": {"name": "Shalem Mental Health Foundation", "designationCode": "A", "categoryCode": "03", "address": "875 MAIN ST E", "city": "HAMILTON", "province": "ON", "country": "CA", "postalCode": "L8M1M2", "twitter": "None", "instagram": "None", "facebook": "None", "youtube": "None", "website": "None", "summary": "None", "logo": "None", "latitude": 43.24633599030515, "longitude": -79.83463409449485}, "130566011RR0001": {"name": "Shalem Mental Health Network", "designationCode": "C", "categoryCode": "09", "address": "875 MAIN ST E", "city": "HAMILTON", "province": "ON", "country": "CA", "postalCode": "L8M1M2", "twitter": "None", "instagram": "None", "facebook": "None", "youtube": "None", "website": "None", "summary": "None", "logo": "None", "latitude": 43.24633599030515, "longitude": -79.83463409449485}, "812163293RR0001": {"name": "Shalhevet Girls High School Society", "designationCode": "C", "categoryCode": "20", "address": "785 16TH AVE W", "city": "VANCOUVER", "province": "BC", "country": "CA", "postalCode": "V5Z1S8", "twitter": "None", "instagram": "None", "facebook": "None", "youtube": "None", "website": "None", "summary": "None", "logo": "None", "latitude": 49.25712642573161, "longitude": -123.12171839900257}, "837825512RR0001": {"name": "Shalom Catholic Community Evangelization Centre", "designationCode": "C", "categoryCode": "38", "address": "477A ROGERS RD", "city": "YORK", "province": "ON", "country": "CA", "postalCode": "M6M1B2", "twitter": "None", "instagram": "None", "facebook": "None", "youtube": "None", "website": "None", "summary": "None", "logo": "None", "latitude": 43.68190520741725, "longitude": -79.46681933566052}, "818917031RR0001": {"name": "Shalom Community Church of Ottawa Inc.", "designationCode": "C", "categoryCode": "39", "address": "434 OLD ST. PATRICK STREET", "city": "OTTAWA", "province": "ON", "country": "CA", "postalCode": "K1N5L3", "twitter": "None", "instagram": "None", "facebook": "None", "youtube": "None", "website": "None", "summary": "None", "logo": "None"}, "828622589RR0001": {"name": "Shalom For All Nations Church", "designationCode": "C", "categoryCode": "39", "address": "26 - 1177 FINCH AVE W", "city": "NORTH YORK", "province": "ON", "country": "CA", "postalCode": "M3J2E9", "twitter": "None", "instagram": "None", "facebook": "None", "youtube": "None", "website": "None", "summary": "None", "logo": "None", "latitude": 43.764423902088836, "longitude": -79.48682251720832}, "831461538RR0001": {"name": "Shalom Media Canada", "designationCode": "C", "categoryCode": "47", "address": "3 NESSIE STREET", "city": "MARKHAM", "province": "ON", "country": "CA", "postalCode": "L3S4J1", "twitter": "None", "instagram": "None", "facebook": "None", "youtube": "None", "website": "None", "summary": "None", "logo": "None", "latitude": 43.8506519003406, "longitude": -79.27117481903173}, "817567928RR0001": {"name": "Shalom Ministries of Cranbrook", "designationCode": "C", "categoryCode": "39", "address": "C - 415 INDUSTRIAL ROAD A", "city": "CRANBROOK", "province": "BC", "country": "CA", "postalCode": "V1C4X8", "twitter": "None", "instagram": "None", "facebook": "None", "youtube": "None", "website": "None", "summary": "None", "logo": "None", "latitude": 49.522662724652456, "longitude": -115.76408066648423}, "107972804RR0001": {"name": "Shalom Residences Inc.", "designationCode": "C", "categoryCode": "01", "address": "1033 MCGREGOR ST", "city": "WINNIPEG", "province": "MB", "country": "CA", "postalCode": "R2V3H4", "twitter": "None", "instagram": "None", "facebook": "None", "youtube": "None", "website": "None", "summary": "None", "logo": "None", "latitude": 49.94625899748985, "longitude": -97.12627453895233}, "821042447RR0001": {"name": "Shalom Worship and Healing Center", "designationCode": "C", "categoryCode": "39", "address": "914 - 2969 KINGSWAY DR", "city": "KITCHENER", "province": "ON", "country": "CA", "postalCode": "N2C2H7", "twitter": "None", "instagram": "None", "facebook": "None", "youtube": "None", "website": "None", "summary": "None", "logo": "None", "latitude": 43.42533832058962, "longitude": -80.44018205943765}, "119280295RR0001": {"name": "Shambhala Canada Society", "designationCode": "C", "categoryCode": "35", "address": "601 - 5121 SACKVILLE ST", "city": "HALIFAX", "province": "NS", "country": "CA", "postalCode": "B3J1K1", "twitter": "None", "instagram": "None", "facebook": "None", "youtube": "None", "website": "None", "summary": "None", "logo": "None", "latitude": 44.64683105190717, "longitude": -63.57139841701768}, "824831242RR0001": {"name": "Shamiso Foundation/Fondation Shamiso", "designationCode": "C", "categoryCode": "01", "address": "PO BOX 392", "city": "ALEXANDRIA", "province": "ON", "country": "CA", "postalCode": "K0C1A0", "twitter": "None", "instagram": "None", "facebook": "None", "youtube": "None", "website": "None", "summary": "None", "logo": "None", "latitude": 45.324006000000054, "longitude": -74.57325649999993}, "837238823RR0001": {"name": "Shamrock Children's Christmas Fund", "designationCode": "C", "categoryCode": "09", "address": "296 PRESTWICK HTS SE", "city": "CALGARY", "province": "AB", "country": "CA", "postalCode": "T2Z4H7", "twitter": "None", "instagram": "None", "facebook": "None", "youtube": "None", "website": "None", "summary": "None", "logo": "None", "latitude": 50.92493247071387, "longitude": -113.963724}, "804354652RR0001": {"name": "Shania Kids Can", "designationCode": "A", "categoryCode": "03", "address": "155 WELLINGTON STREET WEST", "city": "TORONTO", "province": "ON", "country": "CA", "postalCode": "M5V3J7", "twitter": "None", "instagram": "None", "facebook": "None", "youtube": "None", "website": "None", "summary": "None", "logo": "None", "latitude": 43.64596585316531, "longitude": -79.38574575644876}, "827701038RR0001": {"name": "Shanti Life Canada", "designationCode": "C", "categoryCode": "09", "address": "3700-400 3RD AVENUE SOUTHWEST", "city": "CALGARY", "province": "AB", "country": "CA", "postalCode": "T2P4H2", "twitter": "None", "instagram": "None", "facebook": "None", "youtube": "None", "website": "None", "summary": "None", "logo": "None", "latitude": 51.050585259196545, "longitude": -114.07240492388776}, "843578261RR0001": {"name": "Shaolin Luohan Temple", "designationCode": "C", "categoryCode": "35", "address": "18 CAROLWOOD CRESCENT", "city": "MARKHAM", "province": "ON", "country": "CA", "postalCode": "L3S4T2", "twitter": "None", "instagram": "None", "facebook": "None", "youtube": "None", "website": "None", "summary": "None", "logo": "None", "latitude": 43.8625296680421, "longitude": -79.24895970416623}, "818816316RR0001": {"name": "Share a Smile Society", "designationCode": "C", "categoryCode": "11", "address": "629 WENTWORTH ST", "city": "NANAIMO", "province": "BC", "country": "CA", "postalCode": "V9R3E6", "twitter": "None", "instagram": "None", "facebook": "None", "youtube": "None", "website": "None", "summary": "None", "logo": "None", "latitude": 49.166574561169355, "longitude": -123.94579013904442}, "785427493RR0001": {"name": "Share and Care Canada", "designationCode": "C", "categoryCode": "09", "address": "50 MICHELANGELO BLVD", "city": "BRAMPTON", "province": "ON", "country": "CA", "postalCode": "L6P0G9", "twitter": "None", "instagram": "None", "facebook": "None", "youtube": "None", "website": "None", "summary": "None", "logo": "None", "latitude": 43.792902082174244, "longitude": -79.7256410212647}, "768792129RR0001": {"name": "Share the Charity Society", "designationCode": "C", "categoryCode": "03", "address": "330-9940 LOUGHEED HWY", "city": "BURNABY", "province": "BC", "country": "CA", "postalCode": "V3J1N3", "twitter": "None", "instagram": "None", "facebook": "None", "youtube": "None", "website": "None", "summary": "None", "logo": "None", "latitude": 49.2459832057494, "longitude": -122.89318990774613}, "837457936RR0001": {"name": "Share the Dream", "designationCode": "C", "categoryCode": "20", "address": "223 - 110 CUMBERLAND ST", "city": "TORONTO", "province": "ON", "country": "CA", "postalCode": "M5R3V5", "twitter": "None", "instagram": "None", "facebook": "None", "youtube": "None", "website": "None", "summary": "None", "logo": "None", "latitude": 43.670245179583276, "longitude": -79.39148737844071}, "708088893RR0001": {"name": "Share the Magic Book Program", "designationCode": "C", "categoryCode": "50", "address": "34 ASHWORTH ST", "city": "WINNIPEG", "province": "MB", "country": "CA", "postalCode": "R2M4B7", "twitter": "None", "instagram": "None", "facebook": "None", "youtube": "None", "website": "None", "summary": "None", "logo": "None", "latitude": 49.83313186788049, "longitude": -97.0988654160654}, "873676605RR0001": {"name": "Share Our Strength Canada Inc", "designationCode": "A", "categoryCode": "03", "address": "2 LOMBARD PLACE", "city": "WINNIPEG", "province": "MB", "country": "CA", "postalCode": "R3B0Y3", "twitter": "None", "instagram": "None", "facebook": "None", "youtube": "None", "website": "None", "summary": "None", "logo": "None", "latitude": 49.89568565991722, "longitude": -97.13719947249328}, "850444886RR0001": {"name": "Shared Space Salt Spring Society", "designationCode": "C", "categoryCode": "59", "address": "1 - 315 UPPER GANGES RD", "city": "SALT SPRING ISLAND", "province": "BC", "country": "CA", "postalCode": "V8K2X4", "twitter": "None", "instagram": "None", "facebook": "None", "youtube": "None", "website": "None", "summary": "None", "logo": "None", "latitude": 48.86657355950642, "longitude": -123.50145652081757}}