{"132389222RR0001": {"name": "BETHANY MISSIONARY CHURCH", "designationCode": "C", "categoryCode": "39", "address": "160 LANCASTER STREET EAST", "city": "KITCHENER", "province": "ON", "country": "CA", "postalCode": "N2H1N2", "twitter": "None", "instagram": "None", "facebook": "None", "youtube": "None", "website": "None", "summary": "None", "logo": "None", "latitude": 43.45219848182236, "longitude": -80.48170580913532}, "118804459RR0001": {"name": "BETHANY NURSING HOME OF CAMROSE, ALBERTA", "designationCode": "C", "categoryCode": "10", "address": "4612 - 53 STREET", "city": "CAMROSE", "province": "AB", "country": "CA", "postalCode": "T4V1Y6", "twitter": "None", "instagram": "None", "facebook": "None", "youtube": "None", "website": "None", "summary": "None", "logo": "None", "latitude": 53.01461368924136, "longitude": -112.83121729820299}, "118804475RR0001": {"name": "BETHANY PENTECOSTAL CHAPEL", "designationCode": "C", "categoryCode": "36", "address": "PO BOX 68", "city": "MANITOUWADGE", "province": "ON", "country": "CA", "postalCode": "P0T2C0", "twitter": "None", "instagram": "None", "facebook": "None", "youtube": "None", "website": "None", "summary": "None", "logo": "None", "latitude": 49.12397000000004, "longitude": -85.83204999999998}, "107833394RR0090": {"name": "BETHANY PENTECOSTAL TABERNACLE", "designationCode": "C", "categoryCode": "36", "address": "MAIN STREET", "city": "NORRIS ARM", "province": "NL", "country": "CA", "postalCode": "A0G3N0", "twitter": "None", "instagram": "None", "facebook": "None", "youtube": "None", "website": "None", "summary": "None", "logo": "None", "latitude": 49.116822118125455, "longitude": -55.23604262677518}, "118804509RR0001": {"name": "BETHANY PENTECOSTAL TABERNACLE", "designationCode": "C", "categoryCode": "36", "address": "91806 ALASKA HWY", "city": "WHITEHORSE", "province": "YT", "country": "CA", "postalCode": "Y1A5B7", "twitter": "None", "instagram": "None", "facebook": "None", "youtube": "None", "website": "None", "summary": "None", "logo": "None", "latitude": 60.73660034840953, "longitude": -135.09865741875677}, "106788276RR0001": {"name": "BETHANY PIONEER VILLAGE INC.", "designationCode": "C", "categoryCode": "01", "address": "BOX 8", "city": "MIDDLE LAKE", "province": "SK", "country": "CA", "postalCode": "S0K2X0", "twitter": "None", "instagram": "None", "facebook": "None", "youtube": "None", "website": "None", "summary": "None", "logo": "None", "latitude": 52.48227000000003, "longitude": -105.30166999999994}, "821272747RR0001": {"name": "BETHANY RELIEF AND REHABILITATION INTERNATIONAL (CANADA) INC.", "designationCode": "C", "categoryCode": "09", "address": "PO BOX 1202", "city": "KINGSTON", "province": "ON", "country": "CA", "postalCode": "K7L4Y8", "twitter": "None", "instagram": "None", "facebook": "None", "youtube": "None", "website": "None", "summary": "None", "logo": "None", "latitude": 44.23153200000006, "longitude": -76.47933049999993}, "866743727RR0001": {"name": "BETHANY ROMANIAN PENTECOSTAL CHURCH", "designationCode": "C", "categoryCode": "39", "address": "3130 MCMILLAN RD", "city": "ABBOTSFORD", "province": "BC", "country": "CA", "postalCode": "V2S6A8", "twitter": "None", "instagram": "None", "facebook": "None", "youtube": "None", "website": "None", "summary": "None", "logo": "None", "latitude": 49.05927886372555, "longitude": -122.26060808875339}, "855486536RR0001": {"name": "BETHANY ROMANIAN PENTECOSTAL CHURCH OF GOD", "designationCode": "C", "categoryCode": "39", "address": "1995 ARTHUR RD.", "city": "WINDSOR", "province": "ON", "country": "CA", "postalCode": "N8W4V2", "twitter": "None", "instagram": "None", "facebook": "None", "youtube": "None", "website": "None", "summary": "None", "logo": "None", "latitude": 42.30744714986446, "longitude": -82.96935175538088}, "108102302RR0001": {"name": "BETHANY UNITED CHURCH", "designationCode": "C", "categoryCode": "44", "address": "3150 RAMSAYVILLE ROAD", "city": "GLOUCESTER", "province": "ON", "country": "CA", "postalCode": "K1G3N2", "twitter": "None", "instagram": "None", "facebook": "None", "youtube": "None", "website": "None", "summary": "None", "logo": "None", "latitude": 45.377942893906635, "longitude": -75.57038219934745}, "118804533RR0001": {"name": "BETHANY UNITED CHURCH", "designationCode": "C", "categoryCode": "44", "address": "RR 5", "city": "NEW GLASGOW", "province": "NS", "country": "CA", "postalCode": "B2H5C8", "twitter": "None", "instagram": "None", "facebook": "None", "youtube": "None", "website": "None", "summary": "None", "logo": "None", "latitude": 45.39144300000005, "longitude": -62.16826849999994}, "118804541RR0001": {"name": "BETHANY UNITED CHURCH", "designationCode": "C", "categoryCode": "44", "address": "2669 JOSEPH HOWE DRIVE", "city": "HALIFAX", "province": "NS", "country": "CA", "postalCode": "B3L4G5", "twitter": "None", "instagram": "None", "facebook": "None", "youtube": "None", "website": "None", "summary": "None", "logo": "None", "latitude": 44.64283277687676, "longitude": -63.621807602804715}, "118804574RR0001": {"name": "BETHANY UNITED CHURCH", "designationCode": "C", "categoryCode": "44", "address": "668 DILTZ RD                  RR 2", "city": "DUNNVILLE", "province": "ON", "country": "CA", "postalCode": "N1A2W2", "twitter": "None", "instagram": "None", "facebook": "None", "youtube": "None", "website": "None", "summary": "None", "logo": "None", "latitude": 42.94848692384363, "longitude": -79.58801774204123}, "889775193RR0001": {"name": "BETHANY UNITED CHURCH", "designationCode": "C", "categoryCode": "44", "address": "319 COLBORNE ST", "city": "ELORA", "province": "ON", "country": "CA", "postalCode": "N0B1S0", "twitter": "None", "instagram": "None", "facebook": "None", "youtube": "None", "website": "None", "summary": "None", "logo": "None", "latitude": 43.692630695799004, "longitude": -80.41810429918065}, "106788318RR0001": {"name": "BETHANY-NEWTON UNITED CHURCH", "designationCode": "C", "categoryCode": "39", "address": "14853 60TH AVE", "city": "SURREY", "province": "BC", "country": "CA", "postalCode": "V3S1R8", "twitter": "None", "instagram": "None", "facebook": "None", "youtube": "None", "website": "None", "summary": "None", "logo": "None", "latitude": 49.111773525967905, "longitude": -122.81139327407813}, "106788227RR0001": {"name": "BETHANY-PONTYPOOL PASTORIAL CHARGE", "designationCode": "C", "categoryCode": "44", "address": "BOX 381", "city": "OMEMEE", "province": "ON", "country": "CA", "postalCode": "K0L2W0", "twitter": "None", "instagram": "None", "facebook": "None", "youtube": "None", "website": "None", "summary": "None", "logo": "None", "latitude": 44.29912000000007, "longitude": -78.55888999999996}, "887374833RR0001": {"name": "BETHANYS HOPE FOUNDATION", "designationCode": "A", "categoryCode": "23", "address": "326 QUEENS AVE", "city": "LONDON", "province": "ON", "country": "CA", "postalCode": "N6B1X4", "twitter": "None", "instagram": "None", "facebook": "None", "youtube": "None", "website": "None", "summary": "None", "logo": "None", "latitude": 42.98683388816425, "longitude": -81.24380763142702}, "118804632RR0001": {"name": "BETHEL APOSTOLIC CHURCH (JESUS CHRIST)", "designationCode": "C", "categoryCode": "36", "address": "1831 WESTON RD", "city": "TORONTO", "province": "ON", "country": "CA", "postalCode": "M9N1V9", "twitter": "None", "instagram": "None", "facebook": "None", "youtube": "None", "website": "None", "summary": "None", "logo": "None", "latitude": 43.699365647815654, "longitude": -79.51396448791056}, "864511902RR0001": {"name": "BETHEL APOSTOLIC CHURCH OF STONY PLAIN", "designationCode": "C", "categoryCode": "39", "address": "9950 148 ST", "city": "EDMONTON", "province": "AB", "country": "CA", "postalCode": "T5N3E9", "twitter": "None", "instagram": "None", "facebook": "None", "youtube": "None", "website": "None", "summary": "None", "logo": "None", "latitude": 53.538966000000016, "longitude": -113.576307262046}, "118806462RR0001": {"name": "BETHEL APOSTOLIC PENTECOSTAL CHURCH OF ALBERTA", "designationCode": "C", "categoryCode": "39", "address": "2220 39TH AVE NE", "city": "CALGARY", "province": "AB", "country": "CA", "postalCode": "T2E6P7", "twitter": "None", "instagram": "None", "facebook": "None", "youtube": "None", "website": "None", "summary": "None", "logo": "None", "latitude": 51.0882825004327, "longitude": -114.00770313918865}, "106788383RR0001": {"name": "BETHEL ASSEMBLY", "designationCode": "C", "categoryCode": "36", "address": "117 ST JAMES ST", "city": "WOODSTOCK", "province": "NB", "country": "CA", "postalCode": "E7M2T3", "twitter": "None", "instagram": "None", "facebook": "None", "youtube": "None", "website": "None", "summary": "None", "logo": "None", "latitude": 46.15643460170821, "longitude": -67.57644726810553}, "118804665RR0001": {"name": "BETHEL ASSEMBLY", "designationCode": "C", "categoryCode": "36", "address": "PO BOX 757", "city": "QUEEN CHARLOTTE", "province": "BC", "country": "CA", "postalCode": "V0T1S0", "twitter": "None", "instagram": "None", "facebook": "None", "youtube": "None", "website": "None", "summary": "None", "logo": "None", "latitude": 53.50199672573152, "longitude": -132.2619050828624}, "106788425RR0001": {"name": "BETHEL BAPTIST CHURCH", "designationCode": "C", "categoryCode": "31", "address": "3060 COTE VERTU RD", "city": "MONTREAL", "province": "QC", "country": "CA", "postalCode": "H4R1P8", "twitter": "None", "instagram": "None", "facebook": "None", "youtube": "None", "website": "None", "summary": "None", "logo": "None", "latitude": 45.498564296382035, "longitude": -73.7022516076235}, "106788490RR0001": {"name": "BETHEL BAPTIST CHURCH", "designationCode": "C", "categoryCode": "31", "address": "264 PRINCESS ST", "city": "STRATHROY", "province": "ON", "country": "CA", "postalCode": "N7G2S7", "twitter": "None", "instagram": "None", "facebook": "None", "youtube": "None", "website": "None", "summary": "None", "logo": "None", "latitude": 42.950190870333316, "longitude": -81.6168461693115}, "106788508RR0001": {"name": "BETHEL BAPTIST CHURCH", "designationCode": "C", "categoryCode": "31", "address": "46 ELDEN AVE", "city": "WHITEFISH", "province": "ON", "country": "CA", "postalCode": "P0M3E0", "twitter": "None", "instagram": "None", "facebook": "None", "youtube": "None", "website": "None", "summary": "None", "logo": "None", "latitude": 46.3719903511165, "longitude": -81.36608561824106}, "118804780RR0001": {"name": "BETHEL BAPTIST CHURCH", "designationCode": "C", "categoryCode": "31", "address": "720 MORRISON CRES", "city": "FORT FRANCES", "province": "ON", "country": "CA", "postalCode": "P9A2Y3", "twitter": "None", "instagram": "None", "facebook": "None", "youtube": "None", "website": "None", "summary": "None", "logo": "None", "latitude": 48.609991030220456, "longitude": -93.41989282276819}, "118804806RR0001": {"name": "BETHEL BAPTIST CHURCH", "designationCode": "C", "categoryCode": "31", "address": "BOX 387", "city": "HIGH PRAIRIE", "province": "AB", "country": "CA", "postalCode": "T0G1E0", "twitter": "None", "instagram": "None", "facebook": "None", "youtube": "None", "website": "None", "summary": "None", "logo": "None", "latitude": 55.43123005496565, "longitude": -116.49809993060764}, "118804855RR0001": {"name": "BETHEL BAPTIST CHURCH", "designationCode": "C", "categoryCode": "31", "address": "463 YPRES ST", "city": "DUNCAN", "province": "BC", "country": "CA", "postalCode": "V9L3T7", "twitter": "None", "instagram": "None", "facebook": "None", "youtube": "None", "website": "None", "summary": "None", "logo": "None", "latitude": 48.77998233527612, "longitude": -123.7033441808527}, "132202748RR0001": {"name": "BETHEL BAPTIST CHURCH", "designationCode": "C", "categoryCode": "31", "address": "1948 TEMPERANCE ST            RR 3", "city": "WESTVILLE", "province": "NS", "country": "CA", "postalCode": "B0K2A0", "twitter": "None", "instagram": "None", "facebook": "None", "youtube": "None", "website": "None", "summary": "None", "logo": "None", "latitude": 45.55563136573985, "longitude": -62.697137147631935}, "134768654RR0001": {"name": "BETHEL BAPTIST CHURCH", "designationCode": "C", "categoryCode": "31", "address": "4212 CAMPBELL STREET N", "city": "LONDON", "province": "ON", "country": "CA", "postalCode": "N6P1A6", "twitter": "None", "instagram": "None", "facebook": "None", "youtube": "None", "website": "None", "summary": "None", "logo": "None", "latitude": 42.91327784044067, "longitude": -81.29388639506048}, "106788482RR0001": {"name": "BETHEL BAPTIST CHURCH (SIMCOE)", "designationCode": "C", "categoryCode": "39", "address": "PO BOX 752                    4059 HIGHWAY #3 EAST", "city": "SIMCOE", "province": "ON", "country": "CA", "postalCode": "N3Y4T2", "twitter": "None", "instagram": "None", "facebook": "None", "youtube": "None", "website": "None", "summary": "None", "logo": "None", "latitude": 42.850298123671244, "longitude": -80.28020133433435}, "852209972RR0001": {"name": "BETHEL BAPTIST CHURCH (TORONTO)", "designationCode": "C", "categoryCode": "31", "address": "645 MILLWOOD ROAD", "city": "TORONTO", "province": "ON", "country": "CA", "postalCode": "M4S1L1", "twitter": "None", "instagram": "None", "facebook": "None", "youtube": "None", "website": "None", "summary": "None", "logo": "None", "latitude": 43.70394182041673, "longitude": -79.37601594962204}, "888767746RR0001": {"name": "BETHEL BAPTIST CHURCH - IGLESIA BAUTISTA BETEL", "designationCode": "C", "categoryCode": "39", "address": "77 IVORDALE CRESCENT", "city": "SCARBOROUGH", "province": "ON", "country": "CA", "postalCode": "M1R2W7", "twitter": "None", "instagram": "None", "facebook": "None", "youtube": "None", "website": "None", "summary": "None", "logo": "None", "latitude": 43.755910218160246, "longitude": -79.31301291323811}, "827598673RR0001": {"name": "BETHEL BAPTIST CHURCH INC.", "designationCode": "C", "categoryCode": "31", "address": "205 ROSEBERRY ST", "city": "WINNIPEG", "province": "MB", "country": "CA", "postalCode": "R3J1T3", "twitter": "None", "instagram": "None", "facebook": "None", "youtube": "None", "website": "None", "summary": "None", "logo": "None", "latitude": 49.87938278351319, "longitude": -97.21634887451692}, "118804863RR0001": {"name": "BETHEL BAPTIST CHURCH INDEPENDENT", "designationCode": "C", "categoryCode": "31", "address": "635 PLEASANT DR", "city": "MINTO", "province": "NB", "country": "CA", "postalCode": "E4B2T6", "twitter": "None", "instagram": "None", "facebook": "None", "youtube": "None", "website": "None", "summary": "None", "logo": "None", "latitude": 46.076177751918436, "longitude": -66.05143500282728}, "800571580RR0001": {"name": "BETHEL BAPTIST CHURCH OF FERGUS", "designationCode": "C", "categoryCode": "31", "address": "675 VICTORIA TERRACE", "city": "FERGUS", "province": "ON", "country": "CA", "postalCode": "N1M3E2", "twitter": "None", "instagram": "None", "facebook": "None", "youtube": "None", "website": "None", "summary": "None", "logo": "None", "latitude": 43.71262950262573, "longitude": -80.38127083279463}, "106788599RR0001": {"name": "BETHEL BAPTIST CHURCH OF PINE GLEN INC.", "designationCode": "C", "categoryCode": "31", "address": "872 PINE GLEN RD", "city": "PINE GLEN", "province": "NB", "country": "CA", "postalCode": "E1J1R8", "twitter": "None", "instagram": "None", "facebook": "None", "youtube": "None", "website": "None", "summary": "None", "logo": "None", "latitude": 46.024400890385934, "longitude": -64.77036999108454}, "842231763RR0001": {"name": "BETHEL BAPTIST CHURCH, ST. CATHARINES", "designationCode": "C", "categoryCode": "31", "address": "10 ARLINGTON AVENUE", "city": "ST. CATHARINES", "province": "ON", "country": "CA", "postalCode": "L2P3A4", "twitter": "None", "instagram": "None", "facebook": "None", "youtube": "None", "website": "None", "summary": "None", "logo": "None", "latitude": 43.16193853173898, "longitude": -79.21365319201944}, "131196446RR0001": {"name": "BETHEL BERGTHALER MENNONITE CHURCH", "designationCode": "C", "categoryCode": "34", "address": "BOX 197", "city": "WINKLER", "province": "MB", "country": "CA", "postalCode": "R6W4A5", "twitter": "None", "instagram": "None", "facebook": "None", "youtube": "None", "website": "None", "summary": "None", "logo": "None", "latitude": 49.17773400000006, "longitude": -97.93841299999994}, "886883032RR0001": {"name": "BETHEL BIBLE BAPTIST CHURCH", "designationCode": "C", "categoryCode": "31", "address": "157 JOSEPH STREET", "city": "KINGSTON", "province": "ON", "country": "CA", "postalCode": "K7K2H8", "twitter": "None", "instagram": "None", "facebook": "None", "youtube": "None", "website": "None", "summary": "None", "logo": "None", "latitude": 44.24475132558127, "longitude": -76.49462369914589}, "106788649RR0001": {"name": "BETHEL BIBLE CAMP", "designationCode": "C", "categoryCode": "56", "address": "10227 97 ST", "city": "WESTLOCK", "province": "AB", "country": "CA", "postalCode": "T7P2H1", "twitter": "None", "instagram": "None", "facebook": "None", "youtube": "None", "website": "None", "summary": "None", "logo": "None", "latitude": 54.149440466241806, "longitude": -113.85162}, "118804913RR0001": {"name": "BETHEL BIBLE CHAPEL", "designationCode": "C", "categoryCode": "39", "address": "419 MAIN ST. E.", "city": "SHELBURNE", "province": "ON", "country": "CA", "postalCode": "L9V2Z1", "twitter": "None", "instagram": "None", "facebook": "None", "youtube": "None", "website": "None", "summary": "None", "logo": "None", "latitude": 44.0796427981997, "longitude": -80.19779468705644}, "129984639RR0001": {"name": "BETHEL BIBLE CHAPEL,", "designationCode": "C", "categoryCode": "39", "address": "686 BLACK ROAD", "city": "SAULT ST MARIE", "province": "ON", "country": "CA", "postalCode": "P6A0C8", "twitter": "None", "instagram": "None", "facebook": "None", "youtube": "None", "website": "None", "summary": "None", "logo": "None", "latitude": 46.54141867686288, "longitude": -84.2874209329187}, "118804939RR0001": {"name": "BETHEL BIBLE CHURCH", "designationCode": "C", "categoryCode": "39", "address": "PO BOX 1091", "city": "SEAFORTH", "province": "ON", "country": "CA", "postalCode": "N0K1W0", "twitter": "None", "instagram": "None", "facebook": "None", "youtube": "None", "website": "None", "summary": "None", "logo": "None", "latitude": 43.55304000000007, "longitude": -81.39369999999997}, "877580928RR0001": {"name": "BETHEL BORN AGAIN CHURCH OF JESUS CHRIST (APOSTOLIC)", "designationCode": "C", "categoryCode": "39", "address": "2757 KIPLING AVENUE #515", "city": "REXDALE", "province": "ON", "country": "CA", "postalCode": "M9V4C4", "twitter": "None", "instagram": "None", "facebook": "None", "youtube": "None", "website": "None", "summary": "None", "logo": "None", "latitude": 43.75437120788847, "longitude": -79.58737180472058}, "118804947RR0001": {"name": "BETHEL CANADIAN REFORMED CHURCH OF TORONTO", "designationCode": "C", "categoryCode": "39", "address": "503 - 400 WILLIAM GRAHAM DR", "city": "AURORA", "province": "ON", "country": "CA", "postalCode": "L4G1L7", "twitter": "None", "instagram": "None", "facebook": "None", "youtube": "None", "website": "None", "summary": "None", "logo": "None", "latitude": 44.0188459095852, "longitude": -79.4246073652085}, "118804954RR0001": {"name": "BETHEL CEMETERY COMPANY", "designationCode": "C", "categoryCode": "59", "address": "GD", "city": "SCOTSBURN", "province": "NS", "country": "CA", "postalCode": "B0K1R0", "twitter": "None", "instagram": "None", "facebook": "None", "youtube": "None", "website": "None", "summary": "None", "logo": "None", "latitude": 45.658211365424286, "longitude": -62.81245543993171}, "118804962RR0001": {"name": "BETHEL CEMETERY FUND", "designationCode": "C", "categoryCode": "59", "address": "BOX 224", "city": "TREHERNE", "province": "MB", "country": "CA", "postalCode": "R0G2V0", "twitter": "None", "instagram": "None", "facebook": "None", "youtube": "None", "website": "None", "summary": "None", "logo": "None", "latitude": 49.635710000000074, "longitude": -98.69734999999997}, "118804988RR0001": {"name": "BETHEL CHAPEL", "designationCode": "C", "categoryCode": "39", "address": "355 DUNVEGAN DR", "city": "WATERLOO", "province": "ON", "country": "CA", "postalCode": "N2K1W7", "twitter": "None", "instagram": "None", "facebook": "None", "youtube": "None", "website": "None", "summary": "None", "logo": "None", "latitude": 43.49271097140637, "longitude": -80.50252175105307}, "888298643RR0001": {"name": "BETHEL CHAPEL", "designationCode": "C", "categoryCode": "36", "address": "200 MAIN ST", "city": "SELKIRK", "province": "MB", "country": "CA", "postalCode": "R1A1R6", "twitter": "None", "instagram": "None", "facebook": "None", "youtube": "None", "website": "None", "summary": "None", "logo": "None", "latitude": 50.135466918482656, "longitude": -96.88287941219603}, "118805019RR0001": {"name": "BETHEL CHAPEL - POINTE CLAIRE", "designationCode": "C", "categoryCode": "39", "address": "105 DIEPPE ST COR OF HASTINGS", "city": "POINTE CLAIRE", "province": "QC", "country": "CA", "postalCode": "H9R1X5", "twitter": "None", "instagram": "None", "facebook": "None", "youtube": "None", "website": "None", "summary": "None", "logo": "None", "latitude": 45.456609046655714, "longitude": -73.80956563561062}, "869091728RR0001": {"name": "BETHEL CHINESE CHRISTIAN MENNONITE BRETHREN CHURCH", "designationCode": "C", "categoryCode": "34", "address": "3215 SCHOOL AVE", "city": "VANCOUVER", "province": "BC", "country": "CA", "postalCode": "V5R5N2", "twitter": "None", "instagram": "None", "facebook": "None", "youtube": "None", "website": "None", "summary": "None", "logo": "None", "latitude": 49.23278548349581, "longitude": -123.03675046182707}, "888604295RR0001": {"name": "BETHEL CHRISTIAN ACADEMY SOCIETY", "designationCode": "C", "categoryCode": "20", "address": "252 SHAWNEE GDNS SW", "city": "CALGARY", "province": "AB", "country": "CA", "postalCode": "T2Y2V1", "twitter": "None", "instagram": "None", "facebook": "None", "youtube": "None", "website": "None", "summary": "None", "logo": "None", "latitude": 50.928489808471504, "longitude": -114.09437336277325}, "840879712RR0001": {"name": "BETHEL CHRISTIAN ASSEMBLY", "designationCode": "C", "categoryCode": "36", "address": "440 RICHMOND AVE", "city": "BRANDON", "province": "MB", "country": "CA", "postalCode": "R7A6E9", "twitter": "None", "instagram": "None", "facebook": "None", "youtube": "None", "website": "None", "summary": "None", "logo": "None", "latitude": 49.827277455048886, "longitude": -99.94372460521171}, "831677273RR0001": {"name": "BETHEL CHRISTIAN CENTRE SOCIETY", "designationCode": "C", "categoryCode": "36", "address": "623 GORDON RD", "city": "NELSON", "province": "BC", "country": "CA", "postalCode": "V1L5X6", "twitter": "None", "instagram": "None", "facebook": "None", "youtube": "None", "website": "None", "summary": "None", "logo": "None", "latitude": 49.5081609673008, "longitude": -117.27763146699752}, "131611576RR0001": {"name": "BETHEL CHRISTIAN CHURCH", "designationCode": "C", "categoryCode": "39", "address": "BOX 70", "city": "COTTAM", "province": "ON", "country": "CA", "postalCode": "N0R1B0", "twitter": "None", "instagram": "None", "facebook": "None", "youtube": "None", "website": "None", "summary": "None", "logo": "None", "latitude": 42.11613700973626, "longitude": -82.78452863283633}, "131460586RR0002": {"name": "BETHEL CHRISTIAN FELLOWSHIP", "designationCode": "C", "categoryCode": "36", "address": "128 MAIN ST BOX 242", "city": "BOBCAYGEON", "province": "ON", "country": "CA", "postalCode": "K0M1A0", "twitter": "None", "instagram": "None", "facebook": "None", "youtube": "None", "website": "None", "summary": "None", "logo": "None", "latitude": 44.543713462403986, "longitude": -78.54443909065701}, "106788813RR0001": {"name": "BETHEL CHRISTIAN REFORMED CHURCH", "designationCode": "C", "categoryCode": "39", "address": "RR 5", "city": "LACOMBE", "province": "AB", "country": "CA", "postalCode": "T4L2N5", "twitter": "None", "instagram": "None", "facebook": "None", "youtube": "None", "website": "None", "summary": "None", "logo": "None", "latitude": 52.463094000000055, "longitude": -113.73671149999993}, "118805076RR0001": {"name": "BETHEL CHRISTIAN REFORMED CHURCH", "designationCode": "C", "categoryCode": "39", "address": "PO BOX 345", "city": "BROCKVILLE", "province": "ON", "country": "CA", "postalCode": "K6V5V5", "twitter": "None", "instagram": "None", "facebook": "None", "youtube": "None", "website": "None", "summary": "None", "logo": "None", "latitude": 44.59037100000006, "longitude": -75.68301049999994}, "131582868RR0001": {"name": "BETHEL CHRISTIAN REFORMED CHURCH", "designationCode": "C", "categoryCode": "39", "address": "SITE 403, BOX 310             RR4 LCD MAIN", "city": "SASKATOON", "province": "SK", "country": "CA", "postalCode": "S7K3J7", "twitter": "None", "instagram": "None", "facebook": "None", "youtube": "None", "website": "None", "summary": "None", "logo": "None", "latitude": 52.11669599999999, "longitude": -106.65016382680628}, "132201021RR0001": {"name": "BETHEL CHRISTIAN REFORMED CHURCH OF ACTON ONT.", "designationCode": "C", "categoryCode": "39", "address": "PO BOX 369", "city": "ACTON", "province": "ON", "country": "CA", "postalCode": "L7J2M6", "twitter": "None", "instagram": "None", "facebook": "None", "youtube": "None", "website": "None", "summary": "None", "logo": "None", "latitude": 43.630719000000056, "longitude": -80.04032449999994}, "826506255RR0001": {"name": "BETHEL CHRISTIAN REFORMED CHURCH OF DUNNVILLE", "designationCode": "C", "categoryCode": "39", "address": "17 ROBINSON RD                RR 1", "city": "DUNNVILLE", "province": "ON", "country": "CA", "postalCode": "N1A2W1", "twitter": "None", "instagram": "None", "facebook": "None", "youtube": "None", "website": "None", "summary": "None", "logo": "None", "latitude": 42.91046534502831, "longitude": -79.6367177627958}, "886987395RR0001": {"name": "BETHEL CHRISTIAN REFORMED CHURCH OF EDMONTON", "designationCode": "C", "categoryCode": "39", "address": "14204 25 ST", "city": "EDMONTON", "province": "AB", "country": "CA", "postalCode": "T5Y1G5", "twitter": "None", "instagram": "None", "facebook": "None", "youtube": "None", "website": "None", "summary": "None", "logo": "None", "latitude": 53.60599318067981, "longitude": -113.38157587515116}, "828968875RR0001": {"name": "BETHEL CHRISTIAN REFORMED CHURCH OF LONDON", "designationCode": "C", "categoryCode": "39", "address": "716 CLASSIC DR", "city": "LONDON", "province": "ON", "country": "CA", "postalCode": "N5W5V6", "twitter": "None", "instagram": "None", "facebook": "None", "youtube": "None", "website": "None", "summary": "None", "logo": "None", "latitude": 42.97816456985366, "longitude": -81.16914794454347}, "123289464RR0001": {"name": "BETHEL CHRISTIAN REFORMED CHURCH OF NEWMARKET ONTARIO", "designationCode": "C", "categoryCode": "39", "address": "333 DAVIS DR", "city": "NEWMARKET", "province": "ON", "country": "CA", "postalCode": "L3Y2N6", "twitter": "None", "instagram": "None", "facebook": "None", "youtube": "None", "website": "None", "summary": "None", "logo": "None", "latitude": 44.058226136303105, "longitude": -79.46538758272251}, "131131815RR0001": {"name": "BETHEL CHRISTIAN REFORMED CHURCH OF WATERDOWN", "designationCode": "C", "categoryCode": "39", "address": "PO BOX 795", "city": "WATERDOWN", "province": "ON", "country": "CA", "postalCode": "L0R2H0", "twitter": "None", "instagram": "None", "facebook": "None", "youtube": "None", "website": "None", "summary": "None", "logo": "None", "latitude": 43.329109500000015, "longitude": -79.8842655}, "106788409RR0001": {"name": "BETHEL CHURCH", "designationCode": "C", "categoryCode": "39", "address": "314 JOHNSON ST", "city": "KINGSTON", "province": "ON", "country": "CA", "postalCode": "K7L1Y7", "twitter": "None", "instagram": "None", "facebook": "None", "youtube": "None", "website": "None", "summary": "None", "logo": "None", "latitude": 44.231025699953946, "longitude": -76.49171817652486}, "890175771RR0001": {"name": "BETHEL CHURCH", "designationCode": "C", "categoryCode": "39", "address": "10343 PINEHURST LINE          RR 3", "city": "CHATHAM", "province": "ON", "country": "CA", "postalCode": "N7M5J3", "twitter": "None", "instagram": "None", "facebook": "None", "youtube": "None", "website": "None", "summary": "None", "logo": "None", "latitude": 42.394594366257635, "longitude": -82.0735162664571}, "856905849RR0001": {"name": "BETHEL CHURCH BETHANY CONGREGATION", "designationCode": "C", "categoryCode": "39", "address": "5362 FOXMILL COURT", "city": "MISSISSAGA", "province": "ON", "country": "CA", "postalCode": "L5M5B6", "twitter": "None", "instagram": "None", "facebook": "None", "youtube": "None", "website": "None", "summary": "None", "logo": "None", "latitude": 43.5691184471119, "longitude": -79.7127437235846}, "106788862RR0001": {"name": "BETHEL CHURCH OF KELOWNA", "designationCode": "C", "categoryCode": "31", "address": "2663 CURTS STREET", "city": "KELOWNA", "province": "BC", "country": "CA", "postalCode": "V1Y2T8", "twitter": "None", "instagram": "None", "facebook": "None", "youtube": "None", "website": "None", "summary": "None", "logo": "None", "latitude": 49.866673657514184, "longitude": -119.48539922954066}, "118805209RR0001": {"name": "BETHEL COMMUNITY CEMETERY", "designationCode": "C", "categoryCode": "59", "address": "106140 SOUTHGATE RD 10        RR 5", "city": "DUNDALK", "province": "ON", "country": "CA", "postalCode": "N0C1B0", "twitter": "None", "instagram": "None", "facebook": "None", "youtube": "None", "website": "None", "summary": "None", "logo": "None", "latitude": 44.07580786427381, "longitude": -80.47242719816495}, "118805829RR0001": {"name": "BETHEL COMMUNITY CHURCH", "designationCode": "C", "categoryCode": "36", "address": "BOX 90", "city": "MARLBANK", "province": "ON", "country": "CA", "postalCode": "K0K2L0", "twitter": "None", "instagram": "None", "facebook": "None", "youtube": "None", "website": "None", "summary": "None", "logo": "None", "latitude": 44.44912539499911, "longitude": -77.2013498550461}, "871436549RR0001": {"name": "BETHEL COMMUNITY CHURCH", "designationCode": "C", "categoryCode": "36", "address": "13747 HWY 7", "city": "SOUTH LOCHABER", "province": "NS", "country": "CA", "postalCode": "B2G2L3", "twitter": "None", "instagram": "None", "facebook": "None", "youtube": "None", "website": "None", "summary": "None", "logo": "None", "latitude": 45.38054426582466, "longitude": -62.043849012860086}, "888444403RR0001": {"name": "BETHEL COMMUNITY CHURCH INC", "designationCode": "C", "categoryCode": "36", "address": "430 LAKEWOOD BLVD", "city": "WINNIPEG", "province": "MB", "country": "CA", "postalCode": "R2J4B6", "twitter": "None", "instagram": "None", "facebook": "None", "youtube": "None", "website": "None", "summary": "None", "logo": "None", "latitude": 49.84270917926618, "longitude": -97.07410613673581}, "128793049RR0001": {"name": "BETHEL COMMUNITY CHURCH OF BARRIE", "designationCode": "C", "categoryCode": "39", "address": "128 ST.VINCENT ST.", "city": "BARRIE", "province": "ON", "country": "CA", "postalCode": "L4M3Y8", "twitter": "None", "instagram": "None", "facebook": "None", "youtube": "None", "website": "None", "summary": "None", "logo": "None", "latitude": 44.398283731606014, "longitude": -79.6776454318771}, "118805241RR0001": {"name": "BETHEL CONSERVATIVE MENNONITE CHURCH", "designationCode": "C", "categoryCode": "34", "address": "PO BOX 59", "city": "NEWTON", "province": "ON", "country": "CA", "postalCode": "N0K1R0", "twitter": "None", "instagram": "None", "facebook": "None", "youtube": "None", "website": "None", "summary": "None", "logo": "None", "latitude": 43.59006000000005, "longitude": -80.87868999999995}, "855414926RR0001": {"name": "BETHEL EMC FELLOWSHIP", "designationCode": "C", "categoryCode": "39", "address": "BOX 4 SITE 11                 RR 2", "city": "CARSTAIRS", "province": "AB", "country": "CA", "postalCode": "T0M0N0", "twitter": "None", "instagram": "None", "facebook": "None", "youtube": "None", "website": "None", "summary": "None", "logo": "None", "latitude": 51.5607615, "longitude": -114.0983865}, "899941405RR0001": {"name": "BETHEL ERITREAN EVANGELICAL CHURCH EDMONTON", "designationCode": "C", "categoryCode": "39", "address": "6740 121 AVE NW", "city": "EDMONTON", "province": "AB", "country": "CA", "postalCode": "T5B0Y6", "twitter": "None", "instagram": "None", "facebook": "None", "youtube": "None", "website": "None", "summary": "None", "logo": "None", "latitude": 53.57516351543632, "longitude": -113.44626}, "106788938RR0001": {"name": "BETHEL EVANGELICAL FREE CHURCH OF VAUXHALL", "designationCode": "C", "categoryCode": "39", "address": "BOX 469", "city": "VAUXHALL", "province": "AB", "country": "CA", "postalCode": "T0K2K0", "twitter": "None", "instagram": "None", "facebook": "None", "youtube": "None", "website": "None", "summary": "None", "logo": "None", "latitude": 50.070880000000045, "longitude": -112.09733999999997}, "118805282RR0001": {"name": "BETHEL EVANGELICAL LUTHERAN CHURCH", "designationCode": "C", "categoryCode": "32", "address": "4102 73 STREET", "city": "CAMROSE", "province": "AB", "country": "CA", "postalCode": "T4V4G4", "twitter": "None", "instagram": "None", "facebook": "None", "youtube": "None", "website": "None", "summary": "None", "logo": "None", "latitude": 53.00803427416504, "longitude": -112.86565701762844}, "118805274RR0001": {"name": "BETHEL EVANGELICAL MISSIONARY CHURCH", "designationCode": "C", "categoryCode": "39", "address": "BOX 572", "city": "HANNA", "province": "AB", "country": "CA", "postalCode": "T0J1P0", "twitter": "None", "instagram": "None", "facebook": "None", "youtube": "None", "website": "None", "summary": "None", "logo": "None", "latitude": 51.64780345530559, "longitude": -111.93814762829588}, "118805662RR0001": {"name": "BETHEL EVANGELICAL MISSIONARY CHURCH", "designationCode": "C", "categoryCode": "39", "address": "1531 BRIDGE ST., BOX 250", "city": "NEW DUNDEE", "province": "ON", "country": "CA", "postalCode": "N0B2E0", "twitter": "None", "instagram": "None", "facebook": "None", "youtube": "None", "website": "None", "summary": "None", "logo": "None", "latitude": 43.348838165453806, "longitude": -80.53818370046754}, "119042406RR0001": {"name": "BETHEL EVANGELICAL MISSIONARY CHURCH", "designationCode": "C", "categoryCode": "39", "address": "PO BOX 970                    18 FERNDALE ROAD", "city": "LION'S HEAD", "province": "ON", "country": "CA", "postalCode": "N0H1W0", "twitter": "None", "instagram": "None", "facebook": "None", "youtube": "None", "website": "None", "summary": "None", "logo": "None", "latitude": 44.97976000199057, "longitude": -81.25716766905171}, "805000791RR0001": {"name": "BETHEL EVANGELICAL MISSIONARY CHURCH (LINDSAY)", "designationCode": "C", "categoryCode": "39", "address": "70 WILLIAM ST S", "city": "LINDSAY", "province": "ON", "country": "CA", "postalCode": "K9V3A8", "twitter": "None", "instagram": "None", "facebook": "None", "youtube": "None", "website": "None", "summary": "None", "logo": "None", "latitude": 44.35192293384571, "longitude": -78.73559539322204}, "893671123RR0001": {"name": "BETHEL FAMILY CHURCH", "designationCode": "C", "categoryCode": "36", "address": "PO BOX 16-83 RESERVE ST", "city": "GLACE BAY", "province": "NS", "country": "CA", "postalCode": "B1A5V1", "twitter": "None", "instagram": "None", "facebook": "None", "youtube": "None", "website": "None", "summary": "None", "logo": "None", "latitude": 46.19241166720538, "longitude": -59.96993870982171}, "118805316RR0001": {"name": "BETHEL FELLOWSHIP CHURCH OF THREE HILLS", "designationCode": "C", "categoryCode": "39", "address": "BOX 807", "city": "THREE HILLS", "province": "AB", "country": "CA", "postalCode": "T0M2A0", "twitter": "None", "instagram": "None", "facebook": "None", "youtube": "None", "website": "None", "summary": "None", "logo": "None", "latitude": 52.38329400000001, "longitude": -114.606927}, "854760709RR0001": {"name": "BETHEL FULL GOSPEL CENTRE", "designationCode": "C", "categoryCode": "39", "address": "544 JUBILEE ROAD              ROUTE NO 1", "city": "MUNCEY", "province": "ON", "country": "CA", "postalCode": "N0L1Y0", "twitter": "None", "instagram": "None", "facebook": "None", "youtube": "None", "website": "None", "summary": "None", "logo": "None", "latitude": 42.80399591286637, "longitude": -81.44578904961297}, "118805365RR0001": {"name": "BETHEL GOSPEL CAMP ASSOCIATION INC.", "designationCode": "C", "categoryCode": "56", "address": "BOX 1270", "city": "MEADOW LAKE", "province": "SK", "country": "CA", "postalCode": "S9X1Y9", "twitter": "None", "instagram": "None", "facebook": "None", "youtube": "None", "website": "None", "summary": "None", "logo": "None", "latitude": 54.13326000000005, "longitude": -108.45203299999993}, "118805381RR0001": {"name": "BETHEL GOSPEL CHAPEL", "designationCode": "C", "categoryCode": "39", "address": "SHEPHERDSON RD", "city": "NEW LISKEARD", "province": "ON", "country": "CA", "postalCode": "P0J1P0", "twitter": "None", "instagram": "None", "facebook": "None", "youtube": "None", "website": "None", "summary": "None", "logo": "None", "latitude": 47.498311872440276, "longitude": -79.69560048407887}, "118805399RR0001": {"name": "BETHEL GOSPEL CHAPEL", "designationCode": "C", "categoryCode": "39", "address": "126 WALLACE HEIGHTS DR", "city": "NORTH BAY", "province": "ON", "country": "CA", "postalCode": "P1C1E6", "twitter": "None", "instagram": "None", "facebook": "None", "youtube": "None", "website": "None", "summary": "None", "logo": "None", "latitude": 46.338406059697455, "longitude": -79.43895438591389}, "118805373RR0001": {"name": "BETHEL GOSPEL CHAPEL MONTREAL INC.", "designationCode": "C", "categoryCode": "39", "address": "4250 DE MAISONNEUVE WEST", "city": "MONTREAL", "province": "QC", "country": "CA", "postalCode": "H3Z1K6", "twitter": "None", "instagram": "None", "facebook": "None", "youtube": "None", "website": "None", "summary": "None", "logo": "None", "latitude": 45.48606055952455, "longitude": -73.59037154036598}, "118805407RR0001": {"name": "BETHEL GOSPEL CHAPEL OF EDMONTON", "designationCode": "C", "categoryCode": "39", "address": "11461 95 STREET", "city": "EDMONTON", "province": "AB", "country": "CA", "postalCode": "T5G1L3", "twitter": "None", "instagram": "None", "facebook": "None", "youtube": "None", "website": "None", "summary": "None", "logo": "None", "latitude": 53.5654805029142, "longitude": -113.48713374906251}, "107764573RR0013": {"name": "BETHEL GOSPEL CHAPEL OF WANHAM", "designationCode": "C", "categoryCode": "39", "address": "BOX 186", "city": "WANHAM", "province": "AB", "country": "CA", "postalCode": "T0H3P0", "twitter": "None", "instagram": "None", "facebook": "None", "youtube": "None", "website": "None", "summary": "None", "logo": "None", "latitude": 55.736980000000074, "longitude": -118.38859999999994}, "845700558RR0001": {"name": "BETHEL GOSPEL MISSION", "designationCode": "C", "categoryCode": "36", "address": "6694 KNIGHT ST", "city": "VANCOUVER", "province": "BC", "country": "CA", "postalCode": "V5P2W2", "twitter": "None", "instagram": "None", "facebook": "None", "youtube": "None", "website": "None", "summary": "None", "logo": "None", "latitude": 49.22352782653357, "longitude": -123.07734045833595}, "837425883RR0001": {"name": "BETHEL GOSPEL TABERNACLE (HAMILTON) INCORPORATED", "designationCode": "C", "categoryCode": "36", "address": "1355 UPPER WELLINGTON ST.", "city": "HAMILTON", "province": "ON", "country": "CA", "postalCode": "L9A3S8", "twitter": "None", "instagram": "None", "facebook": "None", "youtube": "None", "website": "None", "summary": "None", "logo": "None", "latitude": 43.211299076317225, "longitude": -79.87816024975498}, "118805449RR0001": {"name": "BETHEL HISTORICAL SOCIETY", "designationCode": "C", "categoryCode": "50", "address": "BOX 137", "city": "YOUNG", "province": "SK", "country": "CA", "postalCode": "S0K4Y0", "twitter": "None", "instagram": "None", "facebook": "None", "youtube": "None", "website": "None", "summary": "None", "logo": "None", "latitude": 51.645185999999995, "longitude": -105.01297424999998}, "118805456RR0001": {"name": "BETHEL HOLINESS CAMP", "designationCode": "C", "categoryCode": "39", "address": "2-217 NEWBURGH RD", "city": "NAPANEE", "province": "ON", "country": "CA", "postalCode": "K7R1C8", "twitter": "None", "instagram": "None", "facebook": "None", "youtube": "None", "website": "None", "summary": "None", "logo": "None", "latitude": 44.261319613941886, "longitude": -76.94991003026708}, "889401907RR0001": {"name": "BETHEL HOLINESS PENTECOSTAL APOSTOLIC MINISTRIES INCORPORATED", "designationCode": "C", "categoryCode": "46", "address": "45 PARSELL SQUARE", "city": "SCARBOROUGH", "province": "ON", "country": "CA", "postalCode": "M1B2A5", "twitter": "None", "instagram": "None", "facebook": "None", "youtube": "None", "website": "None", "summary": "None", "logo": "None", "latitude": 43.79670086037866, "longitude": -79.21394637010218}, "743264293RR0001": {"name": "BETHEL HOUSE OF GRACE", "designationCode": "B", "categoryCode": "39", "address": "309-51 PARKWOODS VILLAGE DRIVE", "city": "NORTH YORK", "province": "ON", "country": "CA", "postalCode": "M3A2X1", "twitter": "None", "instagram": "None", "facebook": "None", "youtube": "None", "website": "None", "summary": "None", "logo": "None", "latitude": 43.75885649157213, "longitude": -79.32028998876284}, "875386229RR0001": {"name": "BETHEL INTERNATIONAL CHURCH", "designationCode": "C", "categoryCode": "36", "address": "739 E 33RD AVE", "city": "VANCOUVER", "province": "BC", "country": "CA", "postalCode": "V5V3A1", "twitter": "None", "instagram": "None", "facebook": "None", "youtube": "None", "website": "None", "summary": "None", "logo": "None", "latitude": 49.24032245325739, "longitude": -123.08966058090485}}