{"108204348RR0001": {"name": "WESTVIEW PRESBYTERIAN CHURCH", "designationCode": "C", "categoryCode": "39", "address": "233 WESTVIEW BLVD", "city": "TORONTO", "province": "ON", "country": "CA", "postalCode": "M4B3J7", "twitter": "None", "instagram": "None", "facebook": "None", "youtube": "None", "website": "None", "summary": "None", "logo": "None", "latitude": 43.7133037374344, "longitude": -79.30524475976698}, "892897463RR0001": {"name": "WESTVIEW SCHOOL PARENTS ASSOCIATION", "designationCode": "C", "categoryCode": "21", "address": "407 WOLVERINE DR", "city": "FORT MCMURRAY", "province": "AB", "country": "CA", "postalCode": "T9H4S6", "twitter": "None", "instagram": "None", "facebook": "None", "youtube": "None", "website": "None", "summary": "None", "logo": "None", "latitude": 56.726386454411234, "longitude": -111.45078084387447}, "119296135RR0001": {"name": "WESTVIEW UNITED CHURCH,", "designationCode": "C", "categoryCode": "44", "address": "355 BRADBROOKE DRIVE", "city": "YORKTON", "province": "SK", "country": "CA", "postalCode": "S3N2K7", "twitter": "None", "instagram": "None", "facebook": "None", "youtube": "None", "website": "None", "summary": "None", "logo": "None", "latitude": 51.20230547893591, "longitude": -102.47756225468373}, "108038068RR0001": {"name": "WESTVILLE PASTORAL CHARGE", "designationCode": "C", "categoryCode": "44", "address": "BOX 817", "city": "WESTVILLE", "province": "NS", "country": "CA", "postalCode": "B0K2A0", "twitter": "None", "instagram": "None", "facebook": "None", "youtube": "None", "website": "None", "summary": "None", "logo": "None", "latitude": 45.559140000000056, "longitude": -62.70123049999994}, "131801508RR0001": {"name": "WESTWAY CHRISTIAN CHURCH", "designationCode": "C", "categoryCode": "39", "address": "6 KILBURN PLACE", "city": "ETOBICOKE", "province": "ON", "country": "CA", "postalCode": "M9R2X5", "twitter": "None", "instagram": "None", "facebook": "None", "youtube": "None", "website": "None", "summary": "None", "logo": "None", "latitude": 43.68531562308849, "longitude": -79.55364486193652}, "119288918RR0419": {"name": "WESTWAY CONGREGATION OF JEHOVAH'S WITNESSES", "designationCode": "C", "categoryCode": "61", "address": "510 - 40 DIXINGTON CRES", "city": "ETOBICOKE", "province": "ON", "country": "CA", "postalCode": "M9P2K8", "twitter": "None", "instagram": "None", "facebook": "None", "youtube": "None", "website": "None", "summary": "None", "logo": "None", "latitude": 43.69702466362735, "longitude": -79.5405722670959}, "130530249RR0001": {"name": "WESTWAY UNITED CHURCH,", "designationCode": "C", "categoryCode": "44", "address": "8 TEMPLAR DR", "city": "ETOBICOKE", "province": "ON", "country": "CA", "postalCode": "M9R3C7", "twitter": "None", "instagram": "None", "facebook": "None", "youtube": "None", "website": "None", "summary": "None", "logo": "None", "latitude": 43.68770120982172, "longitude": -79.55468283210213}, "867875387RR0001": {"name": "WESTWIND PARENT ADVISORY COUNCIL", "designationCode": "C", "categoryCode": "21", "address": "11371 KING FISHER DR", "city": "RICHMOND", "province": "BC", "country": "CA", "postalCode": "V7E4Y6", "twitter": "None", "instagram": "None", "facebook": "None", "youtube": "None", "website": "None", "summary": "None", "logo": "None", "latitude": 49.13070000000006, "longitude": -123.16333399999994}, "106872849RR0001": {"name": "WESTWIND SCHOOL DIVISION NO. 74", "designationCode": "C", "categoryCode": "21", "address": "BOX 10                        445 MAIN STREET", "city": "CARDSTON", "province": "AB", "country": "CA", "postalCode": "T0K0K0", "twitter": "None", "instagram": "None", "facebook": "None", "youtube": "None", "website": "None", "summary": "None", "logo": "None", "latitude": 49.19637583236195, "longitude": -113.30181508104907}, "106945405RR0001": {"name": "WESTWINDS COMMUNITY CHURCH", "designationCode": "C", "categoryCode": "36", "address": "6331 176 ST", "city": "SURREY", "province": "BC", "country": "CA", "postalCode": "V3S4E9", "twitter": "None", "instagram": "None", "facebook": "None", "youtube": "None", "website": "None", "summary": "None", "logo": "None", "latitude": 49.117697245628705, "longitude": -122.73509392841464}, "140423112RR0001": {"name": "WESTWINDS MUSIC SOCIETY", "designationCode": "C", "categoryCode": "22", "address": "38-B8, 2526 BATTLEFORD AVE SW", "city": "CALGARY", "province": "AB", "country": "CA", "postalCode": "T3E7J4", "twitter": "None", "instagram": "None", "facebook": "None", "youtube": "None", "website": "None", "summary": "None", "logo": "None", "latitude": 51.017281457152535, "longitude": -114.12098083236194}, "888863065RR0001": {"name": "WESTWOLD COMMUNITY CHURCH ORGANIZATION SOCIETY", "designationCode": "C", "categoryCode": "52", "address": "5446 KAMLOOPS VERNON HWY", "city": "WESTWORLD", "province": "BC", "country": "CA", "postalCode": "V0E3B0", "twitter": "None", "instagram": "None", "facebook": "None", "youtube": "None", "website": "None", "summary": "None", "logo": "None", "latitude": 50.46930600000006, "longitude": -119.75529049999994}, "894238757RR0001": {"name": "WESTWOOD ALLIANCE CHURCH", "designationCode": "C", "categoryCode": "39", "address": "3129 OZADA AVE", "city": "COQUITLAM", "province": "BC", "country": "CA", "postalCode": "V3B2T6", "twitter": "None", "instagram": "None", "facebook": "None", "youtube": "None", "website": "None", "summary": "None", "logo": "None", "latitude": 49.28577052322662, "longitude": -122.78396241618097}, "105656870RR0001": {"name": "WESTWOOD COMMUNITY CHILD CARE INC.", "designationCode": "C", "categoryCode": "20", "address": "181 SANSOME AVE", "city": "WINNIPEG", "province": "MB", "country": "CA", "postalCode": "R3K0N8", "twitter": "None", "instagram": "None", "facebook": "None", "youtube": "None", "website": "None", "summary": "None", "logo": "None", "latitude": 49.87563151933149, "longitude": -97.30632069885743}, "141160267RR0001": {"name": "WESTWOOD COMMUNITY CHURCH", "designationCode": "C", "categoryCode": "39", "address": "1294 JOHNSON STREET", "city": "COQUITLAM", "province": "BC", "country": "CA", "postalCode": "V3B4T5", "twitter": "None", "instagram": "None", "facebook": "None", "youtube": "None", "website": "None", "summary": "None", "logo": "None", "latitude": 49.2904053275145, "longitude": -122.80142487500693}, "119296234RR0001": {"name": "WESTWOOD COMMUNITY CHURCH - MENNONITE BRETHREN", "designationCode": "C", "categoryCode": "34", "address": "401 WESTWOOD DR.", "city": "WINNIPEG", "province": "MB", "country": "CA", "postalCode": "R3K1G4", "twitter": "None", "instagram": "None", "facebook": "None", "youtube": "None", "website": "None", "summary": "None", "logo": "None", "latitude": 49.8784087535059, "longitude": -97.29331886672664}, "119288918RR1307": {"name": "WESTWOOD CONGREGATION OF JEHOVAH'S WITNESSES, VANCOUVER, B C", "designationCode": "C", "categoryCode": "61", "address": "202 - 1189 EASTWOOD STREET", "city": "COQUITLAM", "province": "BC", "country": "CA", "postalCode": "V3B7N5", "twitter": "None", "instagram": "None", "facebook": "None", "youtube": "None", "website": "None", "summary": "None", "logo": "None", "latitude": 49.283154366639735, "longitude": -122.78782142616429}, "865719595RR0001": {"name": "WESTWOOD MENNONITE BRETHREN CHURCH", "designationCode": "C", "categoryCode": "34", "address": "2658 OSPIKA BLVD", "city": "PRINCE GEORGE", "province": "BC", "country": "CA", "postalCode": "V2N2L8", "twitter": "None", "instagram": "None", "facebook": "None", "youtube": "None", "website": "None", "summary": "None", "logo": "None", "latitude": 53.8945461618097, "longitude": -122.78883539546452}, "119296267RR0001": {"name": "WESTWOOD PRESBYTERIAN CHURCH", "designationCode": "C", "categoryCode": "37", "address": "197 BROWNING BLVD", "city": "WINNIPEG", "province": "MB", "country": "CA", "postalCode": "R3K0L1", "twitter": "None", "instagram": "None", "facebook": "None", "youtube": "None", "website": "None", "summary": "None", "logo": "None", "latitude": 49.872215275578675, "longitude": -97.29375200663644}, "108204595RR0001": {"name": "WESTWOOD UNITARIAN SOCIETY", "designationCode": "C", "categoryCode": "39", "address": "11135 - 65 TH AVENUE", "city": "EDMONTON", "province": "AB", "country": "CA", "postalCode": "T6H1W9", "twitter": "None", "instagram": "None", "facebook": "None", "youtube": "None", "website": "None", "summary": "None", "logo": "None", "latitude": 53.50198849177704, "longitude": -113.5176525}, "108204629RR0001": {"name": "WESTWOOD VOCATIONAL CENTRE INC.", "designationCode": "C", "categoryCode": "20", "address": "41 HARVEST LANE", "city": "WINNIPEG", "province": "MB", "country": "CA", "postalCode": "R2Y0R3", "twitter": "None", "instagram": "None", "facebook": "None", "youtube": "None", "website": "None", "summary": "None", "logo": "None", "latitude": 49.89226007412416, "longitude": -97.28663338299968}, "119296309RR0001": {"name": "WESTWORTH UNITED CHURCH,", "designationCode": "C", "categoryCode": "44", "address": "1750 GROSVENOR AVE", "city": "WINNIPEG", "province": "MB", "country": "CA", "postalCode": "R3N0H9", "twitter": "None", "instagram": "None", "facebook": "None", "youtube": "None", "website": "None", "summary": "None", "logo": "None", "latitude": 49.867349565064494, "longitude": -97.19841539217495}, "119296325RR0001": {"name": "WESWAY INCORPORATED", "designationCode": "C", "categoryCode": "11", "address": "210-1703 VICTORIA AVE E", "city": "THUNDER BAY", "province": "ON", "country": "CA", "postalCode": "P7C1C8", "twitter": "None", "instagram": "None", "facebook": "None", "youtube": "None", "website": "None", "summary": "None", "logo": "None", "latitude": 48.3842115148594, "longitude": -89.25966997446477}, "108204751RR0001": {"name": "WETASKIWIN AND DISTRICT ASSOCIATION FOR COMMUNITY SERVICE", "designationCode": "C", "categoryCode": "11", "address": "5211-54TH ST", "city": "WETASKIWIN", "province": "AB", "country": "CA", "postalCode": "T9A1T2", "twitter": "None", "instagram": "None", "facebook": "None", "youtube": "None", "website": "None", "summary": "None", "logo": "None", "latitude": 52.97296499027649, "longitude": -113.3826621530967}, "887906964RR0001": {"name": "WETASKIWIN AND DISTRICT VICTIM SERVICES SOCIETY", "designationCode": "C", "categoryCode": "59", "address": "5005 48 AVE", "city": "WETASKIWIN", "province": "AB", "country": "CA", "postalCode": "T9A0N1", "twitter": "None", "instagram": "None", "facebook": "None", "youtube": "None", "website": "None", "summary": "None", "logo": "None", "latitude": 52.967929528420754, "longitude": -113.37575674438797}, "878451129RR0001": {"name": "WETASKIWIN COMMUNITY TRANSPORTATION SOCIETY", "designationCode": "C", "categoryCode": "09", "address": "PO BOX 6210", "city": "WETASKIWIN", "province": "AB", "country": "CA", "postalCode": "T9A2E9", "twitter": "None", "instagram": "None", "facebook": "None", "youtube": "None", "website": "None", "summary": "None", "logo": "None", "latitude": 52.96987500000006, "longitude": -113.37725149999994}, "899932412RR0001": {"name": "WETASKIWIN CONGREGATION OF JEHOVAH'S WITNESSES, ALBERTA", "designationCode": "C", "categoryCode": "61", "address": "P.O. BOX 6783", "city": "WETASKIWIN", "province": "AB", "country": "CA", "postalCode": "T9A2G4", "twitter": "None", "instagram": "None", "facebook": "None", "youtube": "None", "website": "None", "summary": "None", "logo": "None", "latitude": 52.96987500000006, "longitude": -113.37725149999994}, "108204785RR0001": {"name": "WETASKIWIN FULL GOSPEL FELLOWSHIP", "designationCode": "C", "categoryCode": "39", "address": "PO BOX 6717  STN MAIN", "city": "WETASKIWIN", "province": "AB", "country": "CA", "postalCode": "T9A2G4", "twitter": "None", "instagram": "None", "facebook": "None", "youtube": "None", "website": "None", "summary": "None", "logo": "None", "latitude": 52.96987500000006, "longitude": -113.37725149999994}, "119296416RR0001": {"name": "WETASKIWIN HEALTH FOUNDATION", "designationCode": "A", "categoryCode": "13", "address": "6910-47TH STREET", "city": "WETASKIWIN", "province": "AB", "country": "CA", "postalCode": "T9A3N3", "twitter": "None", "instagram": "None", "facebook": "None", "youtube": "None", "website": "None", "summary": "None", "logo": "None", "latitude": 52.9869542488772, "longitude": -113.36614974887719}, "119296424RR0001": {"name": "WETASKIWIN MEMORIAL FUND SOCIETY", "designationCode": "C", "categoryCode": "56", "address": "P.O. BOX 6641", "city": "WETASKIWIN", "province": "AB", "country": "CA", "postalCode": "T9A2G3", "twitter": "None", "instagram": "None", "facebook": "None", "youtube": "None", "website": "None", "summary": "None", "logo": "None", "latitude": 52.96987500000006, "longitude": -113.37725149999994}, "119296432RR0001": {"name": "WETASKIWIN MISSION CHURCH", "designationCode": "C", "categoryCode": "39", "address": "3610 56 AVE RR 3", "city": "WETASKIWIN", "province": "AB", "country": "CA", "postalCode": "T9A1X1", "twitter": "None", "instagram": "None", "facebook": "None", "youtube": "None", "website": "None", "summary": "None", "logo": "None", "latitude": 52.974423730655815, "longitude": -113.34255057377271}, "736831298RR0001": {"name": "WETASKIWIN MUSIC FESTIVAL ASSOCIATION", "designationCode": "C", "categoryCode": "22", "address": "216 PARKALLEN WAY", "city": "WETASKIWIN", "province": "AB", "country": "CA", "postalCode": "T9A3J4", "twitter": "None", "instagram": "None", "facebook": "None", "youtube": "None", "website": "None", "summary": "None", "logo": "None", "latitude": 52.97699549125744, "longitude": -113.3492870875986}, "139756357RR0001": {"name": "WETASKIWIN REGIONAL DIVISION NO. 11", "designationCode": "C", "categoryCode": "20", "address": "5515 47A AVE", "city": "WETASKIWIN", "province": "AB", "country": "CA", "postalCode": "T9A3S3", "twitter": "None", "instagram": "None", "facebook": "None", "youtube": "None", "website": "None", "summary": "None", "logo": "None", "latitude": 52.96822555395597, "longitude": -113.38850596739564}, "890822547RR0001": {"name": "WETASKIWIN SACRED HEART SCHOOL SCHOLARSHIP FOUNDATION", "designationCode": "C", "categoryCode": "21", "address": "5318-44 ST", "city": "WETASKIWIN", "province": "AB", "country": "CA", "postalCode": "T9A3P2", "twitter": "None", "instagram": "None", "facebook": "None", "youtube": "None", "website": "None", "summary": "None", "logo": "None", "latitude": 52.97216441909515, "longitude": -113.3571890875986}, "108204884RR0001": {"name": "WETASKIWIN SENIOR CITIZEN'S SOCIETY", "designationCode": "C", "categoryCode": "56", "address": "5216 54 ST", "city": "WETASKIWIN", "province": "AB", "country": "CA", "postalCode": "T9A2X1", "twitter": "None", "instagram": "None", "facebook": "None", "youtube": "None", "website": "None", "summary": "None", "logo": "None", "latitude": 52.97336103136362, "longitude": -113.38264328963002}, "106693047RR0028": {"name": "WETASKIWIN SEVENTH-DAY ADVENTIST CHURCH", "designationCode": "C", "categoryCode": "41", "address": "5816 HIGHWAY 2A", "city": "LACOMBE", "province": "AB", "country": "CA", "postalCode": "T4L2G5", "twitter": "None", "instagram": "None", "facebook": "None", "youtube": "None", "website": "None", "summary": "None", "logo": "None", "latitude": 52.474063600197404, "longitude": -113.71692568401835}, "862457959RR0001": {"name": "WETASKIWIN THEATRE SOCIETY", "designationCode": "C", "categoryCode": "22", "address": "5002 - 53 AVE", "city": "WETASKIWIN", "province": "AB", "country": "CA", "postalCode": "T9A0Y7", "twitter": "None", "instagram": "None", "facebook": "None", "youtube": "None", "website": "None", "summary": "None", "logo": "None", "latitude": 52.97193947100233, "longitude": -113.37379135053956}, "119309516RR0001": {"name": "WEXFORD HEIGHTS UNITED CHURCH", "designationCode": "C", "categoryCode": "44", "address": "2102 LAWRENCE AV E", "city": "SCARBOROUGH", "province": "ON", "country": "CA", "postalCode": "M1R2Z9", "twitter": "None", "instagram": "None", "facebook": "None", "youtube": "None", "website": "None", "summary": "None", "logo": "None", "latitude": 43.74635318016022, "longitude": -79.29027891508446}, "119296481RR0001": {"name": "WEXFORD PRESBYTERIAN CHURCH,", "designationCode": "C", "categoryCode": "37", "address": "7 ELINOR AVE", "city": "SCARBOROUGH", "province": "ON", "country": "CA", "postalCode": "M1R3H1", "twitter": "None", "instagram": "None", "facebook": "None", "youtube": "None", "website": "None", "summary": "None", "logo": "None", "latitude": 43.74476725451551, "longitude": -79.30079662833994}, "118820216RR0001": {"name": "WEXFORD RESIDENCE FOUNDATION", "designationCode": "C", "categoryCode": "01", "address": "1860 LAWRENCE AVENUE EAST", "city": "SCARBOROUGH", "province": "ON", "country": "CA", "postalCode": "M1R5B1", "twitter": "None", "instagram": "None", "facebook": "None", "youtube": "None", "website": "None", "summary": "None", "logo": "None"}, "119296572RR0001": {"name": "WEYBURN & DISTRICT PRO LIFE", "designationCode": "C", "categoryCode": "09", "address": "BOX 1201", "city": "WEYBURN", "province": "SK", "country": "CA", "postalCode": "S4H2L5", "twitter": "None", "instagram": "None", "facebook": "None", "youtube": "None", "website": "None", "summary": "None", "logo": "None", "latitude": 49.66802700000005, "longitude": -103.85818999999994}, "119296598RR0001": {"name": "WEYBURN & DISTRICT UNITED WAY", "designationCode": "C", "categoryCode": "03", "address": "PO BOX 608 STN MAIN", "city": "WEYBURN", "province": "SK", "country": "CA", "postalCode": "S4H2K7", "twitter": "None", "instagram": "None", "facebook": "None", "youtube": "None", "website": "None", "summary": "None", "logo": "None", "latitude": 49.66802700000005, "longitude": -103.85818999999994}, "119296507RR0001": {"name": "WEYBURN AGRICULTURAL SOCIETY", "designationCode": "C", "categoryCode": "56", "address": "PO BOX 699", "city": "WEYBURN", "province": "SK", "country": "CA", "postalCode": "S4H2K8", "twitter": "None", "instagram": "None", "facebook": "None", "youtube": "None", "website": "None", "summary": "None", "logo": "None", "latitude": 49.66802700000005, "longitude": -103.85818999999994}, "898509484RR0001": {"name": "WEYBURN AND AREA COUNCIL ON CHILD ABUSE INC.", "designationCode": "C", "categoryCode": "09", "address": "24-4TH ST", "city": "WEYBURN", "province": "SK", "country": "CA", "postalCode": "S4H0X7", "twitter": "None", "instagram": "None", "facebook": "None", "youtube": "None", "website": "None", "summary": "None", "logo": "None", "latitude": 49.66035311873614, "longitude": -103.8527871106406}, "137693008RR0001": {"name": "WEYBURN AREA HERITAGE CORPORATION", "designationCode": "C", "categoryCode": "52", "address": "WEYBURN CITY HALL             157 3RD STREET NE", "city": "WEYBURN", "province": "SK", "country": "CA", "postalCode": "S4H0W3", "twitter": "None", "instagram": "None", "facebook": "None", "youtube": "None", "website": "None", "summary": "None", "logo": "None", "latitude": 49.66259000000008, "longitude": -103.85351999999995}, "119296523RR0001": {"name": "WEYBURN ARTS COUNCIL CORPORATION", "designationCode": "C", "categoryCode": "22", "address": "424 10TH AVENUE SE", "city": "WEYBURN", "province": "SK", "country": "CA", "postalCode": "S4H2A1", "twitter": "None", "instagram": "None", "facebook": "None", "youtube": "None", "website": "None", "summary": "None", "logo": "None", "latitude": 49.649992973420076, "longitude": -103.85056481471744}, "134883750RR0001": {"name": "WEYBURN CARE-A-VAN INC", "designationCode": "C", "categoryCode": "09", "address": "BOX 1082", "city": "WEYBURN", "province": "SK", "country": "CA", "postalCode": "S4H2L3", "twitter": "None", "instagram": "None", "facebook": "None", "youtube": "None", "website": "None", "summary": "None", "logo": "None", "latitude": 49.66802700000005, "longitude": -103.85818999999994}, "119296606RR0001": {"name": "WEYBURN FREE METHODIST CHURCH", "designationCode": "C", "categoryCode": "39", "address": "133-14TH STREET N.E.", "city": "WEYBURN", "province": "SK", "country": "CA", "postalCode": "S4H1L5", "twitter": "None", "instagram": "None", "facebook": "None", "youtube": "None", "website": "None", "summary": "None", "logo": "None", "latitude": 49.661690437587325, "longitude": -103.83849778155557}, "108205071RR0001": {"name": "WEYBURN GROUP HOMES SOCIETY INC.", "designationCode": "C", "categoryCode": "01", "address": "PO BOX 1165", "city": "WEYBURN", "province": "SK", "country": "CA", "postalCode": "S4H2L5", "twitter": "None", "instagram": "None", "facebook": "None", "youtube": "None", "website": "None", "summary": "None", "logo": "None", "latitude": 49.66802700000005, "longitude": -103.85818999999994}, "131529299RR0001": {"name": "WEYBURN HUMANE SOCIETY INC", "designationCode": "C", "categoryCode": "54", "address": "PO BOX 1062", "city": "WEYBURN", "province": "SK", "country": "CA", "postalCode": "S4H2L3", "twitter": "None", "instagram": "None", "facebook": "None", "youtube": "None", "website": "None", "summary": "None", "logo": "None", "latitude": 49.66802700000005, "longitude": -103.85818999999994}, "119030666RR0033": {"name": "WEYBURN SEVENTH-DAY ADVENTIST CHURCH", "designationCode": "C", "categoryCode": "41", "address": "591-18TH STREET NE            MANITOBA-SASK CONFERENCE O", "city": "WEYBURN", "province": "SK", "country": "CA", "postalCode": "S4H3G9", "twitter": "None", "instagram": "None", "facebook": "None", "youtube": "None", "website": "None", "summary": "None", "logo": "None", "latitude": 49.66932300000006, "longitude": -103.83004249999993}, "889983771RR0001": {"name": "WEYBURN SPECIAL CARE HOME AUXILIARY", "designationCode": "C", "categoryCode": "19", "address": "101-1832 EAGLESHAM AVE.", "city": "WEYBURN", "province": "SK", "country": "CA", "postalCode": "S4H3A8", "twitter": "None", "instagram": "None", "facebook": "None", "youtube": "None", "website": "None", "summary": "None", "logo": "None", "latitude": 49.6642524740321, "longitude": -103.82782044131217}, "119296697RR0001": {"name": "WEYBURN WHEATLAND SENIOR CENTRE INC", "designationCode": "C", "categoryCode": "56", "address": "888-1ST AVE NE", "city": "WEYBURN", "province": "SK", "country": "CA", "postalCode": "S4H3M1", "twitter": "None", "instagram": "None", "facebook": "None", "youtube": "None", "website": "None", "summary": "None", "logo": "None", "latitude": 49.668265744016956, "longitude": -103.85003925}, "891047342RR0001": {"name": "WEYMOUTH AREA FOOD BANK", "designationCode": "C", "categoryCode": "09", "address": "BOX 70", "city": "WEYMOUTH", "province": "NS", "country": "CA", "postalCode": "B0W3T0", "twitter": "None", "instagram": "None", "facebook": "None", "youtube": "None", "website": "None", "summary": "None", "logo": "None", "latitude": 44.405940000000044, "longitude": -66.00887999999998}, "132743717RR0001": {"name": "WEYMOUTH CHURCH OF CHRIST", "designationCode": "C", "categoryCode": "39", "address": "BOX 70                        #60 WEYMOUTH FALLS ROAD", "city": "WEYMOUTH", "province": "NS", "country": "CA", "postalCode": "B0W3T0", "twitter": "None", "instagram": "None", "facebook": "None", "youtube": "None", "website": "None", "summary": "None", "logo": "None", "latitude": 44.40544588005684, "longitude": -65.99525792169223}, "119296721RR0001": {"name": "WEYMOUTH HISTORICAL SOCIETY", "designationCode": "C", "categoryCode": "50", "address": "PO BOX 70", "city": "WEYMOUTH", "province": "NS", "country": "CA", "postalCode": "B0W3T0", "twitter": "None", "instagram": "None", "facebook": "None", "youtube": "None", "website": "None", "summary": "None", "logo": "None", "latitude": 44.405940000000044, "longitude": -66.00887999999998}, "885917328RR0001": {"name": "WEYMOUTH WATERFRONT DEVELOPMENT COMMITTEE", "designationCode": "C", "categoryCode": "52", "address": "4575 MAIN STREET", "city": "WEYMOUTH", "province": "NS", "country": "CA", "postalCode": "B0W3T0", "twitter": "None", "instagram": "None", "facebook": "None", "youtube": "None", "website": "None", "summary": "None", "logo": "None", "latitude": 45.72502614669933, "longitude": -63.880233413690206}, "858758279RR0001": {"name": "WFG CHARITABLE TRUST", "designationCode": "B", "categoryCode": "05", "address": "5000 YONGE STREET             SUITE 800", "city": "TORONTO", "province": "ON", "country": "CA", "postalCode": "M2N7E9", "twitter": "None", "instagram": "None", "facebook": "None", "youtube": "None", "website": "None", "summary": "None", "logo": "None", "latitude": 43.76604959394658, "longitude": -79.41210571137957}, "119296788RR0001": {"name": "WHALLEY & DISTRICT SENIOR CITIZENS HOUSING SOCIETY", "designationCode": "C", "categoryCode": "01", "address": "9650 137 A STREET", "city": "SURREY", "province": "BC", "country": "CA", "postalCode": "V3T4H9", "twitter": "None", "instagram": "None", "facebook": "None", "youtube": "None", "website": "None", "summary": "None", "logo": "None", "latitude": 49.17772498251486, "longitude": -122.84202923922342}, "861680635RR0001": {"name": "WHATCOM MUSEUM SOCIETY", "designationCode": "C", "categoryCode": "21", "address": "835 E 22ND AVE", "city": "VANCOUVER", "province": "BC", "country": "CA", "postalCode": "V5V1V8", "twitter": "None", "instagram": "None", "facebook": "None", "youtube": "None", "website": "None", "summary": "None", "logo": "None", "latitude": 49.251032474897464, "longitude": -123.08678058090484}, "120561394RR0001": {"name": "WHEAT COUNTRY SPECIAL NEEDS SOCIETY", "designationCode": "C", "categoryCode": "11", "address": "BOX 763", "city": "VULCAN", "province": "AB", "country": "CA", "postalCode": "T0L2B0", "twitter": "None", "instagram": "None", "facebook": "None", "youtube": "None", "website": "None", "summary": "None", "logo": "None", "latitude": 50.39734000000004, "longitude": -113.25817999999998}, "860270735RR0001": {"name": "WHEAT MISSION SOCIETY IN VANCOUVER", "designationCode": "C", "categoryCode": "39", "address": "14625 108TH AVE               UPPER ROOM", "city": "SURREY", "province": "BC", "country": "CA", "postalCode": "V3R1V9", "twitter": "None", "instagram": "None", "facebook": "None", "youtube": "None", "website": "None", "summary": "None", "logo": "None", "latitude": 49.1987835148594, "longitude": -122.81695183236194}, "108205816RR0001": {"name": "WHEAT POOL GRAIN MUSEUM SOCIETY", "designationCode": "C", "categoryCode": "50", "address": "35 SUMMERFIELD RD SE", "city": "AIRDRIE", "province": "AB", "country": "CA", "postalCode": "T4B1X7", "twitter": "None", "instagram": "None", "facebook": "None", "youtube": "None", "website": "None", "summary": "None", "logo": "None", "latitude": 51.27302955785113, "longitude": -114.01029252997861}, "141048470RR0001": {"name": "WHEATLAND CHARITABLE TRUST", "designationCode": "B", "categoryCode": "39", "address": "50 1ST AVE NE", "city": "SWIFT CURRENT", "province": "SK", "country": "CA", "postalCode": "S9H4W4", "twitter": "None", "instagram": "None", "facebook": "None", "youtube": "None", "website": "None", "summary": "None", "logo": "None", "latitude": 50.282664378132, "longitude": -107.79863205289816}, "108205063RR0001": {"name": "WHEATLAND COMMUNITY CHURCH OF WEYBURN CORP.", "designationCode": "C", "categoryCode": "36", "address": "573 DIEPPE DR.", "city": "WEYBURN", "province": "SK", "country": "CA", "postalCode": "S4H2Y1", "twitter": "None", "instagram": "None", "facebook": "None", "youtube": "None", "website": "None", "summary": "None", "logo": "None", "latitude": 49.66727150432782, "longitude": -103.83071408381903}, "894473693RR0001": {"name": "WHEATLAND COUNTY FOOD BANK SOCIETY", "designationCode": "C", "categoryCode": "09", "address": "BOX 2331", "city": "STRATHMORE", "province": "AB", "country": "CA", "postalCode": "T1P1K3", "twitter": "None", "instagram": "None", "facebook": "None", "youtube": "None", "website": "None", "summary": "None", "logo": "None", "latitude": 51.041247000000055, "longitude": -113.40029149999994}, "898618970RR0001": {"name": "WHEATLAND FOUNDATION", "designationCode": "C", "categoryCode": "09", "address": "76 SECOND ST", "city": "STRATHMORE", "province": "AB", "country": "CA", "postalCode": "T1P1J8", "twitter": "None", "instagram": "None", "facebook": "None", "youtube": "None", "website": "None", "summary": "None", "logo": "None", "latitude": 51.04507010822909, "longitude": -113.39779638972212}, "892512641RR0001": {"name": "WHEATLAND LODGE FOUNDATION INC", "designationCode": "C", "categoryCode": "19", "address": "BOX 130", "city": "LEASK", "province": "SK", "country": "CA", "postalCode": "S0J1M0", "twitter": "None", "instagram": "None", "facebook": "None", "youtube": "None", "website": "None", "summary": "None", "logo": "None", "latitude": 53.01679000000007, "longitude": -106.75113999999996}, "119296846RR0001": {"name": "WHEATLAND PLUS 50 CLUB", "designationCode": "C", "categoryCode": "56", "address": "BOX 868 130-1ST AVE SW", "city": "ESTON", "province": "SK", "country": "CA", "postalCode": "S0L1A0", "twitter": "None", "instagram": "None", "facebook": "None", "youtube": "None", "website": "None", "summary": "None", "logo": "None", "latitude": 51.15060383254726, "longitude": -108.75487649917545}, "895577732RR0001": {"name": "WHEATLAND REGIONAL CENTRE FOUNDATION INC.", "designationCode": "A", "categoryCode": "09", "address": "BOX 1540", "city": "ROSETOWN", "province": "SK", "country": "CA", "postalCode": "S0L2V0", "twitter": "None", "instagram": "None", "facebook": "None", "youtube": "None", "website": "None", "summary": "None", "logo": "None", "latitude": 51.16386860615565, "longitude": -106.82425899521579}, "108205717RR0001": {"name": "WHEATLAND REGIONAL CENTRE INC.", "designationCode": "C", "categoryCode": "59", "address": "BOX 1540", "city": "ROSETOWN", "province": "SK", "country": "CA", "postalCode": "S0L2V0", "twitter": "None", "instagram": "None", "facebook": "None", "youtube": "None", "website": "None", "summary": "None", "logo": "None", "latitude": 51.16386860615565, "longitude": -106.82425899521579}, "119296861RR0001": {"name": "WHEATLANDS FELLOWSHIP CENTRE", "designationCode": "C", "categoryCode": "39", "address": "#8-2930 BROWN ROAD", "city": "SALMON ARM", "province": "BC", "country": "CA", "postalCode": "V1E3K3", "twitter": "None", "instagram": "None", "facebook": "None", "youtube": "None", "website": "None", "summary": "None", "logo": "None", "latitude": 50.70561216257715, "longitude": -119.2504324719454}, "119296895RR0001": {"name": "WHEATLEY BAPTIST CHURCH,", "designationCode": "C", "categoryCode": "31", "address": "47 TALBOT ST. EAST            P.O. BOX 99", "city": "WHEATLEY", "province": "ON", "country": "CA", "postalCode": "N0P2P0", "twitter": "None", "instagram": "None", "facebook": "None", "youtube": "None", "website": "None", "summary": "None", "logo": "None", "latitude": 42.33652368362303, "longitude": -81.9962595195439}, "119296903RR0001": {"name": "WHEATLEY LIONS CLUB CHARITABLE TRUST", "designationCode": "C", "categoryCode": "65", "address": "21331 HARBOUR ROAD            RR #1", "city": "WHEATLEY", "province": "ON", "country": "CA", "postalCode": "N0P2P0", "twitter": "None", "instagram": "None", "facebook": "None", "youtube": "None", "website": "None", "summary": "None", "logo": "None", "latitude": 42.09620889231918, "longitude": -82.45697101661976}, "894911890RR0001": {"name": "WHEATON SETTLEMENT CEMETERY INC.", "designationCode": "C", "categoryCode": "59", "address": "20 GODDARD RD", "city": "WHEATON SETTLEMENT", "province": "NB", "country": "CA", "postalCode": "E4Z3S8", "twitter": "None", "instagram": "None", "facebook": "None", "youtube": "None", "website": "None", "summary": "None", "logo": "None", "latitude": 45.996630878127334, "longitude": -65.16152464778887}, "118781087RR0001": {"name": "WHEELCHAIR SPORTS ALBERTA ASSOCIATION", "designationCode": "C", "categoryCode": "56", "address": "11759 GROAT ROAD", "city": "EDMONTON", "province": "AB", "country": "CA", "postalCode": "T5M3K6", "twitter": "None", "instagram": "None", "facebook": "None", "youtube": "None", "website": "None", "summary": "None", "logo": "None", "latitude": 53.56974075240938, "longitude": -113.54923837596016}, "119296937RR0001": {"name": "WHEELING EIGHT'S SQUARE DANCE CLUB", "designationCode": "C", "categoryCode": "56", "address": "8512-121 ST.", "city": "SURREY", "province": "BC", "country": "CA", "postalCode": "V3W9R2", "twitter": "None", "instagram": "None", "facebook": "None", "youtube": "None", "website": "None", "summary": "None", "logo": "None", "latitude": 49.15768996696297, "longitude": -122.88766837145849}, "873081715RR0001": {"name": "WHEELS FOR WELLNESS SOCIETY", "designationCode": "C", "categoryCode": "09", "address": "1894 BOLT AVENUE", "city": "COMOX", "province": "BC", "country": "CA", "postalCode": "V9M2J4", "twitter": "None", "instagram": "None", "facebook": "None", "youtube": "None", "website": "None", "summary": "None", "logo": "None", "latitude": 49.6844724532574, "longitude": -124.93047188773156}, "827475799RR0001": {"name": "WHF World Heart Foundation / FCM Fondation Coeur Monde", "designationCode": "C", "categoryCode": "11", "address": "747 SQUARE VICTORIA           SUITE 135", "city": "MONTREAL", "province": "QC", "country": "CA", "postalCode": "H2Y1N9", "twitter": "None", "instagram": "None", "facebook": "None", "youtube": "None", "website": "None", "summary": "None", "logo": "None", "latitude": 45.501525669455724, "longitude": -73.56094447348383}, "891249476RR0001": {"name": "WHISPERING PINES FELLOWSHIP CENTRE AND CAMP", "designationCode": "C", "categoryCode": "56", "address": "PO BOX 23110                  MEDICINE HAT MALL POST OFFICE", "city": "MEDICINE HAT", "province": "AB", "country": "CA", "postalCode": "T1B4C7", "twitter": "None", "instagram": "None", "facebook": "None", "youtube": "None", "website": "None", "summary": "None", "logo": "None", "latitude": 50.00588000000005, "longitude": -110.64473999999996}, "845104546RR0001": {"name": "WHISPERS OF HOPE BENEVOLENCE ASSOCIATION", "designationCode": "C", "categoryCode": "09", "address": "BOX 1561                      7212 RIVERSIDE DRIVE", "city": "GRAND FORKS", "province": "BC", "country": "CA", "postalCode": "V0H1H0", "twitter": "None", "instagram": "None", "facebook": "None", "youtube": "None", "website": "None", "summary": "None", "logo": "None", "latitude": 49.032240908244596, "longitude": -118.43526302594663}, "829110949RR0001": {"name": "WHISTLER ADAPTIVE SPORTS PROGRAM SOCIETY", "designationCode": "C", "categoryCode": "56", "address": "PO BOX 708", "city": "WHISTLER", "province": "BC", "country": "CA", "postalCode": "V0N1B0", "twitter": "None", "instagram": "None", "facebook": "None", "youtube": "None", "website": "None", "summary": "None", "logo": "None", "latitude": 50.11956600000006, "longitude": -122.95408399999994}, "879198729RR0001": {"name": "WHISTLER ANIMALS GALORE SOCIETY", "designationCode": "C", "categoryCode": "54", "address": "12-1006 LYNHAM ROAD", "city": "WHISTLER", "province": "BC", "country": "CA", "postalCode": "V0N1B1", "twitter": "None", "instagram": "None", "facebook": "None", "youtube": "None", "website": "None", "summary": "None", "logo": "None", "latitude": 50.08774720901366, "longitude": -123.03525575018769}, "123160707RR0001": {"name": "WHISTLER ARTS COUNCIL", "designationCode": "C", "categoryCode": "22", "address": "4335 BLACKCOMB WAY", "city": "WHISTLER", "province": "BC", "country": "CA", "postalCode": "V0N1B4", "twitter": "None", "instagram": "None", "facebook": "None", "youtube": "None", "website": "None", "summary": "None", "logo": "None", "latitude": 50.11780833451294, "longitude": -122.95379686145155}, "135026193RR0001": {"name": "WHISTLER BLACKCOMB FOUNDATION SOCIETY", "designationCode": "A", "categoryCode": "13", "address": "4545 BLACKCOMB WAY", "city": "WHISTLER", "province": "BC", "country": "CA", "postalCode": "V0N1B4", "twitter": "None", "instagram": "None", "facebook": "None", "youtube": "None", "website": "None", "summary": "None", "logo": "None", "latitude": 50.11495880016163, "longitude": -122.94927206904653}, "106999956RR0001": {"name": "WHISTLER CHILDREN'S CENTRE SOCIETY", "designationCode": "C", "categoryCode": "20", "address": "7146 NESTERS RD.", "city": "WHISTLER", "province": "BC", "country": "CA", "postalCode": "V0N1B7", "twitter": "None", "instagram": "None", "facebook": "None", "youtube": "None", "website": "None", "summary": "None", "logo": "None", "latitude": 50.12428150288552, "longitude": -122.9607019432454}, "868708181RR0001": {"name": "WHISTLER CHILDREN'S CHORUS", "designationCode": "C", "categoryCode": "22", "address": "8506 BUCKHORN DR", "city": "WHISTLER", "province": "BC", "country": "CA", "postalCode": "V0N1B8", "twitter": "None", "instagram": "None", "facebook": "None", "youtube": "None", "website": "None", "summary": "None", "logo": "None", "latitude": 50.141119127676106, "longitude": -122.96775275379437}, "892570219RR0001": {"name": "WHISTLER COMMUNITY CHURCH", "designationCode": "C", "categoryCode": "34", "address": "BOX 543", "city": "WHISTLER", "province": "BC", "country": "CA", "postalCode": "V0N1B0", "twitter": "None", "instagram": "None", "facebook": "None", "youtube": "None", "website": "None", "summary": "None", "logo": "None", "latitude": 50.11956600000006, "longitude": -122.95408399999994}, "138203906RR0001": {"name": "WHISTLER COMMUNITY SERVICES SOCIETY", "designationCode": "C", "categoryCode": "59", "address": "P.O. BOX 900", "city": "WHISTLER", "province": "BC", "country": "CA", "postalCode": "V0N1B0", "twitter": "None", "instagram": "None", "facebook": "None", "youtube": "None", "website": "None", "summary": "None", "logo": "None", "latitude": 50.11956600000006, "longitude": -122.95408399999994}, "856677844RR0001": {"name": "WHISTLER FILM FESTIVAL SOCIETY", "designationCode": "C", "categoryCode": "22", "address": "208 - 1200 ALPHA LAKE RD", "city": "WHISTLER", "province": "BC", "country": "CA", "postalCode": "V0N1B1", "twitter": "None", "instagram": "None", "facebook": "None", "youtube": "None", "website": "None", "summary": "None", "logo": "None", "latitude": 50.088647294477454, "longitude": -123.03893455568674}, "898835814RR0001": {"name": "WHISTLER FISHERIES STEWARDSHIP GROUP", "designationCode": "C", "categoryCode": "59", "address": "8001 HIGHWAY 99", "city": "WHISTLER", "province": "BC", "country": "CA", "postalCode": "V0N1B8", "twitter": "None", "instagram": "None", "facebook": "None", "youtube": "None", "website": "None", "summary": "None", "logo": "None", "latitude": 50.131929503758826, "longitude": -122.95360917015257}, "895263077RR0001": {"name": "WHISTLER HEALTH CARE FOUNDATION", "designationCode": "A", "categoryCode": "13", "address": "4380 LORIMER RD", "city": "WHISTLER", "province": "BC", "country": "CA", "postalCode": "V0N1B4", "twitter": "None", "instagram": "None", "facebook": "None", "youtube": "None", "website": "None", "summary": "None", "logo": "None", "latitude": 50.120371106270284, "longitude": -122.95492571734185}, "119297000RR0001": {"name": "WHISTLER MUSEUM AND ARCHIVES SOCIETY", "designationCode": "C", "categoryCode": "52", "address": "4333 MAIN STREET", "city": "WHISTLER", "province": "BC", "country": "CA", "postalCode": "V0N1B4", "twitter": "None", "instagram": "None", "facebook": "None", "youtube": "None", "website": "None", "summary": "None", "logo": "None", "latitude": 50.11759811518263, "longitude": -122.95592477829038}, "883952319RR0001": {"name": "WHISTLER PUBLIC LIBRARY", "designationCode": "C", "categoryCode": "50", "address": "4329 MAIN STREET", "city": "WHISTLER", "province": "BC", "country": "CA", "postalCode": "V0N1B4", "twitter": "None", "instagram": "None", "facebook": "None", "youtube": "None", "website": "None", "summary": "None", "logo": "None", "latitude": 50.1171334538343, "longitude": -122.95694195031454}, "886488196RR0001": {"name": "WHISTLER ROTARY CLUB FOUNDATION", "designationCode": "A", "categoryCode": "65", "address": "P.O. BOX 1121", "city": "WHISTLER", "province": "BC", "country": "CA", "postalCode": "V0N1B0", "twitter": "None", "instagram": "None", "facebook": "None", "youtube": "None", "website": "None", "summary": "None", "logo": "None", "latitude": 50.11956600000006, "longitude": -122.95408399999994}, "885905497RR0001": {"name": "WHISTLER SEARCH AND RESCUE SOCIETY", "designationCode": "C", "categoryCode": "59", "address": "8001 HIGHWAY 99", "city": "WHISTLER", "province": "BC", "country": "CA", "postalCode": "V0N1B8", "twitter": "None", "instagram": "None", "facebook": "None", "youtube": "None", "website": "None", "summary": "None", "logo": "None", "latitude": 50.131929503758826, "longitude": -122.95360917015257}, "898172416RR0001": {"name": "WHISTLER WALDORF SCHOOL SOCIETY", "designationCode": "C", "categoryCode": "20", "address": "BOX 1501", "city": "WHISTLER", "province": "BC", "country": "CA", "postalCode": "V0N1B0", "twitter": "None", "instagram": "None", "facebook": "None", "youtube": "None", "website": "None", "summary": "None", "logo": "None", "latitude": 50.11956600000006, "longitude": -122.95408399999994}, "898543061RR0001": {"name": "WHITBOURNE HERITAGE SOCIETY INC.", "designationCode": "C", "categoryCode": "52", "address": "POST OFFICE BOX 166", "city": "WHITBOURNE", "province": "NL", "country": "CA", "postalCode": "A0B3K0", "twitter": "None", "instagram": "None", "facebook": "None", "youtube": "None", "website": "None", "summary": "None", "logo": "None", "latitude": 47.40984600000006, "longitude": -53.53934299999993}, "888610847RR0002": {"name": "WHITBOURNE PASTORAL CHARGE", "designationCode": "C", "categoryCode": "44", "address": "P.O. BOX 84", "city": "WHITBOURNE", "province": "NL", "country": "CA", "postalCode": "A0B3K0", "twitter": "None", "instagram": "None", "facebook": "None", "youtube": "None", "website": "None", "summary": "None", "logo": "None", "latitude": 47.40984600000006, "longitude": -53.53934299999993}, "119297042RR0001": {"name": "WHITBY ARTS INCORPORATED", "designationCode": "C", "categoryCode": "22", "address": "1450 HENRY ST", "city": "WHITBY", "province": "ON", "country": "CA", "postalCode": "L1N0A8", "twitter": "None", "instagram": "None", "facebook": "None", "youtube": "None", "website": "None", "summary": "None", "logo": "None", "latitude": 43.861712637515204, "longitude": -78.93971506679523}}