{"825286495RR0001": {"name": "Muskoka Community Church Inc.", "designationCode": "C", "categoryCode": "39", "address": "P.O. BOX 5573 STN MAIN", "city": "HUNTSVILLE", "province": "ON", "country": "CA", "postalCode": "P1H2L5", "twitter": "None", "instagram": "None", "facebook": "None", "youtube": "None", "website": "None", "summary": "None", "logo": "None", "latitude": 45.3272438365371, "longitude": -79.21606005577384}, "840597751RR0001": {"name": "Muskoka Community Foundation", "designationCode": "A", "categoryCode": "03", "address": "440 ECCLESTONE DRIVE", "city": "BRACEBRIDGE", "province": "ON", "country": "CA", "postalCode": "P1L1Z6", "twitter": "None", "instagram": "None", "facebook": "None", "youtube": "None", "website": "None", "summary": "None", "logo": "None", "latitude": 45.016367030880474, "longitude": -79.31484894064755}, "838994937RR0001": {"name": "Muskoka Han Vision Church", "designationCode": "C", "categoryCode": "39", "address": "200 PINEDALE LANE", "city": "GRAVENHURST", "province": "ON", "country": "CA", "postalCode": "P1P1B4", "twitter": "None", "instagram": "None", "facebook": "None", "youtube": "None", "website": "None", "summary": "None", "logo": "None", "latitude": 44.91621316751218, "longitude": -79.3590762206951}, "834257412RR0001": {"name": "Muskoka Trails Council", "designationCode": "C", "categoryCode": "56", "address": "11 B TAYLOR RD.               BOX 482", "city": "BRACEBRIDGE", "province": "ON", "country": "CA", "postalCode": "P1L1T8", "twitter": "None", "instagram": "None", "facebook": "None", "youtube": "None", "website": "None", "summary": "None", "logo": "None", "latitude": 45.041747615326884, "longitude": -79.31028191286275}, "858949514RR0001": {"name": "Muskoka Woods Youth Foundation", "designationCode": "A", "categoryCode": "03", "address": "20 BAMBURGH CIR", "city": "SCARBOROUGH", "province": "ON", "country": "CA", "postalCode": "M1W3Y5", "twitter": "None", "instagram": "None", "facebook": "None", "youtube": "None", "website": "None", "summary": "None", "logo": "None", "latitude": 43.816179351116496, "longitude": -79.32523670206008}, "828218362RR0001": {"name": "Muslim Association of Milton", "designationCode": "C", "categoryCode": "60", "address": "4269 REGIONAL ROAD 25", "city": "OAKVILLE", "province": "ON", "country": "CA", "postalCode": "L6M4E9", "twitter": "None", "instagram": "None", "facebook": "None", "youtube": "None", "website": "None", "summary": "None", "logo": "None", "latitude": 43.423957340193354, "longitude": -79.76025414860727}, "849178546RR0001": {"name": "Muslim Children's Aid and Support Services", "designationCode": "C", "categoryCode": "01", "address": "1231 BONNYBANK COURT", "city": "OAKVILLE", "province": "ON", "country": "CA", "postalCode": "L6M1V7", "twitter": "None", "instagram": "None", "facebook": "None", "youtube": "None", "website": "None", "summary": "None", "logo": "None", "latitude": 43.44028343574358, "longitude": -79.72552495977826}, "882593775RR0001": {"name": "Muslim Community of Downtown Toronto", "designationCode": "C", "categoryCode": "60", "address": "710-501 ADELAIDE STREET EAST", "city": "TORONTO", "province": "ON", "country": "CA", "postalCode": "M5A4K1", "twitter": "None", "instagram": "None", "facebook": "None", "youtube": "None", "website": "None", "summary": "None", "logo": "None", "latitude": 43.652393126320256, "longitude": -79.36739551201032}, "891050387RR0001": {"name": "Muslim Community of Edmonton Mosque and Muslim House", "designationCode": "C", "categoryCode": "60", "address": "10721 86 AVE NW", "city": "EDMONTON", "province": "AB", "country": "CA", "postalCode": "T6E2M8", "twitter": "None", "instagram": "None", "facebook": "None", "youtube": "None", "website": "None", "summary": "None", "logo": "None", "latitude": 53.5219305212074, "longitude": -113.50759041618096}, "819358441RR0001": {"name": "Muslim Community Centre Saint John Inc.", "designationCode": "C", "categoryCode": "60", "address": "3 PIONEER AVE", "city": "QUISPAMSIS", "province": "NB", "country": "CA", "postalCode": "E2G0B1", "twitter": "None", "instagram": "None", "facebook": "None", "youtube": "None", "website": "None", "summary": "None", "logo": "None", "latitude": 45.4432689528247, "longitude": -65.96192895755655}, "788910891RR0001": {"name": "Muslim Council of Saskatchewan Inc.", "designationCode": "C", "categoryCode": "60", "address": "2233 HANSELMAN AVE", "city": "SASKATOON", "province": "SK", "country": "CA", "postalCode": "S7L6A7", "twitter": "None", "instagram": "None", "facebook": "None", "youtube": "None", "website": "None", "summary": "None", "logo": "None", "latitude": 52.161003586733216, "longitude": -106.67946728446455}, "800720864RR0001": {"name": "Muslim Food Bank and Community Services Society", "designationCode": "C", "categoryCode": "09", "address": "235-11590 CAMBIE RD", "city": "RICHMOND", "province": "BC", "country": "CA", "postalCode": "V6X3Z5", "twitter": "None", "instagram": "None", "facebook": "None", "youtube": "None", "website": "None", "summary": "None", "logo": "None", "latitude": 49.184479200963075, "longitude": -123.09378269676493}, "802570507RR0001": {"name": "Muslim Neighbour Nexus", "designationCode": "C", "categoryCode": "60", "address": "5442 ROSE RIDGE CRESCENT", "city": "MISSISSAUGA", "province": "ON", "country": "CA", "postalCode": "L5M7C3", "twitter": "None", "instagram": "None", "facebook": "None", "youtube": "None", "website": "None", "summary": "None", "logo": "None", "latitude": 43.551547270067424, "longitude": -79.73244842757792}, "822750022RR0001": {"name": "Muslim Resource Centre for Social Support and Integration (MRCSSI)", "designationCode": "C", "categoryCode": "09", "address": "312 - 111 WATERLOO ST", "city": "LONDON", "province": "ON", "country": "CA", "postalCode": "N6B2M4", "twitter": "None", "instagram": "None", "facebook": "None", "youtube": "None", "website": "None", "summary": "None", "logo": "None", "latitude": 42.97699346404877, "longitude": -81.2381310286223}, "848686309RR0001": {"name": "Muslim Social Services Kitchener Waterloo", "designationCode": "C", "categoryCode": "09", "address": "65 HANSON AVE", "city": "KITCHENER", "province": "ON", "country": "CA", "postalCode": "N2C2H6", "twitter": "None", "instagram": "None", "facebook": "None", "youtube": "None", "website": "None", "summary": "None", "logo": "None", "latitude": 43.42534500885816, "longitude": -80.4717904158056}, "119288918RR0234": {"name": "Musquodoboit Harbour Congregation of Jehovah's Witnesses, Musquodoboit Harbour, Nova Scotia", "designationCode": "C", "categoryCode": "61", "address": "1817 CROWELL ROAD", "city": "EAST LAWRENCE TOWN", "province": "NS", "country": "CA", "postalCode": "B2Z1N7", "twitter": "None", "instagram": "None", "facebook": "None", "youtube": "None", "website": "None", "summary": "None", "logo": "None", "latitude": 44.69318700000005, "longitude": -63.418872499999935}, "847903044RR0001": {"name": "Mustard Seed in Prince George Community Service OrganizationSociety", "designationCode": "C", "categoryCode": "09", "address": "POST OFFICE BOX 741", "city": "PRINCE GEORGE", "province": "BC", "country": "CA", "postalCode": "V2L4T3", "twitter": "None", "instagram": "None", "facebook": "None", "youtube": "None", "website": "None", "summary": "None", "logo": "None", "latitude": 53.91241800000006, "longitude": -122.74463149999994}, "846624195RR0001": {"name": "Mustard Seed Ministries", "designationCode": "C", "categoryCode": "39", "address": "75-3RD AVER                   PO BOX 289", "city": "RAPID CITY", "province": "MB", "country": "CA", "postalCode": "R0K1W0", "twitter": "None", "instagram": "None", "facebook": "None", "youtube": "None", "website": "None", "summary": "None", "logo": "None", "latitude": 50.12058896795867, "longitude": -100.02701027017355}, "813487824RR0001": {"name": "Muungano : Partners for Education in Africa", "designationCode": "C", "categoryCode": "20", "address": "502-75 ALBERT STREET", "city": "LONDON", "province": "ON", "country": "CA", "postalCode": "N6A1L7", "twitter": "None", "instagram": "None", "facebook": "None", "youtube": "None", "website": "None", "summary": "None", "logo": "None", "latitude": 42.98782501301309, "longitude": -81.25567358338634}, "822658068RR0001": {"name": "My Arms Wide Open", "designationCode": "B", "categoryCode": "09", "address": "303-371 FRONT ST WEST", "city": "TORONTO", "province": "ON", "country": "CA", "postalCode": "M5V3S8", "twitter": "None", "instagram": "None", "facebook": "None", "youtube": "None", "website": "None", "summary": "None", "logo": "None", "latitude": 43.643077120681355, "longitude": -79.39220774384337}, "749749321RR0001": {"name": "My Beloved Church", "designationCode": "C", "categoryCode": "39", "address": "530 GROVE AVE", "city": "BURNABY", "province": "BC", "country": "CA", "postalCode": "V5B4G3", "twitter": "None", "instagram": "None", "facebook": "None", "youtube": "None", "website": "None", "summary": "None", "logo": "None", "latitude": 49.27928399999999, "longitude": -122.96577838562541}, "741413892RR0001": {"name": "My Charity Fund", "designationCode": "A", "categoryCode": "03", "address": "215 - 3089 BATHURST ST", "city": "NORTH YORK", "province": "ON", "country": "CA", "postalCode": "M6A2A4", "twitter": "None", "instagram": "None", "facebook": "None", "youtube": "None", "website": "None", "summary": "None", "logo": "None", "latitude": 43.72029554232787, "longitude": -79.42995586952526}, "820298735RR0001": {"name": "My Father's House", "designationCode": "C", "categoryCode": "39", "address": "84 SPRUCE VILLAGE DR W", "city": "SPRUCE GROVE", "province": "AB", "country": "CA", "postalCode": "T7X0B9", "twitter": "None", "instagram": "None", "facebook": "None", "youtube": "None", "website": "None", "summary": "None", "logo": "None", "latitude": 53.561952754371276, "longitude": -113.8803842490625}, "838299451RR0001": {"name": "My First Wheels Inc.", "designationCode": "B", "categoryCode": "09", "address": "550 EGLINTON AVENUE WEST      PO BOX 23023", "city": "TORONTO", "province": "ON", "country": "CA", "postalCode": "M5N3A8", "twitter": "None", "instagram": "None", "facebook": "None", "youtube": "None", "website": "None", "summary": "None", "logo": "None", "latitude": 43.703240216227, "longitude": -79.41521826187311}, "859039265RR0001": {"name": "My Place Ministries", "designationCode": "C", "categoryCode": "56", "address": "6 WOODCROFT CRESCENT", "city": "WELLAND", "province": "ON", "country": "CA", "postalCode": "L3C2H7", "twitter": "None", "instagram": "None", "facebook": "None", "youtube": "None", "website": "None", "summary": "None", "logo": "None", "latitude": 42.999696, "longitude": -79.26406644460172}, "787689520RR0001": {"name": "My School Rocks", "designationCode": "C", "categoryCode": "21", "address": "3939 SELKIRK PLACE", "city": "MISSISSAUGA", "province": "ON", "country": "CA", "postalCode": "L5L3L5", "twitter": "None", "instagram": "None", "facebook": "None", "youtube": "None", "website": "None", "summary": "None", "logo": "None", "latitude": 43.555622603958554, "longitude": -79.67585153176763}, "834326605RR0001": {"name": "My Sensory Place of Durham", "designationCode": "C", "categoryCode": "11", "address": "33 EMMETT PLACE", "city": "WHITBY", "province": "ON", "country": "CA", "postalCode": "L1R2B4", "twitter": "None", "instagram": "None", "facebook": "None", "youtube": "None", "website": "None", "summary": "None", "logo": "None", "latitude": 43.91915498473656, "longitude": -78.93871772352728}, "806465779RR0001": {"name": "My Trash God's Treasure Ministries", "designationCode": "C", "categoryCode": "39", "address": "101 - 2275 UPPER MIDDLE RD E", "city": "OAKVILLE", "province": "ON", "country": "CA", "postalCode": "L6H0C3", "twitter": "None", "instagram": "None", "facebook": "None", "youtube": "None", "website": "None", "summary": "None", "logo": "None", "latitude": 43.50400725393759, "longitude": -79.67135565744674}, "804810893RR0001": {"name": "My Tribute Gift Foundation", "designationCode": "A", "categoryCode": "03", "address": "290 MAIN STREET", "city": "UNIONVILLE", "province": "ON", "country": "CA", "postalCode": "L3R2H2", "twitter": "None", "instagram": "None", "facebook": "None", "youtube": "None", "website": "None", "summary": "None", "logo": "None", "latitude": 43.873630491805685, "longitude": -79.31281878856217}, "830225876RR0001": {"name": "Myanmar Canadian Fellowship Church", "designationCode": "C", "categoryCode": "39", "address": "10238D 132 ST", "city": "SURREY", "province": "BC", "country": "CA", "postalCode": "V3T3T7", "twitter": "None", "instagram": "None", "facebook": "None", "youtube": "None", "website": "None", "summary": "None", "logo": "None", "latitude": 49.18874882564452, "longitude": -122.85642797728907}, "809490865RR0001": {"name": "Myanmar/Burma Schools Project Foundation", "designationCode": "B", "categoryCode": "21", "address": "4817 STRATHCONA RD", "city": "NORTH VANCOUVER", "province": "BC", "country": "CA", "postalCode": "V7G1G9", "twitter": "None", "instagram": "None", "facebook": "None", "youtube": "None", "website": "None", "summary": "None", "logo": "None", "latitude": 49.320181517369576, "longitude": -122.9388358289864}, "811551431RR0001": {"name": "Myasthenia Gravis Society of Canada", "designationCode": "C", "categoryCode": "11", "address": "247 HAROLD AVENUE", "city": "STOUFFVILLE", "province": "ON", "country": "CA", "postalCode": "L4A1C2", "twitter": "None", "instagram": "None", "facebook": "None", "youtube": "None", "website": "None", "summary": "None", "logo": "None", "latitude": 43.97213410687276, "longitude": -79.25543612268444}, "800851370RR0001": {"name": "Myhal Family Foundation", "designationCode": "B", "categoryCode": "03", "address": "201 - 2600 SKYMARK AVE", "city": "MISSISSAUGA", "province": "ON", "country": "CA", "postalCode": "L4W5B2", "twitter": "None", "instagram": "None", "facebook": "None", "youtube": "None", "website": "None", "summary": "None", "logo": "None", "latitude": 43.65846057865447, "longitude": -79.59871498066852}, "817491129RR0001": {"name": "Myositis Canada / Myosite Canada", "designationCode": "A", "categoryCode": "13", "address": "13523-113A STREET", "city": "EDMONTON", "province": "AB", "country": "CA", "postalCode": "T5E5C3", "twitter": "None", "instagram": "None", "facebook": "None", "youtube": "None", "website": "None", "summary": "None", "logo": "None", "latitude": 53.59779852844943, "longitude": -113.51657372352727}, "834175317RR0001": {"name": "Myung Sung Presbyterian Church of Edmonton", "designationCode": "C", "categoryCode": "37", "address": "11107 51 AVE NW", "city": "EDMONTON", "province": "AB", "country": "CA", "postalCode": "T6H0L5", "twitter": "None", "instagram": "None", "facebook": "None", "youtube": "None", "website": "None", "summary": "None", "logo": "None", "latitude": 53.48813454674263, "longitude": -113.51815144463038}, "125250357RR0001": {"name": "MA CHAMBRE INC", "designationCode": "C", "categoryCode": "01", "address": "1626 RUE SAINT-HUBERT", "city": "MONTR\u00c9AL", "province": "QC", "country": "CA", "postalCode": "H2L3Z3", "twitter": "None", "instagram": "None", "facebook": "None", "youtube": "None", "website": "None", "summary": "None", "logo": "None", "latitude": 45.51675277127953, "longitude": -73.56180267695754}, "824685945RR0001": {"name": "MA FONDATION/MA FOUNDATION", "designationCode": "B", "categoryCode": "03", "address": "115 RUE KINDERSLEY", "city": "VILLE MONT-ROYAL", "province": "QC", "country": "CA", "postalCode": "H3R1R1", "twitter": "None", "instagram": "None", "facebook": "None", "youtube": "None", "website": "None", "summary": "None", "logo": "None", "latitude": 45.51476361172019, "longitude": -73.64737137096755}, "130626567RR0001": {"name": "MA MAWI-WI-CHI-ITATA CENTRE INC", "designationCode": "C", "categoryCode": "09", "address": "445 KING STREET", "city": "WINNIPEG", "province": "MB", "country": "CA", "postalCode": "R2W2C5", "twitter": "None", "instagram": "None", "facebook": "None", "youtube": "None", "website": "None", "summary": "None", "logo": "None", "latitude": 49.908470825696845, "longitude": -97.13532271893965}, "119029866RR0001": {"name": "MA-MOW-WE-TAK FRIENDSHIP CENTRE INC.", "designationCode": "C", "categoryCode": "59", "address": "4 NELSON RD.", "city": "THOMPSON", "province": "MB", "country": "CA", "postalCode": "R8N0B4", "twitter": "None", "instagram": "None", "facebook": "None", "youtube": "None", "website": "None", "summary": "None", "logo": "None", "latitude": 55.7400213411902, "longitude": -97.84935369653743}, "881941306RR0001": {"name": "MA, mus\u00e9e d'art", "designationCode": "C", "categoryCode": "22", "address": "154 - 201 AV DALLAIRE", "city": "ROUYN-NORANDA", "province": "QC", "country": "CA", "postalCode": "J9X4T5", "twitter": "None", "instagram": "None", "facebook": "None", "youtube": "None", "website": "None", "summary": "None", "logo": "None", "latitude": 48.237029580904846, "longitude": -79.0225797559874}, "891448763RR0001": {"name": "MAADOOKII SENIORS GROUP", "designationCode": "C", "categoryCode": "56", "address": "33 MAADOOKII CRESENT          RR 5", "city": "WIARTON", "province": "ON", "country": "CA", "postalCode": "N0H2T0", "twitter": "None", "instagram": "None", "facebook": "None", "youtube": "None", "website": "None", "summary": "None", "logo": "None", "latitude": 44.90480384399729, "longitude": -81.03466963814407}, "806997078RR0001": {"name": "MAANAV SEWA SOCIETY", "designationCode": "C", "categoryCode": "20", "address": "5929 ARLINGTON ST", "city": "VANCOUVER", "province": "BC", "country": "CA", "postalCode": "V5R4N2", "twitter": "None", "instagram": "None", "facebook": "None", "youtube": "None", "website": "None", "summary": "None", "logo": "None", "latitude": 49.229980994171626, "longitude": -123.02790457441263}, "893160168RR0001": {"name": "MAANAW SEVA ASSOCIATION", "designationCode": "C", "categoryCode": "09", "address": "3555 93 ST NW", "city": "EDMONTON", "province": "AB", "country": "CA", "postalCode": "T6E6N6", "twitter": "None", "instagram": "None", "facebook": "None", "youtube": "None", "website": "None", "summary": "None", "logo": "None", "latitude": 53.46956780208701, "longitude": -113.47328627661354}, "119026706RR0001": {"name": "MAASER CHARITABLE TRUST", "designationCode": "A", "categoryCode": "05", "address": "2770 DUFFERIN STREET          SUITE 201", "city": "TORONTO", "province": "ON", "country": "CA", "postalCode": "M6B3R7", "twitter": "None", "instagram": "None", "facebook": "None", "youtube": "None", "website": "None", "summary": "None", "logo": "None", "latitude": 43.70413018067982, "longitude": -79.4525475466557}, "119026714RR0001": {"name": "MAASIM TOVIM FOUNDATION", "designationCode": "B", "categoryCode": "15", "address": "533 DOUGLAS AVE.", "city": "TORONTO", "province": "ON", "country": "CA", "postalCode": "M5M1H7", "twitter": "None", "instagram": "None", "facebook": "None", "youtube": "None", "website": "None", "summary": "None", "logo": "None", "latitude": 43.721179827630074, "longitude": -79.4281278985516}, "119044865RR0001": {"name": "MAB-MACKAY REHABILITATION CENTRE / CENTRE DE R\u00c9ADAPTATION MAB-MACKAY", "designationCode": "C", "categoryCode": "01", "address": "7010 SHERBROOKE ST. WEST", "city": "MONTREAL", "province": "QC", "country": "CA", "postalCode": "H4B1R3", "twitter": "None", "instagram": "None", "facebook": "None", "youtube": "None", "website": "None", "summary": "None", "logo": "None", "latitude": 45.45973036658242, "longitude": -73.63644348730497}, "119026722RR0001": {"name": "MABEL AND GORDON MCMILLEN FOUNDATION", "designationCode": "B", "categoryCode": "03", "address": "37 - 209 WICKSTEED AVE", "city": "EAST YORK", "province": "ON", "country": "CA", "postalCode": "M4G0B1", "twitter": "None", "instagram": "None", "facebook": "None", "youtube": "None", "website": "None", "summary": "None", "logo": "None", "latitude": 43.71295283426651, "longitude": -79.35001395002608}, "893371567RR0001": {"name": "MABEL GERTRUDE DOGGETT MEMORIAL SCHOLARSHIP SOCIETY", "designationCode": "B", "categoryCode": "23", "address": "RR 1 HUNTS PT", "city": "QUEEN'S CO", "province": "NS", "country": "CA", "postalCode": "B0T1G0", "twitter": "None", "instagram": "None", "facebook": "None", "youtube": "None", "website": "None", "summary": "None", "logo": "None", "latitude": 44.03842736390402, "longitude": -64.72975734068751}, "119026730RR0001": {"name": "MABEL HART BROOK AND MARION HILL MEMORIAL FOUNDATION", "designationCode": "C", "categoryCode": "54", "address": "1995 ROYAL RD, UNIT 113", "city": "PICKERING", "province": "ON", "country": "CA", "postalCode": "L1V6V9", "twitter": "None", "instagram": "None", "facebook": "None", "youtube": "None", "website": "None", "summary": "None", "logo": "None", "latitude": 43.84823131669446, "longitude": -79.07701664940312}, "893964866RR0001": {"name": "MABEL KNISELEY NURSES ENDOWMENT FOUNDATION", "designationCode": "C", "categoryCode": "09", "address": "65 ST. CLAIR AVENUE EAST      SUITE 800", "city": "TORONTO", "province": "ON", "country": "CA", "postalCode": "M4T2Y3", "twitter": "None", "instagram": "None", "facebook": "None", "youtube": "None", "website": "None", "summary": "None", "logo": "None", "latitude": 43.68862975102441, "longitude": -79.39141820829249}, "851763458RR0001": {"name": "MABELLEarts", "designationCode": "C", "categoryCode": "22", "address": "208 OSLER STREET", "city": "TORONTO", "province": "ON", "country": "CA", "postalCode": "M6N2Z1", "twitter": "None", "instagram": "None", "facebook": "None", "youtube": "None", "website": "None", "summary": "None", "logo": "None", "latitude": 43.669323932829386, "longitude": -79.45910467557258}, "134770015RR0001": {"name": "MABERLY AGRICULTURAL SOCIETY", "designationCode": "C", "categoryCode": "56", "address": "4884 BOLINGBROKE RD", "city": "MABERLY", "province": "ON", "country": "CA", "postalCode": "K0H2B0", "twitter": "None", "instagram": "None", "facebook": "None", "youtube": "None", "website": "None", "summary": "None", "logo": "None", "latitude": 44.83352166789694, "longitude": -76.52863642573253}, "866208002RR0001": {"name": "MABLE CHADWICK FOUNDATION", "designationCode": "B", "categoryCode": "05", "address": "418-650 WEST GEORGIA STREET", "city": "VANCOUVER", "province": "BC", "country": "CA", "postalCode": "V6B4N9", "twitter": "None", "instagram": "None", "facebook": "None", "youtube": "None", "website": "None", "summary": "None", "logo": "None", "latitude": 49.282095217179936, "longitude": -123.11767129779695}, "888164647RR0001": {"name": "MABOU AND DISTRICT COMMUNITY DEVELOPMENT ASSOCIATION", "designationCode": "C", "categoryCode": "56", "address": "PO BOX 232", "city": "MABOU", "province": "NS", "country": "CA", "postalCode": "B0E1X0", "twitter": "None", "instagram": "None", "facebook": "None", "youtube": "None", "website": "None", "summary": "None", "logo": "None", "latitude": 45.93925886245837, "longitude": -61.44986645485256}, "119026797RR0001": {"name": "MABOU GAELIC AND HISTORICAL SOCIETY", "designationCode": "C", "categoryCode": "50", "address": "BOX 175", "city": "MABOU", "province": "NS", "country": "CA", "postalCode": "B0E1X0", "twitter": "None", "instagram": "None", "facebook": "None", "youtube": "None", "website": "None", "summary": "None", "logo": "None", "latitude": 45.93925886245837, "longitude": -61.44986645485256}, "129853925RR0001": {"name": "MACADAM SUD", "designationCode": "C", "categoryCode": "59", "address": "895 RUE STE-HELENE", "city": "LONGUEIL", "province": "QC", "country": "CA", "postalCode": "J4K3R7", "twitter": "None", "instagram": "None", "facebook": "None", "youtube": "None", "website": "None", "summary": "None", "logo": "None", "latitude": 45.520595862629015, "longitude": -73.50705331167414}, "863089900RR0001": {"name": "MACANDEAF", "designationCode": "C", "categoryCode": "21", "address": "4 - 2650 RUE DAVIDSON", "city": "MONTREAL", "province": "QC", "country": "CA", "postalCode": "H1W2Z2", "twitter": "None", "instagram": "None", "facebook": "None", "youtube": "None", "website": "None", "summary": "None", "logo": "None", "latitude": 45.54559108630055, "longitude": -73.55488985013554}, "896497500RR0001": {"name": "MACASKILL HOUSE MUSEUM SOCIETY", "designationCode": "C", "categoryCode": "50", "address": "P.O. BOX 242", "city": "ST PETERS", "province": "NS", "country": "CA", "postalCode": "B0E3B0", "twitter": "None", "instagram": "None", "facebook": "None", "youtube": "None", "website": "None", "summary": "None", "logo": "None", "latitude": 45.691080000000056, "longitude": -60.747042499999935}, "119026813RR0001": {"name": "MACBECK STUDIOS INC.", "designationCode": "C", "categoryCode": "22", "address": "304-15 CASE GOODS LANE", "city": "TORONTO", "province": "ON", "country": "CA", "postalCode": "M5A3C4", "twitter": "None", "instagram": "None", "facebook": "None", "youtube": "None", "website": "None", "summary": "None", "logo": "None", "latitude": 43.649968882595665, "longitude": -79.3585262463212}, "119026821RR0001": {"name": "MACBRIDE MUSEUM SOCIETY", "designationCode": "C", "categoryCode": "50", "address": "1124 FRONT ST", "city": "WHITEHORSE", "province": "YT", "country": "CA", "postalCode": "Y1A1A4", "twitter": "None", "instagram": "None", "facebook": "None", "youtube": "None", "website": "None", "summary": "None", "logo": "None", "latitude": 60.72117852121401, "longitude": -135.05122105812313}, "867239576RR0001": {"name": "MACCUISH - MACKEIGAN CEMETERY", "designationCode": "C", "categoryCode": "59", "address": "32 TAIN STREET", "city": "SYDNEY", "province": "NS", "country": "CA", "postalCode": "B1P1Y4", "twitter": "None", "instagram": "None", "facebook": "None", "youtube": "None", "website": "None", "summary": "None", "logo": "None", "latitude": 46.12886154509784, "longitude": -60.18719367444739}, "106816523RR0001": {"name": "MACDERMOTT MEMORIAL UNITED CHURCH", "designationCode": "C", "categoryCode": "44", "address": "PO BOX 21", "city": "POOLS COVE", "province": "NL", "country": "CA", "postalCode": "A0H2B0", "twitter": "None", "instagram": "None", "facebook": "None", "youtube": "None", "website": "None", "summary": "None", "logo": "None"}, "890743578RR0001": {"name": "MACDONALD CEMETERY FUND", "designationCode": "C", "categoryCode": "59", "address": "BOX 39", "city": "MACDONALD", "province": "MB", "country": "CA", "postalCode": "R0H0S0", "twitter": "None", "instagram": "None", "facebook": "None", "youtube": "None", "website": "None", "summary": "None", "logo": "None", "latitude": 49.994901581255974, "longitude": -98.27405317253826}, "866476187RR0001": {"name": "MACDONALD DETTWILER SPACE AND ADVANCED ROBOTICS LTD EMPLOYEES CHARITY TRUST", "designationCode": "B", "categoryCode": "75", "address": "9445 AIRPORT RD", "city": "BRAMPTON", "province": "ON", "country": "CA", "postalCode": "L6S4J3", "twitter": "None", "instagram": "None", "facebook": "None", "youtube": "None", "website": "None", "summary": "None", "logo": "None", "latitude": 43.752353203213936, "longitude": -79.70742255710131}, "140716945RR0001": {"name": "MACDONALD WOOD PARK SOCIETY", "designationCode": "C", "categoryCode": "56", "address": "9-1501 BALMORAL AVE", "city": "COMOX", "province": "BC", "country": "CA", "postalCode": "V9M2R8", "twitter": "None", "instagram": "None", "facebook": "None", "youtube": "None", "website": "None", "summary": "None", "logo": "None", "latitude": 49.67407553952926, "longitude": -124.91542252553523}, "826892325RR0001": {"name": "MACDOWALL & DISTRICT RECREATION FOUNDATION INC.", "designationCode": "C", "categoryCode": "56", "address": "BOX 122", "city": "MACDOWALL", "province": "SK", "country": "CA", "postalCode": "S0K2S0", "twitter": "None", "instagram": "None", "facebook": "None", "youtube": "None", "website": "None", "summary": "None", "logo": "None", "latitude": 53.01533000000006, "longitude": -106.01252999999997}, "805275666RR0001": {"name": "MACEDONIA WORLD BAPTIST MISSIONS INTERNATIONAL / MISSIONS BAPTISTES MONDIALES MAC\u00c9DONIENNES INTERNATIONALES", "designationCode": "C", "categoryCode": "47", "address": "407, RUE SAINT-ALEXIS OUEST", "city": "TROIS-RIVI\u00c8RES", "province": "QC", "country": "CA", "postalCode": "G8W2E2", "twitter": "None", "instagram": "None", "facebook": "None", "youtube": "None", "website": "None", "summary": "None", "logo": "None", "latitude": 46.395235749379644, "longitude": -72.57888110176552}, "863439055RR0001": {"name": "MACEDONIAN CHILDREN RELIEF FUND", "designationCode": "C", "categoryCode": "09", "address": "16 CONDOTTI DRIVE", "city": "WOODBRIDGE", "province": "ON", "country": "CA", "postalCode": "L4H2C8", "twitter": "None", "instagram": "None", "facebook": "None", "youtube": "None", "website": "None", "summary": "None", "logo": "None", "latitude": 43.79377015794319, "longitude": -79.61960817805408}, "107652216RR0001": {"name": "MACEDONIAN ORTHODOX CATHEDRAL CONGREGATION ST. CLEMENT OF OHRID, TORONTO, CANADA", "designationCode": "C", "categoryCode": "39", "address": "35 - 5160 EXPLORER DR", "city": "MISSISSAUGA", "province": "ON", "country": "CA", "postalCode": "L4W4T7", "twitter": "None", "instagram": "None", "facebook": "None", "youtube": "None", "website": "None", "summary": "None", "logo": "None", "latitude": 43.66230239601279, "longitude": -79.59771749145897}, "119026904RR0001": {"name": "MACES BAY CEMETERY CORPORATION LIMITED", "designationCode": "C", "categoryCode": "59", "address": "123 MACES BAY RD", "city": "MACES BAY", "province": "NB", "country": "CA", "postalCode": "E5J1S4", "twitter": "None", "instagram": "None", "facebook": "None", "youtube": "None", "website": "None", "summary": "None", "logo": "None", "latitude": 45.1209515683827, "longitude": -66.4721990836748}, "881097430RR0001": {"name": "MACEWEN FOUNDATION", "designationCode": "A", "categoryCode": "03", "address": "PO BOX 100", "city": "MAXVILLE", "province": "ON", "country": "CA", "postalCode": "K0C1T0", "twitter": "None", "instagram": "None", "facebook": "None", "youtube": "None", "website": "None", "summary": "None", "logo": "None", "latitude": 45.28898000000004, "longitude": -74.85593999999998}, "120551759RR0001": {"name": "MACGREGOR AND AUSTIN SENIORS SUPPORT PROGRAM INCORPORATED", "designationCode": "C", "categoryCode": "59", "address": "BOX 717", "city": "MACGREGOR", "province": "MB", "country": "CA", "postalCode": "R0H0R0", "twitter": "None", "instagram": "None", "facebook": "None", "youtube": "None", "website": "None", "summary": "None", "logo": "None", "latitude": 49.965220000000045, "longitude": -98.77929999999998}, "119026938RR0001": {"name": "MACGREGOR AND DISTRICT GET TOGETHER CLUB INC.", "designationCode": "C", "categoryCode": "56", "address": "BOX 304", "city": "MACGREGOR", "province": "MB", "country": "CA", "postalCode": "R0H0R0", "twitter": "None", "instagram": "None", "facebook": "None", "youtube": "None", "website": "None", "summary": "None", "logo": "None", "latitude": 49.965220000000045, "longitude": -98.77929999999998}, "107652307RR0001": {"name": "MACGREGOR DAY NURSERY SCHOOL INC.", "designationCode": "C", "categoryCode": "20", "address": "BOX 641", "city": "MACGREGOR", "province": "MB", "country": "CA", "postalCode": "R0H0R0", "twitter": "None", "instagram": "None", "facebook": "None", "youtube": "None", "website": "None", "summary": "None", "logo": "None", "latitude": 49.965220000000045, "longitude": -98.77929999999998}, "898816624RR0001": {"name": "MACGREGOR HEALTH FOUNDATION INC.", "designationCode": "C", "categoryCode": "13", "address": "PO BOX 250", "city": "MACGREGOR", "province": "MB", "country": "CA", "postalCode": "R0H0R0", "twitter": "None", "instagram": "None", "facebook": "None", "youtube": "None", "website": "None", "summary": "None", "logo": "None", "latitude": 49.965220000000045, "longitude": -98.77929999999998}, "108087610RR0001": {"name": "MACGREGOR PASTORAL CHARGE", "designationCode": "C", "categoryCode": "44", "address": "BOX 56", "city": "MACGREGOR", "province": "MB", "country": "CA", "postalCode": "R0H0R0", "twitter": "None", "instagram": "None", "facebook": "None", "youtube": "None", "website": "None", "summary": "None", "logo": "None", "latitude": 49.965220000000045, "longitude": -98.77929999999998}, "869879445RR0001": {"name": "MACH-GAENSSLEN FOUNDATION OF CANADA", "designationCode": "B", "categoryCode": "21", "address": "PERLEY-ROBERTSON, HILL LLP    #1400-340 ALBERT STREET", "city": "OTTAWA", "province": "ON", "country": "CA", "postalCode": "K1Y0H5", "twitter": "None", "instagram": "None", "facebook": "None", "youtube": "None", "website": "None", "summary": "None", "logo": "None", "latitude": 45.39413400000005, "longitude": -75.73896799999993}, "862657103RR0001": {"name": "MACHANE ISRAEL DEVELOPMENT FUND", "designationCode": "C", "categoryCode": "47", "address": "300 LA BERGE DU CANAL         SUITE 306", "city": "LACHINE", "province": "QC", "country": "CA", "postalCode": "H8R1R3", "twitter": "None", "instagram": "None", "facebook": "None", "youtube": "None", "website": "None", "summary": "None", "logo": "None", "latitude": 45.443410739424976, "longitude": -73.64173903139226}, "803547140RR0001": {"name": "MACHINENOISY DANCE SOCIETY", "designationCode": "C", "categoryCode": "22", "address": "2150 3RD AVE E", "city": "VANCOUVER", "province": "BC", "country": "CA", "postalCode": "V5N1H8", "twitter": "None", "instagram": "None", "facebook": "None", "youtube": "None", "website": "None", "summary": "None", "logo": "None", "latitude": 49.267724524525626, "longitude": -123.06076102553521}, "119026987RR0001": {"name": "MACHRAY DAY NURSERY INC.", "designationCode": "C", "categoryCode": "20", "address": "491 SALTER ST", "city": "WINNIPEG", "province": "MB", "country": "CA", "postalCode": "R2W4M4", "twitter": "None", "instagram": "None", "facebook": "None", "youtube": "None", "website": "None", "summary": "None", "logo": "None", "latitude": 49.92505887370887, "longitude": -97.13326413777502}, "891779175RR0001": {"name": "MACHSON TZVI HERSH", "designationCode": "C", "categoryCode": "09", "address": "191 WESTHAVEN CRESCENT", "city": "OTTAWA", "province": "ON", "country": "CA", "postalCode": "K1Z7G4", "twitter": "None", "instagram": "None", "facebook": "None", "youtube": "None", "website": "None", "summary": "None", "logo": "None", "latitude": 45.388254258670464, "longitude": -75.74354967958328}, "132314501RR0001": {"name": "MACHZIKAI HADATH CONGREGATION-CLANTON PARK SYNAGOGUE,", "designationCode": "C", "categoryCode": "42", "address": "11 LOWESMOOR AVENUE", "city": "TORONTO", "province": "ON", "country": "CA", "postalCode": "M3H3H6", "twitter": "None", "instagram": "None", "facebook": "None", "youtube": "None", "website": "None", "summary": "None", "logo": "None", "latitude": 43.74557555704306, "longitude": -79.44474943418571}, "106967730RR0001": {"name": "MACHZIKEI HADAS CONGREGATION", "designationCode": "C", "categoryCode": "42", "address": "2310 VIRGINIA DRIVE", "city": "OTTAWA", "province": "ON", "country": "CA", "postalCode": "K1H6S2", "twitter": "None", "instagram": "None", "facebook": "None", "youtube": "None", "website": "None", "summary": "None", "logo": "None", "latitude": 45.386062344711185, "longitude": -75.64474282047404}, "879000016RR0001": {"name": "MACKAY & PARTNERS CHARITABLE FOUNDATION", "designationCode": "B", "categoryCode": "03", "address": "500-1620 DICKSON AVE", "city": "KELOWNA", "province": "BC", "country": "CA", "postalCode": "V1Y9Y2", "twitter": "None", "instagram": "None", "facebook": "None", "youtube": "None", "website": "None", "summary": "None", "logo": "None", "latitude": 49.880640397075474, "longitude": -119.4625129012528}, "852008978RR0001": {"name": "MACKAY CEMETERY ASSOCIATION", "designationCode": "C", "categoryCode": "59", "address": "3632 WEST BAY HIGHWAY", "city": "WEST BAY", "province": "NS", "country": "CA", "postalCode": "B0E3K0", "twitter": "None", "instagram": "None", "facebook": "None", "youtube": "None", "website": "None", "summary": "None", "logo": "None"}, "107652497RR0001": {"name": "MACKAY MANOR", "designationCode": "C", "categoryCode": "57", "address": "196 ARGYLE STREET SOUTH", "city": "RENFREW", "province": "ON", "country": "CA", "postalCode": "K7V1T5", "twitter": "None", "instagram": "None", "facebook": "None", "youtube": "None", "website": "None", "summary": "None", "logo": "None", "latitude": 45.47144901275329, "longitude": -76.68499065517324}, "103436564RR0001": {"name": "MACKAY PROJECTS INC.-LES PROJETS MACKAY INC.", "designationCode": "A", "categoryCode": "59", "address": "1000, DE LA GAUCHETIERE WEST  SUITE 900", "city": "MONTREAL", "province": "QC", "country": "CA", "postalCode": "H3B5H4", "twitter": "None", "instagram": "None", "facebook": "None", "youtube": "None", "website": "None", "summary": "None", "logo": "None", "latitude": 45.49850304466516, "longitude": -73.56695768160344}, "107652521RR0001": {"name": "MACKAY UNITED CHURCH", "designationCode": "C", "categoryCode": "44", "address": "39 DUFFERIN ROAD", "city": "OTTAWA", "province": "ON", "country": "CA", "postalCode": "K1M2H3", "twitter": "None", "instagram": "None", "facebook": "None", "youtube": "None", "website": "None", "summary": "None", "logo": "None", "latitude": 45.44042517291818, "longitude": -75.68285059827441}, "892148198RR0001": {"name": "MACKENZIE AND DISTRICT MUSEUM SOCIETY", "designationCode": "C", "categoryCode": "50", "address": "BAG 340", "city": "MACKENZIE", "province": "BC", "country": "CA", "postalCode": "V0J2C0", "twitter": "None", "instagram": "None", "facebook": "None", "youtube": "None", "website": "None", "summary": "None", "logo": "None", "latitude": 55.3373279686364, "longitude": -123.09455975595782}, "119027084RR0001": {"name": "MACKENZIE ART GALLERY INCORPORATED", "designationCode": "C", "categoryCode": "22", "address": "3475 ALBERT STREET", "city": "REGINA", "province": "SK", "country": "CA", "postalCode": "S4S6X6", "twitter": "None", "instagram": "None", "facebook": "None", "youtube": "None", "website": "None", "summary": "None", "logo": "None", "latitude": 50.42383448577209, "longitude": -104.61803554173005}, "891191447RR0001": {"name": "MACKENZIE AUTUMN LODGE SOCIETY", "designationCode": "C", "categoryCode": "09", "address": "BAG 340", "city": "MCKENZIE", "province": "BC", "country": "CA", "postalCode": "V0J2C0", "twitter": "None", "instagram": "None", "facebook": "None", "youtube": "None", "website": "None", "summary": "None", "logo": "None", "latitude": 55.3373279686364, "longitude": -123.09455975595782}, "107652596RR0001": {"name": "MACKENZIE BAPTIST CHURCH", "designationCode": "C", "categoryCode": "31", "address": "PO BOX 644", "city": "MACKENZIE", "province": "BC", "country": "CA", "postalCode": "V0J2C0", "twitter": "None", "instagram": "None", "facebook": "None", "youtube": "None", "website": "None", "summary": "None", "logo": "None", "latitude": 54.35901764398257, "longitude": -128.53940735741423}, "119288918RR1093": {"name": "MACKENZIE BC CONGREGATION OF JEHOVAH'S WITNESSES", "designationCode": "C", "categoryCode": "61", "address": "PO BOX 1863", "city": "MACKENZIE", "province": "BC", "country": "CA", "postalCode": "V0J2C0", "twitter": "None", "instagram": "None", "facebook": "None", "youtube": "None", "website": "None", "summary": "None", "logo": "None", "latitude": 54.35901764398257, "longitude": -128.53940735741423}, "898947080RR0001": {"name": "MACKENZIE CAMP SOCIETY", "designationCode": "C", "categoryCode": "56", "address": "BOX 133", "city": "ARMSTRONG", "province": "BC", "country": "CA", "postalCode": "V0E1B0", "twitter": "None", "instagram": "None", "facebook": "None", "youtube": "None", "website": "None", "summary": "None", "logo": "None", "latitude": 50.44798500000006, "longitude": -119.19492799999993}, "119027126RR0001": {"name": "MACKENZIE CEMETERY COMPANY", "designationCode": "C", "categoryCode": "59", "address": "1429 NORTH SHORE ROAD", "city": "MALAGASH", "province": "NS", "country": "CA", "postalCode": "B0K1E0", "twitter": "None", "instagram": "None", "facebook": "None", "youtube": "None", "website": "None", "summary": "None", "logo": "None", "latitude": 45.795504497114464, "longitude": -63.35886141618097}, "119027142RR0001": {"name": "MACKENZIE CORNER UNITED BAPTIST CHURCH", "designationCode": "C", "categoryCode": "31", "address": "93 DEBEC RD.,", "city": "MCKENZIE CORNER", "province": "NB", "country": "CA", "postalCode": "E7N2C1", "twitter": "None", "instagram": "None", "facebook": "None", "youtube": "None", "website": "None", "summary": "None", "logo": "None", "latitude": 46.095938653355574, "longitude": -67.70742857588452}, "119027159RR0001": {"name": "MACKENZIE COUNSELLING SERVICES SOCIETY", "designationCode": "C", "categoryCode": "57", "address": "BOX 790", "city": "MACKENZIE", "province": "BC", "country": "CA", "postalCode": "V0J2C0", "twitter": "None", "instagram": "None", "facebook": "None", "youtube": "None", "website": "None", "summary": "None", "logo": "None", "latitude": 54.35901764398257, "longitude": -128.53940735741423}, "889362067RR0001": {"name": "MACKENZIE GALLERY VOLUNTEERS INC", "designationCode": "C", "categoryCode": "20", "address": "3475 ALBERT STREET", "city": "REGINA", "province": "SK", "country": "CA", "postalCode": "S4S6X6", "twitter": "None", "instagram": "None", "facebook": "None", "youtube": "None", "website": "None", "summary": "None", "logo": "None", "latitude": 50.42383448577209, "longitude": -104.61803554173005}, "108225855RR0001": {"name": "MACKENZIE HEALTH", "designationCode": "C", "categoryCode": "10", "address": "10 TRENCH ST", "city": "RICHMOND HILL", "province": "ON", "country": "CA", "postalCode": "L4C4Z3", "twitter": "None", "instagram": "None", "facebook": "None", "youtube": "None", "website": "None", "summary": "None", "logo": "None", "latitude": 43.87024448961454, "longitude": -79.44955747523466}, "119306215RR0001": {"name": "MACKENZIE HEALTH FOUNDATION", "designationCode": "A", "categoryCode": "13", "address": "10 TRENCH ST", "city": "RICHMOND HILL", "province": "ON", "country": "CA", "postalCode": "L4C4Z3", "twitter": "None", "instagram": "None", "facebook": "None", "youtube": "None", "website": "None", "summary": "None", "logo": "None", "latitude": 43.87024448961454, "longitude": -79.44955747523466}}