{"119037489RR0001": {"name": "MELVILLE PRESBYTERIAN CHURCH, WEST HILL", "designationCode": "C", "categoryCode": "37", "address": "70 OLD KINGSTON RD.", "city": "WEST HILL", "province": "ON", "country": "CA", "postalCode": "M1E3J5", "twitter": "None", "instagram": "None", "facebook": "None", "youtube": "None", "website": "None", "summary": "None", "logo": "None", "latitude": 43.77649974412818, "longitude": -79.18083486444668}, "107689879RR0001": {"name": "MELVILLE UNITED CHURCH", "designationCode": "C", "categoryCode": "44", "address": "PO BOX 41                     300 ST ANDREW ST W", "city": "FERGUS", "province": "ON", "country": "CA", "postalCode": "N1M2W7", "twitter": "None", "instagram": "None", "facebook": "None", "youtube": "None", "website": "None", "summary": "None", "logo": "None", "latitude": 43.7035953785563, "longitude": -80.37953586992928}, "119037513RR0001": {"name": "MELVILLE UNITED CHURCH", "designationCode": "C", "categoryCode": "44", "address": "9934 LAMONT  DR               P. BOX 13", "city": "KOMOKA", "province": "ON", "country": "CA", "postalCode": "N0L1R0", "twitter": "None", "instagram": "None", "facebook": "None", "youtube": "None", "website": "None", "summary": "None", "logo": "None", "latitude": 42.97949919152851, "longitude": -81.47906093453147}, "132146242RR0001": {"name": "MELVILLE UNITED CHURCH TRUST", "designationCode": "B", "categoryCode": "45", "address": "130 KING STREET WEST, 20TH FLOBOX 430, STN FIRST CANADIAN PL", "city": "TORONTO", "province": "ON", "country": "CA", "postalCode": "M5X1K1", "twitter": "None", "instagram": "None", "facebook": "None", "youtube": "None", "website": "None", "summary": "None", "logo": "None", "latitude": 43.64868300000006, "longitude": -79.38544399999994}, "889134441RR0001": {"name": "MEMBERS IN CHRIST ASSEMBLIES OF ONTARIO,", "designationCode": "C", "categoryCode": "39", "address": "764 ELLESMERE RD", "city": "SCARBOROUGH", "province": "ON", "country": "CA", "postalCode": "M1P2W4", "twitter": "None", "instagram": "None", "facebook": "None", "youtube": "None", "website": "None", "summary": "None", "logo": "None", "latitude": 43.76451710744966, "longitude": -79.28676790357191}, "844033142RR0001": {"name": "MEMBERS IN NEED INC.", "designationCode": "C", "categoryCode": "11", "address": "GD.                           LITTLE BLACK RIVER 1ST NATION", "city": "O'HANLY", "province": "MB", "country": "CA", "postalCode": "R0E1K0", "twitter": "None", "instagram": "None", "facebook": "None", "youtube": "None", "website": "None", "summary": "None", "logo": "None", "latitude": 50.83110600000006, "longitude": -96.30901249999994}, "858731136RR0001": {"name": "MEMBERTOU CULTURAL & HERITAGE CENTRE FOUNDATION INC.", "designationCode": "C", "categoryCode": "50", "address": "111 MEMBERTOU STREET", "city": "SYDNEY", "province": "NS", "country": "CA", "postalCode": "B1S2M9", "twitter": "None", "instagram": "None", "facebook": "None", "youtube": "None", "website": "None", "summary": "None", "logo": "None", "latitude": 46.11648960202532, "longitude": -60.19541785994597}, "119037596RR0001": {"name": "MEMON ASSOCIATION OF CANADA", "designationCode": "C", "categoryCode": "49", "address": "98 - 20 NEW DELHI DR", "city": "MARKHAM", "province": "ON", "country": "CA", "postalCode": "L3S0B5", "twitter": "None", "instagram": "None", "facebook": "None", "youtube": "None", "website": "None", "summary": "None", "logo": "None", "latitude": 43.84799287373753, "longitude": -79.25294934583637}, "119037620RR0001": {"name": "MEMORIAL BAPTIST CHURCH OF STRATFORD", "designationCode": "C", "categoryCode": "31", "address": "113 BRUCE STREET AT ESSEX", "city": "STRATFORD", "province": "ON", "country": "CA", "postalCode": "N5A4A2", "twitter": "None", "instagram": "None", "facebook": "None", "youtube": "None", "website": "None", "summary": "None", "logo": "None", "latitude": 43.35781749567219, "longitude": -80.97026344463038}, "887540276RR0001": {"name": "MEMORIAL CHARITY FUND, CONSEIL SIGOGNE 6348, KNIGHTS OF COLUMBUS", "designationCode": "C", "categoryCode": "65", "address": "RR#1 CHURCH POINT BOX 138", "city": "DIGBY CO.", "province": "NS", "country": "CA", "postalCode": "B0W1M0", "twitter": "None", "instagram": "None", "facebook": "None", "youtube": "None", "website": "None", "summary": "None", "logo": "None", "latitude": 44.379983816696814, "longitude": -66.08048162988791}, "119037653RR0002": {"name": "MEMORIAL CHURCH PORT RYERSE", "designationCode": "C", "categoryCode": "30", "address": "31 KING ST S                  RR 3", "city": "SIMCOE", "province": "ON", "country": "CA", "postalCode": "N3Y4K2", "twitter": "None", "instagram": "None", "facebook": "None", "youtube": "None", "website": "None", "summary": "None", "logo": "None", "latitude": 42.836317571733794, "longitude": -80.3126973290733}, "888790268RR0001": {"name": "MEMORIAL FUND RE ALFRED POWIS ESTATE", "designationCode": "B", "categoryCode": "45", "address": "1402 - 1 KING ST W", "city": "HAMILTON", "province": "ON", "country": "CA", "postalCode": "L8P1A4", "twitter": "None", "instagram": "None", "facebook": "None", "youtube": "None", "website": "None", "summary": "None", "logo": "None", "latitude": 43.26019321073324, "longitude": -79.88135629363086}, "893340364RR0001": {"name": "MEMORIAL HIGH SCHOOL SCHOLARSHIP TRUST", "designationCode": "C", "categoryCode": "21", "address": "P.O. BOX 300", "city": "SYDNEY MINES", "province": "NS", "country": "CA", "postalCode": "B1V2Y5", "twitter": "None", "instagram": "None", "facebook": "None", "youtube": "None", "website": "None", "summary": "None", "logo": "None", "latitude": 46.23174600000006, "longitude": -60.22213099999993}, "891468795RR0001": {"name": "MEMORIAL LECTURES FUND COMMITTEE ( C I C A )", "designationCode": "C", "categoryCode": "21", "address": "277, WELLINGTON ST WEST", "city": "TORONTO", "province": "ON", "country": "CA", "postalCode": "M5V3H2", "twitter": "None", "instagram": "None", "facebook": "None", "youtube": "None", "website": "None", "summary": "None", "logo": "None", "latitude": 43.64474981652159, "longitude": -79.39144648666979}, "107755506RR0001": {"name": "MEMORIAL PASTORAL CHARGE", "designationCode": "C", "categoryCode": "44", "address": "PO BOX 1                      229 CAPE BEAR RD.", "city": "MURRAY RIVER", "province": "PE", "country": "CA", "postalCode": "C0A1W0", "twitter": "None", "instagram": "None", "facebook": "None", "youtube": "None", "website": "None", "summary": "None", "logo": "None", "latitude": 46.007551445467115, "longitude": -62.59670016180968}, "119037729RR0001": {"name": "MEMORIAL PRESBYTERIAN CHURCH", "designationCode": "C", "categoryCode": "37", "address": "BOX 1027", "city": "ROCKY MOUNTAIN HOUSE", "province": "AB", "country": "CA", "postalCode": "T4T1A7", "twitter": "None", "instagram": "None", "facebook": "None", "youtube": "None", "website": "None", "summary": "None", "logo": "None", "latitude": 52.37758500000005, "longitude": -114.93030049999993}, "119037737RR0001": {"name": "MEMORIAL PRESBYTERIAN CHURCH", "designationCode": "C", "categoryCode": "37", "address": "5020 48 ST", "city": "SLYVAN LAKE", "province": "AB", "country": "CA", "postalCode": "T4S1C6", "twitter": "None", "instagram": "None", "facebook": "None", "youtube": "None", "website": "None", "summary": "None", "logo": "None", "latitude": 52.30863325547016, "longitude": -114.09457825547015}, "119037752RR0001": {"name": "MEMORIAL SCHOLARSHIP FUND", "designationCode": "C", "categoryCode": "21", "address": "26 DOWNS AVE", "city": "HALIFAX", "province": "NS", "country": "CA", "postalCode": "B3N2Z2", "twitter": "None", "instagram": "None", "facebook": "None", "youtube": "None", "website": "None", "summary": "None", "logo": "None", "latitude": 44.64257176934626, "longitude": -63.63087604316459}, "119037760RR0001": {"name": "MEMORIAL SLOAN-KETTERING OF CANADA", "designationCode": "C", "categoryCode": "11", "address": "45 HAZELTON AVE", "city": "TORONTO", "province": "ON", "country": "CA", "postalCode": "M5R2E3", "twitter": "None", "instagram": "None", "facebook": "None", "youtube": "None", "website": "None", "summary": "None", "logo": "None", "latitude": 43.67218233833454, "longitude": -79.3936203287266}, "888270592RR0001": {"name": "MEMORIAL UNITED CHURCH", "designationCode": "C", "categoryCode": "44", "address": "P.O. BOX 454", "city": "GRAND FALLS-WINDSOR", "province": "NL", "country": "CA", "postalCode": "A2A2J4", "twitter": "None", "instagram": "None", "facebook": "None", "youtube": "None", "website": "None", "summary": "None", "logo": "None", "latitude": 48.927786000000054, "longitude": -55.65881149999993}, "107690273RR0001": {"name": "MEMORIAL UNIVERSITY OF NEWFOUNDLAND", "designationCode": "C", "categoryCode": "20", "address": "ELIZABETH AVE", "city": "ST JOHNS", "province": "NL", "country": "CA", "postalCode": "A1C5S7", "twitter": "None", "instagram": "None", "facebook": "None", "youtube": "None", "website": "None", "summary": "None", "logo": "None", "latitude": 47.571289970569666, "longitude": -52.70321002553516}, "840216675RR0001": {"name": "MEMORIAL WALL OF NAMES", "designationCode": "B", "categoryCode": "59", "address": "APT 312, 11 ECCLESTON DR", "city": "TORONTO", "province": "ON", "country": "CA", "postalCode": "M4A1K2", "twitter": "None", "instagram": "None", "facebook": "None", "youtube": "None", "website": "None", "summary": "None", "logo": "None", "latitude": 43.72750552063047, "longitude": -79.31554102553523}, "892916818RR0001": {"name": "MEMORY LANE GARDENS ORGANIZATION", "designationCode": "C", "categoryCode": "09", "address": "1111 VICTORIA AVE E", "city": "THUNDER BAY", "province": "ON", "country": "CA", "postalCode": "P7C1B7", "twitter": "None", "instagram": "None", "facebook": "None", "youtube": "None", "website": "None", "summary": "None", "logo": "None", "latitude": 48.38422352207278, "longitude": -89.25327}, "119037893RR0001": {"name": "MEMPHREMAGOG CONSERVATION INC.", "designationCode": "C", "categoryCode": "52", "address": "455 RUE KING OUEST            BUREAU 500", "city": "SHERBROOKE", "province": "QC", "country": "CA", "postalCode": "J1H6G4", "twitter": "None", "instagram": "None", "facebook": "None", "youtube": "None", "website": "None", "summary": "None", "logo": "None", "latitude": 45.3988521492616, "longitude": -71.89677538401061}, "841783640RR0001": {"name": "MEMRI-CANADA", "designationCode": "C", "categoryCode": "21", "address": "52 ARLINGTON AVENUE", "city": "WESTMOUNT", "province": "QC", "country": "CA", "postalCode": "H3Y2W4", "twitter": "None", "instagram": "None", "facebook": "None", "youtube": "None", "website": "None", "summary": "None", "logo": "None", "latitude": 45.482221782388, "longitude": -73.60193191730615}, "859587867RR0001": {"name": "MEN ARE PART OF THE SOLUTION (THOMPSON) INC.", "designationCode": "C", "categoryCode": "09", "address": "5 - 103 CREE RD", "city": "THOMPSON", "province": "MB", "country": "CA", "postalCode": "R8N0B9", "twitter": "None", "instagram": "None", "facebook": "None", "youtube": "None", "website": "None", "summary": "None", "logo": "None", "latitude": 55.73993067399276, "longitude": -97.86295012535386}, "891233942RR0001": {"name": "MEN'S EDUCATIONAL SUPPORT ASSOCIATION", "designationCode": "C", "categoryCode": "09", "address": "3111-12 AVENUE SW", "city": "CALGARY", "province": "AB", "country": "CA", "postalCode": "T3C0S5", "twitter": "None", "instagram": "None", "facebook": "None", "youtube": "None", "website": "None", "summary": "None", "logo": "None", "latitude": 51.04131149235395, "longitude": -114.13187991618096}, "119037919RR0001": {"name": "MENACH CHARITABLE GEMACH FOUNDATION", "designationCode": "C", "categoryCode": "21", "address": "970 LAWRENCE AVE WEST #209", "city": "TORONTO", "province": "ON", "country": "CA", "postalCode": "M6A3B6", "twitter": "None", "instagram": "None", "facebook": "None", "youtube": "None", "website": "None", "summary": "None", "logo": "None", "latitude": 43.713688525679444, "longitude": -79.4586771542792}, "889933792RR0001": {"name": "MENDEL ART GALLERY FOUNDATION INC", "designationCode": "A", "categoryCode": "50", "address": "PO BOX 569", "city": "SASKATOON", "province": "SK", "country": "CA", "postalCode": "S7K3L6", "twitter": "None", "instagram": "None", "facebook": "None", "youtube": "None", "website": "None", "summary": "None", "logo": "None", "latitude": 52.13049000000005, "longitude": -106.65926449999994}, "888175643RR0001": {"name": "MENDEZ MINISTRIES SOCIETY", "designationCode": "C", "categoryCode": "47", "address": "416 GRAND VIEW BENCH ROAD", "city": "SALMON ARM", "province": "BC", "country": "CA", "postalCode": "V1E2Y4", "twitter": "None", "instagram": "None", "facebook": "None", "youtube": "None", "website": "None", "summary": "None", "logo": "None", "latitude": 50.64997996475204, "longitude": -119.13937830246024}, "869841601RR0001": {"name": "MENER AUTREMENT INC.", "designationCode": "C", "categoryCode": "09", "address": "11794, AV. P.-M.-FAVIER", "city": "MONTR\u00c9AL-NORD", "province": "QC", "country": "CA", "postalCode": "H1G5Z7", "twitter": "None", "instagram": "None", "facebook": "None", "youtube": "None", "website": "None", "summary": "None", "logo": "None", "latitude": 45.613186953084494, "longitude": -73.61999200931949}, "133079632RR0001": {"name": "MENESETUNG BRIDGE ASSOCIATION INCORPORATED", "designationCode": "C", "categoryCode": "52", "address": "181 WEST STREET", "city": "GODERICH", "province": "ON", "country": "CA", "postalCode": "N7A2L2", "twitter": "None", "instagram": "None", "facebook": "None", "youtube": "None", "website": "None", "summary": "None", "logo": "None", "latitude": 43.7429584989904, "longitude": -81.71988950138497}, "897518429RR0001": {"name": "MENINGITIS RESEARCH FOUNDATION OF CANADA", "designationCode": "C", "categoryCode": "11", "address": "P.O. BOX 28015                RPO PARKDALE", "city": "WATERLOO", "province": "ON", "country": "CA", "postalCode": "N2L6J8", "twitter": "None", "instagram": "None", "facebook": "None", "youtube": "None", "website": "None", "summary": "None", "logo": "None", "latitude": 43.484080019475755, "longitude": -80.54051006333275}, "107690497RR0001": {"name": "MENNO HOME FOR THE AGED", "designationCode": "C", "categoryCode": "01", "address": "BOX 280", "city": "GRUNTHAL", "province": "MB", "country": "CA", "postalCode": "R0A0R0", "twitter": "None", "instagram": "None", "facebook": "None", "youtube": "None", "website": "None", "summary": "None", "logo": "None", "latitude": 49.40668000000005, "longitude": -96.85131999999999}, "895010080RR0001": {"name": "MENNO HOME FOUNDATION OF GRUNTHAL INC.", "designationCode": "A", "categoryCode": "03", "address": "PO BOX 1284", "city": "GRUNTHAL", "province": "MB", "country": "CA", "postalCode": "R0A0R0", "twitter": "None", "instagram": "None", "facebook": "None", "youtube": "None", "website": "None", "summary": "None", "logo": "None", "latitude": 49.40668000000005, "longitude": -96.85131999999999}, "868958356RR0001": {"name": "MENNO SINGERS", "designationCode": "C", "categoryCode": "22", "address": "181 RIVERBANK DR", "city": "CAMBRIDGE", "province": "ON", "country": "CA", "postalCode": "N3H4R6", "twitter": "None", "instagram": "None", "facebook": "None", "youtube": "None", "website": "None", "summary": "None", "logo": "None", "latitude": 43.42125874987057, "longitude": -80.40389469328886}, "863047015RR0001": {"name": "MENNOHOMES INC.", "designationCode": "C", "categoryCode": "09", "address": "202-50 KENT AVENUE", "city": "KITCHENER", "province": "ON", "country": "CA", "postalCode": "N2G3R1", "twitter": "None", "instagram": "None", "facebook": "None", "youtube": "None", "website": "None", "summary": "None", "logo": "None", "latitude": 43.44257642299031, "longitude": -80.47791546713584}, "864641683RR0001": {"name": "MENNONITE & BRETHREN MARRIAGE ENCOUNTER INC.", "designationCode": "C", "categoryCode": "49", "address": "133299 ALLAN PARK ROAD SOUTH", "city": "HANOVER", "province": "ON", "country": "CA", "postalCode": "N4N3B8", "twitter": "None", "instagram": "None", "facebook": "None", "youtube": "None", "website": "None", "summary": "None", "logo": "None", "latitude": 44.15825082899185, "longitude": -80.92864555961184}, "119037984RR0001": {"name": "MENNONITE BENEVOLENT SOCIETY", "designationCode": "C", "categoryCode": "34", "address": "32945 MARSHALL RD", "city": "ABBOTSFORD", "province": "BC", "country": "CA", "postalCode": "V2S1K1", "twitter": "None", "instagram": "None", "facebook": "None", "youtube": "None", "website": "None", "summary": "None", "logo": "None", "latitude": 49.038206467684105, "longitude": -122.31190366763806}, "825688971RR0001": {"name": "MENNONITE BRETHREN BIBLICAL SEMINARY", "designationCode": "C", "categoryCode": "20", "address": "FOSMARK CENTRE                7600 GLOVER RD", "city": "LANGLEY", "province": "BC", "country": "CA", "postalCode": "V2Y1Y1", "twitter": "None", "instagram": "None", "facebook": "None", "youtube": "None", "website": "None", "summary": "None", "logo": "None", "latitude": 49.14035608924, "longitude": -122.60750361270851}, "119720092RR0001": {"name": "MENNONITE BRETHREN CHILDREN CENTRE INC", "designationCode": "C", "categoryCode": "01", "address": "1315 GATEWAY ROAD", "city": "WINNIPEG", "province": "MB", "country": "CA", "postalCode": "R2G1G5", "twitter": "None", "instagram": "None", "facebook": "None", "youtube": "None", "website": "None", "summary": "None", "logo": "None", "latitude": 49.93502144708324, "longitude": -97.06342121931502}, "107690703RR0001": {"name": "MENNONITE BRETHREN CHURCH", "designationCode": "C", "categoryCode": "34", "address": "BOX 369", "city": "HERBERT", "province": "SK", "country": "CA", "postalCode": "S0H2A0", "twitter": "None", "instagram": "None", "facebook": "None", "youtube": "None", "website": "None", "summary": "None", "logo": "None", "latitude": 50.42651921542417, "longitude": -107.22535903213169}, "107690752RR0001": {"name": "MENNONITE BRETHREN CHURCH", "designationCode": "C", "categoryCode": "34", "address": "PO BOX 75", "city": "VAUXHALL", "province": "AB", "country": "CA", "postalCode": "T0K2K0", "twitter": "None", "instagram": "None", "facebook": "None", "youtube": "None", "website": "None", "summary": "None", "logo": "None", "latitude": 50.070880000000045, "longitude": -112.09733999999997}, "119038123RR0001": {"name": "MENNONITE BRETHREN CHURCH", "designationCode": "C", "categoryCode": "34", "address": "BOX 93", "city": "GEM", "province": "AB", "country": "CA", "postalCode": "T0J1M0", "twitter": "None", "instagram": "None", "facebook": "None", "youtube": "None", "website": "None", "summary": "None", "logo": "None", "latitude": 50.95058000000006, "longitude": -112.17674999999997}, "129129318RR0001": {"name": "MENNONITE BRETHREN CHURCH", "designationCode": "C", "categoryCode": "34", "address": "PO BOX 508", "city": "BOISSEVAIN", "province": "MB", "country": "CA", "postalCode": "R0K0E0", "twitter": "None", "instagram": "None", "facebook": "None", "youtube": "None", "website": "None", "summary": "None", "logo": "None", "latitude": 49.23156000000006, "longitude": -100.05945999999994}, "131214587RR0001": {"name": "MENNONITE BRETHREN CHURCH", "designationCode": "C", "categoryCode": "34", "address": "120 PINEVIEW DRIVE", "city": "WINKLER", "province": "MB", "country": "CA", "postalCode": "R6W1T3", "twitter": "None", "instagram": "None", "facebook": "None", "youtube": "None", "website": "None", "summary": "None", "logo": "None", "latitude": 49.17684697446478, "longitude": -97.94935202117779}, "107690687RR0001": {"name": "MENNONITE BRETHREN CHURCH OF JUSTICE", "designationCode": "C", "categoryCode": "34", "address": "PO BOX 436", "city": "DOUGLAS", "province": "MB", "country": "CA", "postalCode": "R0K0R0", "twitter": "None", "instagram": "None", "facebook": "None", "youtube": "None", "website": "None", "summary": "None", "logo": "None", "latitude": 49.89291000000003, "longitude": -99.71012999999999}, "107690760RR0001": {"name": "MENNONITE BRETHREN CHURCH OF LINDEN", "designationCode": "C", "categoryCode": "34", "address": "BOX 92", "city": "LINDEN", "province": "AB", "country": "CA", "postalCode": "T0M1J0", "twitter": "None", "instagram": "None", "facebook": "None", "youtube": "None", "website": "None", "summary": "None", "logo": "None", "latitude": 51.59595000000007, "longitude": -113.49754999999999}, "108088428RR0001": {"name": "MENNONITE BRETHREN CHURCH OF MANITOBA", "designationCode": "C", "categoryCode": "34", "address": "1310 TAYLOR AVENUE", "city": "WINNIPEG", "province": "MB", "country": "CA", "postalCode": "R3M3Z6", "twitter": "None", "instagram": "None", "facebook": "None", "youtube": "None", "website": "None", "summary": "None", "logo": "None", "latitude": 49.85163670716732, "longitude": -97.17385596987715}, "804249274RR0001": {"name": "MENNONITE BRETHREN COLLEGIATE INSTITUTE INC.", "designationCode": "C", "categoryCode": "20", "address": "173 TALBOT AVENUE", "city": "WINNIPEG", "province": "MB", "country": "CA", "postalCode": "R2L0P6", "twitter": "None", "instagram": "None", "facebook": "None", "youtube": "None", "website": "None", "summary": "None", "logo": "None", "latitude": 49.90920334390313, "longitude": -97.11670758353057}, "131435117RR0001": {"name": "MENNONITE BRETHREN SENIOR CITIZENS HOME", "designationCode": "C", "categoryCode": "01", "address": "1 TABOR DR", "city": "ST CATHARINES", "province": "ON", "country": "CA", "postalCode": "L2N1V9", "twitter": "None", "instagram": "None", "facebook": "None", "youtube": "None", "website": "None", "summary": "None", "logo": "None", "latitude": 43.189669121011036, "longitude": -79.23398238963614}, "107690844RR0001": {"name": "MENNONITE CENTRAL COMMITTEE ALBERTA", "designationCode": "C", "categoryCode": "09", "address": "2946 32ND STREET NE           SUITE 210", "city": "CALGARY", "province": "AB", "country": "CA", "postalCode": "T1Y6J7", "twitter": "None", "instagram": "None", "facebook": "None", "youtube": "None", "website": "None", "summary": "None", "logo": "None", "latitude": 51.079319999999996, "longitude": -113.98857825526625}, "107690877RR0001": {"name": "MENNONITE CENTRAL COMMITTEE CANADA", "designationCode": "C", "categoryCode": "09", "address": "134 PLAZA DR", "city": "WINNIPEG", "province": "MB", "country": "CA", "postalCode": "R3T5K9", "twitter": "None", "instagram": "None", "facebook": "None", "youtube": "None", "website": "None", "summary": "None", "logo": "None", "latitude": 49.82227556313126, "longitude": -97.14760295755748}, "107690885RR0001": {"name": "MENNONITE CENTRAL COMMITTEE MANITOBA INC.", "designationCode": "C", "categoryCode": "01", "address": "134 PLAZA DRIVE", "city": "WINNIPEG", "province": "MB", "country": "CA", "postalCode": "R3T5K9", "twitter": "None", "instagram": "None", "facebook": "None", "youtube": "None", "website": "None", "summary": "None", "logo": "None", "latitude": 49.82227556313126, "longitude": -97.14760295755748}, "119038263RR0001": {"name": "MENNONITE CENTRAL COMMITTEE ONTARIO", "designationCode": "C", "categoryCode": "09", "address": "50 KENT AVENUE", "city": "KITCHENER", "province": "ON", "country": "CA", "postalCode": "N2G3R1", "twitter": "None", "instagram": "None", "facebook": "None", "youtube": "None", "website": "None", "summary": "None", "logo": "None", "latitude": 43.44257642299031, "longitude": -80.47791546713584}, "107690901RR0001": {"name": "MENNONITE CENTRAL COMMITTEE SASKATCHEWAN", "designationCode": "C", "categoryCode": "09", "address": "600 45TH ST W", "city": "SASKATOON", "province": "SK", "country": "CA", "postalCode": "S7L5W9", "twitter": "None", "instagram": "None", "facebook": "None", "youtube": "None", "website": "None", "summary": "None", "logo": "None", "latitude": 52.163915529863054, "longitude": -106.67473136081135}, "107690943RR0001": {"name": "MENNONITE CHRISTIAN FELLOWSHIP CHAPEL", "designationCode": "C", "categoryCode": "39", "address": "PO BOX 82", "city": "STRATTON", "province": "ON", "country": "CA", "postalCode": "P0W1N0", "twitter": "None", "instagram": "None", "facebook": "None", "youtube": "None", "website": "None", "summary": "None", "logo": "None", "latitude": 48.6817658060751, "longitude": -94.1647005}, "107690968RR0001": {"name": "MENNONITE CHURCH", "designationCode": "C", "categoryCode": "34", "address": "PO BOX 97", "city": "ROSEMARY", "province": "AB", "country": "CA", "postalCode": "T0J2W0", "twitter": "None", "instagram": "None", "facebook": "None", "youtube": "None", "website": "None", "summary": "None", "logo": "None", "latitude": 50.76682000000005, "longitude": -112.08510999999999}, "106967078RR0001": {"name": "MENNONITE CHURCH BRITISH COLUMBIA", "designationCode": "C", "categoryCode": "34", "address": "305-32025 GEORGE FERGUSON WAY", "city": "ABBOTSFORD", "province": "BC", "country": "CA", "postalCode": "V2T2K7", "twitter": "None", "instagram": "None", "facebook": "None", "youtube": "None", "website": "None", "summary": "None", "logo": "None", "latitude": 49.05489653318127, "longitude": -122.33663061226844}, "106967086RR0001": {"name": "MENNONITE CHURCH CANADA", "designationCode": "C", "categoryCode": "34", "address": "600 SHAFTESBURY BLVD", "city": "WINNIPEG", "province": "MB", "country": "CA", "postalCode": "R3P0M4", "twitter": "None", "instagram": "None", "facebook": "None", "youtube": "None", "website": "None", "summary": "None", "logo": "None"}, "129882908RR0001": {"name": "MENNONITE CHURCH EASTERN CANADA EGLISE MENNONITE DE L'EST DU CANADA", "designationCode": "C", "categoryCode": "34", "address": "201-50 KENT AVENUE", "city": "KITCHENER", "province": "ON", "country": "CA", "postalCode": "N2G3R1", "twitter": "None", "instagram": "None", "facebook": "None", "youtube": "None", "website": "None", "summary": "None", "logo": "None", "latitude": 43.44257642299031, "longitude": -80.47791546713584}, "106967094RR0001": {"name": "MENNONITE CHURCH MANITOBA INC.", "designationCode": "C", "categoryCode": "34", "address": "200-600 SHAFTESBURY BLVD", "city": "WINNIPEG", "province": "MB", "country": "CA", "postalCode": "R3P2J1", "twitter": "None", "instagram": "None", "facebook": "None", "youtube": "None", "website": "None", "summary": "None", "logo": "None", "latitude": 49.85723602553523, "longitude": -97.23061411959645}, "106967102RR0002": {"name": "MENNONITE CHURCH SASKATCHEWAN", "designationCode": "C", "categoryCode": "34", "address": "10A-301 PAKWA PL", "city": "SASKATOON", "province": "SK", "country": "CA", "postalCode": "S7L6A3", "twitter": "None", "instagram": "None", "facebook": "None", "youtube": "None", "website": "None", "summary": "None", "logo": "None", "latitude": 52.16173375169142, "longitude": -106.67231619474029}, "838270015RR0001": {"name": "MENNONITE COALITION FOR REFUGEE SUPPORT", "designationCode": "C", "categoryCode": "09", "address": "675 QUEEN ST SOUTH UNIT 245", "city": "KITCHENER", "province": "ON", "country": "CA", "postalCode": "N2M1A1", "twitter": "None", "instagram": "None", "facebook": "None", "youtube": "None", "website": "None", "summary": "None", "logo": "None", "latitude": 43.44249651702381, "longitude": -80.4965912302793}, "119038305RR0001": {"name": "MENNONITE COLLEGIATE INSTITUTE", "designationCode": "C", "categoryCode": "20", "address": "PO BOX 250", "city": "GRETNA", "province": "MB", "country": "CA", "postalCode": "R0G0V0", "twitter": "None", "instagram": "None", "facebook": "None", "youtube": "None", "website": "None", "summary": "None", "logo": "None"}, "899942312RR0001": {"name": "MENNONITE COMMUNITY CLOSET INC.", "designationCode": "C", "categoryCode": "09", "address": "1252 100TH ST", "city": "NORTH BATTLEFORD", "province": "SK", "country": "CA", "postalCode": "S9A0V7", "twitter": "None", "instagram": "None", "facebook": "None", "youtube": "None", "website": "None", "summary": "None", "logo": "None", "latitude": 52.77587358090486, "longitude": -108.29898859446618}, "119038313RR0001": {"name": "MENNONITE COMMUNITY ORCHESTRA INC.", "designationCode": "C", "categoryCode": "22", "address": "685 HOME ST", "city": "WINNIPEG", "province": "MB", "country": "CA", "postalCode": "R3E2C5", "twitter": "None", "instagram": "None", "facebook": "None", "youtube": "None", "website": "None", "summary": "None", "logo": "None", "latitude": 49.897591596168304, "longitude": -97.16726164859504}, "893888263RR0001": {"name": "MENNONITE DISASTER SERVICE REGION V INCORPORATED", "designationCode": "C", "categoryCode": "02", "address": "6A-1325 MARKHAM RD", "city": "WINNIPEG", "province": "MB", "country": "CA", "postalCode": "R3T4J6", "twitter": "None", "instagram": "None", "facebook": "None", "youtube": "None", "website": "None", "summary": "None", "logo": "None", "latitude": 49.808486817863916, "longitude": -97.15533616785393}, "107691057RR0001": {"name": "MENNONITE ECONOMIC DEVELOPMENT ASSOCIATES OF CANADA", "designationCode": "C", "categoryCode": "09", "address": "155 FROBISHER DRIVE, I-106", "city": "WATERLOO", "province": "ON", "country": "CA", "postalCode": "N2V2E1", "twitter": "None", "instagram": "None", "facebook": "None", "youtube": "None", "website": "None", "summary": "None", "logo": "None", "latitude": 43.506639526199066, "longitude": -80.52708320644616}, "107691065RR0001": {"name": "MENNONITE EDUCATIONAL INSTITUTE SOCIETY", "designationCode": "C", "categoryCode": "20", "address": "4081 CLEARBROOK ROAD", "city": "ABBOTSFORD", "province": "BC", "country": "CA", "postalCode": "V4X2M8", "twitter": "None", "instagram": "None", "facebook": "None", "youtube": "None", "website": "None", "summary": "None", "logo": "None", "latitude": 49.075957121011015, "longitude": -122.34576431574217}, "134609825RR0001": {"name": "MENNONITE EDUCATIONAL SOCIETY OF CALGARY", "designationCode": "C", "categoryCode": "20", "address": "7000 ELKTON DR SW", "city": "CALGARY", "province": "AB", "country": "CA", "postalCode": "T3H4Y7", "twitter": "None", "instagram": "None", "facebook": "None", "youtube": "None", "website": "None", "summary": "None", "logo": "None", "latitude": 51.02332748932418, "longitude": -114.18819330391251}, "130694979RR0001": {"name": "MENNONITE EDUCATIONAL SOCIETY OF MANITOBA", "designationCode": "C", "categoryCode": "20", "address": "86 WEST GATE", "city": "WINNIPEG", "province": "MB", "country": "CA", "postalCode": "R3C2E1", "twitter": "None", "instagram": "None", "facebook": "None", "youtube": "None", "website": "None", "summary": "None", "logo": "None", "latitude": 49.87665167802543, "longitude": -97.15791795426699}, "129253308RR0001": {"name": "MENNONITE FOUNDATION OF CANADA", "designationCode": "A", "categoryCode": "43", "address": "12-1325 MARKHAM RD", "city": "WINNIPEG", "province": "MB", "country": "CA", "postalCode": "R3T4J6", "twitter": "None", "instagram": "None", "facebook": "None", "youtube": "None", "website": "None", "summary": "None", "logo": "None", "latitude": 49.808486817863916, "longitude": -97.15533616785393}, "893124370RR0001": {"name": "MENNONITE HERITAGE MUSEUM INCORPORATED", "designationCode": "C", "categoryCode": "50", "address": "BOX 116", "city": "ROSTHERN", "province": "SK", "country": "CA", "postalCode": "S0K3R0", "twitter": "None", "instagram": "None", "facebook": "None", "youtube": "None", "website": "None", "summary": "None", "logo": "None", "latitude": 52.663230000000055, "longitude": -106.32952999999998}, "103633939RR0001": {"name": "MENNONITE HERITAGE VILLAGE (CANADA) INC.", "designationCode": "C", "categoryCode": "49", "address": "231 PTH 12 N", "city": "STEINBACH", "province": "MB", "country": "CA", "postalCode": "R5G1T8", "twitter": "None", "instagram": "None", "facebook": "None", "youtube": "None", "website": "None", "summary": "None", "logo": "None", "latitude": 49.5127636226894, "longitude": -96.69118329687636}, "747611093RR0001": {"name": "MENNONITE HISTORICAL SOCIETY OF CANADA", "designationCode": "C", "categoryCode": "21", "address": "1818 CLEARBROOK RD", "city": "ABBOTSFORD", "province": "BC", "country": "CA", "postalCode": "V2T5X4", "twitter": "None", "instagram": "None", "facebook": "None", "youtube": "None", "website": "None", "summary": "None", "logo": "None", "latitude": 49.03424403662634, "longitude": -122.3375282212979}, "119038420RR0001": {"name": "MENNONITE HISTORICAL SOCIETY OF ONTARIO", "designationCode": "C", "categoryCode": "49", "address": "140 WESTMOUNT ROAD, NORTH", "city": "WATERLOO", "province": "ON", "country": "CA", "postalCode": "N2L3G6", "twitter": "None", "instagram": "None", "facebook": "None", "youtube": "None", "website": "None", "summary": "None", "logo": "None", "latitude": 43.465611731757114, "longitude": -80.54457678428436}, "119038438RR0001": {"name": "MENNONITE HISTORICAL SOCIETY OF SASKATCHEWAN INC.", "designationCode": "C", "categoryCode": "50", "address": "RM 900, 110 LA RONGE RD", "city": "SASKATOON", "province": "SK", "country": "CA", "postalCode": "S7K7H8", "twitter": "None", "instagram": "None", "facebook": "None", "youtube": "None", "website": "None", "summary": "None", "logo": "None", "latitude": 52.16853898612155, "longitude": -106.62726018621971}, "107845760RR0001": {"name": "MENNONITE INTERMEDIATE CARE HOME SOCIETY OF RICHMOND", "designationCode": "C", "categoryCode": "10", "address": "11331 MELLIS DR", "city": "RICHMOND", "province": "BC", "country": "CA", "postalCode": "V6X1L8", "twitter": "None", "instagram": "None", "facebook": "None", "youtube": "None", "website": "None", "summary": "None", "logo": "None", "latitude": 49.185656785093585, "longitude": -123.099087403254}, "815762547RR0001": {"name": "MENNONITE JAPANESE CHRISTIAN FELLOWSHIP", "designationCode": "C", "categoryCode": "39", "address": "12246 100 AVENUE", "city": "SURREY", "province": "BC", "country": "CA", "postalCode": "V3V2X1", "twitter": "None", "instagram": "None", "facebook": "None", "youtube": "None", "website": "None", "summary": "None", "logo": "None", "latitude": 49.184425499567325, "longitude": -122.8828531902591}, "107691149RR0001": {"name": "MENNONITE NEW LIFE CENTRE OF TORONTO", "designationCode": "C", "categoryCode": "01", "address": "1774 QUEEN ST E  SUITE 200", "city": "TORONTO", "province": "ON", "country": "CA", "postalCode": "M4L1G7", "twitter": "None", "instagram": "None", "facebook": "None", "youtube": "None", "website": "None", "summary": "None", "logo": "None", "latitude": 43.66771615794321, "longitude": -79.31053773203871}, "107691164RR0001": {"name": "MENNONITE NURSING HOMES INC.", "designationCode": "C", "categoryCode": "01", "address": "BOX 370", "city": "ROSTHERN", "province": "SK", "country": "CA", "postalCode": "S0K3R0", "twitter": "None", "instagram": "None", "facebook": "None", "youtube": "None", "website": "None", "summary": "None", "logo": "None", "latitude": 52.663230000000055, "longitude": -106.32952999999998}, "134704618RR0001": {"name": "MENNONITE WORLD CONFERENCE CANADA INC", "designationCode": "C", "categoryCode": "34", "address": "206-50 KENT AVE", "city": "KITCHENER", "province": "ON", "country": "CA", "postalCode": "N2G3R1", "twitter": "None", "instagram": "None", "facebook": "None", "youtube": "None", "website": "None", "summary": "None", "logo": "None", "latitude": 43.44257642299031, "longitude": -80.47791546713584}, "119038537RR0001": {"name": "MENNVILLE EVANGELICAL MENNONITE CHURCH", "designationCode": "C", "categoryCode": "34", "address": "BOX 403", "city": "RIVERTON", "province": "MB", "country": "CA", "postalCode": "R0C2R0", "twitter": "None", "instagram": "None", "facebook": "None", "youtube": "None", "website": "None", "summary": "None", "logo": "None", "latitude": 50.99757300000002, "longitude": -97.00410710537368}, "140709916RR0001": {"name": "MENS SANA FAMILIES FOR MENTAL HEALTH", "designationCode": "C", "categoryCode": "11", "address": "4301 WESTON ROAD", "city": "TORONTO", "province": "ON", "country": "CA", "postalCode": "M9L2Y3", "twitter": "None", "instagram": "None", "facebook": "None", "youtube": "None", "website": "None", "summary": "None", "logo": "None", "latitude": 43.77004598112989, "longitude": -79.54641702703577}, "892495565RR0001": {"name": "MENSA CANADA SCHOLARSHIP PROGRAMME", "designationCode": "C", "categoryCode": "21", "address": "R.R.2                         214790 BASELINE RD", "city": "DURHAM", "province": "ON", "country": "CA", "postalCode": "N0G1R0", "twitter": "None", "instagram": "None", "facebook": "None", "youtube": "None", "website": "None", "summary": "None", "logo": "None", "latitude": 44.16302400000005, "longitude": -80.84237299999994}, "868929654RR0001": {"name": "MENTAL HEALTH ASSOCIATION REGINA BRANCH", "designationCode": "C", "categoryCode": "09", "address": "1810 ALBERT ST", "city": "REGINA", "province": "SK", "country": "CA", "postalCode": "S4P2S8", "twitter": "None", "instagram": "None", "facebook": "None", "youtube": "None", "website": "None", "summary": "None", "logo": "None", "latitude": 50.45010300000001, "longitude": -104.61823615684668}, "855131603RR0001": {"name": "MENTAL HEALTH CONNECTIONS", "designationCode": "C", "categoryCode": "09", "address": "370 ERIE STREET E", "city": "WINDSOR", "province": "ON", "country": "CA", "postalCode": "N9A3X3", "twitter": "None", "instagram": "None", "facebook": "None", "youtube": "None", "website": "None", "summary": "None", "logo": "None", "latitude": 42.310921833662995, "longitude": -83.02832603533516}, "885109041RR0001": {"name": "MENTAL HEALTH CONSUMER SURVIVOR PROJECT FOR SIMCOE COUNTY", "designationCode": "C", "categoryCode": "09", "address": "201 - 41 ELGIN ST", "city": "COLLINGWOOD", "province": "ON", "country": "CA", "postalCode": "L9Y3L6", "twitter": "None", "instagram": "None", "facebook": "None", "youtube": "None", "website": "None", "summary": "None", "logo": "None", "latitude": 44.50021719790167, "longitude": -80.21475284699048}, "137962700RR0001": {"name": "MENTAL HEALTH CONSUMER/SURVIVORS EMPLOYMENT ASSOCIATION OF ESSEX COUNTY", "designationCode": "C", "categoryCode": "11", "address": "4141 TECUMSEH RD E", "city": "WINDSOR", "province": "ON", "country": "CA", "postalCode": "N8W1J9", "twitter": "None", "instagram": "None", "facebook": "None", "youtube": "None", "website": "None", "summary": "None", "logo": "None", "latitude": 42.306269816521585, "longitude": -82.97370718275727}, "858635675RR0001": {"name": "MENTAL HEALTH FOUNDATION OF NOVA SCOTIA", "designationCode": "A", "categoryCode": "15", "address": "300 PLEASANT ST.              P.O. BOX 1004", "city": "DARTMOUTH", "province": "NS", "country": "CA", "postalCode": "B2Y3Z9", "twitter": "None", "instagram": "None", "facebook": "None", "youtube": "None", "website": "None", "summary": "None", "logo": "None", "latitude": 44.65243986849119, "longitude": -63.547892129613814}, "107691354RR0001": {"name": "MENTAL HEALTH PROGRAM SERVICES OF METROPOLITAN TORONTO", "designationCode": "C", "categoryCode": "10", "address": "301-2238 DUNDAS ST W", "city": "TORONTO", "province": "ON", "country": "CA", "postalCode": "M6R3A9", "twitter": "None", "instagram": "None", "facebook": "None", "youtube": "None", "website": "None", "summary": "None", "logo": "None", "latitude": 43.65258315160868, "longitude": -79.44912761159188}, "133387076RR0001": {"name": "MENTORING ARTISTS FOR WOMEN'S ART INC", "designationCode": "C", "categoryCode": "22", "address": "611 MAIN ST", "city": "WINNIPEG", "province": "MB", "country": "CA", "postalCode": "R3B1E1", "twitter": "None", "instagram": "None", "facebook": "None", "youtube": "None", "website": "None", "summary": "None", "logo": "None", "latitude": 49.90199170607081, "longitude": -97.13617597305114}, "859395469RR0001": {"name": "MENTORLINK CANADA INC.", "designationCode": "C", "categoryCode": "49", "address": "P.O. BOX 27025", "city": "CAMBRIDGE", "province": "ON", "country": "CA", "postalCode": "N1R8H1", "twitter": "None", "instagram": "None", "facebook": "None", "youtube": "None", "website": "None", "summary": "None", "logo": "None", "latitude": 43.36140300000005, "longitude": -80.31533299999994}, "859818908RR0001": {"name": "MENUCHA VESIMCHA", "designationCode": "C", "categoryCode": "09", "address": "5459 DUROCHER AVENUE", "city": "MONTREAL", "province": "QC", "country": "CA", "postalCode": "H2V3K9", "twitter": "None", "instagram": "None", "facebook": "None", "youtube": "None", "website": "None", "summary": "None", "logo": "None", "latitude": 45.52047325757394, "longitude": -73.60243221036997}, "890259948RR0001": {"name": "MEOTA UNITED ANGLICAN CHURCH", "designationCode": "C", "categoryCode": "44", "address": "PO BOX 77", "city": "MEOTA", "province": "SK", "country": "CA", "postalCode": "S0M1X0", "twitter": "None", "instagram": "None", "facebook": "None", "youtube": "None", "website": "None", "summary": "None", "logo": "None", "latitude": 53.03395000000006, "longitude": -108.45862999999997}, "895012813RR0001": {"name": "MEOW FOUNDATION FOR THE ADOPTION OF ABANDONED CATS", "designationCode": "C", "categoryCode": "54", "address": "P.O. BOX 65024 RPO NORTH HILL", "city": "CALGARY", "province": "AB", "country": "CA", "postalCode": "T2N4T6", "twitter": "None", "instagram": "None", "facebook": "None", "youtube": "None", "website": "None", "summary": "None", "logo": "None"}, "898472840RR0001": {"name": "MERCIER-OUEST QUARTIER EN SANTE", "designationCode": "C", "categoryCode": "09", "address": "5797, RUE HOCHELAGA", "city": "MONTREAL", "province": "QC", "country": "CA", "postalCode": "H1N1W6", "twitter": "None", "instagram": "None", "facebook": "None", "youtube": "None", "website": "None", "summary": "None", "logo": "None", "latitude": 45.570936038028705, "longitude": -73.53740880587442}, "107910259RR0238": {"name": "MERCIFUL REDEEMER PARISH", "designationCode": "C", "categoryCode": "38", "address": "2775 ERIN CENTRE BLVD", "city": "MISSISSAUGA", "province": "ON", "country": "CA", "postalCode": "L5M5W2", "twitter": "None", "instagram": "None", "facebook": "None", "youtube": "None", "website": "None", "summary": "None", "logo": "None", "latitude": 43.55729290400461, "longitude": -79.7181202150149}, "119038651RR0001": {"name": "MERCK FROSST CANADA INC. EMPLOYEES CHARITY TRUST", "designationCode": "B", "categoryCode": "75", "address": "16750 TRANSCANADA HIGHWAY", "city": "KIRKLAND", "province": "QC", "country": "CA", "postalCode": "H9H4M7", "twitter": "None", "instagram": "None", "facebook": "None", "youtube": "None", "website": "None", "summary": "None", "logo": "None", "latitude": 45.45564900000005, "longitude": -73.84443199999993}}