{"777006693RR0001": {"name": "ORGANIZED KAOS LIFE AND TRADE", "designationCode": "C", "categoryCode": "20", "address": "596 BISHOPSGATE ROAD", "city": "PARIS", "province": "ON", "country": "CA", "postalCode": "N3L3E3", "twitter": "None", "instagram": "None", "facebook": "None", "youtube": "None", "website": "None", "summary": "None", "logo": "None", "latitude": 43.15817163720588, "longitude": -80.42240365311066}, "889713921RR0001": {"name": "ORGOMETA LABORATORIES", "designationCode": "C", "categoryCode": "21", "address": "411 STEPHEN ST.", "city": "LONDON", "province": "ON", "country": "CA", "postalCode": "N6K2N4", "twitter": "None", "instagram": "None", "facebook": "None", "youtube": "None", "website": "None", "summary": "None", "logo": "None", "latitude": 42.95321504440535, "longitude": -81.33734944451481}, "119069920RR0001": {"name": "ORIANA SINGERS", "designationCode": "C", "categoryCode": "22", "address": "P.O.BOX 1207", "city": "COBOURG", "province": "ON", "country": "CA", "postalCode": "K9A5A4", "twitter": "None", "instagram": "None", "facebook": "None", "youtube": "None", "website": "None", "summary": "None", "logo": "None", "latitude": 43.95960600000005, "longitude": -78.16778449999994}, "871749479RR0001": {"name": "ORIENTATION VIE INC", "designationCode": "C", "categoryCode": "09", "address": "CASE POSTALE 1006             SUCCURSALE C", "city": "MONTREAL", "province": "QC", "country": "CA", "postalCode": "H2L4V2", "twitter": "None", "instagram": "None", "facebook": "None", "youtube": "None", "website": "None", "summary": "None", "logo": "None", "latitude": 45.51239400000006, "longitude": -73.55469049999994}, "886344647RR0001": {"name": "ORIENTATION: JEUNESSE DE LA HAUTE-YAMASKA", "designationCode": "C", "categoryCode": "09", "address": "170 ST-ANTOINE NORD", "city": "GRANBY", "province": "QC", "country": "CA", "postalCode": "J2G5G8", "twitter": "None", "instagram": "None", "facebook": "None", "youtube": "None", "website": "None", "summary": "None", "logo": "None", "latitude": 45.406137226758595, "longitude": -72.7272702524667}, "890426851RR0001": {"name": "ORIGINAL KIDS THEATRE", "designationCode": "C", "categoryCode": "22", "address": "130 KING ST", "city": "LONDON", "province": "ON", "country": "CA", "postalCode": "N6A1C5", "twitter": "None", "instagram": "None", "facebook": "None", "youtube": "None", "website": "None", "summary": "None", "logo": "None", "latitude": 42.9822428704193, "longitude": -81.2501906893068}, "835354341RR0001": {"name": "ORILLIA & DISTRICT ARTS COUNCIL", "designationCode": "C", "categoryCode": "22", "address": "50 ANDREW ST S, 2ND FLOOR", "city": "ORILLIA", "province": "ON", "country": "CA", "postalCode": "L3V7T5", "twitter": "None", "instagram": "None", "facebook": "None", "youtube": "None", "website": "None", "summary": "None", "logo": "None", "latitude": 44.60659278942055, "longitude": -79.4199596836261}, "119069953RR0001": {"name": "ORILLIA AND DISTRICT LITERACY COUNCIL INCORPORATED", "designationCode": "C", "categoryCode": "21", "address": "P.O. BOX 41", "city": "ORILLIA", "province": "ON", "country": "CA", "postalCode": "L3V6H9", "twitter": "None", "instagram": "None", "facebook": "None", "youtube": "None", "website": "None", "summary": "None", "logo": "None", "latitude": 44.60657100000006, "longitude": -79.41824449999993}, "137454245RR0001": {"name": "ORILLIA BAPTIST CHURCH", "designationCode": "C", "categoryCode": "31", "address": "90 DOUGLAS ST", "city": "ORILLIA", "province": "ON", "country": "CA", "postalCode": "L3V5Y6", "twitter": "None", "instagram": "None", "facebook": "None", "youtube": "None", "website": "None", "summary": "None", "logo": "None", "latitude": 44.60689834499966, "longitude": -79.43163558976298}, "887874006RR0001": {"name": "ORILLIA CANADA DAY INC.", "designationCode": "C", "categoryCode": "59", "address": "PO BOX 2133", "city": "ORILLIA", "province": "ON", "country": "CA", "postalCode": "L3V6R9", "twitter": "None", "instagram": "None", "facebook": "None", "youtube": "None", "website": "None", "summary": "None", "logo": "None", "latitude": 44.60657100000006, "longitude": -79.41824449999993}, "891467797RR0001": {"name": "ORILLIA CENTRAL PRESCHOOL", "designationCode": "C", "categoryCode": "20", "address": "547 LACLIE ST", "city": "ORILLIA", "province": "ON", "country": "CA", "postalCode": "L3V4R2", "twitter": "None", "instagram": "None", "facebook": "None", "youtube": "None", "website": "None", "summary": "None", "logo": "None", "latitude": 44.63352888800586, "longitude": -79.4227403466368}, "892281577RR0001": {"name": "ORILLIA CHRISTIAN CENTRE", "designationCode": "C", "categoryCode": "39", "address": "48 PETER ST. SOUTH", "city": "ORILLIA", "province": "ON", "country": "CA", "postalCode": "L3V5B1", "twitter": "None", "instagram": "None", "facebook": "None", "youtube": "None", "website": "None", "summary": "None", "logo": "None", "latitude": 44.60797646489189, "longitude": -79.41663964667578}, "132700816RR0001": {"name": "ORILLIA CHRISTIAN SCHOOL SOCIETY", "designationCode": "C", "categoryCode": "20", "address": "PO BOX 862", "city": "ORILLIA", "province": "ON", "country": "CA", "postalCode": "L3V6K8", "twitter": "None", "instagram": "None", "facebook": "None", "youtube": "None", "website": "None", "summary": "None", "logo": "None", "latitude": 44.60657100000006, "longitude": -79.41824449999993}, "820313609RR0001": {"name": "ORILLIA COMMUNITY CHURCH", "designationCode": "C", "categoryCode": "39", "address": "64 COLBORNE ST. E", "city": "ORILLIA", "province": "ON", "country": "CA", "postalCode": "L3V1T6", "twitter": "None", "instagram": "None", "facebook": "None", "youtube": "None", "website": "None", "summary": "None", "logo": "None", "latitude": 44.60835091711602, "longitude": -79.41607937680651}, "119070019RR0001": {"name": "ORILLIA HERITAGE CENTRE", "designationCode": "C", "categoryCode": "52", "address": "PO BOX 913", "city": "ORILLIA", "province": "ON", "country": "CA", "postalCode": "L3V6K8", "twitter": "None", "instagram": "None", "facebook": "None", "youtube": "None", "website": "None", "summary": "None", "logo": "None", "latitude": 44.60657100000006, "longitude": -79.41824449999993}, "887282994RR0001": {"name": "ORILLIA LEGION BRANCH 34 SENIOR CITIZENS COMPLEX", "designationCode": "C", "categoryCode": "01", "address": "70 FITTONS ROAD W", "city": "ORILLIA", "province": "ON", "country": "CA", "postalCode": "L3V6X6", "twitter": "None", "instagram": "None", "facebook": "None", "youtube": "None", "website": "None", "summary": "None", "logo": "None", "latitude": 44.620121288328384, "longitude": -79.4375013766645}, "137975777RR0001": {"name": "ORILLIA NATURALISTS CLUB INC", "designationCode": "C", "categoryCode": "52", "address": "BOX 2381", "city": "ORILLIA", "province": "ON", "country": "CA", "postalCode": "L3V6V7", "twitter": "None", "instagram": "None", "facebook": "None", "youtube": "None", "website": "None", "summary": "None", "logo": "None", "latitude": 44.60657100000006, "longitude": -79.41824449999993}, "891126286RR0001": {"name": "ORILLIA PREGNANCY CRISIS CENTER", "designationCode": "C", "categoryCode": "19", "address": "BOX 2104", "city": "ORILLIA", "province": "ON", "country": "CA", "postalCode": "L3V6R9", "twitter": "None", "instagram": "None", "facebook": "None", "youtube": "None", "website": "None", "summary": "None", "logo": "None", "latitude": 44.60657100000006, "longitude": -79.41824449999993}, "119070050RR0001": {"name": "ORILLIA PRESBYTERIAN CHURCH", "designationCode": "C", "categoryCode": "37", "address": "99 PETER ST N", "city": "ORILLIA", "province": "ON", "country": "CA", "postalCode": "L3V4Z3", "twitter": "None", "instagram": "None", "facebook": "None", "youtube": "None", "website": "None", "summary": "None", "logo": "None", "latitude": 44.611440706796316, "longitude": -79.41969091435004}, "890489370RR0001": {"name": "ORILLIA SENIOR CITIZENS (THE INTELLIGENT ELDERS): TIE", "designationCode": "C", "categoryCode": "56", "address": "56 WEST STREET NORTH", "city": "ORILLIA", "province": "ON", "country": "CA", "postalCode": "L3V5C2", "twitter": "None", "instagram": "None", "facebook": "None", "youtube": "None", "website": "None", "summary": "None", "logo": "None", "latitude": 44.60987943543114, "longitude": -79.42089574537196}, "107797383RR0052": {"name": "ORILLIA SEVENTH-DAY ADVENTIST COMMUNITY CHURCH", "designationCode": "C", "categoryCode": "41", "address": "BOX 171, STATION MAIN", "city": "ORILLIA", "province": "ON", "country": "CA", "postalCode": "L3V6J3", "twitter": "None", "instagram": "None", "facebook": "None", "youtube": "None", "website": "None", "summary": "None", "logo": "None", "latitude": 44.58482747647954, "longitude": -79.42452845126093}, "844865675RR0001": {"name": "ORILLIA SILVER BAND", "designationCode": "C", "categoryCode": "22", "address": "3-200 MEMORIAL AVE            SUITE 352", "city": "ORILLIA", "province": "ON", "country": "CA", "postalCode": "L3V5X6", "twitter": "None", "instagram": "None", "facebook": "None", "youtube": "None", "website": "None", "summary": "None", "logo": "None", "latitude": 44.5718959312396, "longitude": -79.44669650622573}, "107803629RR0001": {"name": "ORILLIA SOLDIERS' MEMORIAL HOSPITAL", "designationCode": "C", "categoryCode": "10", "address": "170 COLBORNE STREET WEST", "city": "ORILLIA", "province": "ON", "country": "CA", "postalCode": "L3V2Z3", "twitter": "None", "instagram": "None", "facebook": "None", "youtube": "None", "website": "None", "summary": "None", "logo": "None", "latitude": 44.60465617506292, "longitude": -79.42490074325065}, "889321998RR0001": {"name": "ORILLIA SOLDIERS' MEMORIAL HOSPITAL FOUNDATION", "designationCode": "A", "categoryCode": "13", "address": "146 MISSISSAGA STREET W", "city": "ORILLIA", "province": "ON", "country": "CA", "postalCode": "L3V3B3", "twitter": "None", "instagram": "None", "facebook": "None", "youtube": "None", "website": "None", "summary": "None", "logo": "None", "latitude": 44.60619175731792, "longitude": -79.42476067643247}, "892780164RR0001": {"name": "ORILLIA YOUTH SYMPHONY ORCHESTRA", "designationCode": "C", "categoryCode": "22", "address": "P.O. BOX 904", "city": "BARRIE", "province": "ON", "country": "CA", "postalCode": "L4M4Y6", "twitter": "None", "instagram": "None", "facebook": "None", "youtube": "None", "website": "None", "summary": "None", "logo": "None", "latitude": 44.38929300000005, "longitude": -79.68626449999994}, "104014394RR0001": {"name": "ORIOLE CHARITABLE FOUNDATION", "designationCode": "B", "categoryCode": "03", "address": "PO BOX 78152 RPO CALLINGWOOD", "city": "EDMONTON", "province": "AB", "country": "CA", "postalCode": "T5T6A1", "twitter": "None", "instagram": "None", "facebook": "None", "youtube": "None", "website": "None", "summary": "None", "logo": "None", "latitude": 53.509002562821486, "longitude": -113.62633871429331}, "107803686RR0001": {"name": "ORIOLE NURSERY SCHOOL", "designationCode": "C", "categoryCode": "20", "address": "1570 YONGE ST", "city": "TORONTO", "province": "ON", "country": "CA", "postalCode": "M4T1Z8", "twitter": "None", "instagram": "None", "facebook": "None", "youtube": "None", "website": "None", "summary": "None", "logo": "None", "latitude": 43.69033825200536, "longitude": -79.39499901797514}, "119288918RR1038": {"name": "ORIOLE PARKWAY CONGREGATION OF JEHOVAH'S WITNESSES", "designationCode": "C", "categoryCode": "61", "address": "256 EGLINTON AVENUE WEST", "city": "TORONTO", "province": "ON", "country": "CA", "postalCode": "M4R1B2", "twitter": "None", "instagram": "None", "facebook": "None", "youtube": "None", "website": "None", "summary": "None", "logo": "None", "latitude": 43.70501719790516, "longitude": -79.40674573633788}, "107803744RR0001": {"name": "ORION EVANGELICAL FREE CHURCH", "designationCode": "C", "categoryCode": "39", "address": "BOX 75", "city": "ORION", "province": "AB", "country": "CA", "postalCode": "T0K1S0", "twitter": "None", "instagram": "None", "facebook": "None", "youtube": "None", "website": "None", "summary": "None", "logo": "None", "latitude": 49.453130000000044, "longitude": -110.81296999999995}, "869805762RR0001": {"name": "ORION FOUNDATION OF CALGARY", "designationCode": "B", "categoryCode": "03", "address": "BOX 3 SITE 16, RR 1", "city": "MILLARVILLE", "province": "AB", "country": "CA", "postalCode": "T0L1K0", "twitter": "None", "instagram": "None", "facebook": "None", "youtube": "None", "website": "None", "summary": "None", "logo": "None"}, "106926207RR0001": {"name": "ORKNEY CHURCH OF THE NAZARENE", "designationCode": "C", "categoryCode": "39", "address": "1556 2ND CONCESSION RD W      RR 1", "city": "LYNDEN", "province": "ON", "country": "CA", "postalCode": "L0R1T0", "twitter": "None", "instagram": "None", "facebook": "None", "youtube": "None", "website": "None", "summary": "None", "logo": "None", "latitude": 43.25779767773695, "longitude": -80.08820736052289}, "890014392RR0001": {"name": "ORKNEY HISTORICAL SOCIETY", "designationCode": "C", "categoryCode": "52", "address": "PO BOX 165", "city": "YORKTON", "province": "SK", "country": "CA", "postalCode": "S3N2V7", "twitter": "None", "instagram": "None", "facebook": "None", "youtube": "None", "website": "None", "summary": "None", "logo": "None", "latitude": 51.20403900000005, "longitude": -102.44985199999994}, "119070191RR0001": {"name": "ORKNEY PRESBYTERIAN CHURCH", "designationCode": "C", "categoryCode": "37", "address": "BOX 1167", "city": "THREE HILLS", "province": "AB", "country": "CA", "postalCode": "T0M2A0", "twitter": "None", "instagram": "None", "facebook": "None", "youtube": "None", "website": "None", "summary": "None", "logo": "None", "latitude": 52.38329400000001, "longitude": -114.606927}, "119070209RR0001": {"name": "ORLAN UKRAINIAN FOLK ENSEMBLE INC.", "designationCode": "C", "categoryCode": "22", "address": "110-2110 MAIN ST.", "city": "WINNIPEG", "province": "MB", "country": "CA", "postalCode": "R2V2C2", "twitter": "None", "instagram": "None", "facebook": "None", "youtube": "None", "website": "None", "summary": "None", "logo": "None", "latitude": 49.94759675662165, "longitude": -97.10933207291207}, "129143855RR0001": {"name": "ORLEANS COOPERATIVE NURSERY SCHOOL/THE ORLEANS PRESCHOOL INC.", "designationCode": "C", "categoryCode": "20", "address": "1490 YOUVILLE DRIVE", "city": "OTTAWA", "province": "ON", "country": "CA", "postalCode": "K1C2X8", "twitter": "None", "instagram": "None", "facebook": "None", "youtube": "None", "website": "None", "summary": "None", "logo": "None", "latitude": 45.46553436006061, "longitude": -75.54545889090554}, "107797383RR0126": {"name": "ORLEANS FRENCH SEVENTH-DAY ADVENTIST CHURCH", "designationCode": "C", "categoryCode": "41", "address": "P.O. BOX 58038 R.P.O. GARDENS", "city": "ORLEANS", "province": "ON", "country": "CA", "postalCode": "K1C7H4", "twitter": "None", "instagram": "None", "facebook": "None", "youtube": "None", "website": "None", "summary": "None", "logo": "None", "latitude": 45.48048000000006, "longitude": -75.51060199999993}, "107797383RR0125": {"name": "ORLEANS SEVENTH-DAY ADVENTIST CHURCH", "designationCode": "C", "categoryCode": "41", "address": "P.O. BOX 51043                RPO BIBERRY VILLAGE", "city": "ORLEANS", "province": "ON", "country": "CA", "postalCode": "K1E3W4", "twitter": "None", "instagram": "None", "facebook": "None", "youtube": "None", "website": "None", "summary": "None", "logo": "None", "latitude": 48.92124000000007, "longitude": -96.93087999999995}, "130563240RR0001": {"name": "ORLEANS UNITED CHURCH", "designationCode": "C", "categoryCode": "44", "address": "1111 ORLEANS BLVD", "city": "ORLEANS", "province": "ON", "country": "CA", "postalCode": "K1C7C8", "twitter": "None", "instagram": "None", "facebook": "None", "youtube": "None", "website": "None", "summary": "None", "logo": "None", "latitude": 45.47630996174017, "longitude": -75.53579795175776}, "869417360RR0001": {"name": "ORLEANS YOUNG PLAYERS THEATRE SCHOOL", "designationCode": "C", "categoryCode": "22", "address": "245, CENTRUM BLVD., SUITE 280", "city": "ORLEANS", "province": "ON", "country": "CA", "postalCode": "K1E0A1", "twitter": "None", "instagram": "None", "facebook": "None", "youtube": "None", "website": "None", "summary": "None", "logo": "None", "latitude": 45.480353560678395, "longitude": -75.51103315378826}, "130917552RR0001": {"name": "ORLEANS- CUMBERLAND COMMUNITY RESOURCE CENTRE CENTRE DE RESSOURCES COMMUNAUTAIRES ORLEANS-CUMBERLAND", "designationCode": "C", "categoryCode": "01", "address": "105-240 BOUL CENTRUM BLVD", "city": "ORLEANS", "province": "ON", "country": "CA", "postalCode": "K1E3J4", "twitter": "None", "instagram": "None", "facebook": "None", "youtube": "None", "website": "None", "summary": "None", "logo": "None", "latitude": 45.48003640850626, "longitude": -75.51148782232129}, "888546249RR0001": {"name": "ORLO CHALLICE SCHOLARSHIP TRUST FUND", "designationCode": "C", "categoryCode": "21", "address": "644 ALBERT STREET EAST", "city": "SAULT-STE-MARIE", "province": "ON", "country": "CA", "postalCode": "P6A2K7", "twitter": "None", "instagram": "None", "facebook": "None", "youtube": "None", "website": "None", "summary": "None", "logo": "None", "latitude": 46.509229370275065, "longitude": -84.32735493098306}, "826313207RR0001": {"name": "ORMISTON BAPTIST CHURCH INC.", "designationCode": "C", "categoryCode": "31", "address": "BOX 37", "city": "KAYVILLE", "province": "SK", "country": "CA", "postalCode": "S0H2C0", "twitter": "None", "instagram": "None", "facebook": "None", "youtube": "None", "website": "None", "summary": "None", "logo": "None", "latitude": 49.72654000000006, "longitude": -105.14597999999995}, "891316390RR0001": {"name": "ORMSTOWN UNION CEMETERY COMPANY", "designationCode": "C", "categoryCode": "59", "address": "1588 FIRST CONCESSION", "city": "HINCHINBROOKE", "province": "QC", "country": "CA", "postalCode": "J0S1A0", "twitter": "None", "instagram": "None", "facebook": "None", "youtube": "None", "website": "None", "summary": "None", "logo": "None", "latitude": 45.007921480668514, "longitude": -74.05746227699233}, "856773585RR0001": {"name": "ORNGE FOUNDATION", "designationCode": "A", "categoryCode": "03", "address": "5310 EXPLORER DR", "city": "MISSISSAUGA", "province": "ON", "country": "CA", "postalCode": "L4W5H8", "twitter": "None", "instagram": "None", "facebook": "None", "youtube": "None", "website": "None", "summary": "None", "logo": "None", "latitude": 43.66337354420379, "longitude": -79.60335067799676}, "876200700RR0001": {"name": "ORO-MEDONTE HORTICULTURAL SOCIETY", "designationCode": "C", "categoryCode": "56", "address": "226 SHORELINE DR", "city": "ORO-MEDONTE", "province": "ON", "country": "CA", "postalCode": "L0L1T0", "twitter": "None", "instagram": "None", "facebook": "None", "youtube": "None", "website": "None", "summary": "None", "logo": "None", "latitude": 44.521545989208626, "longitude": -79.43563363134012}, "888427861RR0001": {"name": "OROMO RELIEF ASSOCIATION IN ONTARIO", "designationCode": "C", "categoryCode": "09", "address": "3-94 KENHAR DR.", "city": "NORTH YORK", "province": "ON", "country": "CA", "postalCode": "M9L1N2", "twitter": "None", "instagram": "None", "facebook": "None", "youtube": "None", "website": "None", "summary": "None", "logo": "None", "latitude": 43.76155796425785, "longitude": -79.5451987883081}, "119070282RR0001": {"name": "OROMOCTO & AREA SPCA INC.", "designationCode": "C", "categoryCode": "54", "address": "111 D'AMOURS STREET", "city": "OROMOCTO", "province": "NB", "country": "CA", "postalCode": "E2V0G5", "twitter": "None", "instagram": "None", "facebook": "None", "youtube": "None", "website": "None", "summary": "None", "logo": "None", "latitude": 45.839095638351935, "longitude": -66.49503637864227}, "104016910RR0001": {"name": "OROMOCTO COMMUNITY RESIDENCES INCORPORATED", "designationCode": "C", "categoryCode": "01", "address": "932 WAASIS RD", "city": "OROMOCTO", "province": "NB", "country": "CA", "postalCode": "E2V2P2", "twitter": "None", "instagram": "None", "facebook": "None", "youtube": "None", "website": "None", "summary": "None", "logo": "None", "latitude": 45.833801384413334, "longitude": -66.51854145285336}, "119288918RR1124": {"name": "OROMOCTO N B CONGREGATION OF JEHOVAH'S WITNESSES", "designationCode": "C", "categoryCode": "61", "address": "2 - 2691 ROUTE 102", "city": "LINCOLN", "province": "NB", "country": "CA", "postalCode": "E3B7E4", "twitter": "None", "instagram": "None", "facebook": "None", "youtube": "None", "website": "None", "summary": "None", "logo": "None", "latitude": 45.870250491051465, "longitude": -66.51587751037884}, "119070308RR0001": {"name": "OROMOCTO PASTORAL CHARGE", "designationCode": "C", "categoryCode": "44", "address": "PO BOX 20050", "city": "OROMOCTO", "province": "NB", "country": "CA", "postalCode": "E2V2R6", "twitter": "None", "instagram": "None", "facebook": "None", "youtube": "None", "website": "None", "summary": "None", "logo": "None", "latitude": 45.84368400000005, "longitude": -66.48019099999993}, "888929486RR0001": {"name": "OROMOCTO PUBLIC HOSPITAL FOUNDATION INC", "designationCode": "A", "categoryCode": "13", "address": "103 WINNEBGAO STREET", "city": "OROMOCTO", "province": "NB", "country": "CA", "postalCode": "E2V1C6", "twitter": "None", "instagram": "None", "facebook": "None", "youtube": "None", "website": "None", "summary": "None", "logo": "None"}, "889435772RR0001": {"name": "OROMOCTO PUBLIC LIBRARY", "designationCode": "C", "categoryCode": "50", "address": "54 MIRAMICHI RD", "city": "OROMOCTO", "province": "NB", "country": "CA", "postalCode": "E2V1S2", "twitter": "None", "instagram": "None", "facebook": "None", "youtube": "None", "website": "None", "summary": "None", "logo": "None", "latitude": 45.84311988536563, "longitude": -66.48004723959785}, "128917754RR0001": {"name": "OROMOCTO UNITED BAPTIST CHURCH,", "designationCode": "C", "categoryCode": "31", "address": "10 DOYLE DR", "city": "OROMOCTO", "province": "NB", "country": "CA", "postalCode": "E2V0B4", "twitter": "None", "instagram": "None", "facebook": "None", "youtube": "None", "website": "None", "summary": "None", "logo": "None", "latitude": 45.84120643323866, "longitude": -66.50713651893919}, "119070357RR0001": {"name": "ORONO AMATEUR ATHLETIC ASSOCIATION", "designationCode": "C", "categoryCode": "56", "address": "2 PRINCESS ST", "city": "ORONO", "province": "ON", "country": "CA", "postalCode": "L0B1M0", "twitter": "None", "instagram": "None", "facebook": "None", "youtube": "None", "website": "None", "summary": "None", "logo": "None", "latitude": 43.97538077434321, "longitude": -78.61203773978163}, "126397678RR0001": {"name": "ORONO CEMETERY COMPANY", "designationCode": "C", "categoryCode": "59", "address": "5875 MAIN STREET", "city": "ORONO", "province": "ON", "country": "CA", "postalCode": "L0B1M0", "twitter": "None", "instagram": "None", "facebook": "None", "youtube": "None", "website": "None", "summary": "None", "logo": "None", "latitude": 43.987813885693605, "longitude": -78.62211097329248}, "864232137RR0001": {"name": "ORONO CROWN LANDS TRUST", "designationCode": "C", "categoryCode": "52", "address": "P.O BOX #242", "city": "ORONO", "province": "ON", "country": "CA", "postalCode": "L0B1M0", "twitter": "None", "instagram": "None", "facebook": "None", "youtube": "None", "website": "None", "summary": "None", "logo": "None", "latitude": 43.977220000000045, "longitude": -78.61645999999996}, "107804205RR0001": {"name": "ORONO KIRBY PASTORAL CHARGE", "designationCode": "C", "categoryCode": "44", "address": "PO BOX 262", "city": "ORONO", "province": "ON", "country": "CA", "postalCode": "L0B1M0", "twitter": "None", "instagram": "None", "facebook": "None", "youtube": "None", "website": "None", "summary": "None", "logo": "None", "latitude": 43.977220000000045, "longitude": -78.61645999999996}, "861705887RR0001": {"name": "ORPHAN'S HOPE", "designationCode": "C", "categoryCode": "01", "address": "18 PARKVIEW HILL CRESCENT", "city": "TORONTO", "province": "ON", "country": "CA", "postalCode": "M4B1P6", "twitter": "None", "instagram": "None", "facebook": "None", "youtube": "None", "website": "None", "summary": "None", "logo": "None", "latitude": 43.70466140940031, "longitude": -79.32292365528882}, "889283461RR0001": {"name": "ORPHEUM THEATRE FOUNDATION", "designationCode": "A", "categoryCode": "22", "address": "500-833 SEYMOUR STREET", "city": "VANCOUVER", "province": "BC", "country": "CA", "postalCode": "V6B0G4", "twitter": "None", "instagram": "None", "facebook": "None", "youtube": "None", "website": "None", "summary": "None", "logo": "None", "latitude": 49.280327244532195, "longitude": -123.11949928270514}, "119070415RR0001": {"name": "ORPHEUS MUSICAL THEATRE SOCIETY", "designationCode": "C", "categoryCode": "22", "address": "17 FAIRMONT AVE", "city": "OTTAWA", "province": "ON", "country": "CA", "postalCode": "K1Y1X4", "twitter": "None", "instagram": "None", "facebook": "None", "youtube": "None", "website": "None", "summary": "None", "logo": "None", "latitude": 45.403955873449064, "longitude": -75.72333034413427}, "118834910RR0001": {"name": "ORT CANADA", "designationCode": "A", "categoryCode": "21", "address": "272 CODSELL AVE", "city": "NORTH YORK", "province": "ON", "country": "CA", "postalCode": "M3H3X2", "twitter": "None", "instagram": "None", "facebook": "None", "youtube": "None", "website": "None", "summary": "None", "logo": "None", "latitude": 43.754321165733494, "longitude": -79.45870615641398}, "134279835RR0001": {"name": "ORTHODOX BROTHERHOOD OF CANADA", "designationCode": "A", "categoryCode": "39", "address": "P.O. BOX 93, GRP-1            R.R. #1", "city": "ANOLA", "province": "MB", "country": "CA", "postalCode": "R0E0A0", "twitter": "None", "instagram": "None", "facebook": "None", "youtube": "None", "website": "None", "summary": "None", "logo": "None", "latitude": 49.885053000000056, "longitude": -96.64109449999994}, "872367016RR0001": {"name": "ORTHODOX BROTHERHOOD OF ST EUPHROSYNIA", "designationCode": "B", "categoryCode": "39", "address": "2 - 13878 WOODBINE AVE", "city": "STOUFFVILLE", "province": "ON", "country": "CA", "postalCode": "L4A2K6", "twitter": "None", "instagram": "None", "facebook": "None", "youtube": "None", "website": "None", "summary": "None", "logo": "None", "latitude": 43.98192558615631, "longitude": -79.38720937916094}, "893010579RR0001": {"name": "ORTHODOX CHURCH OF THE ASSUMPTION OF THE HOLY VIRGIN", "designationCode": "C", "categoryCode": "39", "address": "1021-14STREET NORTH", "city": "LETHBRIDGE", "province": "AB", "country": "CA", "postalCode": "T1H2W3", "twitter": "None", "instagram": "None", "facebook": "None", "youtube": "None", "website": "None", "summary": "None", "logo": "None", "latitude": 49.71470100000006, "longitude": -112.82261299999993}, "834994352RR0001": {"name": "ORTHODOX COMMUNITY OF THE HOLY SPIRIT CANADA UAOC INC.", "designationCode": "C", "categoryCode": "39", "address": "183 WELLINGTON AVE", "city": "YORKTON", "province": "SK", "country": "CA", "postalCode": "S3N1Y5", "twitter": "None", "instagram": "None", "facebook": "None", "youtube": "None", "website": "None", "summary": "None", "logo": "None", "latitude": 51.216948, "longitude": -102.47129662210753}, "898512140RR0001": {"name": "ORTHODOX MISSIONARY CHURCH SAINT VASILIYE OF OSTROG CANADA", "designationCode": "C", "categoryCode": "39", "address": "169 COOPERAGE CRESCENT", "city": "RICHMOND HILL", "province": "ON", "country": "CA", "postalCode": "L4C9K9", "twitter": "None", "instagram": "None", "facebook": "None", "youtube": "None", "website": "None", "summary": "None", "logo": "None", "latitude": 43.889281870910246, "longitude": -79.45236424963942}, "119070480RR0001": {"name": "ORTHODOX RABBINICAL COUNCIL OF BRITISH COLUMBIA", "designationCode": "C", "categoryCode": "49", "address": "401-1037 BROADWAY W", "city": "VANCOUVER", "province": "BC", "country": "CA", "postalCode": "V6H1E3", "twitter": "None", "instagram": "None", "facebook": "None", "youtube": "None", "website": "None", "summary": "None", "logo": "None", "latitude": 49.2634524532574, "longitude": -123.1275012485429}, "893292060RR0001": {"name": "ORTHODOX REFORMED CHURCH OF EDMONTON", "designationCode": "C", "categoryCode": "39", "address": "11610 95A ST NW", "city": "EDMONTON", "province": "AB", "country": "CA", "postalCode": "T5G1P8", "twitter": "None", "instagram": "None", "facebook": "None", "youtube": "None", "website": "None", "summary": "None", "logo": "None", "latitude": 53.56756716180968, "longitude": -113.48872923651078}, "139479042RR0001": {"name": "ORTHODOX V CHARITABLE ASSOCIATION", "designationCode": "C", "categoryCode": "49", "address": "BOX 483", "city": "LAMONT", "province": "AB", "country": "CA", "postalCode": "T0B2R0", "twitter": "None", "instagram": "None", "facebook": "None", "youtube": "None", "website": "None", "summary": "None", "logo": "None", "latitude": 53.759960000000035, "longitude": -112.77838999999994}, "119070530RR0001": {"name": "ORTON COMMUNITY ASSOCIATION", "designationCode": "C", "categoryCode": "56", "address": "071101 10TH LINE", "city": "EAST GARAFRAXA", "province": "ON", "country": "CA", "postalCode": "L9W6Z9", "twitter": "None", "instagram": "None", "facebook": "None", "youtube": "None", "website": "None", "summary": "None", "logo": "None", "latitude": 43.787441596196935, "longitude": -80.23882546915598}, "119070548RR0001": {"name": "ORTONVILLE BAPTIST CHURCH", "designationCode": "C", "categoryCode": "31", "address": "326 KELLY RD.", "city": "DSL DE GRAND SAULT", "province": "NB", "country": "CA", "postalCode": "E3Z1K4", "twitter": "None", "instagram": "None", "facebook": "None", "youtube": "None", "website": "None", "summary": "None", "logo": "None", "latitude": 46.94239286539898, "longitude": -67.70053657377838}, "126940733RR0001": {"name": "OSAID (ONTARIO STUDENTS AGAINST IMPAIRED DRIVING) INC.", "designationCode": "C", "categoryCode": "59", "address": "1015 LAKESHORE BLVD EAST      UNIT 2B,BOX #3", "city": "TORONTO", "province": "ON", "country": "CA", "postalCode": "M4M1B4", "twitter": "None", "instagram": "None", "facebook": "None", "youtube": "None", "website": "None", "summary": "None", "logo": "None", "latitude": 43.658257727422416, "longitude": -79.33014938424044}, "891048043RR0001": {"name": "OSBORN FOUNDATION OF CANADA", "designationCode": "C", "categoryCode": "47", "address": "250 UNIVERISTY AVENUE,        SUITE 700", "city": "TORONTO", "province": "ON", "country": "CA", "postalCode": "M5H3E5", "twitter": "None", "instagram": "None", "facebook": "None", "youtube": "None", "website": "None", "summary": "None", "logo": "None", "latitude": 43.65035926617229, "longitude": -79.3872883885396}, "862016391RR0001": {"name": "OSBORNE CEMETERY ASSOCIATION", "designationCode": "C", "categoryCode": "59", "address": "206 PLEASANT POINT RD         RR#1", "city": "LOCKEPORT", "province": "NS", "country": "CA", "postalCode": "B0T1L0", "twitter": "None", "instagram": "None", "facebook": "None", "youtube": "None", "website": "None", "summary": "None", "logo": "None", "latitude": 43.720731115182645, "longitude": -65.09825049728735}, "899164487RR0001": {"name": "OSBORNE HOUSE INC", "designationCode": "C", "categoryCode": "01", "address": "P.O. BOX 397", "city": "WINNIPEG", "province": "MB", "country": "CA", "postalCode": "R3C2H6", "twitter": "None", "instagram": "None", "facebook": "None", "youtube": "None", "website": "None", "summary": "None", "logo": "None", "latitude": 49.899525000000054, "longitude": -97.14112999999993}, "894239524RR0001": {"name": "OSEG Foundation / Fondation OSEG", "designationCode": "A", "categoryCode": "03", "address": "1015 BANK STREET", "city": "OTTAWA", "province": "ON", "country": "CA", "postalCode": "K1S3W7", "twitter": "None", "instagram": "None", "facebook": "None", "youtube": "None", "website": "None", "summary": "None", "logo": "None", "latitude": 45.39781810183937, "longitude": -75.68535596605355}, "119070605RR0001": {"name": "OSGOODE BAPTIST & VERNON UNITED CHURCH", "designationCode": "C", "categoryCode": "44", "address": "BOX 10", "city": "VERNON", "province": "ON", "country": "CA", "postalCode": "K0A3J0", "twitter": "None", "instagram": "None", "facebook": "None", "youtube": "None", "website": "None", "summary": "None", "logo": "None"}, "119070613RR0001": {"name": "OSGOODE BIBLE CHAPEL", "designationCode": "C", "categoryCode": "39", "address": "BOX 9", "city": "OSGOODE", "province": "ON", "country": "CA", "postalCode": "K0A2W0", "twitter": "None", "instagram": "None", "facebook": "None", "youtube": "None", "website": "None", "summary": "None", "logo": "None", "latitude": 45.14356518086365, "longitude": -75.59063555322211}, "104020474RR0001": {"name": "OSGOODE CO-OPERATIVE NURSERY SCHOOL INC.", "designationCode": "C", "categoryCode": "20", "address": "PO BOX 267", "city": "OSGOODE", "province": "ON", "country": "CA", "postalCode": "K0A2W0", "twitter": "None", "instagram": "None", "facebook": "None", "youtube": "None", "website": "None", "summary": "None", "logo": "None", "latitude": 45.14356518086365, "longitude": -75.59063555322211}, "119070639RR0001": {"name": "OSGOODE PRESBYTERIAN CHURCH", "designationCode": "C", "categoryCode": "37", "address": "7758 BANK STREET", "city": "METCALFE", "province": "ON", "country": "CA", "postalCode": "K0A2P0", "twitter": "None", "instagram": "None", "facebook": "None", "youtube": "None", "website": "None", "summary": "None", "logo": "None", "latitude": 45.202952221255174, "longitude": -75.48330267192719}, "134330851RR0001": {"name": "OSGOODE TOWNSHIP HISTORICAL SOCIETY", "designationCode": "C", "categoryCode": "50", "address": "7814 LAURENCE ST. BOX 74", "city": "VERNON", "province": "ON", "country": "CA", "postalCode": "K0A3J0", "twitter": "None", "instagram": "None", "facebook": "None", "youtube": "None", "website": "None", "summary": "None", "logo": "None", "latitude": 45.160518566420805, "longitude": -75.46278068619105}, "861739464RR0001": {"name": "OSGOODE YOUTH ASSOCIATION", "designationCode": "C", "categoryCode": "09", "address": "5479 OSGOODE MAIN STREET      BOX 5479", "city": "OSGOODE", "province": "ON", "country": "CA", "postalCode": "K0A2W0", "twitter": "None", "instagram": "None", "facebook": "None", "youtube": "None", "website": "None", "summary": "None", "logo": "None", "latitude": 45.14368425425573, "longitude": -75.61143567695754}, "890679376RR0001": {"name": "OSHAWA & DISTRICT OSTOMY ASSOCIATION", "designationCode": "C", "categoryCode": "09", "address": "8 KING ST E                   PO BOX 54007", "city": "OSHAWA", "province": "ON", "country": "CA", "postalCode": "L1H1A9", "twitter": "None", "instagram": "None", "facebook": "None", "youtube": "None", "website": "None", "summary": "None", "logo": "None", "latitude": 43.897707114086124, "longitude": -78.86323968096826}, "889391645RR0001": {"name": "OSHAWA - WHITBY KIWANIS MUSIC & THEATRE FESTIVAL", "designationCode": "C", "categoryCode": "22", "address": "910 DUNDAS ST. W.             PO BOX 10017", "city": "WHITBY", "province": "ON", "country": "CA", "postalCode": "L1P1P7", "twitter": "None", "instagram": "None", "facebook": "None", "youtube": "None", "website": "None", "summary": "None", "logo": "None", "latitude": 43.87474500000006, "longitude": -78.96522499999993}, "131959546RR0001": {"name": "OSHAWA AERONAUTICAL,MILITARY & INDUSTRIAL MUSEUM", "designationCode": "C", "categoryCode": "50", "address": "53 SIMCOE ST. N.", "city": "OSHAWA", "province": "ON", "country": "CA", "postalCode": "L1G4R9", "twitter": "None", "instagram": "None", "facebook": "None", "youtube": "None", "website": "None", "summary": "None", "logo": "None", "latitude": 43.89903918763338, "longitude": -78.86427133827722}, "119070779RR0001": {"name": "OSHAWA GROUP LIMITED EMPLOYEES' CHARITABLE TRUST", "designationCode": "B", "categoryCode": "75", "address": "115 KING STREET", "city": "STELLARTON", "province": "NS", "country": "CA", "postalCode": "B0K1S0", "twitter": "None", "instagram": "None", "facebook": "None", "youtube": "None", "website": "None", "summary": "None", "logo": "None", "latitude": 45.56046585345377, "longitude": -62.65718627710788}, "119288918RR0165": {"name": "OSHAWA HILLSDALE CONGREGATION OF JEHOVAH'S WITNESSES", "designationCode": "C", "categoryCode": "61", "address": "2850 GRANDVIEW ST N", "city": "OSHAWA", "province": "ON", "country": "CA", "postalCode": "L1H8L7", "twitter": "None", "instagram": "None", "facebook": "None", "youtube": "None", "website": "None", "summary": "None", "logo": "None", "latitude": 43.980851847772094, "longitude": -78.85309647672442}, "891013385RR0001": {"name": "OSHAWA KOREAN PRESBYTERIAN CHURCH", "designationCode": "C", "categoryCode": "37", "address": "486 SIMCOE ST SOUTH", "city": "OSHAWA", "province": "ON", "country": "CA", "postalCode": "L1H4J8", "twitter": "None", "instagram": "None", "facebook": "None", "youtube": "None", "website": "None", "summary": "None", "logo": "None", "latitude": 43.88481165583708, "longitude": -78.85783505900496}, "890988041RR0001": {"name": "OSHAWA PARKWOOD ROTARY CLUB CHARITABLE FOUNDATION", "designationCode": "A", "categoryCode": "63", "address": "96 KING STREET EAST", "city": "OSHAWA", "province": "ON", "country": "CA", "postalCode": "L1H1B6", "twitter": "None", "instagram": "None", "facebook": "None", "youtube": "None", "website": "None", "summary": "None", "logo": "None", "latitude": 43.89847014351647, "longitude": -78.85988778310916}, "107804890RR0001": {"name": "OSHAWA PUBLIC LIBRARY BOARD", "designationCode": "C", "categoryCode": "50", "address": "65 BAGOT STREET", "city": "OSHAWA", "province": "ON", "country": "CA", "postalCode": "L1H1N2", "twitter": "None", "instagram": "None", "facebook": "None", "youtube": "None", "website": "None", "summary": "None", "logo": "None", "latitude": 43.895147775982714, "longitude": -78.8651377554678}, "119070837RR0001": {"name": "OSHAWA SENIOR CITIZENS' CENTRE", "designationCode": "C", "categoryCode": "01", "address": "50 CENTER STREET SOUTH", "city": "OSHAWA", "province": "ON", "country": "CA", "postalCode": "L1H3Z7", "twitter": "None", "instagram": "None", "facebook": "None", "youtube": "None", "website": "None", "summary": "None", "logo": "None", "latitude": 43.895829123492526, "longitude": -78.8650436155284}, "107804825RR0001": {"name": "OSHAWA-DURHAM RAPE CRISIS CENTRE", "designationCode": "C", "categoryCode": "59", "address": "P.O. BOX 54039                8 KING STREET EAST", "city": "OSHAWA", "province": "ON", "country": "CA", "postalCode": "L1H8T2", "twitter": "None", "instagram": "None", "facebook": "None", "youtube": "None", "website": "None", "summary": "None", "logo": "None", "latitude": 43.897707114086124, "longitude": -78.86323968096826}, "873147615RR0001": {"name": "OSHKI-PIMACHE-O-WIN EDUCATION AND TRAINING INSTITUTE", "designationCode": "C", "categoryCode": "20", "address": "14-656 CITY RD", "city": "FORT WILLIAM FIRST NATION", "province": "ON", "country": "CA", "postalCode": "P7J1K3", "twitter": "None", "instagram": "None", "facebook": "None", "youtube": "None", "website": "None", "summary": "None", "logo": "None", "latitude": 48.35684928763778, "longitude": -89.26734193204076}, "887420461RR0001": {"name": "OSLER COMMUNITY PIONEERS INC", "designationCode": "C", "categoryCode": "56", "address": "BOX 159", "city": "OSLER", "province": "SK", "country": "CA", "postalCode": "S0K3A0", "twitter": "None", "instagram": "None", "facebook": "None", "youtube": "None", "website": "None", "summary": "None", "logo": "None", "latitude": 52.37312184017284, "longitude": -106.5326670943257}, "887573483RR0001": {"name": "OSLER MENNONITE CHURCH INC", "designationCode": "C", "categoryCode": "34", "address": "BOX 129", "city": "OSLER", "province": "SK", "country": "CA", "postalCode": "S0K3A0", "twitter": "None", "instagram": "None", "facebook": "None", "youtube": "None", "website": "None", "summary": "None", "logo": "None", "latitude": 52.37312184017284, "longitude": -106.5326670943257}, "124951765RR0001": {"name": "OSOYOOS & DISTRICT ARTS COUNCIL", "designationCode": "C", "categoryCode": "22", "address": "P.O. BOX 256", "city": "OSOYOOS", "province": "BC", "country": "CA", "postalCode": "V0H1V0", "twitter": "None", "instagram": "None", "facebook": "None", "youtube": "None", "website": "None", "summary": "None", "logo": "None", "latitude": 49.03284000000008, "longitude": -119.46625999999998}, "119070886RR0001": {"name": "OSOYOOS BAPTIST CHURCH", "designationCode": "C", "categoryCode": "31", "address": "6210 97 ST", "city": "OSOYOOS", "province": "BC", "country": "CA", "postalCode": "V0H1V4", "twitter": "None", "instagram": "None", "facebook": "None", "youtube": "None", "website": "None", "summary": "None", "logo": "None", "latitude": 49.02509080766344, "longitude": -119.47465308788705}, "119288918RR0178": {"name": "OSOYOOS BRITISH COLUMBIA CONGREGATION OF JEHOVAH'S WITNESSES", "designationCode": "C", "categoryCode": "61", "address": "6221-97 ST.", "city": "OSOYOOS", "province": "BC", "country": "CA", "postalCode": "V0H1V5", "twitter": "None", "instagram": "None", "facebook": "None", "youtube": "None", "website": "None", "summary": "None", "logo": "None", "latitude": 49.026497417969985, "longitude": -119.47399455490827}, "107805111RR0001": {"name": "OSOYOOS CHILD CARE CENTRE SOCIETY", "designationCode": "C", "categoryCode": "01", "address": "6609 89TH ST", "city": "OSOYOOS", "province": "BC", "country": "CA", "postalCode": "V0H1V1", "twitter": "None", "instagram": "None", "facebook": "None", "youtube": "None", "website": "None", "summary": "None", "logo": "None", "latitude": 49.02966417696969, "longitude": -119.468410582598}, "119070902RR0001": {"name": "OSOYOOS CHRISTIAN CENTRE", "designationCode": "C", "categoryCode": "36", "address": "BOX 52", "city": "OSOYOOS", "province": "BC", "country": "CA", "postalCode": "V0H1V0", "twitter": "None", "instagram": "None", "facebook": "None", "youtube": "None", "website": "None", "summary": "None", "logo": "None", "latitude": 49.022487, "longitude": -119.427255}}