{"118827757RR0001": {"name": "Camp Jubilee for Christadelphian Children", "designationCode": "C", "categoryCode": "56", "address": "519 ARROWHEAD ROAD", "city": "MISSISSAUGA", "province": "ON", "country": "CA", "postalCode": "L5H1V5", "twitter": "None", "instagram": "None", "facebook": "None", "youtube": "None", "website": "None", "summary": "None", "logo": "None", "latitude": 43.55259023287544, "longitude": -79.60578132142632}, "879577773RR0001": {"name": "Camp Jubilee Inc.", "designationCode": "A", "categoryCode": "43", "address": "P.O. BOX 99", "city": "HIGH BLUFF", "province": "MB", "country": "CA", "postalCode": "R0H0K0", "twitter": "None", "instagram": "None", "facebook": "None", "youtube": "None", "website": "None", "summary": "None", "logo": "None", "latitude": 50.01700000000005, "longitude": -98.14776999999998}, "848764684RR0001": {"name": "Camp Kerry Society", "designationCode": "C", "categoryCode": "01", "address": "145 EAST COLUMBIA STREET", "city": "NEW WESTMINSTER", "province": "BC", "country": "CA", "postalCode": "V3L3W2", "twitter": "None", "instagram": "None", "facebook": "None", "youtube": "None", "website": "None", "summary": "None", "logo": "None", "latitude": 49.22293654010619, "longitude": -122.89299187734422}, "119207975RR0001": {"name": "Camp Kintail", "designationCode": "C", "categoryCode": "56", "address": "PO BOX 153", "city": "GODERICH", "province": "ON", "country": "CA", "postalCode": "N7A3Z2", "twitter": "None", "instagram": "None", "facebook": "None", "youtube": "None", "website": "None", "summary": "None", "logo": "None", "latitude": 43.74263400000005, "longitude": -81.70775449999994}, "837870633RR0001": {"name": "Camp Kivita Inc.", "designationCode": "C", "categoryCode": "56", "address": "39 WESTOVER HILL ROAD", "city": "TORONTO", "province": "ON", "country": "CA", "postalCode": "M6C3J6", "twitter": "None", "instagram": "None", "facebook": "None", "youtube": "None", "website": "None", "summary": "None", "logo": "None", "latitude": 43.698372589791646, "longitude": -79.43237696361606}, "808623953RR0001": {"name": "Camp McGovern", "designationCode": "C", "categoryCode": "56", "address": "335 LANCASTER ST W", "city": "KITCHENER", "province": "ON", "country": "CA", "postalCode": "N2H4V4", "twitter": "None", "instagram": "None", "facebook": "None", "youtube": "None", "website": "None", "summary": "None", "logo": "None", "latitude": 43.46971124562873, "longitude": -80.48434785792581}, "830289294RR0001": {"name": "Camp Micah: Leadership for Peace and Justice", "designationCode": "C", "categoryCode": "56", "address": "688 ROCKWAY DRIVE", "city": "KITCHENER", "province": "ON", "country": "CA", "postalCode": "N2G3B4", "twitter": "None", "instagram": "None", "facebook": "None", "youtube": "None", "website": "None", "summary": "None", "logo": "None", "latitude": 43.43761923454886, "longitude": -80.46415724104108}, "826200388RR0001": {"name": "Camp Nutimik Foundation Inc.", "designationCode": "A", "categoryCode": "43", "address": "PO BOX 35040 RPO HENDERSON", "city": "WINNIPEG", "province": "MB", "country": "CA", "postalCode": "R2K4J9", "twitter": "None", "instagram": "None", "facebook": "None", "youtube": "None", "website": "None", "summary": "None", "logo": "None", "latitude": 49.91757891330441, "longitude": -97.11332657224632}, "840325021RR0001": {"name": "Camp Ohahaseh", "designationCode": "C", "categoryCode": "56", "address": "242 BAYSHORE RD", "city": "DESERONTO", "province": "ON", "country": "CA", "postalCode": "K0K1X0", "twitter": "None", "instagram": "None", "facebook": "None", "youtube": "None", "website": "None", "summary": "None", "logo": "None"}, "757075726RR0001": {"name": "Camp Oki", "designationCode": "C", "categoryCode": "11", "address": "DR. JOEL KIRSH, SICKKIDS HOSPI555 UNIVERSITY AVE., ROOM 1725", "city": "TORONTO", "province": "ON", "country": "CA", "postalCode": "M5G1X8", "twitter": "None", "instagram": "None", "facebook": "None", "youtube": "None", "website": "None", "summary": "None", "logo": "None", "latitude": 43.65746999610493, "longitude": -79.38638002452466}, "789854296RR0001": {"name": "Camp Onakawana", "designationCode": "C", "categoryCode": "21", "address": "2962 MATHERS CRESCENT", "city": "WEST VANCOUVER", "province": "BC", "country": "CA", "postalCode": "V7V2L3", "twitter": "None", "instagram": "None", "facebook": "None", "youtube": "None", "website": "None", "summary": "None", "logo": "None", "latitude": 49.3402624532879, "longitude": -123.1975711130648}, "861464469RR0001": {"name": "Camp Paradise", "designationCode": "C", "categoryCode": "49", "address": "262 PARADISE ROAD", "city": "HAY RIVER", "province": "NT", "country": "CA", "postalCode": "X0E0R4", "twitter": "None", "instagram": "None", "facebook": "None", "youtube": "None", "website": "None", "summary": "None", "logo": "None", "latitude": 60.73646100000006, "longitude": -115.87085899999994}, "833621303RR0001": {"name": "Camp Rock pour filles de Montr\u00e9al/Montreal Rock Camp for Girls", "designationCode": "C", "categoryCode": "22", "address": "2275 BOUL SAINT-JOSEPH E", "city": "MONTREAL", "province": "QC", "country": "CA", "postalCode": "H2H1G4", "twitter": "None", "instagram": "None", "facebook": "None", "youtube": "None", "website": "None", "summary": "None", "logo": "None", "latitude": 45.5395195406831, "longitude": -73.57546350129807}, "132462037RR0001": {"name": "Camp Ta Wa Si Inc.", "designationCode": "C", "categoryCode": "56", "address": "P.O. BOX 1384", "city": "MONCTON", "province": "NB", "country": "CA", "postalCode": "E1C8T6", "twitter": "None", "instagram": "None", "facebook": "None", "youtube": "None", "website": "None", "summary": "None", "logo": "None", "latitude": 46.08834900000005, "longitude": -64.77824149999994}, "840686208RR0001": {"name": "Camp Tanner Inc.", "designationCode": "C", "categoryCode": "56", "address": "355548 35TH LINE              RR #4", "city": "EMBRO", "province": "ON", "country": "CA", "postalCode": "N0J1J0", "twitter": "None", "instagram": "None", "facebook": "None", "youtube": "None", "website": "None", "summary": "None", "logo": "None", "latitude": 43.139013401061774, "longitude": -80.91097028931291}, "106836141RR0002": {"name": "Camp Tapawingo Tamarack Presbytery United Church of Canada Inc.", "designationCode": "C", "categoryCode": "56", "address": "BOX 194", "city": "PRINCE ALBERT", "province": "SK", "country": "CA", "postalCode": "S6V5R5", "twitter": "None", "instagram": "None", "facebook": "None", "youtube": "None", "website": "None", "summary": "None", "logo": "None", "latitude": 53.199456000000055, "longitude": -105.74863099999993}, "850851411RR0001": {"name": "Camp Temiskaming", "designationCode": "C", "categoryCode": "56", "address": "118 KING STREET WEST", "city": "ENGLEHART", "province": "ON", "country": "CA", "postalCode": "P0J1H0", "twitter": "None", "instagram": "None", "facebook": "None", "youtube": "None", "website": "None", "summary": "None", "logo": "None", "latitude": 47.82788046386667, "longitude": -79.87907260271906}, "859072415RR0001": {"name": "Camp Triumph for Children Affected by Chronic Illness", "designationCode": "C", "categoryCode": "56", "address": "149 ORCHARD AVENUE", "city": "WOLFVILLE", "province": "NS", "country": "CA", "postalCode": "B4P2J2", "twitter": "None", "instagram": "None", "facebook": "None", "youtube": "None", "website": "None", "summary": "None", "logo": "None", "latitude": 45.08606554261635, "longitude": -64.35002966365694}, "135152163RR0001": {"name": "Camp Winston Foundation", "designationCode": "A", "categoryCode": "09", "address": "312-55 EGLINTON AVE EAST", "city": "TORONTO", "province": "ON", "country": "CA", "postalCode": "M4P1G8", "twitter": "None", "instagram": "None", "facebook": "None", "youtube": "None", "website": "None", "summary": "None", "logo": "None", "latitude": 43.70715979819971, "longitude": -79.3961471061516}, "800978389RR0001": {"name": "Campagne des jouets des pompiers de Sherbrooke", "designationCode": "C", "categoryCode": "09", "address": "CP 25001 CSP PROMENADES KING", "city": "SHERBROOKE", "province": "QC", "country": "CA", "postalCode": "J1J4K7", "twitter": "None", "instagram": "None", "facebook": "None", "youtube": "None", "website": "None", "summary": "None", "logo": "None", "latitude": 45.398248515864, "longitude": -71.93401734018028}, "817412471RR0001": {"name": "Campbell River Marine Rescue Society", "designationCode": "C", "categoryCode": "59", "address": "101B - 2266 SOUTH ISLAND HWY", "city": "CAMPBELL RIVER", "province": "BC", "country": "CA", "postalCode": "V9W1C3", "twitter": "None", "instagram": "None", "facebook": "None", "youtube": "None", "website": "None", "summary": "None", "logo": "None", "latitude": 49.965032212016986, "longitude": -125.20903994782219}, "761086727RR0001": {"name": "Campbell River Partners for Animal Welfare Society", "designationCode": "C", "categoryCode": "54", "address": "PO BOX 201", "city": "CAMPBELL RIVER", "province": "BC", "country": "CA", "postalCode": "V9W5A7", "twitter": "None", "instagram": "None", "facebook": "None", "youtube": "None", "website": "None", "summary": "None", "logo": "None", "latitude": 50.024643000000054, "longitude": -125.24819299999993}, "857345466RR0001": {"name": "Campbell River Perinatal Society", "designationCode": "C", "categoryCode": "01", "address": "530 SPRINGBOK RD", "city": "CAMPBELL RIVER", "province": "BC", "country": "CA", "postalCode": "V9W8A2", "twitter": "None", "instagram": "None", "facebook": "None", "youtube": "None", "website": "None", "summary": "None", "logo": "None", "latitude": 49.98612183052342, "longitude": -125.23936791976175}, "803353028RR0001": {"name": "Campbell River Seniors' Centre Society", "designationCode": "C", "categoryCode": "56", "address": "370 - 1434 IRONWOOD ST", "city": "CAMPBELL RIVER", "province": "BC", "country": "CA", "postalCode": "V9W5T5", "twitter": "None", "instagram": "None", "facebook": "None", "youtube": "None", "website": "None", "summary": "None", "logo": "None", "latitude": 50.02892497074502, "longitude": -125.25501126335948}, "107388068RR0001": {"name": "Campbellton Pastoral Charge", "designationCode": "C", "categoryCode": "44", "address": "16 ABERDEEN STREET", "city": "CAMPBELLTON", "province": "NB", "country": "CA", "postalCode": "E3N2J7", "twitter": "None", "instagram": "None", "facebook": "None", "youtube": "None", "website": "None", "summary": "None", "logo": "None", "latitude": 48.00409068163211, "longitude": -66.67482744142774}, "824469886RR0001": {"name": "Camps de jour Le Phoenix de Lachine", "designationCode": "C", "categoryCode": "56", "address": "800, RUE SHERBROOKE           BUREAU 213", "city": "LACHINE", "province": "QC", "country": "CA", "postalCode": "H8S1H2", "twitter": "None", "instagram": "None", "facebook": "None", "youtube": "None", "website": "None", "summary": "None", "logo": "None", "latitude": 45.444989460470744, "longitude": -73.67116461226844}, "837637693RR0001": {"name": "Campus environnemental de l'Outaouais/Outaouais Environmental Campus", "designationCode": "B", "categoryCode": "52", "address": "29 PINE RIDGE", "city": "WAKEFIELD", "province": "QC", "country": "CA", "postalCode": "J0X3G0", "twitter": "None", "instagram": "None", "facebook": "None", "youtube": "None", "website": "None", "summary": "None", "logo": "None", "latitude": 45.6245827884358, "longitude": -75.92485880975421}, "790247720RR0001": {"name": "Campus Church Bayview", "designationCode": "C", "categoryCode": "39", "address": "93 COLONY TRAIL BLVD", "city": "HOLLAND LANDING", "province": "ON", "country": "CA", "postalCode": "L9N1E3", "twitter": "None", "instagram": "None", "facebook": "None", "youtube": "None", "website": "None", "summary": "None", "logo": "None", "latitude": 44.10043551875456, "longitude": -79.48498080391252}, "887918183RR0001": {"name": "Campus Pre-School Association of Calgary", "designationCode": "C", "categoryCode": "20", "address": "1531-21 AVE NW", "city": "CALGARY", "province": "AB", "country": "CA", "postalCode": "T2M1L9", "twitter": "None", "instagram": "None", "facebook": "None", "youtube": "None", "website": "None", "summary": "None", "logo": "None", "latitude": 51.07132553952925, "longitude": -114.09596044463038}, "843339136RR0001": {"name": "Campus 2 Foundation / Fondation Campus 2", "designationCode": "A", "categoryCode": "23", "address": "SUITE 2500                    1 PLACE VILLE MARIE", "city": "MONTREAL", "province": "QC", "country": "CA", "postalCode": "H3B1R1", "twitter": "None", "instagram": "None", "facebook": "None", "youtube": "None", "website": "None", "summary": "None", "logo": "None", "latitude": 45.50188724476333, "longitude": -73.56787382018557}, "887241305RR0001": {"name": "Camrose First Baptist Society", "designationCode": "C", "categoryCode": "31", "address": "6406 - 44B AVENUE", "city": "CAMROSE", "province": "AB", "country": "CA", "postalCode": "T4V0B6", "twitter": "None", "instagram": "None", "facebook": "None", "youtube": "None", "website": "None", "summary": "None", "logo": "None", "latitude": 53.01239951166277, "longitude": -112.85151333366865}, "839007432RR0001": {"name": "Camrose Performing Arts Centre Management Council", "designationCode": "C", "categoryCode": "22", "address": "4501 50 ST", "city": "CAMROSE", "province": "AB", "country": "CA", "postalCode": "T4V5J1", "twitter": "None", "instagram": "None", "facebook": "None", "youtube": "None", "website": "None", "summary": "None", "logo": "None", "latitude": 53.01469362219315, "longitude": -112.8258732513909}, "106836612RR0001": {"name": "Camrose Women's Shelter Society", "designationCode": "C", "categoryCode": "09", "address": "PO BOX 1405", "city": "CAMROSE", "province": "AB", "country": "CA", "postalCode": "T4V1X3", "twitter": "None", "instagram": "None", "facebook": "None", "youtube": "None", "website": "None", "summary": "None", "logo": "None", "latitude": 53.02423500000006, "longitude": -112.82978149999994}, "799907894RR0001": {"name": "Can Praxis EAL", "designationCode": "C", "categoryCode": "11", "address": "PO BOX 10", "city": "TORRINGTON", "province": "AB", "country": "CA", "postalCode": "T0M2B0", "twitter": "None", "instagram": "None", "facebook": "None", "youtube": "None", "website": "None", "summary": "None", "logo": "None", "latitude": 51.79455000000007, "longitude": -113.60697999999996}, "815245352RR0001": {"name": "Can-Am Colony Charitable Trust", "designationCode": "B", "categoryCode": "39", "address": "PO BOX 9", "city": "MARGARET", "province": "MB", "country": "CA", "postalCode": "R0K1J0", "twitter": "None", "instagram": "None", "facebook": "None", "youtube": "None", "website": "None", "summary": "None", "logo": "None", "latitude": 49.404721515909095, "longitude": -99.73178537215918}, "824582449RR0001": {"name": "Canaan Church", "designationCode": "C", "categoryCode": "45", "address": "775 CEDAR CREEK DR", "city": "GLOUCESTER", "province": "ON", "country": "CA", "postalCode": "K1T0M5", "twitter": "None", "instagram": "None", "facebook": "None", "youtube": "None", "website": "None", "summary": "None", "logo": "None", "latitude": 45.31665044740036, "longitude": -75.59495832252284}, "843390139RR0001": {"name": "Canaan Life Spring Baptist Church", "designationCode": "C", "categoryCode": "39", "address": "4740 IMPERIAL STREET", "city": "BURNABY", "province": "BC", "country": "CA", "postalCode": "V5J1C2", "twitter": "None", "instagram": "None", "facebook": "None", "youtube": "None", "website": "None", "summary": "None", "logo": "None", "latitude": 49.22184854168493, "longitude": -122.99676526310411}, "842117285RR0001": {"name": "Canaccord Genuity Foundation", "designationCode": "B", "categoryCode": "03", "address": "161 BAY STREET                30TH FLOOR", "city": "TORONTO", "province": "ON", "country": "CA", "postalCode": "M5J2S1", "twitter": "None", "instagram": "None", "facebook": "None", "youtube": "None", "website": "None", "summary": "None", "logo": "None", "latitude": 43.64640116209816, "longitude": -79.3792674731667}, "830510517RR0001": {"name": "Canad Inns Foundation Inc.", "designationCode": "B", "categoryCode": "03", "address": "930 JEFFERSON AVENUE          3RD FLOOR", "city": "WINNIPEG", "province": "MB", "country": "CA", "postalCode": "R2P1W1", "twitter": "None", "instagram": "None", "facebook": "None", "youtube": "None", "website": "None", "summary": "None", "logo": "None", "latitude": 49.94601309957343, "longitude": -97.15787852905498}, "801146101RR0001": {"name": "Canada Bangladesh Education Trust (CBET)", "designationCode": "C", "categoryCode": "21", "address": "365 STONEWAY DRIVE", "city": "OTTAWA", "province": "ON", "country": "CA", "postalCode": "K2G6G8", "twitter": "None", "instagram": "None", "facebook": "None", "youtube": "None", "website": "None", "summary": "None", "logo": "None", "latitude": 45.2820234143633, "longitude": -75.7179100799239}, "818335390RR0001": {"name": "Canada Charity Partners", "designationCode": "C", "categoryCode": "09", "address": "5785 AV SMART", "city": "COTE SAINT-LUC", "province": "QC", "country": "CA", "postalCode": "H4W2M8", "twitter": "None", "instagram": "None", "facebook": "None", "youtube": "None", "website": "None", "summary": "None", "logo": "None", "latitude": 45.46202255288812, "longitude": -73.6747506680421}, "895859130RR0001": {"name": "Canada China Development Foundation", "designationCode": "C", "categoryCode": "21", "address": "5700 - 100 KING ST W", "city": "TORONTO", "province": "ON", "country": "CA", "postalCode": "M5X1A3", "twitter": "None", "instagram": "None", "facebook": "None", "youtube": "None", "website": "None", "summary": "None", "logo": "None", "latitude": 43.64826932503962, "longitude": -79.38190945606182}, "849836499RR0001": {"name": "Canada Comforts Society", "designationCode": "C", "categoryCode": "09", "address": "1185 WYCHBURY AVENUE", "city": "VICTORIA", "province": "BC", "country": "CA", "postalCode": "V9A5L1", "twitter": "None", "instagram": "None", "facebook": "None", "youtube": "None", "website": "None", "summary": "None", "logo": "None", "latitude": 48.42612266331023, "longitude": -123.41375483403537}, "838516094RR0001": {"name": "Canada Company: Many Ways to Serve", "designationCode": "C", "categoryCode": "09", "address": "66 WELLINGTON STREET WEST     SUITE 3100 DOM BANK TOWER", "city": "TORONTO", "province": "ON", "country": "CA", "postalCode": "M5K1K2", "twitter": "None", "instagram": "None", "facebook": "None", "youtube": "None", "website": "None", "summary": "None", "logo": "None", "latitude": 43.64868300000006, "longitude": -79.38544399999994}, "750070690RR0001": {"name": "Canada Cycles for Kids", "designationCode": "A", "categoryCode": "03", "address": "742 RUE MAIN", "city": "HUDSON", "province": "QC", "country": "CA", "postalCode": "J0P1H0", "twitter": "None", "instagram": "None", "facebook": "None", "youtube": "None", "website": "None", "summary": "None", "logo": "None", "latitude": 45.47192095115125, "longitude": -74.18063006924808}, "805903523RR0001": {"name": "Canada Donates Inc.", "designationCode": "A", "categoryCode": "03", "address": "54 ORANGE ST", "city": "SAINT JOHN", "province": "NB", "country": "CA", "postalCode": "E2L1M3", "twitter": "None", "instagram": "None", "facebook": "None", "youtube": "None", "website": "None", "summary": "None", "logo": "None", "latitude": 45.27183569663573, "longitude": -66.0541563388828}, "803469436RR0001": {"name": "Canada Fetal Alcohol Spectrum Disorder Research Network", "designationCode": "C", "categoryCode": "11", "address": "21 DOW'S LAKE RD", "city": "OTTAWA", "province": "ON", "country": "CA", "postalCode": "K1S4L1", "twitter": "None", "instagram": "None", "facebook": "None", "youtube": "None", "website": "None", "summary": "None", "logo": "None", "latitude": 45.398122678890786, "longitude": -75.70154841116064}, "810822379RR0001": {"name": "Canada Full Gospel World Mission Inc.", "designationCode": "C", "categoryCode": "39", "address": "105 SHEPPARD AVENUE EAST", "city": "TORONTO", "province": "ON", "country": "CA", "postalCode": "M2N3A3", "twitter": "None", "instagram": "None", "facebook": "None", "youtube": "None", "website": "None", "summary": "None", "logo": "None", "latitude": 43.76281276934628, "longitude": -79.40485529211153}, "805537248RR0001": {"name": "Canada Hangil Church", "designationCode": "C", "categoryCode": "39", "address": "132 ARGYLE ST N", "city": "CAMBRIDGE", "province": "ON", "country": "CA", "postalCode": "N3H1P6", "twitter": "None", "instagram": "None", "facebook": "None", "youtube": "None", "website": "None", "summary": "None", "logo": "None", "latitude": 43.39707922315192, "longitude": -80.35925323426041}, "810777268RR0001": {"name": "Canada International Support for Immigration (CISI)", "designationCode": "C", "categoryCode": "09", "address": "1920 YONGE STREET SUITE 217", "city": "TORONTO", "province": "ON", "country": "CA", "postalCode": "M4S3E2", "twitter": "None", "instagram": "None", "facebook": "None", "youtube": "None", "website": "None", "summary": "None", "logo": "None", "latitude": 43.698824843181974, "longitude": -79.39675730451809}, "814907309RR0001": {"name": "Canada IACD (International Asian Christian Development)", "designationCode": "C", "categoryCode": "47", "address": "92 MACDONALD CRES", "city": "MILTON", "province": "ON", "country": "CA", "postalCode": "L9T2Y8", "twitter": "None", "instagram": "None", "facebook": "None", "youtube": "None", "website": "None", "summary": "None", "logo": "None", "latitude": 43.52122984511522, "longitude": -79.87866965655822}, "848456281RR0001": {"name": "Canada Job Training Business Inc.", "designationCode": "B", "categoryCode": "09", "address": "1 YONGE STREET                SUITE 1801", "city": "TORONTO", "province": "ON", "country": "CA", "postalCode": "M5E1W7", "twitter": "None", "instagram": "None", "facebook": "None", "youtube": "None", "website": "None", "summary": "None", "logo": "None", "latitude": 43.64226473221161, "longitude": -79.37377030547039}, "826201782RR0001": {"name": "Canada Multiple Sclerosis Research Foundation", "designationCode": "C", "categoryCode": "23", "address": "236 - 6030 88 ST NW", "city": "EDMONTON", "province": "AB", "country": "CA", "postalCode": "T6E6G4", "twitter": "None", "instagram": "None", "facebook": "None", "youtube": "None", "website": "None", "summary": "None", "logo": "None", "latitude": 53.4965535, "longitude": -113.462514}, "775404692RR0001": {"name": "Canada Music & Arts Network (CMAN) Society", "designationCode": "C", "categoryCode": "22", "address": "28-20326 68 AVE               KYU HYUN LEE", "city": "LANGLEY", "province": "BC", "country": "CA", "postalCode": "V2Y0E3", "twitter": "None", "instagram": "None", "facebook": "None", "youtube": "None", "website": "None", "summary": "None", "logo": "None", "latitude": 49.12615852510255, "longitude": -122.65974377699231}, "827362997RR0001": {"name": "Canada Nepal Geomatics Advancement Foundation Inc.", "designationCode": "C", "categoryCode": "21", "address": "1125 FIREFLY LANE", "city": "MANOTICK", "province": "ON", "country": "CA", "postalCode": "K4M1B3", "twitter": "None", "instagram": "None", "facebook": "None", "youtube": "None", "website": "None", "summary": "None", "logo": "None", "latitude": 45.22069846018229, "longitude": -75.67587350793451}, "138795919RR0001": {"name": "Canada Po Chai Temple Inc.", "designationCode": "C", "categoryCode": "49", "address": "236-222 SPADINA AVENUE", "city": "TORONTO", "province": "ON", "country": "CA", "postalCode": "M5T3B3", "twitter": "None", "instagram": "None", "facebook": "None", "youtube": "None", "website": "None", "summary": "None", "logo": "None", "latitude": 43.650993217035065, "longitude": -79.39741492371145}, "801839010RR0001": {"name": "Canada Post Community Foundation/Fondation Communautaire de Postes Canada", "designationCode": "A", "categoryCode": "15", "address": "P.O. BOX 90007", "city": "OTTAWA", "province": "ON", "country": "CA", "postalCode": "K1V1J8", "twitter": "None", "instagram": "None", "facebook": "None", "youtube": "None", "website": "None", "summary": "None", "logo": "None", "latitude": 45.42177300000006, "longitude": -75.69115999999994}, "824685101RR0001": {"name": "Canada Pyungkangjeil Church", "designationCode": "C", "categoryCode": "39", "address": "24-3515 HAVENWOOD DRIVE", "city": "MISSISSAUGA", "province": "ON", "country": "CA", "postalCode": "L4X2M6", "twitter": "None", "instagram": "None", "facebook": "None", "youtube": "None", "website": "None", "summary": "None", "logo": "None", "latitude": 43.621498245368926, "longitude": -79.59490071409222}, "803404623RR0001": {"name": "Canada Running Series Foundation/Fondation Circuit du Canada", "designationCode": "A", "categoryCode": "03", "address": "264 THE ESPLANADE", "city": "TORONTO", "province": "ON", "country": "CA", "postalCode": "M5A4J6", "twitter": "None", "instagram": "None", "facebook": "None", "youtube": "None", "website": "None", "summary": "None", "logo": "None", "latitude": 43.65001016209814, "longitude": -79.36365224759062}, "841760259RR0001": {"name": "Canada Sabari Malai Ayyappan Alayam", "designationCode": "C", "categoryCode": "48", "address": "30-2761 MARKHAM ROAD", "city": "SCARBOROUGH", "province": "ON", "country": "CA", "postalCode": "M1X0A4", "twitter": "None", "instagram": "None", "facebook": "None", "youtube": "None", "website": "None", "summary": "None", "logo": "None", "latitude": 43.82114329698763, "longitude": -79.24644045484484}, "814881538RR0001": {"name": "Canada Scores Vancouver - A Charitable Society", "designationCode": "C", "categoryCode": "21", "address": "3023 - 3713 KENSINGTON AVE", "city": "BURNABY", "province": "BC", "country": "CA", "postalCode": "V5B0A7", "twitter": "None", "instagram": "None", "facebook": "None", "youtube": "None", "website": "None", "summary": "None", "logo": "None"}, "830339842RR0001": {"name": "Canada Special Olympics 2016 Games Organizing Committee Inc.", "designationCode": "C", "categoryCode": "09", "address": "91 REID STREET", "city": "CORNER BROOK", "province": "NL", "country": "CA", "postalCode": "A2H2N7", "twitter": "None", "instagram": "None", "facebook": "None", "youtube": "None", "website": "None", "summary": "None", "logo": "None", "latitude": 48.95095212851283, "longitude": -57.931641051907164}, "803140615RR0001": {"name": "Canada West Presbyterian Church", "designationCode": "C", "categoryCode": "37", "address": "301-7080 NO. 3 RD", "city": "RICHMOND", "province": "BC", "country": "CA", "postalCode": "V6Y0B5", "twitter": "None", "instagram": "None", "facebook": "None", "youtube": "None", "website": "None", "summary": "None", "logo": "None", "latitude": 49.1619594970858, "longitude": -123.13649094996876}, "130916638RR0001": {"name": "Canada Without Poverty / Canada sans pauvret\u00e9", "designationCode": "C", "categoryCode": "09", "address": "251 BANK STREET, 5TH FLOOR", "city": "OTTAWA", "province": "ON", "country": "CA", "postalCode": "K2P1X3", "twitter": "None", "instagram": "None", "facebook": "None", "youtube": "None", "website": "None", "summary": "None", "logo": "None", "latitude": 45.41620551263771, "longitude": -75.69703608976297}, "811001551RR0001": {"name": "Canada Word of Faith Ministries Association of Red Deer", "designationCode": "C", "categoryCode": "49", "address": "5833 - 53 AVENUE", "city": "RED DEER", "province": "AB", "country": "CA", "postalCode": "T4N4L4", "twitter": "None", "instagram": "None", "facebook": "None", "youtube": "None", "website": "None", "summary": "None", "logo": "None", "latitude": 52.27796904302036, "longitude": -113.81822837826783}, "118973999RR0001": {"name": "Canada World Youth / Jeunesse Canada Monde", "designationCode": "C", "categoryCode": "21", "address": "2330 RUE NOTRE-DAME OUEST     3E ETAGE", "city": "MONTREAL", "province": "QC", "country": "CA", "postalCode": "H3J1N4", "twitter": "None", "instagram": "None", "facebook": "None", "youtube": "None", "website": "None", "summary": "None", "logo": "None", "latitude": 45.483977704397354, "longitude": -73.57343716054028}, "846416501RR0001": {"name": "Canada Youth Arts Development Foundation", "designationCode": "C", "categoryCode": "22", "address": "100 - 5631 NO. 3 RD", "city": "RICHMOND", "province": "BC", "country": "CA", "postalCode": "V6X2C7", "twitter": "None", "instagram": "None", "facebook": "None", "youtube": "None", "website": "None", "summary": "None", "logo": "None", "latitude": 49.174362104572076, "longitude": -123.1368938398922}, "836060954RR0001": {"name": "Canada-Ghana Education Project", "designationCode": "C", "categoryCode": "21", "address": "97 MCBRYAN DR", "city": "HAY RIVER", "province": "NT", "country": "CA", "postalCode": "X0E0R3", "twitter": "None", "instagram": "None", "facebook": "None", "youtube": "None", "website": "None", "summary": "None", "logo": "None", "latitude": 60.80079532757527, "longitude": -115.79687645689381}, "823611223RR0001": {"name": "Canada-Israel Education Foundation/Fondation \u00e9ducative Canada-Israel", "designationCode": "C", "categoryCode": "21", "address": "P.O. BOX 81021", "city": "OTTAWA", "province": "ON", "country": "CA", "postalCode": "K1P1B1", "twitter": "None", "instagram": "None", "facebook": "None", "youtube": "None", "website": "None", "summary": "None", "logo": "None", "latitude": 45.42177300000006, "longitude": -75.69115999999994}, "874855273RR0001": {"name": "Canada-Palestine Cultural Association", "designationCode": "C", "categoryCode": "55", "address": "16267 141 ST NW", "city": "EDMONTON", "province": "AB", "country": "CA", "postalCode": "T6V1H6", "twitter": "None", "instagram": "None", "facebook": "None", "youtube": "None", "website": "None", "summary": "None", "logo": "None", "latitude": 53.62445700000001, "longitude": -113.56441619294309}, "123057119RR0001": {"name": "Canada's Accredited Zoos and Aquariums / Aquariums et zoos accr\u00e9dit\u00e9s du Canada", "designationCode": "C", "categoryCode": "54", "address": "206 - 280 ALBERT ST", "city": "OTTAWA", "province": "ON", "country": "CA", "postalCode": "K1P5G8", "twitter": "None", "instagram": "None", "facebook": "None", "youtube": "None", "website": "None", "summary": "None", "logo": "None", "latitude": 45.41932158921473, "longitude": -75.70166894641939}, "829525641RR0001": {"name": "Canada's Aquarium Foundation", "designationCode": "C", "categoryCode": "21", "address": "1250-1500 GEORGIA W ST        BOX 62", "city": "VANCOUVER", "province": "BC", "country": "CA", "postalCode": "V6G2Z6", "twitter": "None", "instagram": "None", "facebook": "None", "youtube": "None", "website": "None", "summary": "None", "logo": "None", "latitude": 49.290187500000016, "longitude": -123.130035}, "891268724RR0001": {"name": "Canada's National Ballet School Foundation/Fondation de l'\u00c9cole nationale de ballet du Canada", "designationCode": "A", "categoryCode": "03", "address": "400 JARVIS ST", "city": "TORONTO", "province": "ON", "country": "CA", "postalCode": "M4Y2G6", "twitter": "None", "instagram": "None", "facebook": "None", "youtube": "None", "website": "None", "summary": "None", "logo": "None", "latitude": 43.66364551956262, "longitude": -79.37726614573818}, "868743733RR0001": {"name": "Canadensis Botanical Garden Society / Soci\u00e9t\u00e9 du Jardin botanique Canadensis", "designationCode": "C", "categoryCode": "50", "address": "108 THIRD AVE                 PO BOX 4726 STN E", "city": "OTTAWA", "province": "ON", "country": "CA", "postalCode": "K1S2J8", "twitter": "None", "instagram": "None", "facebook": "None", "youtube": "None", "website": "None", "summary": "None", "logo": "None", "latitude": 45.4032575636795, "longitude": -75.6877697561603}, "807944194RR0001": {"name": "Canadian for the Rule of Law", "designationCode": "C", "categoryCode": "59", "address": "3600 - 22 ADELAIDE ST W", "city": "TORONTO", "province": "ON", "country": "CA", "postalCode": "M5H4E3", "twitter": "None", "instagram": "None", "facebook": "None", "youtube": "None", "website": "None", "summary": "None", "logo": "None", "latitude": 43.6500561684748, "longitude": -79.38026958604074}, "134770304RR0001": {"name": "Canadian reformed Church at Burlington, Ontario", "designationCode": "C", "categoryCode": "39", "address": "607 DYNES RD", "city": "BURLINGTON", "province": "ON", "country": "CA", "postalCode": "L7N2V4", "twitter": "None", "instagram": "None", "facebook": "None", "youtube": "None", "website": "None", "summary": "None", "logo": "None", "latitude": 43.34661504804068, "longitude": -79.78615696347184}, "852508464RR0001": {"name": "Canadian Abused and Abandoned Animal Protection Society/Caps", "designationCode": "C", "categoryCode": "54", "address": "131-718 333 BROOKSBANK AVE", "city": "NORTH VANCOUVER", "province": "BC", "country": "CA", "postalCode": "V7J3V8", "twitter": "None", "instagram": "None", "facebook": "None", "youtube": "None", "website": "None", "summary": "None", "logo": "None", "latitude": 49.30863593213054, "longitude": -123.04051515363922}, "823194188RR0001": {"name": "Canadian Academic Students Aid International (CASAI)", "designationCode": "C", "categoryCode": "21", "address": "3412 110 ST NW", "city": "EDMONTON", "province": "AB", "country": "CA", "postalCode": "T6J2V7", "twitter": "None", "instagram": "None", "facebook": "None", "youtube": "None", "website": "None", "summary": "None", "logo": "None", "latitude": 53.46673239909987, "longitude": -113.51430459758193}, "121918874RR0001": {"name": "Canadian Academy of Sport and Exercise Medicine/Acad\u00e9mie canadienne de m\u00e9decine du sport et de l'exercice", "designationCode": "C", "categoryCode": "23", "address": "300 - 55 METCALFE ST", "city": "OTTAWA", "province": "ON", "country": "CA", "postalCode": "K1P6L5", "twitter": "None", "instagram": "None", "facebook": "None", "youtube": "None", "website": "None", "summary": "None", "logo": "None", "latitude": 45.42200567112917, "longitude": -75.69674417868924}, "857142210RR0001": {"name": "Canadian Advertising Museum", "designationCode": "C", "categoryCode": "50", "address": "130 SPADINA AVENUE            SUITE 705", "city": "TORONTO", "province": "ON", "country": "CA", "postalCode": "M5V2L4", "twitter": "None", "instagram": "None", "facebook": "None", "youtube": "None", "website": "None", "summary": "None", "logo": "None", "latitude": 43.64771412600269, "longitude": -79.39610532099363}, "828593731RR0001": {"name": "Canadian Agri-Business Education Foundation, Inc.", "designationCode": "C", "categoryCode": "21", "address": "22, GUYERS DRIVE              R.R. #3", "city": "PORT ELGIN", "province": "ON", "country": "CA", "postalCode": "N0H2C7", "twitter": "None", "instagram": "None", "facebook": "None", "youtube": "None", "website": "None", "summary": "None", "logo": "None", "latitude": 44.41894239745509, "longitude": -81.40029730962533}, "859975997RR0001": {"name": "Canadian Aid for Fire Services Abroad Foundation", "designationCode": "C", "categoryCode": "59", "address": "46 MONTCALM CRESCENT", "city": "ST. ALBERT", "province": "AB", "country": "CA", "postalCode": "T8N2C9", "twitter": "None", "instagram": "None", "facebook": "None", "youtube": "None", "website": "None", "summary": "None", "logo": "None", "latitude": 53.634829066593696, "longitude": -113.63857818939371}, "876053968RR0001": {"name": "Canadian Air & Space Museum Inc.", "designationCode": "C", "categoryCode": "23", "address": "PO BOX 60005 RPO EVANS BROWN", "city": "ETOBICOKE", "province": "ON", "country": "CA", "postalCode": "M8W4Z8", "twitter": "None", "instagram": "None", "facebook": "None", "youtube": "None", "website": "None", "summary": "None", "logo": "None", "latitude": 43.60072200000006, "longitude": -79.53973549999994}, "882390958RR0001": {"name": "Canadian Airborne Forces Association - Association des forces a\u00e9roport\u00e9es du Canada", "designationCode": "C", "categoryCode": "51", "address": "874 UNITY RD", "city": "GLENBURNIE", "province": "ON", "country": "CA", "postalCode": "K0H1S0", "twitter": "None", "instagram": "None", "facebook": "None", "youtube": "None", "website": "None", "summary": "None", "logo": "None", "latitude": 44.32148413564972, "longitude": -76.46153540193926}, "118828813RR0001": {"name": "Canadian Alliance of Black Educators Inc.", "designationCode": "C", "categoryCode": "21", "address": "P.O. BOX 378                  STATION E", "city": "TORONTO", "province": "ON", "country": "CA", "postalCode": "M6H4E3", "twitter": "None", "instagram": "None", "facebook": "None", "youtube": "None", "website": "None", "summary": "None", "logo": "None", "latitude": 43.66506300000006, "longitude": -79.43870599999994}, "802243493RR0001": {"name": "Canadian Alopecia Areata Foundation", "designationCode": "A", "categoryCode": "23", "address": "316 KIRKVALLEY CRES", "city": "AURORA", "province": "ON", "country": "CA", "postalCode": "L4G7S1", "twitter": "None", "instagram": "None", "facebook": "None", "youtube": "None", "website": "None", "summary": "None", "logo": "None", "latitude": 44.0198818859139, "longitude": -79.45488634456696}, "853431583RR0001": {"name": "Canadian Amyloidosis Support Network, Inc.", "designationCode": "C", "categoryCode": "11", "address": "1504 - 25 CANYON AVE", "city": "NORTH YORK", "province": "ON", "country": "CA", "postalCode": "M3H4Y1", "twitter": "None", "instagram": "None", "facebook": "None", "youtube": "None", "website": "None", "summary": "None", "logo": "None", "latitude": 43.75744182849306, "longitude": -79.43734343643499}, "889212577RR0001": {"name": "Canadian Anesthesiologists' Society International Education Foundation", "designationCode": "C", "categoryCode": "21", "address": "1 EGLINTON AVE E STE 208", "city": "TORONTO", "province": "ON", "country": "CA", "postalCode": "M4P3A1", "twitter": "None", "instagram": "None", "facebook": "None", "youtube": "None", "website": "None", "summary": "None", "logo": "None", "latitude": 43.706816823734954, "longitude": -79.39783418705645}, "748922291RR0001": {"name": "Canadian Aniridia Foundation", "designationCode": "B", "categoryCode": "03", "address": "126 JOSHUA ST", "city": "ORLEANS", "province": "ON", "country": "CA", "postalCode": "K1W0A3", "twitter": "None", "instagram": "None", "facebook": "None", "youtube": "None", "website": "None", "summary": "None", "logo": "None", "latitude": 45.42577950043268, "longitude": -75.52214116763805}, "823645247RR0001": {"name": "Canadian Armenian Community Services Centre", "designationCode": "C", "categoryCode": "22", "address": "920 PROGRESS AVENUE,", "city": "SCARBOROUGH", "province": "ON", "country": "CA", "postalCode": "M1G3T5", "twitter": "None", "instagram": "None", "facebook": "None", "youtube": "None", "website": "None", "summary": "None", "logo": "None", "latitude": 43.78227837359329, "longitude": -79.23305917196589}, "837426089RR0001": {"name": "Canadian Art Song Project", "designationCode": "C", "categoryCode": "22", "address": "26 PATRICIA DRIVE,", "city": "TORONTO", "province": "ON", "country": "CA", "postalCode": "M4C5K3", "twitter": "None", "instagram": "None", "facebook": "None", "youtube": "None", "website": "None", "summary": "None", "logo": "None", "latitude": 43.68504548681404, "longitude": -79.308003058024}, "841821887RR0001": {"name": "Canadian Assisted Travel Society", "designationCode": "C", "categoryCode": "09", "address": "106-7368 ROYAL OAK AVENUE", "city": "BURNABY", "province": "BC", "country": "CA", "postalCode": "V5J4J6", "twitter": "None", "instagram": "None", "facebook": "None", "youtube": "None", "website": "None", "summary": "None", "logo": "None", "latitude": 49.21698586372554, "longitude": -122.98840148387117}, "892098849RR0001": {"name": "Canadian Associates of Bermuda Institute of Ocean Sciences Inc.", "designationCode": "C", "categoryCode": "21", "address": "8000 JANE STREET              SUITE 401", "city": "CONCORD", "province": "ON", "country": "CA", "postalCode": "L4K5B8", "twitter": "None", "instagram": "None", "facebook": "None", "youtube": "None", "website": "None", "summary": "None", "logo": "None", "latitude": 43.8008848329102, "longitude": -79.5259478975124}, "892600289RR0001": {"name": "Canadian Association for the Advancement of Science/L'Association Canadienne pour L'Avancement de la Science", "designationCode": "C", "categoryCode": "21", "address": "P.O. BOX 75513                3034 EDGEMONT BLVD", "city": "NORTH VANCOUVER", "province": "BC", "country": "CA", "postalCode": "V7R4X1", "twitter": "None", "instagram": "None", "facebook": "None", "youtube": "None", "website": "None", "summary": "None", "logo": "None", "latitude": 49.33700358974394, "longitude": -123.101137979773}, "860626639RR0001": {"name": "Canadian Association for Disabled Skiing - Edmonton Zone", "designationCode": "C", "categoryCode": "56", "address": "BOX 35073 RPO MIDTOWN         10818 JASPER AVE", "city": "EDMONTON", "province": "AB", "country": "CA", "postalCode": "T5J0B7", "twitter": "None", "instagram": "None", "facebook": "None", "youtube": "None", "website": "None", "summary": "None", "logo": "None", "latitude": 53.540956464365884, "longitude": -113.50733230252754}, "119211555RR0001": {"name": "Canadian Association for Disabled Skiing-Calgary", "designationCode": "C", "categoryCode": "56", "address": "88 CANADA OLYMPIC RD SW", "city": "CALGARY", "province": "AB", "country": "CA", "postalCode": "T3B5R5", "twitter": "None", "instagram": "None", "facebook": "None", "youtube": "None", "website": "None", "summary": "None", "logo": "None", "latitude": 51.082813197878686, "longitude": -114.21623698002347}, "841583719RR0001": {"name": "Canadian Association for Equality", "designationCode": "C", "categoryCode": "21", "address": "201 - 2 HOMEWOOD AVENUE", "city": "TORONTO", "province": "ON", "country": "CA", "postalCode": "M4Y2J9", "twitter": "None", "instagram": "None", "facebook": "None", "youtube": "None", "website": "None", "summary": "None", "logo": "None", "latitude": 43.66312917707314, "longitude": -79.37447585374221}, "805702016RR0001": {"name": "Canadian Association for Jewish Family Education and Continuity", "designationCode": "C", "categoryCode": "49", "address": "405-333 WILSON AVE.", "city": "TORONTO", "province": "ON", "country": "CA", "postalCode": "M3H1T2", "twitter": "None", "instagram": "None", "facebook": "None", "youtube": "None", "website": "None", "summary": "None", "logo": "None", "latitude": 43.737049856483516, "longitude": -79.43551650109652}, "817734940RR0001": {"name": "Canadian Association for Latin American and Caribbean Studies/Association Canadienne des \u00c9tudes Latino-Am\u00e9ricaines et Caraibes", "designationCode": "C", "categoryCode": "21", "address": "YORK UNIVERSITY, 4700 KEELE ST8-17 YORK RESEARCH TOWER", "city": "TORONTO", "province": "ON", "country": "CA", "postalCode": "M3J1P3", "twitter": "None", "instagram": "None", "facebook": "None", "youtube": "None", "website": "None", "summary": "None", "logo": "None"}, "891524548RR0001": {"name": "Canadian Association for Neurosciences Foundation", "designationCode": "C", "categoryCode": "21", "address": "DEP OF PHYSIOLOGY / MCGILL UN 3655 PROM SIR WILLIAM OSLER", "city": "MONTREAL", "province": "QC", "country": "CA", "postalCode": "H3G1Y6", "twitter": "None", "instagram": "None", "facebook": "None", "youtube": "None", "website": "None", "summary": "None", "logo": "None", "latitude": 45.50239615543306, "longitude": -73.58199984234525}}