{"133424689RR0001": {"name": "THE POTTER'S HOUSE CHRISTIAN FELLOWSHIP SOCIETY", "designationCode": "C", "categoryCode": "47", "address": "10025 KENSWOOD DR", "city": "CHILLIWACK", "province": "BC", "country": "CA", "postalCode": "V2P7N6", "twitter": "None", "instagram": "None", "facebook": "None", "youtube": "None", "website": "None", "summary": "None", "logo": "None", "latitude": 49.18371172052618, "longitude": -121.90069366140565}, "834228165RR0001": {"name": "THE POTTER'S HOUSE COMMUNITY CHURCH OF WESTBANK", "designationCode": "C", "categoryCode": "39", "address": "22 - 2475 DOBBIN RD", "city": "WEST KELOWNA", "province": "BC", "country": "CA", "postalCode": "V4T2E9", "twitter": "None", "instagram": "None", "facebook": "None", "youtube": "None", "website": "None", "summary": "None", "logo": "None", "latitude": 49.82848852337179, "longitude": -119.6294808682845}, "862797032RR0001": {"name": "THE POTTER'S WHEEL CHRISTIAN FELLOWSHIP", "designationCode": "C", "categoryCode": "49", "address": "171 JULES LEGER", "city": "GATINEAU", "province": "QC", "country": "CA", "postalCode": "J9J2T1", "twitter": "None", "instagram": "None", "facebook": "None", "youtube": "None", "website": "None", "summary": "None", "logo": "None", "latitude": 45.41930416403139, "longitude": -75.84754153370088}, "893900316RR0001": {"name": "THE POTTERS HOUSE CHURCH OF SCARBOROUGH", "designationCode": "C", "categoryCode": "39", "address": "685 MCCOWAN ROAD              PO BOX 66540", "city": "SCARBOROUGH", "province": "ON", "country": "CA", "postalCode": "M1J3N8", "twitter": "None", "instagram": "None", "facebook": "None", "youtube": "None", "website": "None", "summary": "None", "logo": "None", "latitude": 43.7546229985766, "longitude": -79.24508901819252}, "892301367RR0001": {"name": "THE POTTLE CENTRE INC", "designationCode": "C", "categoryCode": "09", "address": "P O BOX 5321 STN C", "city": "ST. JOHN'S", "province": "NL", "country": "CA", "postalCode": "A1C5W2", "twitter": "None", "instagram": "None", "facebook": "None", "youtube": "None", "website": "None", "summary": "None", "logo": "None", "latitude": 47.56082100000006, "longitude": -52.71219349999993}, "118886001RR0001": {"name": "THE POWELL RIVER & DISTRICT CHRISTMAS CHEER COMMITTEE", "designationCode": "C", "categoryCode": "09", "address": "7318 GLACIER ST", "city": "POWELL RIVER", "province": "BC", "country": "CA", "postalCode": "V8A5V2", "twitter": "None", "instagram": "None", "facebook": "None", "youtube": "None", "website": "None", "summary": "None", "logo": "None", "latitude": 49.83149844734301, "longitude": -124.50772872367149}, "107854853RR0001": {"name": "THE POWELL RIVER SUNSET HOMES SOCIETY", "designationCode": "C", "categoryCode": "09", "address": "P.O. BOX 146", "city": "POWELL RIVER", "province": "BC", "country": "CA", "postalCode": "V8A4Z5", "twitter": "None", "instagram": "None", "facebook": "None", "youtube": "None", "website": "None", "summary": "None", "logo": "None", "latitude": 49.835904000000056, "longitude": -124.52381449999993}, "108024654RR0001": {"name": "THE POWELL RIVER UNITED CHURCH", "designationCode": "C", "categoryCode": "44", "address": "6932 CROFTON ST", "city": "POWELL RIVER", "province": "BC", "country": "CA", "postalCode": "V8A5H4", "twitter": "None", "instagram": "None", "facebook": "None", "youtube": "None", "website": "None", "summary": "None", "logo": "None", "latitude": 49.83646956327778, "longitude": -124.52275008567153}, "855793345RR0001": {"name": "THE POWER OF HOPE SOCIETY", "designationCode": "C", "categoryCode": "22", "address": "1318 THURLOW ROAD", "city": "VICTORIA", "province": "BC", "country": "CA", "postalCode": "V8S1L6", "twitter": "None", "instagram": "None", "facebook": "None", "youtube": "None", "website": "None", "summary": "None", "logo": "None", "latitude": 48.41628239107845, "longitude": -123.34784607493224}, "896146388RR0001": {"name": "THE POWER OF THE WORD EVANGELISTIC ASSOCIATION", "designationCode": "C", "categoryCode": "39", "address": "7156 WRIGHT WAY", "city": "TRAIL", "province": "BC", "country": "CA", "postalCode": "V1R4X6", "twitter": "None", "instagram": "None", "facebook": "None", "youtube": "None", "website": "None", "summary": "None", "logo": "None", "latitude": 49.09467656516732, "longitude": -117.64051893177673}, "852983378RR0001": {"name": "THE POWERMINE INTERNATIONAL INC.", "designationCode": "C", "categoryCode": "39", "address": "154 LAKE VILLAGE RD", "city": "WINNIPEG", "province": "MB", "country": "CA", "postalCode": "R3T4M8", "twitter": "None", "instagram": "None", "facebook": "None", "youtube": "None", "website": "None", "summary": "None", "logo": "None", "latitude": 49.8158462600841, "longitude": -97.15872744491884}, "833948326RR0001": {"name": "THE POWIS FAMILY FOUNDATION", "designationCode": "B", "categoryCode": "05", "address": "73 SUMMERHILL AVE", "city": "TORONTO", "province": "ON", "country": "CA", "postalCode": "M4T1A9", "twitter": "None", "instagram": "None", "facebook": "None", "youtube": "None", "website": "None", "summary": "None", "logo": "None", "latitude": 43.683677802094856, "longitude": -79.38899598237063}, "886350594RR0001": {"name": "THE PRADER-WILLI SYNDROME ASSOCIATION OF ALBERTA", "designationCode": "C", "categoryCode": "11", "address": "9006-120 ST", "city": "EDMONTON", "province": "AB", "country": "CA", "postalCode": "T6G1X7", "twitter": "None", "instagram": "None", "facebook": "None", "youtube": "None", "website": "None", "summary": "None", "logo": "None", "latitude": 53.52690791646944, "longitude": -113.53739165087407}, "119251726RR0001": {"name": "THE PRAIRIE JOURNAL TRUST", "designationCode": "C", "categoryCode": "29", "address": "28 CROWFOOT TERRACE NW        P.O. BOX 68073", "city": "CALGARY", "province": "AB", "country": "CA", "postalCode": "T3G3N8", "twitter": "None", "instagram": "None", "facebook": "None", "youtube": "None", "website": "None", "summary": "None", "logo": "None", "latitude": 51.126918356115524, "longitude": -114.19876515827268}, "119251734RR0001": {"name": "THE PRAYER BAPTIST CHURCH OF PORCUPINE PLAIN", "designationCode": "C", "categoryCode": "31", "address": "PO BOX 550", "city": "PORCUPINE PLAIN", "province": "SK", "country": "CA", "postalCode": "S0E1H0", "twitter": "None", "instagram": "None", "facebook": "None", "youtube": "None", "website": "None", "summary": "None", "logo": "None", "latitude": 52.40432854035895, "longitude": -102.16241062311786}, "892302779RR0001": {"name": "THE PRAYER BOOK SOCIETY OF CANADA", "designationCode": "C", "categoryCode": "49", "address": "P.O.BOX 713", "city": "CHARLOTTETOWN", "province": "PE", "country": "CA", "postalCode": "C1A7L3", "twitter": "None", "instagram": "None", "facebook": "None", "youtube": "None", "website": "None", "summary": "None", "logo": "None", "latitude": 46.23659700000006, "longitude": -63.12815449999994}, "890910540RR0001": {"name": "THE PRAYER BOOK SOCIETY OF CANADA (CALGARY BRANCH)", "designationCode": "C", "categoryCode": "49", "address": "1207-20A STREET NW", "city": "CALGARY", "province": "AB", "country": "CA", "postalCode": "T2N2L2", "twitter": "None", "instagram": "None", "facebook": "None", "youtube": "None", "website": "None", "summary": "None", "logo": "None", "latitude": 51.062021161809696, "longitude": -114.1093157102544}, "892932765RR0001": {"name": "THE PRAYER BOOK SOCIETY OF CANADA (EDMONTON)", "designationCode": "C", "categoryCode": "49", "address": "43 STIRLING ROAD", "city": "EDMONTON", "province": "AB", "country": "CA", "postalCode": "T5X4C2", "twitter": "None", "instagram": "None", "facebook": "None", "youtube": "None", "website": "None", "summary": "None", "logo": "None", "latitude": 53.62087050678067, "longitude": -113.50186136081135}, "893059246RR0001": {"name": "THE PRAYER BOOK SOCIETY OF CANADA (NOVA SCOTIA AND PRINCE EDWARD ISLAND BRANCH)", "designationCode": "C", "categoryCode": "49", "address": "BOX 8292, C.S.C.", "city": "HALIFAX", "province": "NS", "country": "CA", "postalCode": "B3K5M1", "twitter": "None", "instagram": "None", "facebook": "None", "youtube": "None", "website": "None", "summary": "None", "logo": "None", "latitude": 44.645478000000054, "longitude": -63.576552499999934}, "864199195RR0001": {"name": "THE PRAYER BOOK SOCIETY OF CANADA (VANCOUVER BRANCH)", "designationCode": "C", "categoryCode": "47", "address": "47 TUSCANY ESTATES POINT NW", "city": "CALGARY", "province": "AB", "country": "CA", "postalCode": "T3L0C3", "twitter": "None", "instagram": "None", "facebook": "None", "youtube": "None", "website": "None", "summary": "None", "logo": "None", "latitude": 51.11090030890419, "longitude": -114.24717234638463}, "893390161RR0002": {"name": "THE PRAYER BOOK SOCIETY OF CANADA, TORONTO BRANCH", "designationCode": "C", "categoryCode": "49", "address": "12 SHERBOURNE DRIVE", "city": "MAPLE", "province": "ON", "country": "CA", "postalCode": "L6A1G8", "twitter": "None", "instagram": "None", "facebook": "None", "youtube": "None", "website": "None", "summary": "None", "logo": "None", "latitude": 43.85168463613023, "longitude": -79.50786485723333}, "892896929RR0001": {"name": "THE PRAYER CONNECTION", "designationCode": "C", "categoryCode": "47", "address": "211 BUCKINGHAM STREET         APT. 11", "city": "WINDSOR", "province": "ON", "country": "CA", "postalCode": "N8S2C5", "twitter": "None", "instagram": "None", "facebook": "None", "youtube": "None", "website": "None", "summary": "None", "logo": "None", "latitude": 42.33016200776162, "longitude": -82.97571019320195}, "846736700RR0001": {"name": "THE PRAYER HOUSE CHURCH INC.", "designationCode": "", "categoryCode": "", "address": "21, 1179 FINCH AVENUE WEST", "city": "TORONTO", "province": "ON", "country": "CA", "postalCode": "M3J2G1", "twitter": "None", "instagram": "None", "facebook": "None", "youtube": "None", "website": "None", "summary": "None", "logo": "None", "latitude": 43.765418814790834, "longitude": -79.48208677751192}, "862993300RR0001": {"name": "THE PRELATURE OF THE HOLY CROSS AND OPUS DEI FOR CANADA TRUST", "designationCode": "C", "categoryCode": "43", "address": "1380 PINE AVENUE WEST", "city": "MONTREAL", "province": "QC", "country": "CA", "postalCode": "H3G1A8", "twitter": "None", "instagram": "None", "facebook": "None", "youtube": "None", "website": "None", "summary": "None", "logo": "None", "latitude": 45.433097999999994, "longitude": -73.73791125}, "132322991RR0001": {"name": "THE PRESBYTERIAN CHURCH BUILDING CORPORATION", "designationCode": "C", "categoryCode": "43", "address": "50 WYNFORD DRIVE", "city": "TORONTO", "province": "ON", "country": "CA", "postalCode": "M3C1J7", "twitter": "None", "instagram": "None", "facebook": "None", "youtube": "None", "website": "None", "summary": "None", "logo": "None", "latitude": 43.72435963310046, "longitude": -79.3345945359799}, "107856619RR0001": {"name": "THE PRESBYTERIAN CHURCH IN CANADA", "designationCode": "C", "categoryCode": "37", "address": "50 WYNFORD DR", "city": "TORONTO", "province": "ON", "country": "CA", "postalCode": "M3C1J7", "twitter": "None", "instagram": "None", "facebook": "None", "youtube": "None", "website": "None", "summary": "None", "logo": "None", "latitude": 43.72435963310046, "longitude": -79.3345945359799}, "888759594RR0001": {"name": "THE PRESBYTERIAN CHURCH IN CANADA-SYNOD OF QUEBEC AND EASTERN ONTARIO", "designationCode": "C", "categoryCode": "37", "address": "702 RUE LAFONTAINE", "city": "THETFORD MINES", "province": "QC", "country": "CA", "postalCode": "G6G3J6", "twitter": "None", "instagram": "None", "facebook": "None", "youtube": "None", "website": "None", "summary": "None", "logo": "None", "latitude": 46.08966567773697, "longitude": -71.28272614181438}, "129374211RR0001": {"name": "THE PRESBYTERIAN CHURCH OF ST DAVID", "designationCode": "C", "categoryCode": "37", "address": "PO BOX 36061 RPO SPRING GARDEN", "city": "HALIFAX", "province": "NS", "country": "CA", "postalCode": "B3J3S9", "twitter": "None", "instagram": "None", "facebook": "None", "youtube": "None", "website": "None", "summary": "None", "logo": "None", "latitude": 44.64321800521938, "longitude": -63.57617228611219}, "119268001RR0001": {"name": "THE PRESBYTERIAN CHURCH OF THE TOWN OF MOUNT ROYAL", "designationCode": "C", "categoryCode": "37", "address": "39 BEVERLY AVE", "city": "MOUNT ROYAL", "province": "QC", "country": "CA", "postalCode": "H3P1K3", "twitter": "None", "instagram": "None", "facebook": "None", "youtube": "None", "website": "None", "summary": "None", "logo": "None", "latitude": 45.518596909804344, "longitude": -73.64486928365741}, "851549360RR0001": {"name": "THE PRESBYTERIAN GENERAL ASSEMBLY COLLEGE AND THEOLOGICAL SEMINARY OF CANADA", "designationCode": "C", "categoryCode": "20", "address": "2909 E. 28 AVE", "city": "VANCOUVER", "province": "BC", "country": "CA", "postalCode": "V5R1S3", "twitter": "None", "instagram": "None", "facebook": "None", "youtube": "None", "website": "None", "summary": "None", "logo": "None", "latitude": 49.24548351875456, "longitude": -123.04411985789716}, "105242440RR0001": {"name": "THE PRESBYTERIAN SENIOR CITIZENS' HOUSING SOCIETY", "designationCode": "C", "categoryCode": "09", "address": "101 - 901 COLBORNE ST", "city": "NEW WESTMINSTER", "province": "BC", "country": "CA", "postalCode": "V3L5E9", "twitter": "None", "instagram": "None", "facebook": "None", "youtube": "None", "website": "None", "summary": "None", "logo": "None", "latitude": 49.22265371351519, "longitude": -122.91550423430563}, "849019153RR0001": {"name": "THE PRESBYTERIES OF TORONTO CONFERENCE CORPORATION", "designationCode": "C", "categoryCode": "49", "address": "78 SUMMITCREST DRIVE", "city": "RICHMOND HILL", "province": "ON", "country": "CA", "postalCode": "L4S1A8", "twitter": "None", "instagram": "None", "facebook": "None", "youtube": "None", "website": "None", "summary": "None", "logo": "None", "latitude": 43.903419212331876, "longitude": -79.43096737122735}, "119251809RR0001": {"name": "THE PRESBYTERY OF ALGOMA AND NORTH BAY", "designationCode": "C", "categoryCode": "37", "address": "20 WESTRIDGE ROAD", "city": "SAULT STE. MARIE", "province": "ON", "country": "CA", "postalCode": "P6C5W5", "twitter": "None", "instagram": "None", "facebook": "None", "youtube": "None", "website": "None", "summary": "None", "logo": "None", "latitude": 46.545076487102484, "longitude": -84.33560900302976}, "891460370RR0001": {"name": "THE PRESBYTERY OF EASTERN CANADA", "designationCode": "C", "categoryCode": "37", "address": "900 OLD SACKVILLE ROAD", "city": "LOWER SACKVILLE", "province": "NS", "country": "CA", "postalCode": "B4E1R1", "twitter": "None", "instagram": "None", "facebook": "None", "youtube": "None", "website": "None", "summary": "None", "logo": "None", "latitude": 44.774673863437094, "longitude": -63.70197955733151}, "119102135RR0001": {"name": "THE PRESBYTERY OF GREY-BRUCE-MAITLAND", "designationCode": "C", "categoryCode": "37", "address": "P. O. BOX 844", "city": "OWEN SOUND", "province": "ON", "country": "CA", "postalCode": "N4K5W9", "twitter": "None", "instagram": "None", "facebook": "None", "youtube": "None", "website": "None", "summary": "None", "logo": "None", "latitude": 44.56423500000005, "longitude": -80.94243049999993}, "855931283RR0001": {"name": "THE PRESBYTERY OF NEWFOUNDLAND", "designationCode": "C", "categoryCode": "39", "address": "P.O. BOX 6206                 ST ANDREWS PRESBYTERIAN CHURCH", "city": "ST. JOHN'S", "province": "NL", "country": "CA", "postalCode": "A1C6J9", "twitter": "None", "instagram": "None", "facebook": "None", "youtube": "None", "website": "None", "summary": "None", "logo": "None", "latitude": 47.565549000000004, "longitude": -52.70932516504776}, "890028772RR0001": {"name": "THE PRESBYTERY OF VANCOUVER ISLAND OF THE PRESBYTERIAN CHURCH IN CANADA", "designationCode": "C", "categoryCode": "37", "address": "819 TRIBUNE PL", "city": "QUALICUM BEACH", "province": "BC", "country": "CA", "postalCode": "V9K2P1", "twitter": "None", "instagram": "None", "facebook": "None", "youtube": "None", "website": "None", "summary": "None", "logo": "None", "latitude": 49.34313424240008, "longitude": -124.39576099931229}, "774125884RR0001": {"name": "THE PRESBYTERY OF WINNIPEG", "designationCode": "C", "categoryCode": "37", "address": "548 GREENE AVE", "city": "WINNIPEG", "province": "MB", "country": "CA", "postalCode": "R2K0M3", "twitter": "None", "instagram": "None", "facebook": "None", "youtube": "None", "website": "None", "summary": "None", "logo": "None", "latitude": 49.92677713015763, "longitude": -97.08553052360197}, "119251833RR0001": {"name": "THE PRESENTATION BROTHERS OF IRELAND", "designationCode": "C", "categoryCode": "46", "address": "593 CUMMER AVENUE", "city": "TORONTO", "province": "ON", "country": "CA", "postalCode": "M2K2M5", "twitter": "None", "instagram": "None", "facebook": "None", "youtube": "None", "website": "None", "summary": "None", "logo": "None", "latitude": 43.79420777655964, "longitude": -79.38500423091354}, "119251841RR0001": {"name": "THE PRESERVATION OF AGRICULTURAL LANDS SOCIETY", "designationCode": "C", "categoryCode": "59", "address": "PO BOX 1413", "city": "NIAGARA ON THE LAKE", "province": "ON", "country": "CA", "postalCode": "L0S1J0", "twitter": "None", "instagram": "None", "facebook": "None", "youtube": "None", "website": "None", "summary": "None", "logo": "None", "latitude": 43.23448500000005, "longitude": -79.16177149999993}, "888256278RR0001": {"name": "THE PRESTON AREA BOYS AND GIRLS CLUB", "designationCode": "C", "categoryCode": "09", "address": "180 LOWER PARTRIDGE RIVER DR", "city": "EAST PRESTON", "province": "NS", "country": "CA", "postalCode": "B2Z1G8", "twitter": "None", "instagram": "None", "facebook": "None", "youtube": "None", "website": "None", "summary": "None", "logo": "None", "latitude": 44.71517946156727, "longitude": -63.41295732679335}, "135826857RR0001": {"name": "THE PREVENT CHALLENGE FOUNDATION OF NIAGARA", "designationCode": "A", "categoryCode": "59", "address": "BUSINESS BLDG.                195 KING STREET", "city": "ST. CATHARINES", "province": "ON", "country": "CA", "postalCode": "L2R3J6", "twitter": "None", "instagram": "None", "facebook": "None", "youtube": "None", "website": "None", "summary": "None", "logo": "None", "latitude": 43.16178852374621, "longitude": -79.24315656872848}, "891090540RR0001": {"name": "THE PRIESTLY FRATERNITY OF ST. PETER (CANADA) INC.", "designationCode": "C", "categoryCode": "46", "address": "P.O BOX 7248                  STATION V", "city": "VANIER", "province": "ON", "country": "CA", "postalCode": "K1L8E3", "twitter": "None", "instagram": "None", "facebook": "None", "youtube": "None", "website": "None", "summary": "None", "logo": "None", "latitude": 45.42177300000006, "longitude": -75.69115999999994}, "884567561RR0001": {"name": "THE PRIESTLY SOCIETY OF ST PIUS X", "designationCode": "C", "categoryCode": "46", "address": "3012-37 ST.", "city": "VERNON", "province": "BC", "country": "CA", "postalCode": "V1T6G5", "twitter": "None", "instagram": "None", "facebook": "None", "youtube": "None", "website": "None", "summary": "None", "logo": "None", "latitude": 50.2647387485429, "longitude": -119.28434297088675}, "866434640RR0001": {"name": "THE PRIMATE'S WORLD RELIEF AND DEVELOPMENT FUND/LE FONDS DU PRIMAT POUR LE SECOURS ET LE DEVELOPPEMENT MONDIAL", "designationCode": "C", "categoryCode": "49", "address": "80 HAYDEN ST", "city": "TORONTO", "province": "ON", "country": "CA", "postalCode": "M4Y3G2", "twitter": "None", "instagram": "None", "facebook": "None", "youtube": "None", "website": "None", "summary": "None", "logo": "None", "latitude": 43.67041924897559, "longitude": -79.38167951041602}, "119102960RR0001": {"name": "THE PRINCE ALBERT KIWANIS MUSIC FESTIVAL ASSOCAITION", "designationCode": "C", "categoryCode": "22", "address": "SITE 22 COMP 27               RR 5 STN MPP", "city": "PRINCE ALBERT", "province": "SK", "country": "CA", "postalCode": "S6V5R3", "twitter": "None", "instagram": "None", "facebook": "None", "youtube": "None", "website": "None", "summary": "None", "logo": "None", "latitude": 53.199456000000055, "longitude": -105.74863099999993}, "119251874RR0001": {"name": "THE PRINCE ALBERT MOBILE CRISIS UNIT CO-OPERATIVE LIMITED", "designationCode": "C", "categoryCode": "09", "address": "UNIT C, 4050-2ND AVE W", "city": "PRINCE ALBERT", "province": "SK", "country": "CA", "postalCode": "S6W1A2", "twitter": "None", "instagram": "None", "facebook": "None", "youtube": "None", "website": "None", "summary": "None", "logo": "None", "latitude": 53.176644710266736, "longitude": -105.76139860792141}, "119251916RR0001": {"name": "THE PRINCE EDWARD HISTORICAL SOCIETY", "designationCode": "C", "categoryCode": "50", "address": "261 MAIN STREET               P.O. BOX 370", "city": "WELLINGTON", "province": "ON", "country": "CA", "postalCode": "K0K3L0", "twitter": "None", "instagram": "None", "facebook": "None", "youtube": "None", "website": "None", "summary": "None", "logo": "None", "latitude": 43.951675881726636, "longitude": -77.34873631255438}, "898267414RR0001": {"name": "THE PRINCE EDWARD ISLAND ARMY CADET LEAGUE INC.", "designationCode": "C", "categoryCode": "29", "address": "222 GEORGETOWN RD", "city": "STRATFORD", "province": "PE", "country": "CA", "postalCode": "C1B2S8", "twitter": "None", "instagram": "None", "facebook": "None", "youtube": "None", "website": "None", "summary": "None", "logo": "None", "latitude": 46.204365520399335, "longitude": -63.06066361558666}, "119251957RR0001": {"name": "THE PRINCE GEORGE CANTATA SINGERS", "designationCode": "C", "categoryCode": "22", "address": "PO BOX 2001", "city": "PRINCE GEORGE", "province": "BC", "country": "CA", "postalCode": "V2N2J6", "twitter": "None", "instagram": "None", "facebook": "None", "youtube": "None", "website": "None", "summary": "None", "logo": "None", "latitude": 53.91241800000006, "longitude": -122.74463149999994}, "893149047RR0001": {"name": "THE PRINCE GEORGE CHRISTADELPHIAN ECCLESIA", "designationCode": "C", "categoryCode": "49", "address": "BOX 806", "city": "PRINCE GEORGE", "province": "BC", "country": "CA", "postalCode": "V2L4T3", "twitter": "None", "instagram": "None", "facebook": "None", "youtube": "None", "website": "None", "summary": "None", "logo": "None", "latitude": 53.91241800000006, "longitude": -122.74463149999994}, "891160343RR0001": {"name": "THE PRINCE GEORGE COMMUNITY FOUNDATION", "designationCode": "A", "categoryCode": "03", "address": "770 BRUNSWICK STREET", "city": "PRINCE GEORGE", "province": "BC", "country": "CA", "postalCode": "V2L2C2", "twitter": "None", "instagram": "None", "facebook": "None", "youtube": "None", "website": "None", "summary": "None", "logo": "None", "latitude": 53.9135616747072, "longitude": -122.75063376876935}, "119251981RR0001": {"name": "THE PRINCE GEORGE KNIGHT'S SOCIETY", "designationCode": "C", "categoryCode": "56", "address": "P.P. BOX 355                  7201 DOMANO BLVD.", "city": "PRINCE GEORGE", "province": "BC", "country": "CA", "postalCode": "V2L4S2", "twitter": "None", "instagram": "None", "facebook": "None", "youtube": "None", "website": "None", "summary": "None", "logo": "None", "latitude": 53.91241800000006, "longitude": -122.74463149999994}, "833179369RR0001": {"name": "THE PRINCESS AUTO FOUNDATION INC.", "designationCode": "B", "categoryCode": "03", "address": "475 PANET RD", "city": "WINNIPEG", "province": "MB", "country": "CA", "postalCode": "R3C2W7", "twitter": "None", "instagram": "None", "facebook": "None", "youtube": "None", "website": "None", "summary": "None", "logo": "None", "latitude": 49.89647126045823, "longitude": -97.0756097467027}, "899034730RR0001": {"name": "THE PRIORY OF CANADA OF THE MOST VENERABLE ORDER OF THE HOSPITAL OF ST JOHN OF JERUSALEM", "designationCode": "C", "categoryCode": "09", "address": "400-1900 CITY PARK DR", "city": "OTTAWA", "province": "ON", "country": "CA", "postalCode": "K1J1A3", "twitter": "None", "instagram": "None", "facebook": "None", "youtube": "None", "website": "None", "summary": "None", "logo": "None", "latitude": 45.429072614173045, "longitude": -75.61430238034531}, "875633810RR0001": {"name": "THE PRIORY SCHOOL FOUNDATION INC./LA FONDATION DE L'ECOLE PRIORY INC.", "designationCode": "A", "categoryCode": "21", "address": "3120 THE BOULEVARD", "city": "MONTREAL", "province": "QC", "country": "CA", "postalCode": "H3Y1R5", "twitter": "None", "instagram": "None", "facebook": "None", "youtube": "None", "website": "None", "summary": "None", "logo": "None", "latitude": 45.493498664889366, "longitude": -73.59749819528642}, "119252062RR0001": {"name": "THE PRIORY SCHOOL INC", "designationCode": "C", "categoryCode": "20", "address": "3120 THE BOULEVARD", "city": "MONTREAL", "province": "QC", "country": "CA", "postalCode": "H3Y1R9", "twitter": "None", "instagram": "None", "facebook": "None", "youtube": "None", "website": "None", "summary": "None", "logo": "None", "latitude": 45.493498664889366, "longitude": -73.59749819528642}, "862268083RR0001": {"name": "THE PROARTS ART SOCIETY", "designationCode": "C", "categoryCode": "56", "address": "604-1 STREET SE", "city": "CALGARY", "province": "AB", "country": "CA", "postalCode": "T2G5H8", "twitter": "None", "instagram": "None", "facebook": "None", "youtube": "None", "website": "None", "summary": "None", "logo": "None", "latitude": 51.04725786619244, "longitude": -114.06039003712631}, "122001241RR0001": {"name": "THE PROGRESSIVE HOUSING SOCIETY", "designationCode": "C", "categoryCode": "01", "address": "7836 6TH STREET", "city": "BURNABY", "province": "BC", "country": "CA", "postalCode": "V3N3N2", "twitter": "None", "instagram": "None", "facebook": "None", "youtube": "None", "website": "None", "summary": "None", "logo": "None", "latitude": 49.22000516923399, "longitude": -122.92882798062017}, "883111809RR0001": {"name": "THE PROJECT NORTH STAR ASSOCIATION OF CANADA", "designationCode": "C", "categoryCode": "50", "address": "540 LACOLLE WAY", "city": "OTTAWA", "province": "ON", "country": "CA", "postalCode": "K4A0N9", "twitter": "None", "instagram": "None", "facebook": "None", "youtube": "None", "website": "None", "summary": "None", "logo": "None", "latitude": 45.48957218454629, "longitude": -75.48366551927415}, "119252138RR0001": {"name": "THE PROSPECT LAKE DISTRICT COMMUNITY ASSOCIATION", "designationCode": "C", "categoryCode": "56", "address": "5358 SPARTON RD", "city": "VICTORIA", "province": "BC", "country": "CA", "postalCode": "V9E2H5", "twitter": "None", "instagram": "None", "facebook": "None", "youtube": "None", "website": "None", "summary": "None", "logo": "None", "latitude": 48.527002372468104, "longitude": -123.43079385726199}, "859173668RR0001": {"name": "THE PROSSER CHARITABLE FOUNDATION", "designationCode": "B", "categoryCode": "03", "address": "201-908-17 AVE SW", "city": "CALGARY", "province": "AB", "country": "CA", "postalCode": "T2T0A3", "twitter": "None", "instagram": "None", "facebook": "None", "youtube": "None", "website": "None", "summary": "None", "logo": "None", "latitude": 51.037851456575595, "longitude": -114.08265}, "851333179RR0001": {"name": "THE PROSTATE CANCER FIGHT FOUNDATION", "designationCode": "A", "categoryCode": "13", "address": "424 - 300 EARL GREY DR", "city": "KANATA", "province": "ON", "country": "CA", "postalCode": "K2T1C1", "twitter": "None", "instagram": "None", "facebook": "None", "youtube": "None", "website": "None", "summary": "None", "logo": "None", "latitude": 45.31049216138577, "longitude": -75.91171771785108}, "141052027RR0001": {"name": "THE PROTECTION OF THE HOLY VIRGIN MARY ORTHODOX CONVENT AT BLUFFTON", "designationCode": "C", "categoryCode": "46", "address": "RR #2", "city": "BLUFFTON", "province": "AB", "country": "CA", "postalCode": "T0C0M0", "twitter": "None", "instagram": "None", "facebook": "None", "youtube": "None", "website": "None", "summary": "None", "logo": "None", "latitude": 52.75066200000006, "longitude": -114.29175049999994}, "895269611RR0001": {"name": "THE PROTESTANT CEMETERY OF PEARCETON", "designationCode": "C", "categoryCode": "59", "address": "17 ROUTE BUNKER", "city": "STANBRIDGE EAST", "province": "QC", "country": "CA", "postalCode": "J0J2H0", "twitter": "None", "instagram": "None", "facebook": "None", "youtube": "None", "website": "None", "summary": "None", "logo": "None", "latitude": 45.11339835095083, "longitude": -72.90729092958057}, "119252146RR0001": {"name": "THE PROVERBS GOSPEL MUSIC ASSOCIATION", "designationCode": "C", "categoryCode": "47", "address": "BOX 111", "city": "WESTPORT", "province": "ON", "country": "CA", "postalCode": "K0G1X0", "twitter": "None", "instagram": "None", "facebook": "None", "youtube": "None", "website": "None", "summary": "None", "logo": "None", "latitude": 39.63902000000007, "longitude": -123.78490999999997}, "872065412RR0001": {"name": "THE PROVIDENCE BENEVOLENT FOUNDATION", "designationCode": "B", "categoryCode": "03", "address": "134 WEST MEADOWS ESTATES RD", "city": "CALGARY", "province": "AB", "country": "CA", "postalCode": "T3Z1M5", "twitter": "None", "instagram": "None", "facebook": "None", "youtube": "None", "website": "None", "summary": "None", "logo": "None", "latitude": 51.012639825121965, "longitude": -114.31545873183498}, "119252161RR0001": {"name": "THE PROVINCE OF QUEBEC SOCIETY FOR THE PROTECTION OF BIRDS, INC.", "designationCode": "C", "categoryCode": "54", "address": "60  ANGELL AVENUE", "city": "BEACONSFIELD", "province": "QC", "country": "CA", "postalCode": "H9W4V5", "twitter": "None", "instagram": "None", "facebook": "None", "youtube": "None", "website": "None", "summary": "None", "logo": "None", "latitude": 45.420042007213375, "longitude": -73.88514699128608}, "891950305RR0001": {"name": "THE PROVINCIAL AUTISM CENTRE ASSOCIATION", "designationCode": "C", "categoryCode": "11", "address": "5945 SPRING GARDEN RD", "city": "HALIFAX", "province": "NS", "country": "CA", "postalCode": "B3H1Y4", "twitter": "None", "instagram": "None", "facebook": "None", "youtube": "None", "website": "None", "summary": "None", "logo": "None", "latitude": 44.6407959064861, "longitude": -63.5854087080327}, "119252187RR0001": {"name": "THE PROVOST & DISTRICT AGRICULTURAL SOCIETY", "designationCode": "C", "categoryCode": "56", "address": "PO BOX 106", "city": "PROVOST", "province": "AB", "country": "CA", "postalCode": "T0B3S0", "twitter": "None", "instagram": "None", "facebook": "None", "youtube": "None", "website": "None", "summary": "None", "logo": "None", "latitude": 52.82485171250891, "longitude": -110.88936481833932}, "889212395RR0001": {"name": "THE PSYCHOLOGY FOUNDATION OF CANADA", "designationCode": "C", "categoryCode": "59", "address": "800-2 ST CLAIR AVE E", "city": "TORONTO", "province": "ON", "country": "CA", "postalCode": "M4T2T5", "twitter": "None", "instagram": "None", "facebook": "None", "youtube": "None", "website": "None", "summary": "None", "logo": "None", "latitude": 43.68819219458694, "longitude": -79.39364569637594}, "119252229RR0001": {"name": "THE PUBLIC GENERAL HOSPITAL FOUNDATION OF CHATHAM", "designationCode": "A", "categoryCode": "13", "address": "P O BOX 2030                  9 URSULINE AVENUE", "city": "CHATHAM", "province": "ON", "country": "CA", "postalCode": "N7M5L9", "twitter": "None", "instagram": "None", "facebook": "None", "youtube": "None", "website": "None", "summary": "None", "logo": "None", "latitude": 42.404613000000055, "longitude": -82.18960099999994}, "130592405RR0001": {"name": "THE PUBLIC INTEREST ADVOCACY CENTRE - LE CENTRE POUR LA D\u00c9FENCE DE L'INT\u00c9R\u00caT PUBLIC", "designationCode": "C", "categoryCode": "59", "address": "ONE NICHOLAS ST #1204", "city": "OTTAWA", "province": "ON", "country": "CA", "postalCode": "K1N7B7", "twitter": "None", "instagram": "None", "facebook": "None", "youtube": "None", "website": "None", "summary": "None", "logo": "None", "latitude": 45.42176342184898, "longitude": -75.68497111848781}, "890748999RR0001": {"name": "THE PURPLE THEATRE COMPANY", "designationCode": "C", "categoryCode": "22", "address": "922 JOSEPHINE", "city": "WINDSOR", "province": "ON", "country": "CA", "postalCode": "N9B2L5", "twitter": "None", "instagram": "None", "facebook": "None", "youtube": "None", "website": "None", "summary": "None", "logo": "None", "latitude": 42.30276185734889, "longitude": -83.0543632668361}, "859803041RR0001": {"name": "THE PURPLEVILLE FOUNDATION", "designationCode": "B", "categoryCode": "03", "address": "5 ELSTREE ROAD", "city": "TORONTO", "province": "ON", "country": "CA", "postalCode": "M9A3Y9", "twitter": "None", "instagram": "None", "facebook": "None", "youtube": "None", "website": "None", "summary": "None", "logo": "None", "latitude": 43.6670677410411, "longitude": -79.52994987743112}, "863616017RR0001": {"name": "THE PUSH FOR CHANGE FOUNDATION", "designationCode": "A", "categoryCode": "09", "address": "53 - 8438 207A ST", "city": "LANGLEY", "province": "BC", "country": "CA", "postalCode": "V2Y0N8", "twitter": "None", "instagram": "None", "facebook": "None", "youtube": "None", "website": "None", "summary": "None", "logo": "None", "latitude": 49.15650912556027, "longitude": -122.6480637134134}, "107412694RR0001": {"name": "THE PYUNG AHN PRESBYTERIAN CHURCH", "designationCode": "C", "categoryCode": "37", "address": "8765 GOVERNMENT STREET", "city": "BURNABY", "province": "BC", "country": "CA", "postalCode": "V3N4G9", "twitter": "None", "instagram": "None", "facebook": "None", "youtube": "None", "website": "None", "summary": "None", "logo": "None", "latitude": 49.250275549941755, "longitude": -122.91040867382547}, "893336560RR0001": {"name": "THE QR77/WESTIN HOTEL CALGARY CHILDREN'S FOUNDATION", "designationCode": "A", "categoryCode": "03", "address": "#200 CORUS CENTRE             3320 17TH AVE SW", "city": "CALGARY", "province": "AB", "country": "CA", "postalCode": "T3G0B4", "twitter": "None", "instagram": "None", "facebook": "None", "youtube": "None", "website": "None", "summary": "None", "logo": "None", "latitude": 51.03783351875456, "longitude": -114.13514266763806}, "891135576RR0001": {"name": "THE QUADRANGLE FUND", "designationCode": "B", "categoryCode": "23", "address": "4 DEVONSHIRE PLACE", "city": "TORONTO", "province": "ON", "country": "CA", "postalCode": "M5S2E1", "twitter": "None", "instagram": "None", "facebook": "None", "youtube": "None", "website": "None", "summary": "None", "logo": "None", "latitude": 43.664489738271136, "longitude": -79.3970538094811}, "890022791RR0001": {"name": "THE QUAIL ROCK FOUNDATION", "designationCode": "B", "categoryCode": "15", "address": "808-808 WEST HASTINGS ST.", "city": "VANCOUVER", "province": "BC", "country": "CA", "postalCode": "V6C1C8", "twitter": "None", "instagram": "None", "facebook": "None", "youtube": "None", "website": "None", "summary": "None", "logo": "None", "latitude": 49.28600167886215, "longitude": -123.11500732364802}, "835385949RR0001": {"name": "THE QUARRY GOSPEL TRUST", "designationCode": "C", "categoryCode": "39", "address": "PO BOX 4058                   827 2ND AVE NORTH", "city": "STONEWALL", "province": "MB", "country": "CA", "postalCode": "R0C2Z0", "twitter": "None", "instagram": "None", "facebook": "None", "youtube": "None", "website": "None", "summary": "None", "logo": "None", "latitude": 50.13772509645299, "longitude": -97.34355009678352}, "132278383RR0001": {"name": "THE QUEBEC ASSOCIATION OF BAPTIST CHURCHES", "designationCode": "C", "categoryCode": "31", "address": "4964 RUE BLAIGNIER", "city": "PIERREFONDS", "province": "QC", "country": "CA", "postalCode": "H9J3T8", "twitter": "None", "instagram": "None", "facebook": "None", "youtube": "None", "website": "None", "summary": "None", "logo": "None", "latitude": 45.46906882125343, "longitude": -73.87794964781564}, "108093337RR0001": {"name": "THE QUEEN CHARLOTTE CITY CHILD CENTER SOCIETY", "designationCode": "C", "categoryCode": "20", "address": "PO BOX 536", "city": "QUEEN CHARLOTTE", "province": "BC", "country": "CA", "postalCode": "V0T1S0", "twitter": "None", "instagram": "None", "facebook": "None", "youtube": "None", "website": "None", "summary": "None", "logo": "None", "latitude": 53.50199672573152, "longitude": -132.2619050828624}, "119252328RR0001": {"name": "THE QUEEN CHARLOTTE CITY COMMUNITY CLUB", "designationCode": "C", "categoryCode": "56", "address": "BOX 352", "city": "QUEEN CHARLOTTE CITY", "province": "BC", "country": "CA", "postalCode": "V0T1S0", "twitter": "None", "instagram": "None", "facebook": "None", "youtube": "None", "website": "None", "summary": "None", "logo": "None", "latitude": 53.25370000000004, "longitude": -132.08675}, "875460123RR0001": {"name": "THE QUEEN OF PEACE MONASTERY", "designationCode": "C", "categoryCode": "46", "address": "PO BOX 1745", "city": "GARIBALDI HIGHLANDS", "province": "BC", "country": "CA", "postalCode": "V0N1T0", "twitter": "None", "instagram": "None", "facebook": "None", "youtube": "None", "website": "None", "summary": "None", "logo": "None", "latitude": 49.742860000000064, "longitude": -123.11049999999994}, "891049397RR0001": {"name": "THE QUEEN'S OWN CAMERON HIGHLANDERS OF CANAD A REGIMENTAL FOUNDATION", "designationCode": "A", "categoryCode": "55", "address": "SUITE 207                     5445 ROBLIN BLVD", "city": "WINNIPEG", "province": "MB", "country": "CA", "postalCode": "R3R3W7", "twitter": "None", "instagram": "None", "facebook": "None", "youtube": "None", "website": "None", "summary": "None", "logo": "None", "latitude": 49.8595281243979, "longitude": -97.2924090436136}, "119252385RR0001": {"name": "THE QUEEN'S OWN RIFLES OF CANADA TRUST FUND", "designationCode": "C", "categoryCode": "65", "address": "BOX 250, UNIT 12A             4981 HIGHWAY 7", "city": "UNIONVILLE", "province": "ON", "country": "CA", "postalCode": "L3R1N1", "twitter": "None", "instagram": "None", "facebook": "None", "youtube": "None", "website": "None", "summary": "None", "logo": "None", "latitude": 43.86524268618599, "longitude": -79.29230256406207}, "870360625RR0001": {"name": "THE QUEENS COUNTY SINGERS SOCIETY", "designationCode": "C", "categoryCode": "22", "address": "P.O. BOX 879", "city": "LIVERPOOL", "province": "NS", "country": "CA", "postalCode": "B0T1K0", "twitter": "None", "instagram": "None", "facebook": "None", "youtube": "None", "website": "None", "summary": "None", "logo": "None", "latitude": 44.03577000000007, "longitude": -64.72067999999996}, "865302442RR0001": {"name": "THE QUEENSMEN OF TORONTO MALE CHORUS", "designationCode": "C", "categoryCode": "22", "address": "127 MAIN ST S", "city": "BRAMPTON", "province": "ON", "country": "CA", "postalCode": "L6Y1N2", "twitter": "None", "instagram": "None", "facebook": "None", "youtube": "None", "website": "None", "summary": "None", "logo": "None", "latitude": 43.67939762640672, "longitude": -79.75125862089544}, "872394267RR0001": {"name": "THE QUESNEL AND DISTRICT HERITAGE ASSOCIATION", "designationCode": "C", "categoryCode": "52", "address": "3055 DRAGON LAKE RD", "city": "QUESNEL", "province": "BC", "country": "CA", "postalCode": "V2J6N2", "twitter": "None", "instagram": "None", "facebook": "None", "youtube": "None", "website": "None", "summary": "None", "logo": "None", "latitude": 52.91979020358078, "longitude": -122.4301099708577}, "107869166RR0001": {"name": "THE QUESNEL CHILD AND YOUTH SUPPORT SOCIETY", "designationCode": "C", "categoryCode": "09", "address": "12-665 FRONT STREET", "city": "QUESNEL", "province": "BC", "country": "CA", "postalCode": "V2J2K9", "twitter": "None", "instagram": "None", "facebook": "None", "youtube": "None", "website": "None", "summary": "None", "logo": "None", "latitude": 52.9834388353549, "longitude": -122.49912375975853}, "889161717RR0001": {"name": "THE QUESNEL COMMUNITY FOUNDATION", "designationCode": "A", "categoryCode": "03", "address": "BOX 4158", "city": "QUESNEL", "province": "BC", "country": "CA", "postalCode": "V2J3J2", "twitter": "None", "instagram": "None", "facebook": "None", "youtube": "None", "website": "None", "summary": "None", "logo": "None", "latitude": 52.978128000000055, "longitude": -122.49828349999993}, "106921463RR0001": {"name": "THE QUEST AT CHRISTOPHER LAKE BAPTIST CAMP AND RETREAT CENTRE INC.", "designationCode": "C", "categoryCode": "56", "address": "1351 28TH ST E", "city": "PRINCE ALBERT", "province": "SK", "country": "CA", "postalCode": "S6V6T4", "twitter": "None", "instagram": "None", "facebook": "None", "youtube": "None", "website": "None", "summary": "None", "logo": "None", "latitude": 53.18762769090567, "longitude": -105.71607954575494}, "119252427RR0001": {"name": "THE QUETICO FOUNDATION", "designationCode": "C", "categoryCode": "53", "address": "168 - 215 SPADINA AVE", "city": "TORONTO", "province": "ON", "country": "CA", "postalCode": "M5T2C7", "twitter": "None", "instagram": "None", "facebook": "None", "youtube": "None", "website": "None", "summary": "None", "logo": "None", "latitude": 43.65063316348313, "longitude": -79.39697013165816}, "131582074RR0001": {"name": "THE QUICKDRAW ANIMATION SOCIETY", "designationCode": "C", "categoryCode": "22", "address": "2011 10 AVE SW", "city": "CALGARY", "province": "AB", "country": "CA", "postalCode": "T3C0K4", "twitter": "None", "instagram": "None", "facebook": "None", "youtube": "None", "website": "None", "summary": "None", "logo": "None", "latitude": 51.04448048845882, "longitude": -114.10742444324539}, "893434209RR0001": {"name": "THE QUIRING CHAMBER MUSIC CAMP", "designationCode": "C", "categoryCode": "22", "address": "2050 MONTEREY AVE", "city": "COQUITLAM", "province": "BC", "country": "CA", "postalCode": "V3K6T8", "twitter": "None", "instagram": "None", "facebook": "None", "youtube": "None", "website": "None", "summary": "None", "logo": "None", "latitude": 49.24139954342439, "longitude": -122.83788172009349}, "891848574RR0001": {"name": "THE R A U S I FOUNDATION", "designationCode": "C", "categoryCode": "51", "address": "801 11TH ST SW", "city": "CALGARY", "province": "AB", "country": "CA", "postalCode": "T2P2C4", "twitter": "None", "instagram": "None", "facebook": "None", "youtube": "None", "website": "None", "summary": "None", "logo": "None", "latitude": 51.047158921086655, "longitude": -114.08861521083132}, "119252500RR0001": {"name": "THE R C CHURCH OF CORPUS CHRISTI", "designationCode": "C", "categoryCode": "38", "address": "PO BOX 59", "city": "EAST SELKIRK", "province": "MB", "country": "CA", "postalCode": "R0E0M0", "twitter": "None", "instagram": "None", "facebook": "None", "youtube": "None", "website": "None", "summary": "None", "logo": "None", "latitude": 50.582348999999994, "longitude": -96.58096875000001}, "131596868RR0001": {"name": "THE R C CHURCH OF OUR LADY OF MOUNT CARMEL", "designationCode": "C", "categoryCode": "38", "address": "PO BOX 265", "city": "POWERVIEW", "province": "MB", "country": "CA", "postalCode": "R0E1P0", "twitter": "None", "instagram": "None", "facebook": "None", "youtube": "None", "website": "None", "summary": "None", "logo": "None", "latitude": 50.567270000000065, "longitude": -96.19834999999995}, "126855402RR0001": {"name": "THE R C PARISH OF HOLY CROSS", "designationCode": "C", "categoryCode": "38", "address": "252 DUBUC ST", "city": "WINNIPEG", "province": "MB", "country": "CA", "postalCode": "R2H1E3", "twitter": "None", "instagram": "None", "facebook": "None", "youtube": "None", "website": "None", "summary": "None", "logo": "None", "latitude": 49.877198488458816, "longitude": -97.11623938911654}}