{"118987965RR0001": {"name": "LACADENA UNITED CHURCH", "designationCode": "C", "categoryCode": "44", "address": "BOX 83", "city": "LACADENA", "province": "SK", "country": "CA", "postalCode": "S0L1V0", "twitter": "None", "instagram": "None", "facebook": "None", "youtube": "None", "website": "None", "summary": "None", "logo": "None", "latitude": 50.95329000000004, "longitude": -108.33598999999998}, "891559577RR0001": {"name": "LACAVIE", "designationCode": "C", "categoryCode": "09", "address": "2634 RUE PRIEUR EST", "city": "MONTREAL", "province": "QC", "country": "CA", "postalCode": "H2B1R1", "twitter": "None", "instagram": "None", "facebook": "None", "youtube": "None", "website": "None", "summary": "None", "logo": "None", "latitude": 45.57846468053557, "longitude": -73.64892613791925}, "107582884RR0001": {"name": "LACET DE BOTTINE", "designationCode": "C", "categoryCode": "01", "address": "709 RUE ETIENNE-RAYMOND", "city": "SAINTE-MARIE", "province": "QC", "country": "CA", "postalCode": "G6E3R1", "twitter": "None", "instagram": "None", "facebook": "None", "youtube": "None", "website": "None", "summary": "None", "logo": "None", "latitude": 46.450918227018384, "longitude": -71.02364505663903}, "874048606RR0001": {"name": "LACHAN TORONTO JEWISH CHAMBER CHOIR", "designationCode": "C", "categoryCode": "22", "address": "104 BROOKVIEW DRIVE", "city": "TORONTO", "province": "ON", "country": "CA", "postalCode": "M6A2K6", "twitter": "None", "instagram": "None", "facebook": "None", "youtube": "None", "website": "None", "summary": "None", "logo": "None", "latitude": 43.723792560649756, "longitude": -79.43836159827441}, "129571774RR0001": {"name": "LACHENAIE ACTION JEUNESSE", "designationCode": "C", "categoryCode": "56", "address": "1735 RUE ROCHON               LOCAL 02", "city": "TERREBONNE", "province": "QC", "country": "CA", "postalCode": "J6W5N9", "twitter": "None", "instagram": "None", "facebook": "None", "youtube": "None", "website": "None", "summary": "None", "logo": "None", "latitude": 45.70178554284749, "longitude": -73.61768508243405}, "872310503RR0001": {"name": "LACHLAN TRUST OF CANADA", "designationCode": "C", "categoryCode": "52", "address": "2 BAY STREET                  SUITE 407", "city": "KINGSTON", "province": "ON", "country": "CA", "postalCode": "K7K6T7", "twitter": "None", "instagram": "None", "facebook": "None", "youtube": "None", "website": "None", "summary": "None", "logo": "None", "latitude": 44.23561468220902, "longitude": -76.48148546502972}, "107583320RR0001": {"name": "LACHUTE BAPTIST CHURCH", "designationCode": "C", "categoryCode": "31", "address": "45 ARGENTEUIL AVE", "city": "LACHUTE", "province": "QC", "country": "CA", "postalCode": "J8H1X6", "twitter": "None", "instagram": "None", "facebook": "None", "youtube": "None", "website": "None", "summary": "None", "logo": "None", "latitude": 45.653685644988386, "longitude": -74.34177986343708}, "893950691RR0001": {"name": "LACHUTE PROTESTANT CEMETERY CORPORATION", "designationCode": "A", "categoryCode": "59", "address": "718 MEIKLE ST", "city": "LACHUTE", "province": "QC", "country": "CA", "postalCode": "J8H3X3", "twitter": "None", "instagram": "None", "facebook": "None", "youtube": "None", "website": "None", "summary": "None", "logo": "None", "latitude": 45.65938260170822, "longitude": -74.32502862600268}, "107583338RR0001": {"name": "LACHUTE UNITED CHURCH", "designationCode": "C", "categoryCode": "44", "address": "232, AV. HAMFORD", "city": "LACHUTE", "province": "QC", "country": "CA", "postalCode": "J8H3N6", "twitter": "None", "instagram": "None", "facebook": "None", "youtube": "None", "website": "None", "summary": "None", "logo": "None", "latitude": 45.64950125007211, "longitude": -74.35283884958727}, "107584245RR0001": {"name": "LACOLLE CLARENCEVILLE PASTORAL CHARGE", "designationCode": "C", "categoryCode": "44", "address": "1 DE L'\u00c9GLISE NORD", "city": "LACOLLE", "province": "QC", "country": "CA", "postalCode": "J0J1J0", "twitter": "None", "instagram": "None", "facebook": "None", "youtube": "None", "website": "None", "summary": "None", "logo": "None", "latitude": 45.08099432139767, "longitude": -73.3727183766517}, "119244416RR0001": {"name": "LACOMBE & DISTRICT HISTORICAL SOCIETY", "designationCode": "C", "categoryCode": "52", "address": "5036 51 STREET", "city": "LACOMBE", "province": "AB", "country": "CA", "postalCode": "T4L1W2", "twitter": "None", "instagram": "None", "facebook": "None", "youtube": "None", "website": "None", "summary": "None", "logo": "None", "latitude": 52.46432891035258, "longitude": -113.73213607025768}, "107584286RR0001": {"name": "LACOMBE ACTION GROUP FOR THE HANDICAPPED", "designationCode": "C", "categoryCode": "09", "address": "4 IRON WOLF BLVD", "city": "LACOMBE", "province": "AB", "country": "CA", "postalCode": "T4L2K6", "twitter": "None", "instagram": "None", "facebook": "None", "youtube": "None", "website": "None", "summary": "None", "logo": "None", "latitude": 52.45693166307908, "longitude": -113.73330648257217}, "107584336RR0001": {"name": "LACOMBE AND DISTRICT FAMILY AND COMMUNITY SUPPORT SERVICES SOCIETY", "designationCode": "C", "categoryCode": "09", "address": "201-5214 50 AVE", "city": "LACOMBE", "province": "AB", "country": "CA", "postalCode": "T4L0B6", "twitter": "None", "instagram": "None", "facebook": "None", "youtube": "None", "website": "None", "summary": "None", "logo": "None", "latitude": 52.463119533758196, "longitude": -113.7341835}, "118988534RR0001": {"name": "LACOMBE AND DISTRICT MUSIC FESTIVAL ASSOCIATION", "designationCode": "C", "categoryCode": "22", "address": "PO BOX 5236", "city": "LACOMBE", "province": "AB", "country": "CA", "postalCode": "T4L1W9", "twitter": "None", "instagram": "None", "facebook": "None", "youtube": "None", "website": "None", "summary": "None", "logo": "None", "latitude": 52.463094000000055, "longitude": -113.73671149999993}, "118988542RR0001": {"name": "LACOMBE CHRISTIAN SCHOOL SOCIETY", "designationCode": "C", "categoryCode": "20", "address": "5206 58 STREET", "city": "LACOMBE", "province": "AB", "country": "CA", "postalCode": "T4L1G9", "twitter": "None", "instagram": "None", "facebook": "None", "youtube": "None", "website": "None", "summary": "None", "logo": "None", "latitude": 52.467088047026195, "longitude": -113.74736645669671}, "133628610RR0001": {"name": "LACOMBE COMMUNITY SEVENTH-DAY ADVENTIST CHURCH", "designationCode": "C", "categoryCode": "41", "address": "5816 HIGHWAY 2A", "city": "LACOMBE", "province": "AB", "country": "CA", "postalCode": "T4L2G5", "twitter": "None", "instagram": "None", "facebook": "None", "youtube": "None", "website": "None", "summary": "None", "logo": "None", "latitude": 52.474063600197404, "longitude": -113.71692568401835}, "892503640RR0001": {"name": "LACOMBE CONGREGATION OF JEHOVAH'S WITNESSES", "designationCode": "C", "categoryCode": "61", "address": "RR1 SITE 4 BOX 10", "city": "LACOMBE", "province": "AB", "country": "CA", "postalCode": "T4L2N1", "twitter": "None", "instagram": "None", "facebook": "None", "youtube": "None", "website": "None", "summary": "None", "logo": "None", "latitude": 52.463094000000055, "longitude": -113.73671149999993}, "857327472RR0001": {"name": "LACOMBE FIRST BAPTIST FELLOWSHIP SOCIETY", "designationCode": "C", "categoryCode": "31", "address": "BOX 6167", "city": "LACOMBE", "province": "AB", "country": "CA", "postalCode": "T4L1X5", "twitter": "None", "instagram": "None", "facebook": "None", "youtube": "None", "website": "None", "summary": "None", "logo": "None", "latitude": 52.463094000000055, "longitude": -113.73671149999993}, "132873563RR0001": {"name": "LACOMBE FOUNDATION", "designationCode": "C", "categoryCode": "01", "address": "4622 C&E TRAIL", "city": "LACOMBE", "province": "AB", "country": "CA", "postalCode": "T4L1M9", "twitter": "None", "instagram": "None", "facebook": "None", "youtube": "None", "website": "None", "summary": "None", "logo": "None", "latitude": 52.45998739259743, "longitude": -113.74339579770918}, "861846780RR0001": {"name": "LACOMBE FREE REFORMED CHURCH", "designationCode": "C", "categoryCode": "39", "address": "BOX 5574", "city": "LACOMBE", "province": "AB", "country": "CA", "postalCode": "T4L1X2", "twitter": "None", "instagram": "None", "facebook": "None", "youtube": "None", "website": "None", "summary": "None", "logo": "None", "latitude": 52.463094000000055, "longitude": -113.73671149999993}, "118988583RR0001": {"name": "LACOMBE KOZY KORNER COMMUNITY CENTRE", "designationCode": "C", "categoryCode": "56", "address": "BOX 5419", "city": "LACOMBE", "province": "AB", "country": "CA", "postalCode": "T4L1X1", "twitter": "None", "instagram": "None", "facebook": "None", "youtube": "None", "website": "None", "summary": "None", "logo": "None", "latitude": 52.463094000000055, "longitude": -113.73671149999993}, "873640890RR0001": {"name": "LACOMBE MOTHER GOOSE PLAYSCHOOL", "designationCode": "C", "categoryCode": "20", "address": "2 5227 C & E TRAIL", "city": "LACOMBE", "province": "AB", "country": "CA", "postalCode": "T4L1J7", "twitter": "None", "instagram": "None", "facebook": "None", "youtube": "None", "website": "None", "summary": "None", "logo": "None", "latitude": 52.46621201022322, "longitude": -113.73773927713653}, "895505345RR0001": {"name": "LACOMBE PALLIATIVE CARE SOCIETY", "designationCode": "C", "categoryCode": "09", "address": "P.O. BOX 5576", "city": "LACOMBE", "province": "AB", "country": "CA", "postalCode": "T4L1X2", "twitter": "None", "instagram": "None", "facebook": "None", "youtube": "None", "website": "None", "summary": "None", "logo": "None", "latitude": 52.463094000000055, "longitude": -113.73671149999993}, "890196041RR0001": {"name": "LACOMBE PENTECOSTAL CHURCH", "designationCode": "C", "categoryCode": "36", "address": "40331 RR 27-1", "city": "LACOMBE", "province": "AB", "country": "CA", "postalCode": "T4L1K7", "twitter": "None", "instagram": "None", "facebook": "None", "youtube": "None", "website": "None", "summary": "None", "logo": "None", "latitude": 52.46314800000006, "longitude": -113.74406899999994}, "107584443RR0001": {"name": "LACOMBE PUBLIC LIBRARY", "designationCode": "C", "categoryCode": "50", "address": "5432 56TH AVENUE", "city": "LACOMBE", "province": "AB", "country": "CA", "postalCode": "T4L1E9", "twitter": "None", "instagram": "None", "facebook": "None", "youtube": "None", "website": "None", "summary": "None", "logo": "None", "latitude": 52.47055948600598, "longitude": -113.73745033236193}, "880626957RR0001": {"name": "LACTESCENCE PABOS", "designationCode": "C", "categoryCode": "11", "address": "633 AV DAIGNEAULT             C.P. 1090", "city": "CHANDLER", "province": "QC", "country": "CA", "postalCode": "G0C1K0", "twitter": "None", "instagram": "None", "facebook": "None", "youtube": "None", "website": "None", "summary": "None", "logo": "None", "latitude": 48.353546187921836, "longitude": -64.67073035518546}, "118989870RR0001": {"name": "LADDER VALLEY COMMUNITY CENTRE CO-OPERATIVE", "designationCode": "C", "categoryCode": "56", "address": "PO BOX 809", "city": "BIG RIVER", "province": "SK", "country": "CA", "postalCode": "S0J0E0", "twitter": "None", "instagram": "None", "facebook": "None", "youtube": "None", "website": "None", "summary": "None", "logo": "None", "latitude": 53.83341000000007, "longitude": -107.01782999999995}, "888850047RR0001": {"name": "LADIES AID TABITHA", "designationCode": "C", "categoryCode": "05", "address": "BOX 893", "city": "COALHURST", "province": "AB", "country": "CA", "postalCode": "T0L0V0", "twitter": "None", "instagram": "None", "facebook": "None", "youtube": "None", "website": "None", "summary": "None", "logo": "None", "latitude": 49.745436000000055, "longitude": -112.93374049999994}, "118990076RR0001": {"name": "LADIES AUXILIARY OF THE ADVOCATE AND DISTRICT VOLUNTEER FIRE BRIGADE", "designationCode": "C", "categoryCode": "55", "address": "PO BOX 15", "city": "ADVOCATE", "province": "NS", "country": "CA", "postalCode": "B0M1A0", "twitter": "None", "instagram": "None", "facebook": "None", "youtube": "None", "website": "None", "summary": "None", "logo": "None", "latitude": 45.3470842121044, "longitude": -64.8172509909585}, "888959848RR0001": {"name": "LADIES AUXILIARY TO THE ABERDEEN HOSPITAL", "designationCode": "C", "categoryCode": "19", "address": "835 EAST RIVER RD", "city": "NEW GLASGOW", "province": "NS", "country": "CA", "postalCode": "B2H3S6", "twitter": "None", "instagram": "None", "facebook": "None", "youtube": "None", "website": "None", "summary": "None", "logo": "None", "latitude": 45.572537761501415, "longitude": -62.64252221776251}, "118990142RR0001": {"name": "LADIES AUXILIARY TO THE LORNE MEMORIAL MEDICAL NURSING UNIT DISTRICT NO. 19C", "designationCode": "C", "categoryCode": "15", "address": "DISTRICT NO. 19C BOX 249", "city": "SWAN LAKE", "province": "MB", "country": "CA", "postalCode": "R0G2S0", "twitter": "None", "instagram": "None", "facebook": "None", "youtube": "None", "website": "None", "summary": "None", "logo": "None", "latitude": 49.411356000000055, "longitude": -98.79358399999994}, "118990217RR0001": {"name": "LADIES MORNING MUSICAL CLUB / LES MATINEES DE MUSIQUE DE CHAMBRE", "designationCode": "C", "categoryCode": "22", "address": "260 - 1980 RUE SHERBROOKE O", "city": "MONTREAL", "province": "QC", "country": "CA", "postalCode": "H3H1E8", "twitter": "None", "instagram": "None", "facebook": "None", "youtube": "None", "website": "None", "summary": "None", "logo": "None", "latitude": 45.49362439667184, "longitude": -73.58437916366098}, "118990225RR0001": {"name": "LADIES OF THE SACRED HEART AT HALIFAX", "designationCode": "C", "categoryCode": "20", "address": "P.O. BOX 867", "city": "ROCKLAND", "province": "ON", "country": "CA", "postalCode": "K4K1L5", "twitter": "None", "instagram": "None", "facebook": "None", "youtube": "None", "website": "None", "summary": "None", "logo": "None", "latitude": 45.54602700000005, "longitude": -75.29304049999993}, "118990282RR0001": {"name": "LADNER CHRISTIAN FELLOWSHIP SOCIETY", "designationCode": "C", "categoryCode": "36", "address": "5545 LADNER TRUNK RD", "city": "DELTA", "province": "BC", "country": "CA", "postalCode": "V4K1X1", "twitter": "None", "instagram": "None", "facebook": "None", "youtube": "None", "website": "None", "summary": "None", "logo": "None", "latitude": 49.090234531016904, "longitude": -123.06954230682672}, "863294658RR0001": {"name": "LADNER CHRISTIAN REFORMED CHURCH", "designationCode": "C", "categoryCode": "39", "address": "4594-54A STR", "city": "DELTA", "province": "BC", "country": "CA", "postalCode": "V4K2Z8", "twitter": "None", "instagram": "None", "facebook": "None", "youtube": "None", "website": "None", "summary": "None", "logo": "None", "latitude": 49.086305413266786, "longitude": -123.07238805874609}, "119288918RR1693": {"name": "LADNER CONGREGATION OF JEHOVAH'S WITNESSES, DELTA, BRITISH COLUMBIA", "designationCode": "C", "categoryCode": "61", "address": "5408 COMMODORE DRIVE", "city": "DELTA", "province": "BC", "country": "CA", "postalCode": "V4K4Z6", "twitter": "None", "instagram": "None", "facebook": "None", "youtube": "None", "website": "None", "summary": "None", "logo": "None", "latitude": 49.10618655063775, "longitude": -123.07447272453689}, "107586190RR0001": {"name": "LADNER PASTORAL CHARGE", "designationCode": "C", "categoryCode": "44", "address": "4960-48 AVENUE", "city": "DELTA", "province": "BC", "country": "CA", "postalCode": "V4K4X6", "twitter": "None", "instagram": "None", "facebook": "None", "youtube": "None", "website": "None", "summary": "None", "logo": "None", "latitude": 49.09012951399404, "longitude": -123.08639336081134}, "131894578RR0001": {"name": "LADNER REGULAR BAPTIST CHURCH,", "designationCode": "C", "categoryCode": "31", "address": "5624 LADNER TRUNK ROAD", "city": "DELTA", "province": "BC", "country": "CA", "postalCode": "V4K1X4", "twitter": "None", "instagram": "None", "facebook": "None", "youtube": "None", "website": "None", "summary": "None", "logo": "None", "latitude": 49.090174476196474, "longitude": -123.06706399570083}, "888207644RR0001": {"name": "LADNER: FOUNDATION LEON J", "designationCode": "B", "categoryCode": "25", "address": "PO BOX 10085                  PACIFIC CENTRE", "city": "VANCOUVER", "province": "BC", "country": "CA", "postalCode": "V7Y1B6", "twitter": "None", "instagram": "None", "facebook": "None", "youtube": "None", "website": "None", "summary": "None", "logo": "None", "latitude": 49.28299000000004, "longitude": -123.11890999999997}, "824922272RR0001": {"name": "LADY COVE WOMENS CHOIR INC.", "designationCode": "C", "categoryCode": "22", "address": "PO BOX 21410                  RPO MACDONALD DRIVE", "city": "ST. JOHN'S", "province": "NL", "country": "CA", "postalCode": "A1A5G6", "twitter": "None", "instagram": "None", "facebook": "None", "youtube": "None", "website": "None", "summary": "None", "logo": "None", "latitude": 47.592981, "longitude": -52.71084951270402}, "898784657RR0001": {"name": "LADY DUNN HEALTH CENTRE", "designationCode": "C", "categoryCode": "10", "address": "P.O.BOX 179", "city": "WAWA", "province": "ON", "country": "CA", "postalCode": "P0S1K0", "twitter": "None", "instagram": "None", "facebook": "None", "youtube": "None", "website": "None", "summary": "None", "logo": "None", "latitude": 47.99670182883135, "longitude": -84.76954309189294}, "135048148RR0001": {"name": "LADY MINTO GULF ISLANDS HOSPITAL FOUNDATION", "designationCode": "A", "categoryCode": "13", "address": "135 CROFTON RD", "city": "SALT SPRING ISLAND", "province": "BC", "country": "CA", "postalCode": "V8K1T1", "twitter": "None", "instagram": "None", "facebook": "None", "youtube": "None", "website": "None", "summary": "None", "logo": "None", "latitude": 48.861746438501505, "longitude": -123.50866636971784}, "107586372RR0001": {"name": "LADY MINTO HOSPITAL", "designationCode": "C", "categoryCode": "10", "address": "P.O.BOX 4000", "city": "COCHRANE", "province": "ON", "country": "CA", "postalCode": "P0L1C0", "twitter": "None", "instagram": "None", "facebook": "None", "youtube": "None", "website": "None", "summary": "None", "logo": "None", "latitude": 49.07076000000005, "longitude": -81.00274849999994}, "841290141RR0001": {"name": "LADY MINTO HOSPITAL AUXILIARY", "designationCode": "C", "categoryCode": "19", "address": "PO BOX 4000", "city": "COCHRANE", "province": "ON", "country": "CA", "postalCode": "P0L1C0", "twitter": "None", "instagram": "None", "facebook": "None", "youtube": "None", "website": "None", "summary": "None", "logo": "None", "latitude": 49.07076000000005, "longitude": -81.00274849999994}, "890543044RR0001": {"name": "LADY MINTO HOSPITAL AUXILIARY SOCIETY", "designationCode": "C", "categoryCode": "19", "address": "135 CROFTON RD", "city": "SALT SPRING ISLAND", "province": "BC", "country": "CA", "postalCode": "V8K1T1", "twitter": "None", "instagram": "None", "facebook": "None", "youtube": "None", "website": "None", "summary": "None", "logo": "None", "latitude": 48.861746438501505, "longitude": -123.50866636971784}, "866771678RR0001": {"name": "LADYSMITH & DISTRICT HISTORICAL SOCIETY", "designationCode": "C", "categoryCode": "52", "address": "P.O. BOX 813", "city": "LADYSMITH", "province": "BC", "country": "CA", "postalCode": "V9G1A6", "twitter": "None", "instagram": "None", "facebook": "None", "youtube": "None", "website": "None", "summary": "None", "logo": "None", "latitude": 48.99822900000005, "longitude": -123.82257049999993}, "871200242RR0001": {"name": "LADYSMITH AND DISTRICT MARINE RESCUE SOCIETY", "designationCode": "C", "categoryCode": "59", "address": "P.O. BOX 657", "city": "LADYSMITH", "province": "BC", "country": "CA", "postalCode": "V9G1A5", "twitter": "None", "instagram": "None", "facebook": "None", "youtube": "None", "website": "None", "summary": "None", "logo": "None", "latitude": 48.99822900000005, "longitude": -123.82257049999993}, "890681596RR0001": {"name": "LADYSMITH FAMILY AND FRIENDS SOCIETY", "designationCode": "C", "categoryCode": "01", "address": "PO BOX 1830", "city": "LADYSMITH", "province": "BC", "country": "CA", "postalCode": "V9G1B4", "twitter": "None", "instagram": "None", "facebook": "None", "youtube": "None", "website": "None", "summary": "None", "logo": "None", "latitude": 48.99822900000005, "longitude": -123.82257049999993}, "107586471RR0001": {"name": "LADYSMITH FELLOWSHIP BAPTIST CHURCH", "designationCode": "C", "categoryCode": "39", "address": "381 DAVIS RD", "city": "LADYSMITH", "province": "BC", "country": "CA", "postalCode": "V9G1V1", "twitter": "None", "instagram": "None", "facebook": "None", "youtube": "None", "website": "None", "summary": "None", "logo": "None", "latitude": 48.97712653173899, "longitude": -123.80375161503841}, "879882876RR0001": {"name": "LADYSMITH HEALTH CARE AUXILIARY", "designationCode": "C", "categoryCode": "13", "address": "BOX 1151", "city": "LADYSMITH", "province": "BC", "country": "CA", "postalCode": "V9G1A8", "twitter": "None", "instagram": "None", "facebook": "None", "youtube": "None", "website": "None", "summary": "None", "logo": "None", "latitude": 48.99822900000005, "longitude": -123.82257049999993}, "118990373RR0001": {"name": "LADYSMITH MARITIME SOCIETY", "designationCode": "C", "categoryCode": "59", "address": "PO BOX 1030 STN MAIN", "city": "LADYSMITH", "province": "BC", "country": "CA", "postalCode": "V9G1A7", "twitter": "None", "instagram": "None", "facebook": "None", "youtube": "None", "website": "None", "summary": "None", "logo": "None", "latitude": 48.99822900000005, "longitude": -123.82257049999993}, "892937970RR0001": {"name": "LADYSMITH PASTORAL CHARGE", "designationCode": "C", "categoryCode": "44", "address": "P.O. BOX 124", "city": "LADYSMITH", "province": "BC", "country": "CA", "postalCode": "V9G1A1", "twitter": "None", "instagram": "None", "facebook": "None", "youtube": "None", "website": "None", "summary": "None", "logo": "None", "latitude": 48.99822900000005, "longitude": -123.82257049999993}, "896835667RR0001": {"name": "LADYSMITH RESOURCES CENTRE ASSOCIATION", "designationCode": "C", "categoryCode": "59", "address": "630 2ND AVE                   BOX 1653", "city": "LADYSMITH", "province": "BC", "country": "CA", "postalCode": "V9G1B2", "twitter": "None", "instagram": "None", "facebook": "None", "youtube": "None", "website": "None", "summary": "None", "logo": "None", "latitude": 48.993111559058, "longitude": -123.81990045355252}, "872800875RR0001": {"name": "LAFLECHE & DISTRICT HEALTH FUND INC", "designationCode": "A", "categoryCode": "13", "address": "BOX 250", "city": "LAFLECHE", "province": "SK", "country": "CA", "postalCode": "S0H2K0", "twitter": "None", "instagram": "None", "facebook": "None", "youtube": "None", "website": "None", "summary": "None", "logo": "None", "latitude": 49.71676000000008, "longitude": -106.58451999999994}, "887946069RR0001": {"name": "LAFLECHE & DISTRICT MUSEUM", "designationCode": "C", "categoryCode": "50", "address": "BOX 341", "city": "LAFLECHE", "province": "SK", "country": "CA", "postalCode": "S0H2K0", "twitter": "None", "instagram": "None", "facebook": "None", "youtube": "None", "website": "None", "summary": "None", "logo": "None", "latitude": 49.71676000000008, "longitude": -106.58451999999994}, "119000073RR0001": {"name": "LAFLECHE AND DISTRICT MUSIC FESTIVAL", "designationCode": "C", "categoryCode": "22", "address": "PO BOX 485", "city": "LAFLECHE", "province": "SK", "country": "CA", "postalCode": "S0H2K0", "twitter": "None", "instagram": "None", "facebook": "None", "youtube": "None", "website": "None", "summary": "None", "logo": "None", "latitude": 49.71676000000008, "longitude": -106.58451999999994}, "119000081RR0001": {"name": "LAFLECHE CLUB 50", "designationCode": "C", "categoryCode": "56", "address": "PO BOX 253", "city": "LAFLECHE", "province": "SK", "country": "CA", "postalCode": "S0H2K0", "twitter": "None", "instagram": "None", "facebook": "None", "youtube": "None", "website": "None", "summary": "None", "logo": "None", "latitude": 49.71676000000008, "longitude": -106.58451999999994}, "119000107RR0001": {"name": "LAFLECHE UNITED CHURCH", "designationCode": "C", "categoryCode": "44", "address": "BOX 64", "city": "LAFLECHE", "province": "SK", "country": "CA", "postalCode": "S0H2K0", "twitter": "None", "instagram": "None", "facebook": "None", "youtube": "None", "website": "None", "summary": "None", "logo": "None", "latitude": 49.71676000000008, "longitude": -106.58451999999994}, "868426404RR0001": {"name": "LAGNIAPPE FOUNDATION", "designationCode": "B", "categoryCode": "03", "address": "401-1505 WEST 2ND AVENUE", "city": "VANCOUVER", "province": "BC", "country": "CA", "postalCode": "V6H3Y4", "twitter": "None", "instagram": "None", "facebook": "None", "youtube": "None", "website": "None", "summary": "None", "logo": "None", "latitude": 49.26951764588242, "longitude": -123.13820840088887}, "131960346RR0001": {"name": "LAHAVE & DISTRICT FIRE DEPARTMENT", "designationCode": "C", "categoryCode": "59", "address": "PO BOX 141", "city": "LAHAVE", "province": "NS", "country": "CA", "postalCode": "B0R1C0", "twitter": "None", "instagram": "None", "facebook": "None", "youtube": "None", "website": "None", "summary": "None", "logo": "None", "latitude": 44.2955633567451, "longitude": -64.36452308474158}, "899444764RR0001": {"name": "LAHAVE ISLANDS MARINE MUSEUM SOCIETY", "designationCode": "C", "categoryCode": "50", "address": "P O BOX 69", "city": "LAHAVE", "province": "NS", "country": "CA", "postalCode": "B0R1C0", "twitter": "None", "instagram": "None", "facebook": "None", "youtube": "None", "website": "None", "summary": "None", "logo": "None", "latitude": 44.2955633567451, "longitude": -64.36452308474158}, "131850034RR0001": {"name": "LAHAVE MANOR CORPORATION", "designationCode": "C", "categoryCode": "10", "address": "P.O. BOX 270", "city": "BRIDGEWATER", "province": "NS", "country": "CA", "postalCode": "B4V2W9", "twitter": "None", "instagram": "None", "facebook": "None", "youtube": "None", "website": "None", "summary": "None", "logo": "None", "latitude": 44.38048200000006, "longitude": -64.52305099999994}, "132216334RR0001": {"name": "LAHAVE- NEW DUBLIN PASTORAL CHARGE", "designationCode": "C", "categoryCode": "44", "address": "2702 HIGHWAY 331              RR #1, PLEASANTVILLE", "city": "PENTZ", "province": "NS", "country": "CA", "postalCode": "B0R1G0", "twitter": "None", "instagram": "None", "facebook": "None", "youtube": "None", "website": "None", "summary": "None", "logo": "None", "latitude": 44.34401400000006, "longitude": -64.44904849999993}, "892185422RR0001": {"name": "LAHEY CLINIC CANADIAN FOUNDATION", "designationCode": "C", "categoryCode": "23", "address": "130 KING STREET WEST, 20TH FLOBOX 430, STN FIRST CANADIAN PL", "city": "TORONTO", "province": "ON", "country": "CA", "postalCode": "M5X1K1", "twitter": "None", "instagram": "None", "facebook": "None", "youtube": "None", "website": "None", "summary": "None", "logo": "None", "latitude": 43.64868300000006, "longitude": -79.38544399999994}, "893053231RR0001": {"name": "LAICHWILTACH FAMILY LIFE SOCIETY", "designationCode": "C", "categoryCode": "09", "address": "441  - 4TH AVENUE", "city": "CAMPBELL RIVER", "province": "BC", "country": "CA", "postalCode": "V9W3W7", "twitter": "None", "instagram": "None", "facebook": "None", "youtube": "None", "website": "None", "summary": "None", "logo": "None", "latitude": 50.01467476492003, "longitude": -125.24572496071013}, "107589913RR0001": {"name": "LAIDLAW FOUNDATION", "designationCode": "B", "categoryCode": "23", "address": "300 - 2 ST CLAIR AVE E", "city": "TORONTO", "province": "ON", "country": "CA", "postalCode": "M4T2T5", "twitter": "None", "instagram": "None", "facebook": "None", "youtube": "None", "website": "None", "summary": "None", "logo": "None", "latitude": 43.68819219458694, "longitude": -79.39364569637594}, "119002269RR0001": {"name": "LAIDLAW MEMORIAL UNITED CHURCH", "designationCode": "C", "categoryCode": "44", "address": "155 OTTAWA ST. N.", "city": "HAMILTON", "province": "ON", "country": "CA", "postalCode": "L8H3Z2", "twitter": "None", "instagram": "None", "facebook": "None", "youtube": "None", "website": "None", "summary": "None", "logo": "None", "latitude": 43.24722942215358, "longitude": -79.81789600363533}, "119002277RR0001": {"name": "LAIRD & DISTRICT DONORS CHOICE COMBINED APPEAL", "designationCode": "A", "categoryCode": "05", "address": "PO BOX 162", "city": "LAIRD", "province": "SK", "country": "CA", "postalCode": "S0K2H0", "twitter": "None", "instagram": "None", "facebook": "None", "youtube": "None", "website": "None", "summary": "None", "logo": "None", "latitude": 51.98684384385166, "longitude": -106.06182592132525}, "119002285RR0001": {"name": "LAIRD MENNONITE CHURCH INC.", "designationCode": "C", "categoryCode": "34", "address": "BOX 178", "city": "LAIRD", "province": "SK", "country": "CA", "postalCode": "S0K2H0", "twitter": "None", "instagram": "None", "facebook": "None", "youtube": "None", "website": "None", "summary": "None", "logo": "None", "latitude": 51.98684384385166, "longitude": -106.06182592132525}, "107590341RR0001": {"name": "LAKE AINSLIE HISTORICAL SOCIETY", "designationCode": "C", "categoryCode": "50", "address": "912 - 56 WALTER HAVILL DR", "city": "HALIFAX", "province": "NS", "country": "CA", "postalCode": "B3N0C3", "twitter": "None", "instagram": "None", "facebook": "None", "youtube": "None", "website": "None", "summary": "None", "logo": "None", "latitude": 44.63211732275399, "longitude": -63.63236018792182}, "889365797RR0001": {"name": "LAKE AINSLIE PRESBYTERIAN CHURCH,", "designationCode": "C", "categoryCode": "37", "address": "RR1", "city": "WHYCOCOMAGH", "province": "NS", "country": "CA", "postalCode": "B0E3M0", "twitter": "None", "instagram": "None", "facebook": "None", "youtube": "None", "website": "None", "summary": "None", "logo": "None", "latitude": 45.986578959739866, "longitude": -61.09164516623389}, "118779156RR0001": {"name": "LAKE AINSLIE VOLUNTEER FIRE DEPARTMENT", "designationCode": "C", "categoryCode": "59", "address": "RR 1", "city": "WHYCOCOMAGH", "province": "NS", "country": "CA", "postalCode": "B0E3M0", "twitter": "None", "instagram": "None", "facebook": "None", "youtube": "None", "website": "None", "summary": "None", "logo": "None", "latitude": 45.986578959739866, "longitude": -61.09164516623389}, "899972798RR0001": {"name": "LAKE AINSLIE WEAVERS AND CRAFT GUILD", "designationCode": "C", "categoryCode": "22", "address": "2234 STRATHLORNE-SCOTSVILLE RD", "city": "SCOTSVILLE", "province": "NS", "country": "CA", "postalCode": "B0E3E0", "twitter": "None", "instagram": "None", "facebook": "None", "youtube": "None", "website": "None", "summary": "None", "logo": "None", "latitude": 46.18877865551996, "longitude": -61.16399684514388}, "107590390RR0001": {"name": "LAKE BONAVISTA COMMUNITY ASSOCIATION", "designationCode": "C", "categoryCode": "56", "address": "1401 ACADIA DRIVE SE", "city": "CALGARY", "province": "AB", "country": "CA", "postalCode": "T2J4C6", "twitter": "None", "instagram": "None", "facebook": "None", "youtube": "None", "website": "None", "summary": "None", "logo": "None", "latitude": 50.93749473107851, "longitude": -114.0483002689215}, "894632090RR0001": {"name": "LAKE BONAVISTA ELEMENTARY SCHOOL IMPROVEMENT SOCIETY", "designationCode": "C", "categoryCode": "21", "address": "1015 120 AVE. S.E.", "city": "CALGARY", "province": "AB", "country": "CA", "postalCode": "T2J2L1", "twitter": "None", "instagram": "None", "facebook": "None", "youtube": "None", "website": "None", "summary": "None", "logo": "None", "latitude": 50.94494152510254, "longitude": -114.04100592062437}, "119002392RR0001": {"name": "LAKE CENTRE MENNONITE CHURCH", "designationCode": "C", "categoryCode": "34", "address": "PO BOX 58", "city": "FISHER BRANCH", "province": "MB", "country": "CA", "postalCode": "R0C0Z0", "twitter": "None", "instagram": "None", "facebook": "None", "youtube": "None", "website": "None", "summary": "None", "logo": "None", "latitude": 51.08144020941467, "longitude": -97.61850910684359}, "888796661RR0001": {"name": "LAKE CHARLES PRESBYTERIAN CHURCH,", "designationCode": "C", "categoryCode": "37", "address": "533 GOULD ST                  BOX 118", "city": "WIARTON", "province": "ON", "country": "CA", "postalCode": "N0H2T0", "twitter": "None", "instagram": "None", "facebook": "None", "youtube": "None", "website": "None", "summary": "None", "logo": "None", "latitude": 44.74154585544119, "longitude": -81.14240815397329}, "119002418RR0002": {"name": "LAKE CHARLOTTE UNION CHURCH CEMETERY", "designationCode": "C", "categoryCode": "59", "address": "PO BOX 5", "city": "LAKE CHARLOTTE", "province": "NS", "country": "CA", "postalCode": "B0J1Y0", "twitter": "None", "instagram": "None", "facebook": "None", "youtube": "None", "website": "None", "summary": "None", "logo": "None", "latitude": 44.82468362129961, "longitude": -62.96093305681198}, "119288918RR0536": {"name": "LAKE CITY CONGREGATION OF JEHOVAH'S WITNESSES, VANCOUVER, B C", "designationCode": "C", "categoryCode": "61", "address": "2088 SPERLING AVE", "city": "BURNABY", "province": "BC", "country": "CA", "postalCode": "V5S4K5", "twitter": "None", "instagram": "None", "facebook": "None", "youtube": "None", "website": "None", "summary": "None", "logo": "None", "latitude": 49.26562200000001, "longitude": -122.96460137783515}, "866147986RR0001": {"name": "LAKE CLEAR CONSERVANCY", "designationCode": "C", "categoryCode": "52", "address": "2 PARSONS RIDGE RD", "city": "KANATA", "province": "ON", "country": "CA", "postalCode": "K2L2N4", "twitter": "None", "instagram": "None", "facebook": "None", "youtube": "None", "website": "None", "summary": "None", "logo": "None", "latitude": 45.299398035230084, "longitude": -75.89459240132156}, "123229684RR0001": {"name": "LAKE COUNTRY ALLIANCE CHURCH", "designationCode": "C", "categoryCode": "39", "address": "12025 OCEOLA RD", "city": "LAKE COUNTRY", "province": "BC", "country": "CA", "postalCode": "V4V1H1", "twitter": "None", "instagram": "None", "facebook": "None", "youtube": "None", "website": "None", "summary": "None", "logo": "None", "latitude": 50.05735763587043, "longitude": -119.4114835826652}, "890553043RR0001": {"name": "LAKE COUNTRY CENOTAPH ASSOCIATION", "designationCode": "C", "categoryCode": "52", "address": "P.O. BOX 41048 RPO SOUTH", "city": "LAKE COUNTRY", "province": "BC", "country": "CA", "postalCode": "V4V1Z7", "twitter": "None", "instagram": "None", "facebook": "None", "youtube": "None", "website": "None", "summary": "None", "logo": "None", "latitude": 50.05352400000005, "longitude": -119.41109449999993}, "119288918RR1453": {"name": "LAKE COUNTRY CONGREGATION OF JEHOVAH'S WITNESSES, WINFIELD, BRITISH COLUMBIA", "designationCode": "C", "categoryCode": "61", "address": "10194 BOTTOM WOOD LAKE ROAD", "city": "WINFIELD", "province": "BC", "country": "CA", "postalCode": "V4V1T8", "twitter": "None", "instagram": "None", "facebook": "None", "youtube": "None", "website": "None", "summary": "None", "logo": "None", "latitude": 50.03075328169553, "longitude": -119.40203296058539}, "119002467RR0001": {"name": "LAKE COUNTRY FOOD ASSISTANCE SOCIETY", "designationCode": "C", "categoryCode": "09", "address": "PO BOX 41013                  RPO SOUTH", "city": "WINFIELD", "province": "BC", "country": "CA", "postalCode": "V4V1Z7", "twitter": "None", "instagram": "None", "facebook": "None", "youtube": "None", "website": "None", "summary": "None", "logo": "None", "latitude": 50.02301696615178, "longitude": -119.40516971020823}, "889502183RR0001": {"name": "LAKE COUNTRY HEALTH PLANNING SOCIETY", "designationCode": "C", "categoryCode": "19", "address": "PO BOX 41146 WINFIELD SOUTH", "city": "LAKE COUNTRY", "province": "BC", "country": "CA", "postalCode": "V4V1Z7", "twitter": "None", "instagram": "None", "facebook": "None", "youtube": "None", "website": "None", "summary": "None", "logo": "None", "latitude": 50.02301696615178, "longitude": -119.40516971020823}, "119002459RR0001": {"name": "LAKE COUNTRY HERITAGE AND CULTURAL SOCIETY", "designationCode": "C", "categoryCode": "50", "address": "11255 OKANAGAN CENTRE RD. W.", "city": "LAKE COUNTRY", "province": "BC", "country": "CA", "postalCode": "V4V2J7", "twitter": "None", "instagram": "None", "facebook": "None", "youtube": "None", "website": "None", "summary": "None", "logo": "None", "latitude": 50.04645220783738, "longitude": -119.4509273764987}, "891196743RR0001": {"name": "LAKE COUNTRY NATIVE ASSOCIATION", "designationCode": "C", "categoryCode": "59", "address": "14350 OYAMA RD", "city": "OYAMA", "province": "BC", "country": "CA", "postalCode": "V4V2C7", "twitter": "None", "instagram": "None", "facebook": "None", "youtube": "None", "website": "None", "summary": "None", "logo": "None", "latitude": 50.09025218700575, "longitude": -119.37231583500443}, "828765529RR0001": {"name": "LAKE COWICHAN ANIMAL RESCUE SOCIETY", "designationCode": "C", "categoryCode": "54", "address": "PO BOX 481", "city": "LAKE COWICHAN", "province": "BC", "country": "CA", "postalCode": "V0R2G0", "twitter": "None", "instagram": "None", "facebook": "None", "youtube": "None", "website": "None", "summary": "None", "logo": "None", "latitude": 48.810804726537235, "longitude": -123.97042104319344}, "118942515RR0001": {"name": "LAKE COWICHAN CHRISTIAN FELLOWSHIP", "designationCode": "C", "categoryCode": "36", "address": "BOX 423", "city": "LAKE COWICHAN", "province": "BC", "country": "CA", "postalCode": "V0R2G0", "twitter": "None", "instagram": "None", "facebook": "None", "youtube": "None", "website": "None", "summary": "None", "logo": "None", "latitude": 48.810804726537235, "longitude": -123.97042104319344}, "119288918RR0190": {"name": "LAKE COWICHAN CONGREGATION OF JEHOVAH'S WITNESSES", "designationCode": "C", "categoryCode": "61", "address": "BOX 711", "city": "LAKE COWICHAN", "province": "BC", "country": "CA", "postalCode": "V0R2G0", "twitter": "None", "instagram": "None", "facebook": "None", "youtube": "None", "website": "None", "summary": "None", "logo": "None", "latitude": 48.810804726537235, "longitude": -123.97042104319344}, "119002491RR0001": {"name": "LAKE DORE PRESBYTERIAN CHURCH", "designationCode": "C", "categoryCode": "37", "address": "38332 HIGHWAY 41", "city": "PEMBROKE", "province": "ON", "country": "CA", "postalCode": "K8A6W4", "twitter": "None", "instagram": "None", "facebook": "None", "youtube": "None", "website": "None", "summary": "None", "logo": "None", "latitude": 45.68966410616663, "longitude": -77.10278386712038}, "107590572RR0001": {"name": "LAKE ECHO FELLOWSHIP BAPTIST CHURCH", "designationCode": "C", "categoryCode": "31", "address": "17 PETER CRT", "city": "MINESVILLE", "province": "NS", "country": "CA", "postalCode": "B2Z1K2", "twitter": "None", "instagram": "None", "facebook": "None", "youtube": "None", "website": "None", "summary": "None", "logo": "None", "latitude": 44.711887842459895, "longitude": -63.388648290495404}, "874499395RR0001": {"name": "LAKE FRANCIS COMMUNITY CENTRE INC.", "designationCode": "C", "categoryCode": "56", "address": "P.O. BOX 36", "city": "LAKE FRANCIS", "province": "MB", "country": "CA", "postalCode": "R0C1T0", "twitter": "None", "instagram": "None", "facebook": "None", "youtube": "None", "website": "None", "summary": "None", "logo": "None", "latitude": 50.30149000000006, "longitude": -97.80620999999996}, "867114753RR0001": {"name": "LAKE GEORGE CEMETERY FUND", "designationCode": "C", "categoryCode": "59", "address": "3128 LAKE GEORGE ROAD", "city": "LAKE GEORGE", "province": "NS", "country": "CA", "postalCode": "B5A5L6", "twitter": "None", "instagram": "None", "facebook": "None", "youtube": "None", "website": "None", "summary": "None", "logo": "None", "latitude": 44.052442125165975, "longitude": -66.04360539309859}, "888679065RR0001": {"name": "LAKE GEORGE PROPERTY OWNERS' SOCIETY", "designationCode": "C", "categoryCode": "59", "address": "M2-C7 LAKE GEORGE             RR#1", "city": "AYLESFORD", "province": "NS", "country": "CA", "postalCode": "B0P1C0", "twitter": "None", "instagram": "None", "facebook": "None", "youtube": "None", "website": "None", "summary": "None", "logo": "None", "latitude": 44.94010709256493, "longitude": -64.69574257947869}, "141008029RR0001": {"name": "LAKE GEORGE UNITED BAPTIST CHURCH", "designationCode": "C", "categoryCode": "31", "address": "64 CROSBY RD", "city": "LAKE GEORGE", "province": "NS", "country": "CA", "postalCode": "B5A5L8", "twitter": "None", "instagram": "None", "facebook": "None", "youtube": "None", "website": "None", "summary": "None", "logo": "None", "latitude": 44.017267695478175, "longitude": -66.06475148404033}, "872138938RR0001": {"name": "LAKE HURON CENTRE FOR COASTAL CONSERVATION", "designationCode": "C", "categoryCode": "52", "address": "76 COURTHOUSE SQ", "city": "GODERICH", "province": "ON", "country": "CA", "postalCode": "N7A1M6", "twitter": "None", "instagram": "None", "facebook": "None", "youtube": "None", "website": "None", "summary": "None", "logo": "None", "latitude": 43.742310550911455, "longitude": -81.71154622039909}, "835856964RR0001": {"name": "LAKE HURON LEARNING COLLABORATIVE INC.", "designationCode": "C", "categoryCode": "20", "address": "77719 BLUEWATER HIGHWAY       BOX 836 R.R.# 1", "city": "BAYFIELD", "province": "ON", "country": "CA", "postalCode": "N0M1G0", "twitter": "None", "instagram": "None", "facebook": "None", "youtube": "None", "website": "None", "summary": "None", "logo": "None", "latitude": 43.602489806826725, "longitude": -81.7056994796857}, "136047024RR0001": {"name": "LAKE JOSEPH COMMUNITY CHURCH", "designationCode": "C", "categoryCode": "44", "address": "P.O. BOX 500", "city": "PORT CARLING", "province": "ON", "country": "CA", "postalCode": "P0B1J0", "twitter": "None", "instagram": "None", "facebook": "None", "youtube": "None", "website": "None", "summary": "None", "logo": "None", "latitude": 45.11554000000007, "longitude": -79.57466999999997}, "119002798RR0001": {"name": "LAKE LENORE AUDITORIUM CO-OPERATIVE ASSOCIATION", "designationCode": "C", "categoryCode": "56", "address": "BOX 93", "city": "LAKE LENORE", "province": "SK", "country": "CA", "postalCode": "S0K2J0", "twitter": "None", "instagram": "None", "facebook": "None", "youtube": "None", "website": "None", "summary": "None", "logo": "None", "latitude": 52.397808000000055, "longitude": -104.98036399999994}}