{"133638569RR0001": {"name": "CENTRE DE LA PETITE ENFANCE LE BONJOUR", "designationCode": "C", "categoryCode": "01", "address": "33 RUE DE LA BAIE", "city": "GATINEAU", "province": "QC", "country": "CA", "postalCode": "J8T3H4", "twitter": "None", "instagram": "None", "facebook": "None", "youtube": "None", "website": "None", "summary": "None", "logo": "None", "latitude": 45.458090120722574, "longitude": -75.69767026475864}, "101945764RR0001": {"name": "CENTRE DE LA PETITE ENFANCE LE CAMELIA", "designationCode": "C", "categoryCode": "01", "address": "8833 BOUL. ST-MICHEL", "city": "MONTREAL", "province": "QC", "country": "CA", "postalCode": "H1Z3G3", "twitter": "None", "instagram": "None", "facebook": "None", "youtube": "None", "website": "None", "summary": "None", "logo": "None", "latitude": 45.5703002431472, "longitude": -73.62410114097766}, "895477370RR0001": {"name": "CENTRE DE LA PETITE ENFANCE LE COFFRE AUX TRESORS DE BREAKEYVILLE", "designationCode": "C", "categoryCode": "01", "address": "3552 AV BRASSARD", "city": "LEVIS", "province": "QC", "country": "CA", "postalCode": "G6Z7Y9", "twitter": "None", "instagram": "None", "facebook": "None", "youtube": "None", "website": "None", "summary": "None", "logo": "None", "latitude": 46.67758546739564, "longitude": -71.21944680708651}, "107416463RR0001": {"name": "CENTRE DE LA PETITE ENFANCE LE COLOMBIER", "designationCode": "C", "categoryCode": "20", "address": "889 AVENUE DU BON-AIR", "city": "SAINTE-FOY", "province": "QC", "country": "CA", "postalCode": "G1V2P6", "twitter": "None", "instagram": "None", "facebook": "None", "youtube": "None", "website": "None", "summary": "None", "logo": "None", "latitude": 46.78737416209813, "longitude": -71.26192280486481}, "107416471RR0001": {"name": "CENTRE DE LA PETITE ENFANCE LE FARFADET", "designationCode": "C", "categoryCode": "20", "address": "5 AV DE LA FABRIQUE", "city": "MONTMAGNY", "province": "QC", "country": "CA", "postalCode": "G5V2J2", "twitter": "None", "instagram": "None", "facebook": "None", "youtube": "None", "website": "None", "summary": "None", "logo": "None", "latitude": 46.98319870858096, "longitude": -70.55715338729887}, "101945822RR0001": {"name": "CENTRE DE LA PETITE ENFANCE LE FUNAMBULE INC.", "designationCode": "C", "categoryCode": "20", "address": "220 RUE ST-MARC", "city": "ST-JEROME", "province": "QC", "country": "CA", "postalCode": "J7Z2V8", "twitter": "None", "instagram": "None", "facebook": "None", "youtube": "None", "website": "None", "summary": "None", "logo": "None", "latitude": 45.764629294448795, "longitude": -73.99956667384181}, "130620495RR0001": {"name": "CENTRE DE LA PETITE ENFANCE LE GRAND CHAPITEAU INC.", "designationCode": "C", "categoryCode": "01", "address": "111 RUE ROBINSON NORD", "city": "GRANBY", "province": "QC", "country": "CA", "postalCode": "J2G6L3", "twitter": "None", "instagram": "None", "facebook": "None", "youtube": "None", "website": "None", "summary": "None", "logo": "None", "latitude": 45.41356423896361, "longitude": -72.74305689255033}, "107416539RR0001": {"name": "CENTRE DE LA PETITE ENFANCE LE HETRE INC.", "designationCode": "C", "categoryCode": "01", "address": "382A, RUE LAURIER", "city": "LAVAL", "province": "QC", "country": "CA", "postalCode": "H7N2P2", "twitter": "None", "instagram": "None", "facebook": "None", "youtube": "None", "website": "None", "summary": "None", "logo": "None", "latitude": 45.54829452853855, "longitude": -73.70906226426928}, "130118730RR0001": {"name": "CENTRE DE LA PETITE ENFANCE LE JARDIN D'OSEILLE", "designationCode": "C", "categoryCode": "20", "address": "10 BOULEVARD MERCIER", "city": "BEAUMONT", "province": "QC", "country": "CA", "postalCode": "G0R1C0", "twitter": "None", "instagram": "None", "facebook": "None", "youtube": "None", "website": "None", "summary": "None", "logo": "None", "latitude": 46.82955498444809, "longitude": -71.01149706774751}, "130137862RR0001": {"name": "CENTRE DE LA PETITE ENFANCE LE JARDIN DES R\u00caVES INC.", "designationCode": "C", "categoryCode": "01", "address": "1745, BOULEVARD DECARIE", "city": "SAINT LAURENT", "province": "QC", "country": "CA", "postalCode": "H4L3N5", "twitter": "None", "instagram": "None", "facebook": "None", "youtube": "None", "website": "None", "summary": "None", "logo": "None", "latitude": 45.52053288372085, "longitude": -73.69244626115194}, "809955875RR0001": {"name": "CENTRE DE LA PETITE ENFANCE LE P'TIT TERMINUS", "designationCode": "C", "categoryCode": "01", "address": "3350 BOUL. DES TRINITAIRES", "city": "MONTREAL", "province": "QC", "country": "CA", "postalCode": "H4E4J3", "twitter": "None", "instagram": "None", "facebook": "None", "youtube": "None", "website": "None", "summary": "None", "logo": "None", "latitude": 45.44664767441875, "longitude": -73.60200620206008}, "107414195RR0001": {"name": "CENTRE DE LA PETITE ENFANCE LE PETIT PAIN D'EPICE INC.", "designationCode": "C", "categoryCode": "01", "address": "2022 RUE CHAMBERLAND", "city": "LONGUEUIL", "province": "QC", "country": "CA", "postalCode": "J4J4M2", "twitter": "None", "instagram": "None", "facebook": "None", "youtube": "None", "website": "None", "summary": "None", "logo": "None", "latitude": 45.53706766720539, "longitude": -73.47472840729417}, "118935832RR0001": {"name": "CENTRE DE LA PETITE ENFANCE LE PETIT POUCET DE ST-CHARLES DE BELLECHASSE", "designationCode": "C", "categoryCode": "20", "address": "30 COMMERCIALE", "city": "ST-CHARLES-DE-BELLECHASSE", "province": "QC", "country": "CA", "postalCode": "G0R2T0", "twitter": "None", "instagram": "None", "facebook": "None", "youtube": "None", "website": "None", "summary": "None", "logo": "None", "latitude": 46.775552501240746, "longitude": -70.94316070508985}, "131273054RR0001": {"name": "CENTRE DE LA PETITE ENFANCE LE PISSENLIT", "designationCode": "C", "categoryCode": "01", "address": "554, RUE SAURIOL EST", "city": "MONTREAL", "province": "QC", "country": "CA", "postalCode": "H2C3L1", "twitter": "None", "instagram": "None", "facebook": "None", "youtube": "None", "website": "None", "summary": "None", "logo": "None", "latitude": 45.55268863835194, "longitude": -73.65867007311455}, "132003963RR0001": {"name": "CENTRE DE LA PETITE ENFANCE LE PITCHOUNET", "designationCode": "C", "categoryCode": "01", "address": "655 AV OUTREMONT", "city": "OUTREMONT", "province": "QC", "country": "CA", "postalCode": "H2V3M8", "twitter": "None", "instagram": "None", "facebook": "None", "youtube": "None", "website": "None", "summary": "None", "logo": "None", "latitude": 45.5196401959719, "longitude": -73.61037854605013}, "107417172RR0001": {"name": "CENTRE DE LA PETITE ENFANCE LE SOLEIL DE JEANNOT", "designationCode": "C", "categoryCode": "01", "address": "1000 AVE LE CORBUSIER", "city": "GRANBY", "province": "QC", "country": "CA", "postalCode": "J2G8V4", "twitter": "None", "instagram": "None", "facebook": "None", "youtube": "None", "website": "None", "summary": "None", "logo": "None", "latitude": 45.37908121510184, "longitude": -72.74635890527401}, "107622862RR0001": {"name": "CENTRE DE LA PETITE ENFANCE LE TAMANOIR", "designationCode": "C", "categoryCode": "01", "address": "89, AVENUE GATINEAU", "city": "GATINEAU", "province": "QC", "country": "CA", "postalCode": "J8T4J4", "twitter": "None", "instagram": "None", "facebook": "None", "youtube": "None", "website": "None", "summary": "None", "logo": "None", "latitude": 45.481294894829354, "longitude": -75.72197965892416}, "862275229RR0001": {"name": "CENTRE DE LA PETITE ENFANCE LE TEMPS D'UN REVE", "designationCode": "C", "categoryCode": "20", "address": "120 MGR DECELLES", "city": "ST.DAMASE", "province": "QC", "country": "CA", "postalCode": "J0H1J0", "twitter": "None", "instagram": "None", "facebook": "None", "youtube": "None", "website": "None", "summary": "None", "logo": "None", "latitude": 45.52735000167343, "longitude": -73.0048938487219}, "870438512RR0001": {"name": "CENTRE DE LA PETITE ENFANCE LE VENT DANS LES VOILES", "designationCode": "C", "categoryCode": "01", "address": "2305, CHEMIN DE LA PETITE COTE", "city": "LAVAL", "province": "QC", "country": "CA", "postalCode": "H7L5Z4", "twitter": "None", "instagram": "None", "facebook": "None", "youtube": "None", "website": "None", "summary": "None", "logo": "None", "latitude": 45.59058768053557, "longitude": -73.76955772173827}, "873379515RR0001": {"name": "CENTRE DE LA PETITE ENFANCE LES AMIS DU GLOBE", "designationCode": "C", "categoryCode": "20", "address": "815 RUE THIBAULT", "city": "SHERBROOKE", "province": "QC", "country": "CA", "postalCode": "J1H3B3", "twitter": "None", "instagram": "None", "facebook": "None", "youtube": "None", "website": "None", "summary": "None", "logo": "None", "latitude": 45.37503032226304, "longitude": -71.89775788802001}, "107594392RR0001": {"name": "CENTRE DE LA PETITE ENFANCE LES BOURGEONS-SOLEIL", "designationCode": "C", "categoryCode": "20", "address": "4000, RUE D'ARGENSON", "city": "TERREBONNE", "province": "QC", "country": "CA", "postalCode": "J6X4T1", "twitter": "None", "instagram": "None", "facebook": "None", "youtube": "None", "website": "None", "summary": "None", "logo": "None", "latitude": 45.71360758280944, "longitude": -73.67180602138028}, "871132148RR0001": {"name": "CENTRE DE LA PETITE ENFANCE LES CALINS D'AMOUR", "designationCode": "C", "categoryCode": "01", "address": "54 RUE DU MANOIR EST", "city": "CAP-SAINT-IGNACE", "province": "QC", "country": "CA", "postalCode": "G0R1H0", "twitter": "None", "instagram": "None", "facebook": "None", "youtube": "None", "website": "None", "summary": "None", "logo": "None", "latitude": 47.03712539130958, "longitude": -70.45771342264452}, "869972844RR0001": {"name": "CENTRE DE LA PETITE ENFANCE LES COLIBRIS", "designationCode": "C", "categoryCode": "01", "address": "13790 RUE PLOUFFE", "city": "ST CANUT MIRABEL", "province": "QC", "country": "CA", "postalCode": "J7N1N9", "twitter": "None", "instagram": "None", "facebook": "None", "youtube": "None", "website": "None", "summary": "None", "logo": "None", "latitude": 45.70561928057033, "longitude": -74.09199912623382}, "854618931RR0001": {"name": "CENTRE DE LA PETITE ENFANCE LES CONTES DE FEE INC.", "designationCode": "C", "categoryCode": "01", "address": "70 DES PINSONS", "city": "ST-BASILE LEGRAND", "province": "QC", "country": "CA", "postalCode": "J3N1L1", "twitter": "None", "instagram": "None", "facebook": "None", "youtube": "None", "website": "None", "summary": "None", "logo": "None", "latitude": 45.51363914764278, "longitude": -73.2883545278725}, "118935873RR0001": {"name": "CENTRE DE LA PETITE ENFANCE LES COQUELICOTS INC.", "designationCode": "C", "categoryCode": "01", "address": "1755 ST-PIERRE OUEST", "city": "SAINT-HYACINTHE", "province": "QC", "country": "CA", "postalCode": "J2T1P4", "twitter": "None", "instagram": "None", "facebook": "None", "youtube": "None", "website": "None", "summary": "None", "logo": "None", "latitude": 45.620200642848744, "longitude": -72.94240960815438}, "107589434RR0001": {"name": "CENTRE DE LA PETITE ENFANCE LES ENFANTS DE L'AVENIR INC.", "designationCode": "C", "categoryCode": "01", "address": "1945 RUE MULLINS              SUITE 180", "city": "MONTREAL", "province": "QC", "country": "CA", "postalCode": "H3K1N9", "twitter": "None", "instagram": "None", "facebook": "None", "youtube": "None", "website": "None", "summary": "None", "logo": "None", "latitude": 45.48090306523738, "longitude": -73.56151176897089}, "898990148RR0001": {"name": "CENTRE DE LA PETITE ENFANCE LES GNOMES INC", "designationCode": "C", "categoryCode": "01", "address": "262 BOUL. ALBERT-EINSTEIN", "city": "CHATEAUGUAY", "province": "QC", "country": "CA", "postalCode": "J6K0A2", "twitter": "None", "instagram": "None", "facebook": "None", "youtube": "None", "website": "None", "summary": "None", "logo": "None", "latitude": 45.36304634831786, "longitude": -73.70804684537501}, "106980246RR0001": {"name": "CENTRE DE LA PETITE ENFANCE LES GRENOUILLES", "designationCode": "C", "categoryCode": "01", "address": "5006 RUE CLEMENT-LOCKQUELL", "city": "SAINT-AUGUSTIN-DE-DESMAURES", "province": "QC", "country": "CA", "postalCode": "G3A1V5", "twitter": "None", "instagram": "None", "facebook": "None", "youtube": "None", "website": "None", "summary": "None", "logo": "None", "latitude": 46.73763412657961, "longitude": -71.3967646572507}, "892238114RR0001": {"name": "CENTRE DE LA PETITE ENFANCE LES JOYEUX APPRENTIS", "designationCode": "C", "categoryCode": "20", "address": "1924 BOUL. EDOUARD", "city": "ST-HUBERT", "province": "QC", "country": "CA", "postalCode": "J4T1Z4", "twitter": "None", "instagram": "None", "facebook": "None", "youtube": "None", "website": "None", "summary": "None", "logo": "None", "latitude": 45.498358562294534, "longitude": -73.4776487145249}, "107589467RR0001": {"name": "CENTRE DE LA PETITE ENFANCE LES LUCIOLES", "designationCode": "C", "categoryCode": "20", "address": "1130 CH ROYAL", "city": "SAINT-PIERRE-ILE-D'ORLEANS", "province": "QC", "country": "CA", "postalCode": "G0A4E0", "twitter": "None", "instagram": "None", "facebook": "None", "youtube": "None", "website": "None", "summary": "None", "logo": "None", "latitude": 46.88607725865799, "longitude": -71.07781201013566}, "883216368RR0001": {"name": "CENTRE DE LA PETITE ENFANCE LES MAISONS ENJOU\u00c9ES", "designationCode": "C", "categoryCode": "20", "address": "3405 RUE ST-DONAT", "city": "MONTREAL", "province": "QC", "country": "CA", "postalCode": "H1K3N5", "twitter": "None", "instagram": "None", "facebook": "None", "youtube": "None", "website": "None", "summary": "None", "logo": "None", "latitude": 45.60110994644807, "longitude": -73.5327022009349}, "107589541RR0001": {"name": "CENTRE DE LA PETITE ENFANCE LES MOUSSES INC.", "designationCode": "C", "categoryCode": "20", "address": "170 RUE ROCH-E.-OLIVIER", "city": "LEVIS", "province": "QC", "country": "CA", "postalCode": "G6K1G3", "twitter": "None", "instagram": "None", "facebook": "None", "youtube": "None", "website": "None", "summary": "None", "logo": "None", "latitude": 46.694735280281876, "longitude": -71.28767502922881}, "101946374RR0001": {"name": "CENTRE DE LA PETITE ENFANCE LES P'TITS MONTOIS", "designationCode": "C", "categoryCode": "20", "address": "69 DE LA GARE", "city": "MONT-JOLI", "province": "QC", "country": "CA", "postalCode": "G5H1N9", "twitter": "None", "instagram": "None", "facebook": "None", "youtube": "None", "website": "None", "summary": "None", "logo": "None", "latitude": 48.58904790365883, "longitude": -68.1886049003406}, "129933024RR0001": {"name": "CENTRE DE LA PETITE ENFANCE LES P'TITS PROFS INC", "designationCode": "C", "categoryCode": "01", "address": "3500 BELMORE AVE", "city": "MONTREAL", "province": "QC", "country": "CA", "postalCode": "H4B2B9", "twitter": "None", "instagram": "None", "facebook": "None", "youtube": "None", "website": "None", "summary": "None", "logo": "None", "latitude": 45.459935414363294, "longitude": -73.6392311132494}, "889790838RR0001": {"name": "CENTRE DE LA PETITE ENFANCE LES P'TITS SOLEILS DE STE-DOROTHEE", "designationCode": "C", "categoryCode": "01", "address": "1270, BOULEVARD JOLIBOURG", "city": "LAVAL", "province": "QC", "country": "CA", "postalCode": "H7Y1Z6", "twitter": "None", "instagram": "None", "facebook": "None", "youtube": "None", "website": "None", "summary": "None", "logo": "None", "latitude": 45.52443123729017, "longitude": -73.85355203055555}, "863547766RR0001": {"name": "CENTRE DE LA PETITE ENFANCE LES P'TITS TRESORS DE VAL-BELAIR", "designationCode": "C", "categoryCode": "01", "address": "5270 RTE SAINTE-GENEVIEVE", "city": "QUEBEC", "province": "QC", "country": "CA", "postalCode": "G3K1A3", "twitter": "None", "instagram": "None", "facebook": "None", "youtube": "None", "website": "None", "summary": "None", "logo": "None", "latitude": 46.83870496422167, "longitude": -71.39636741427638}, "132222803RR0001": {"name": "CENTRE DE LA PETITE ENFANCE LES PETITES GIROUETTES", "designationCode": "C", "categoryCode": "01", "address": "737 RUE DE LA SOEUR-MARIE-ROSE", "city": "TERREBONNE", "province": "QC", "country": "CA", "postalCode": "J6V1P1", "twitter": "None", "instagram": "None", "facebook": "None", "youtube": "None", "website": "None", "summary": "None", "logo": "None", "latitude": 45.72241346436588, "longitude": -73.51290947155059}, "107588964RR0001": {"name": "CENTRE DE LA PETITE ENFANCE LES PETITES PUCES INC.", "designationCode": "C", "categoryCode": "01", "address": "280 RUE FRONTENAC", "city": "SHERBROOKE", "province": "QC", "country": "CA", "postalCode": "J1H1K2", "twitter": "None", "instagram": "None", "facebook": "None", "youtube": "None", "website": "None", "summary": "None", "logo": "None", "latitude": 45.402648580616386, "longitude": -71.89630759074393}, "868808353RR0001": {"name": "CENTRE DE LA PETITE ENFANCE LES PETITS ANGES", "designationCode": "C", "categoryCode": "01", "address": "204C LAKEVIEW", "city": "POINTE-CLAIRE", "province": "QC", "country": "CA", "postalCode": "H9S4C5", "twitter": "None", "instagram": "None", "facebook": "None", "youtube": "None", "website": "None", "summary": "None", "logo": "None", "latitude": 45.437246765826565, "longitude": -73.81499049664347}, "107414708RR0001": {"name": "CENTRE DE LA PETITE ENFANCE LES PETITS FRIPONS", "designationCode": "C", "categoryCode": "20", "address": "42 RUE DES SERVANTES", "city": "GATINEAU", "province": "QC", "country": "CA", "postalCode": "J8M1B9", "twitter": "None", "instagram": "None", "facebook": "None", "youtube": "None", "website": "None", "summary": "None", "logo": "None", "latitude": 45.54575167110052, "longitude": -75.41756800943506}, "129195467RR0001": {"name": "CENTRE DE LA PETITE ENFANCE LES PETITS LUTINS DE COTE ST-PAUL INC.", "designationCode": "C", "categoryCode": "01", "address": "6050 RUE HAMILTON", "city": "MONTREAL", "province": "QC", "country": "CA", "postalCode": "H4E3C3", "twitter": "None", "instagram": "None", "facebook": "None", "youtube": "None", "website": "None", "summary": "None", "logo": "None", "latitude": 45.45784670053089, "longitude": -73.5979677034164}, "129975454RR0001": {"name": "CENTRE DE LA PETITE ENFANCE LES PETITS LUTINS DE DRUMMONDVILLE INC", "designationCode": "C", "categoryCode": "01", "address": "234 RUE MOISAN", "city": "DRUMMONDVILLE", "province": "QC", "country": "CA", "postalCode": "J2C1W8", "twitter": "None", "instagram": "None", "facebook": "None", "youtube": "None", "website": "None", "summary": "None", "logo": "None", "latitude": 45.88226576576825, "longitude": -72.4905982786371}, "107417271RR0001": {"name": "CENTRE DE LA PETITE ENFANCE LES PETITS MULOTS", "designationCode": "C", "categoryCode": "20", "address": "1-7843 DES SANTOLINES", "city": "QUEBEC", "province": "QC", "country": "CA", "postalCode": "G1G0G3", "twitter": "None", "instagram": "None", "facebook": "None", "youtube": "None", "website": "None", "summary": "None", "logo": "None", "latitude": 46.89260712851283, "longitude": -71.29616830045006}, "888783412RR0001": {"name": "CENTRE DE LA PETITE ENFANCE LES PETITS PIERROTS", "designationCode": "C", "categoryCode": "01", "address": "33, RUE DU MOULIN", "city": "LACHINE", "province": "QC", "country": "CA", "postalCode": "H8R1N4", "twitter": "None", "instagram": "None", "facebook": "None", "youtube": "None", "website": "None", "summary": "None", "logo": "None", "latitude": 45.445856539038324, "longitude": -73.6529712512842}, "107589012RR0001": {"name": "CENTRE DE LA PETITE ENFANCE LES PETITS SOLEILS MAGIQUES", "designationCode": "C", "categoryCode": "01", "address": "147, RUE LAVOIE", "city": "ST-ANACLET", "province": "QC", "country": "CA", "postalCode": "G0K1H0", "twitter": "None", "instagram": "None", "facebook": "None", "youtube": "None", "website": "None", "summary": "None", "logo": "None", "latitude": 48.47372269856897, "longitude": -68.42716100608818}, "130668239RR0001": {"name": "CENTRE DE LA PETITE ENFANCE LES PETITS SOULIERS", "designationCode": "C", "categoryCode": "20", "address": "355 RUE VERREAULT", "city": "ST-JEAN PORT-JOLI", "province": "QC", "country": "CA", "postalCode": "G0R3G0", "twitter": "None", "instagram": "None", "facebook": "None", "youtube": "None", "website": "None", "summary": "None", "logo": "None", "latitude": 47.21181889814757, "longitude": -70.2620258531653}, "101946572RR0001": {"name": "CENTRE DE LA PETITE ENFANCE LES PETITS TRAVAILLEURS", "designationCode": "C", "categoryCode": "20", "address": "4935 RUE ARDENNES", "city": "MONTREAL-NORD", "province": "QC", "country": "CA", "postalCode": "H1G2H3", "twitter": "None", "instagram": "None", "facebook": "None", "youtube": "None", "website": "None", "summary": "None", "logo": "None", "latitude": 45.603150159328194, "longitude": -73.63454621983368}, "124781758RR0001": {"name": "CENTRE DE LA PETITE ENFANCE LES POUSSINEAUX", "designationCode": "C", "categoryCode": "01", "address": "101, RUE PIERRE-BRAULT", "city": "ST-JEAN-SUR-RICHELIEU", "province": "QC", "country": "CA", "postalCode": "J2Y1A4", "twitter": "None", "instagram": "None", "facebook": "None", "youtube": "None", "website": "None", "summary": "None", "logo": "None", "latitude": 45.31587613211952, "longitude": -73.33816793695567}, "101946200RR0001": {"name": "CENTRE DE LA PETITE ENFANCE LES STROUMPS", "designationCode": "C", "categoryCode": "01", "address": "165, RUE CURE-LAROCQUE", "city": "SHERBROOKE", "province": "QC", "country": "CA", "postalCode": "J1C0T2", "twitter": "None", "instagram": "None", "facebook": "None", "youtube": "None", "website": "None", "summary": "None", "logo": "None", "latitude": 45.473549489324206, "longitude": -71.94917291909516}, "107419111RR0001": {"name": "CENTRE DE LA PETITE ENFANCE LES TOUCHE-A-TOUT", "designationCode": "C", "categoryCode": "01", "address": "18 PLACE ROBERT LUSSIER", "city": "REPENTIGNY", "province": "QC", "country": "CA", "postalCode": "J6A4C7", "twitter": "None", "instagram": "None", "facebook": "None", "youtube": "None", "website": "None", "summary": "None", "logo": "None", "latitude": 45.73251364749852, "longitude": -73.4560249071786}, "118935915RR0001": {"name": "CENTRE DE LA PETITE ENFANCE LES TOURTERELLES INC.", "designationCode": "C", "categoryCode": "01", "address": "126 RUE SAINT-JEAN-BAPTISTE", "city": "RIGAUD", "province": "QC", "country": "CA", "postalCode": "J0P1P0", "twitter": "None", "instagram": "None", "facebook": "None", "youtube": "None", "website": "None", "summary": "None", "logo": "None", "latitude": 45.2985974926796, "longitude": -74.30807621637126}, "118935923RR0001": {"name": "CENTRE DE LA PETITE ENFANCE LES VERS A CHOUX", "designationCode": "C", "categoryCode": "01", "address": "404 RUE CHASLES", "city": "MONT-LAURIER", "province": "QC", "country": "CA", "postalCode": "J9L2T9", "twitter": "None", "instagram": "None", "facebook": "None", "youtube": "None", "website": "None", "summary": "None", "logo": "None", "latitude": 46.55122543548378, "longitude": -75.49654512415634}, "896083235RR0001": {"name": "CENTRE DE LA PETITE ENFANCE LES 3 POMMES DE COMPTON INC.", "designationCode": "C", "categoryCode": "01", "address": "161, RUE ANGUS S, PORTE 3", "city": "EAST ANGUS", "province": "QC", "country": "CA", "postalCode": "J0B1R0", "twitter": "None", "instagram": "None", "facebook": "None", "youtube": "None", "website": "None", "summary": "None", "logo": "None", "latitude": 45.474163041346934, "longitude": -71.66707613500505}, "867695744RR0001": {"name": "CENTRE DE LA PETITE ENFANCE LUMINOU", "designationCode": "C", "categoryCode": "01", "address": "16115 BLVD GOUIN OUEST", "city": "STE-GENEVIEVE", "province": "QC", "country": "CA", "postalCode": "H9H1C7", "twitter": "None", "instagram": "None", "facebook": "None", "youtube": "None", "website": "None", "summary": "None", "logo": "None", "latitude": 45.479486533469746, "longitude": -73.8727034940847}, "893672113RR0001": {"name": "CENTRE DE LA PETITE ENFANCE MA BELLE GRENOUILLE", "designationCode": "C", "categoryCode": "01", "address": "102 - 1680 AV LAPIERRE", "city": "QUEBEC", "province": "QC", "country": "CA", "postalCode": "G3E0G1", "twitter": "None", "instagram": "None", "facebook": "None", "youtube": "None", "website": "None", "summary": "None", "logo": "None", "latitude": 46.87053930806746, "longitude": -71.33746236860163}, "867892770RR0001": {"name": "CENTRE DE LA PETITE ENFANCE MAISON DANS L'ARBRE/THE TREEHOUSE CHILDCARE CENTRE", "designationCode": "C", "categoryCode": "01", "address": "416 MAIN ROAD", "city": "HUDSON", "province": "QC", "country": "CA", "postalCode": "J0P1H0", "twitter": "None", "instagram": "None", "facebook": "None", "youtube": "None", "website": "None", "summary": "None", "logo": "None", "latitude": 45.45766933628883, "longitude": -74.13924310641225}, "131976854RR0001": {"name": "CENTRE DE LA PETITE ENFANCE MARIE QUAT'POCHES INC.", "designationCode": "C", "categoryCode": "01", "address": "115 BLAINVILLE EST", "city": "STE-THERESE", "province": "QC", "country": "CA", "postalCode": "J7E1M1", "twitter": "None", "instagram": "None", "facebook": "None", "youtube": "None", "website": "None", "summary": "None", "logo": "None", "latitude": 45.63911060113128, "longitude": -73.83419989050151}, "101946309RR0001": {"name": "CENTRE DE LA PETITE ENFANCE MATIN SOLEIL INC.", "designationCode": "C", "categoryCode": "20", "address": "45 RUE DE LA FABRIQUE", "city": "VARENNES", "province": "QC", "country": "CA", "postalCode": "J3X1R1", "twitter": "None", "instagram": "None", "facebook": "None", "youtube": "None", "website": "None", "summary": "None", "logo": "None", "latitude": 45.68350534664444, "longitude": -73.44046924352259}, "874897309RR0001": {"name": "CENTRE DE LA PETITE ENFANCE MIEL ET MELON", "designationCode": "C", "categoryCode": "01", "address": "2109, RUE BORDUAS", "city": "STE-JULIE", "province": "QC", "country": "CA", "postalCode": "J3E2L5", "twitter": "None", "instagram": "None", "facebook": "None", "youtube": "None", "website": "None", "summary": "None", "logo": "None", "latitude": 45.58225000167344, "longitude": -73.34842279043808}, "101946333RR0001": {"name": "CENTRE DE LA PETITE ENFANCE MINI-FEE INC.", "designationCode": "C", "categoryCode": "20", "address": "12359 MONTY", "city": "MONTREAL-NORD", "province": "QC", "country": "CA", "postalCode": "H1G3N9", "twitter": "None", "instagram": "None", "facebook": "None", "youtube": "None", "website": "None", "summary": "None", "logo": "None", "latitude": 45.62102259761462, "longitude": -73.6205580544165}, "869644989RR0001": {"name": "CENTRE DE LA PETITE ENFANCE MINIPUCES", "designationCode": "C", "categoryCode": "01", "address": "50, COTE ST-NICHOLAS", "city": "SAINT-COLOMBAN", "province": "QC", "country": "CA", "postalCode": "J5K1M2", "twitter": "None", "instagram": "None", "facebook": "None", "youtube": "None", "website": "None", "summary": "None", "logo": "None", "latitude": 45.760742232615634, "longitude": -74.0457859323098}, "101946341RR0001": {"name": "CENTRE DE LA PETITE ENFANCE MISTIGRI INC.", "designationCode": "C", "categoryCode": "20", "address": "990 AVENUE ROLAND-BEAUDIN", "city": "SAINTE-FOY", "province": "QC", "country": "CA", "postalCode": "G1V4H8", "twitter": "None", "instagram": "None", "facebook": "None", "youtube": "None", "website": "None", "summary": "None", "logo": "None", "latitude": 46.771867406573016, "longitude": -71.29811001384981}, "107417909RR0001": {"name": "CENTRE DE LA PETITE ENFANCE MONSIEUR GROSSE BEDAINE", "designationCode": "C", "categoryCode": "20", "address": "3196 RUE RH\u00c9AUME", "city": "QU\u00c9BEC", "province": "QC", "country": "CA", "postalCode": "G1C4T8", "twitter": "None", "instagram": "None", "facebook": "None", "youtube": "None", "website": "None", "summary": "None", "logo": "None", "latitude": 46.85823774435931, "longitude": -71.2207367048014}, "118935972RR0001": {"name": "CENTRE DE LA PETITE ENFANCE MONT-ROYAL", "designationCode": "C", "categoryCode": "20", "address": "1491 BOUL LAIRD", "city": "VILLE MONT-ROYAL", "province": "QC", "country": "CA", "postalCode": "H3P2T6", "twitter": "None", "instagram": "None", "facebook": "None", "youtube": "None", "website": "None", "summary": "None", "logo": "None", "latitude": 45.518857135437756, "longitude": -73.64483334015222}, "107417925RR0001": {"name": "CENTRE DE LA PETITE ENFANCE NARNIA INC.", "designationCode": "C", "categoryCode": "01", "address": "20 ACADEMY RD", "city": "WESTMOUNT", "province": "QC", "country": "CA", "postalCode": "H3Z1N5", "twitter": "None", "instagram": "None", "facebook": "None", "youtube": "None", "website": "None", "summary": "None", "logo": "None", "latitude": 45.480972635214336, "longitude": -73.59501593677071}, "107417941RR0001": {"name": "CENTRE DE LA PETITE ENFANCE NEZ-\u00c0-NEZ", "designationCode": "C", "categoryCode": "01", "address": "567 RUE DESJARDINS N", "city": "GRANBY", "province": "QC", "country": "CA", "postalCode": "J2H1Z5", "twitter": "None", "instagram": "None", "facebook": "None", "youtube": "None", "website": "None", "summary": "None", "logo": "None", "latitude": 45.4232729176733, "longitude": -72.7375398347742}, "107418030RR0001": {"name": "CENTRE DE LA PETITE ENFANCE PALOU LA COCCINELLE", "designationCode": "C", "categoryCode": "01", "address": "15990 RUE NOTRE-DAME EST", "city": "POINTE-AUX-TREMBLES", "province": "QC", "country": "CA", "postalCode": "H1A1X6", "twitter": "None", "instagram": "None", "facebook": "None", "youtube": "None", "website": "None", "summary": "None", "logo": "None", "latitude": 45.69508812655096, "longitude": -73.48749009989054}, "119002038RR0001": {"name": "CENTRE DE LA PETITE ENFANCE PAMPLEMOUSSE", "designationCode": "C", "categoryCode": "01", "address": "2040 RUE DU CARDINAL-PERSICO", "city": "SILLERY", "province": "QC", "country": "CA", "postalCode": "G1T1V4", "twitter": "None", "instagram": "None", "facebook": "None", "youtube": "None", "website": "None", "summary": "None", "logo": "None", "latitude": 46.77421921039864, "longitude": -71.24545271262033}, "107418071RR0001": {"name": "CENTRE DE LA PETITE ENFANCE PANDA", "designationCode": "C", "categoryCode": "20", "address": "2600 COLLEGE                  UNIVERSITE BISHOP'S", "city": "SHERBROOKE", "province": "QC", "country": "CA", "postalCode": "J1M1Z7", "twitter": "None", "instagram": "None", "facebook": "None", "youtube": "None", "website": "None", "summary": "None", "logo": "None", "latitude": 45.36623000000003, "longitude": -71.84309999999994}, "107418097RR0001": {"name": "CENTRE DE LA PETITE ENFANCE PARC-EN-CIEL", "designationCode": "C", "categoryCode": "20", "address": "566 RUE CHRISTOPHE-COLOMB", "city": "THETFORD MINES", "province": "QC", "country": "CA", "postalCode": "G6H2N6", "twitter": "None", "instagram": "None", "facebook": "None", "youtube": "None", "website": "None", "summary": "None", "logo": "None", "latitude": 46.050731771279516, "longitude": -71.36053351223367}, "101946440RR0001": {"name": "CENTRE DE LA PETITE ENFANCE PATAPOUF INC.", "designationCode": "C", "categoryCode": "20", "address": "560 VINET", "city": "MONTREAL", "province": "QC", "country": "CA", "postalCode": "H3J2L5", "twitter": "None", "instagram": "None", "facebook": "None", "youtube": "None", "website": "None", "summary": "None", "logo": "None", "latitude": 45.48439082347515, "longitude": -73.57575277214488}, "118936038RR0001": {"name": "CENTRE DE LA PETITE ENFANCE PETIT TAMBOUR", "designationCode": "C", "categoryCode": "20", "address": "2272 RUE ALPHONSE-OUELLET", "city": "LEVIS", "province": "QC", "country": "CA", "postalCode": "G6W2W3", "twitter": "None", "instagram": "None", "facebook": "None", "youtube": "None", "website": "None", "summary": "None", "logo": "None", "latitude": 46.75209459365812, "longitude": -71.22825404091424}, "101944916RR0001": {"name": "CENTRE DE LA PETITE ENFANCE PIERRE-BOUCHER", "designationCode": "C", "categoryCode": "20", "address": "1450 BOULEVARD CURE-POIRIER E", "city": "LONGUEUIL", "province": "QC", "country": "CA", "postalCode": "J4J5L6", "twitter": "None", "instagram": "None", "facebook": "None", "youtube": "None", "website": "None", "summary": "None", "logo": "None", "latitude": 45.544648550060835, "longitude": -73.46383914057363}, "107418253RR0001": {"name": "CENTRE DE LA PETITE ENFANCE PIERROT ET COLOMBINE INC.", "designationCode": "C", "categoryCode": "20", "address": "9343 BOUL DU CENTRE-HOSPITALIE", "city": "CHARNY", "province": "QC", "country": "CA", "postalCode": "G6X1L7", "twitter": "None", "instagram": "None", "facebook": "None", "youtube": "None", "website": "None", "summary": "None", "logo": "None", "latitude": 46.72478584927018, "longitude": -71.2567236330718}, "102935962RR0001": {"name": "CENTRE DE LA PETITE ENFANCE PIERROT LA LUNE INC.", "designationCode": "C", "categoryCode": "01", "address": "1080 BOUL STE-FOY", "city": "LONGUEUIL", "province": "QC", "country": "CA", "postalCode": "J4K1W6", "twitter": "None", "instagram": "None", "facebook": "None", "youtube": "None", "website": "None", "summary": "None", "logo": "None", "latitude": 45.51851816319468, "longitude": -73.49734605839937}, "132450115RR0001": {"name": "CENTRE DE LA PETITE ENFANCE PIGNONS SUR RUE", "designationCode": "C", "categoryCode": "20", "address": "5 RUE JEAN-TALON", "city": "CLERMONT", "province": "QC", "country": "CA", "postalCode": "G4A1A4", "twitter": "None", "instagram": "None", "facebook": "None", "youtube": "None", "website": "None", "summary": "None", "logo": "None", "latitude": 47.69328607519205, "longitude": -70.221222661377}, "107418345RR0001": {"name": "CENTRE DE LA PETITE ENFANCE POIDS-PLUME", "designationCode": "C", "categoryCode": "20", "address": "2987 CH ST-LOUIS", "city": "STE-FOY", "province": "QC", "country": "CA", "postalCode": "G1W5A5", "twitter": "None", "instagram": "None", "facebook": "None", "youtube": "None", "website": "None", "summary": "None", "logo": "None", "latitude": 46.75918822673149, "longitude": -71.287092252363}, "101946531RR0001": {"name": "CENTRE DE LA PETITE ENFANCE POMME CANNELLE", "designationCode": "C", "categoryCode": "20", "address": "2003 DESILETS", "city": "QUEBEC", "province": "QC", "country": "CA", "postalCode": "G1J1B1", "twitter": "None", "instagram": "None", "facebook": "None", "youtube": "None", "website": "None", "summary": "None", "logo": "None", "latitude": 46.848541432136905, "longitude": -71.23244264697892}, "891892259RR0001": {"name": "CENTRE DE LA PETITE ENFANCE POUCE-POUSSE INC.", "designationCode": "C", "categoryCode": "01", "address": "135 CUR\u00c9 MIVILLE", "city": "NEW-RICHMOND", "province": "QC", "country": "CA", "postalCode": "G0C2B0", "twitter": "None", "instagram": "None", "facebook": "None", "youtube": "None", "website": "None", "summary": "None", "logo": "None", "latitude": 48.165132245657375, "longitude": -65.85827855135891}, "104072038RR0001": {"name": "CENTRE DE LA PETITE ENFANCE QUEBEC-CENTRE INC.", "designationCode": "C", "categoryCode": "01", "address": "2000 1ERE AVENUE", "city": "QUEBEC", "province": "QC", "country": "CA", "postalCode": "G1L3M5", "twitter": "None", "instagram": "None", "facebook": "None", "youtube": "None", "website": "None", "summary": "None", "logo": "None", "latitude": 46.83141249293087, "longitude": -71.2390688398351}, "133535948RR0001": {"name": "CENTRE DE LA PETITE ENFANCE ROSAMIE", "designationCode": "C", "categoryCode": "01", "address": "6500 BOULEVARD ARTHUR SAUV\u00c9", "city": "LAVAL", "province": "QC", "country": "CA", "postalCode": "H7R3X7", "twitter": "None", "instagram": "None", "facebook": "None", "youtube": "None", "website": "None", "summary": "None", "logo": "None", "latitude": 45.547311657770315, "longitude": -73.86429384987574}, "129942314RR0001": {"name": "CENTRE DE LA PETITE ENFANCE ROSEMONDE", "designationCode": "C", "categoryCode": "20", "address": "3455 RUE BELLECHASSE", "city": "MONTREAL", "province": "QC", "country": "CA", "postalCode": "H1X3M9", "twitter": "None", "instagram": "None", "facebook": "None", "youtube": "None", "website": "None", "summary": "None", "logo": "None", "latitude": 45.55592362920533, "longitude": -73.58083517320664}, "868038035RR0001": {"name": "CENTRE DE LA PETITE ENFANCE ROULE TA POMME INC.", "designationCode": "C", "categoryCode": "01", "address": "911 DE LA POMMERAIE", "city": "MONT ST-HILAIRE", "province": "QC", "country": "CA", "postalCode": "J3H5E5", "twitter": "None", "instagram": "None", "facebook": "None", "youtube": "None", "website": "None", "summary": "None", "logo": "None", "latitude": 45.5345274402443, "longitude": -73.18046244385191}, "884023615RR0001": {"name": "CENTRE DE LA PETITE ENFANCE SAINT-PHILIPPE", "designationCode": "C", "categoryCode": "01", "address": "49 DES ERABLES", "city": "SAINT-PHILIPPE", "province": "QC", "country": "CA", "postalCode": "J0L1G0", "twitter": "None", "instagram": "None", "facebook": "None", "youtube": "None", "website": "None", "summary": "None", "logo": "None", "latitude": 45.35859305715864, "longitude": -73.47709417808274}, "119002061RR0001": {"name": "CENTRE DE LA PETITE ENFANCE SAUTE-CRAPAUD", "designationCode": "C", "categoryCode": "20", "address": "420 CRAIG NORD", "city": "COOKSHIRE", "province": "QC", "country": "CA", "postalCode": "J0B1M0", "twitter": "None", "instagram": "None", "facebook": "None", "youtube": "None", "website": "None", "summary": "None", "logo": "None", "latitude": 45.41734311246999, "longitude": -71.63080790512979}, "107418790RR0001": {"name": "CENTRE DE LA PETITE ENFANCE SEL ET POIVRE", "designationCode": "C", "categoryCode": "21", "address": "77 RUE ALLEN", "city": "WINDSOR", "province": "QC", "country": "CA", "postalCode": "J1S2P8", "twitter": "None", "instagram": "None", "facebook": "None", "youtube": "None", "website": "None", "summary": "None", "logo": "None", "latitude": 45.575662607305446, "longitude": -72.00510141387235}, "865757041RR0001": {"name": "CENTRE DE LA PETITE ENFANCE SOULANGES", "designationCode": "C", "categoryCode": "01", "address": "180 ROUTE 338", "city": "LES COTEAUX", "province": "QC", "country": "CA", "postalCode": "J7X1A2", "twitter": "None", "instagram": "None", "facebook": "None", "youtube": "None", "website": "None", "summary": "None", "logo": "None", "latitude": 45.25876203761248, "longitude": -74.20954620593743}, "107413593RR0001": {"name": "CENTRE DE LA PETITE ENFANCE ST-LOUIS", "designationCode": "C", "categoryCode": "20", "address": "2230 RUE GILFORD", "city": "MONTREAL", "province": "QC", "country": "CA", "postalCode": "H2H1H6", "twitter": "None", "instagram": "None", "facebook": "None", "youtube": "None", "website": "None", "summary": "None", "logo": "None", "latitude": 45.538295784061454, "longitude": -73.574348941976}, "101946747RR0001": {"name": "CENTRE DE LA PETITE ENFANCE SUCRE D'ORGE", "designationCode": "C", "categoryCode": "01", "address": "53 RUE DES TREMBLES           C.P. 1725", "city": "LEBEL-SUR-QUEVILLON", "province": "QC", "country": "CA", "postalCode": "J0Y1X0", "twitter": "None", "instagram": "None", "facebook": "None", "youtube": "None", "website": "None", "summary": "None", "logo": "None", "latitude": 49.052045460470744, "longitude": -76.98300205689883}, "101946770RR0001": {"name": "CENTRE DE LA PETITE ENFANCE TERRE DES ENFANTS INC.", "designationCode": "C", "categoryCode": "01", "address": "2-1090 AVE GREENE", "city": "WESTMOUNT", "province": "QC", "country": "CA", "postalCode": "H3Z1Z9", "twitter": "None", "instagram": "None", "facebook": "None", "youtube": "None", "website": "None", "summary": "None", "logo": "None", "latitude": 45.48484427087549, "longitude": -73.58527793617627}, "131908402RR0001": {"name": "CENTRE DE LA PETITE ENFANCE TOUCHATOUILLE INC.", "designationCode": "C", "categoryCode": "01", "address": "31 BOUL AUDUBON", "city": "PORT-CARTIER", "province": "QC", "country": "CA", "postalCode": "G5B1M2", "twitter": "None", "instagram": "None", "facebook": "None", "youtube": "None", "website": "None", "summary": "None", "logo": "None", "latitude": 50.025696045790326, "longitude": -66.85694247189636}, "863178885RR0001": {"name": "CENTRE DE LA PETITE ENFANCE TOUT DOUX", "designationCode": "C", "categoryCode": "01", "address": "3605 AVENUE COUSIN", "city": "BROSSARD", "province": "QC", "country": "CA", "postalCode": "J4Z3T7", "twitter": "None", "instagram": "None", "facebook": "None", "youtube": "None", "website": "None", "summary": "None", "logo": "None", "latitude": 45.45655133109252, "longitude": -73.44127840608208}, "140938846RR0001": {"name": "CENTRE DE LA PETITE ENFANCE TROIS PETITS POINTS...", "designationCode": "C", "categoryCode": "01", "address": "1105 RUE DE NEUVILLE", "city": "GATINEAU", "province": "QC", "country": "CA", "postalCode": "J8M2C6", "twitter": "None", "instagram": "None", "facebook": "None", "youtube": "None", "website": "None", "summary": "None", "logo": "None", "latitude": 45.5357444427258, "longitude": -75.48310399723003}, "107419145RR0001": {"name": "CENTRE DE LA PETITE ENFANCE TROTTE-MENU INC.", "designationCode": "C", "categoryCode": "20", "address": "1201 BOUL JULIEN", "city": "SAINT-FELICIEN", "province": "QC", "country": "CA", "postalCode": "G8K2B5", "twitter": "None", "instagram": "None", "facebook": "None", "youtube": "None", "website": "None", "summary": "None", "logo": "None", "latitude": 48.64642771017657, "longitude": -72.44446230182291}, "893807560RR0001": {"name": "CENTRE DE LA PETITE ENFANCE VAL DES NEIGES", "designationCode": "C", "categoryCode": "01", "address": "867 RUE DU VILLAGE", "city": "MORIN HEIGHTS", "province": "QC", "country": "CA", "postalCode": "J0R1H0", "twitter": "None", "instagram": "None", "facebook": "None", "youtube": "None", "website": "None", "summary": "None", "logo": "None", "latitude": 45.90186575465975, "longitude": -74.25262598724672}, "107419202RR0001": {"name": "CENTRE DE LA PETITE ENFANCE VIRE-CREPE INC.", "designationCode": "C", "categoryCode": "01", "address": "512 RUE DE LA SORBONNE", "city": "SAINT-NICOLAS", "province": "QC", "country": "CA", "postalCode": "G7A1Y5", "twitter": "None", "instagram": "None", "facebook": "None", "youtube": "None", "website": "None", "summary": "None", "logo": "None", "latitude": 46.70730061919335, "longitude": -71.3117086011886}, "118936137RR0001": {"name": "CENTRE DE LA PETITE ENFANCE YOUPI", "designationCode": "C", "categoryCode": "20", "address": "475 BOUL DE L'AVENIR", "city": "LAVAL-DES-RAPIDES", "province": "QC", "country": "CA", "postalCode": "H7N5H9", "twitter": "None", "instagram": "None", "facebook": "None", "youtube": "None", "website": "None", "summary": "None", "logo": "None", "latitude": 45.55908715813502, "longitude": -73.71985652015795}, "891324568RR0001": {"name": "CENTRE DE LA PETITE ENFANCE ZAMIZOU INC.", "designationCode": "C", "categoryCode": "01", "address": "1035 RUE YVON-PICHETTE", "city": "MASSON-ANGERS", "province": "QC", "country": "CA", "postalCode": "J8M1T3", "twitter": "None", "instagram": "None", "facebook": "None", "youtube": "None", "website": "None", "summary": "None", "logo": "None", "latitude": 45.52528920122338, "longitude": -75.48875616760941}, "140046582RR0001": {"name": "CENTRE DE LA PETITE ENFANCE 1-2-3 PICABOU/1-2-3 PICABOU CHILD CARE CENTRE", "designationCode": "C", "categoryCode": "01", "address": "242 RUE LEVESQUE              C.P. 550", "city": "MANSFILD", "province": "QC", "country": "CA", "postalCode": "J0X1V0", "twitter": "None", "instagram": "None", "facebook": "None", "youtube": "None", "website": "None", "summary": "None", "logo": "None", "latitude": 45.85289142968407, "longitude": -76.72386304798337}, "107413874RR0001": {"name": "CENTRE DE LA PETITE ENFANCE, COOP DE SOLIDARIT\u00c9 AU PAYS DES LUTINS", "designationCode": "C", "categoryCode": "01", "address": "100 DON BOSCO", "city": "CHICOUTIMI", "province": "QC", "country": "CA", "postalCode": "G7H2Z7", "twitter": "None", "instagram": "None", "facebook": "None", "youtube": "None", "website": "None", "summary": "None", "logo": "None", "latitude": 48.40972106497757, "longitude": -71.06703740865048}}