{"107797383RR0141": {"name": "Parkdale Seventh-Day Adventist Church", "designationCode": "C", "categoryCode": "41", "address": "511 HORNER AVE", "city": "ETOBICOKE", "province": "ON", "country": "CA", "postalCode": "M8W2B9", "twitter": "None", "instagram": "None", "facebook": "None", "youtube": "None", "website": "None", "summary": "None", "logo": "None", "latitude": 43.60139592587583, "longitude": -79.54629539993657}, "802395236RR0001": {"name": "Parkingo Wellness Society", "designationCode": "C", "categoryCode": "11", "address": "1076 VERDIER AVE", "city": "BRENTWOOD BAY", "province": "BC", "country": "CA", "postalCode": "V8M1E6", "twitter": "None", "instagram": "None", "facebook": "None", "youtube": "None", "website": "None", "summary": "None", "logo": "None", "latitude": 48.57799038886783, "longitude": -123.45474792272235}, "861839587RR0001": {"name": "Parkinson Bas-Saint-Laurent", "designationCode": "A", "categoryCode": "13", "address": "97 - 180 RUE DE L'EVECHE O", "city": "RIMOUSKI", "province": "QC", "country": "CA", "postalCode": "G5L4H9", "twitter": "None", "instagram": "None", "facebook": "None", "youtube": "None", "website": "None", "summary": "None", "logo": "None", "latitude": 48.44528866569617, "longitude": -68.52923093738698}, "895646040RR0001": {"name": "Parkinson Centre-du-Qu\u00e9bec.Maurice Inc.", "designationCode": "C", "categoryCode": "11", "address": "1800, RUE SAINT-PAUL,LOCAL 103", "city": "TROIS-RIVI\u00c8RES", "province": "QC", "country": "CA", "postalCode": "G9A1J7", "twitter": "None", "instagram": "None", "facebook": "None", "youtube": "None", "website": "None", "summary": "None", "logo": "None", "latitude": 46.35766314767143, "longitude": -72.54947296860773}, "851788315RR0001": {"name": "Parkinson Estrie", "designationCode": "A", "categoryCode": "13", "address": "300, RUE DU CONSEIL, PORTE 333", "city": "SHERBROOKE", "province": "QC", "country": "CA", "postalCode": "J1G1J4", "twitter": "None", "instagram": "None", "facebook": "None", "youtube": "None", "website": "None", "summary": "None", "logo": "None", "latitude": 45.403349629984746, "longitude": -71.87979665055694}, "849346960RR0001": {"name": "Parkinson Montr\u00e9al-Laval", "designationCode": "C", "categoryCode": "11", "address": "550 RUE SHERBROOKE OUEST, TOUROUEST, BUREAU 471", "city": "MONTR\u00c9AL", "province": "QC", "country": "CA", "postalCode": "H3A1B9", "twitter": "None", "instagram": "None", "facebook": "None", "youtube": "None", "website": "None", "summary": "None", "logo": "None"}, "812392231RR0001": {"name": "Parkinson Outaouais", "designationCode": "C", "categoryCode": "11", "address": "612-505 BOUL.DE LA GAPPE", "city": "GATINEAU", "province": "QC", "country": "CA", "postalCode": "J8T8R7", "twitter": "None", "instagram": "None", "facebook": "None", "youtube": "None", "website": "None", "summary": "None", "logo": "None", "latitude": 45.47647345228864, "longitude": -75.70483134411346}, "830219317RR0001": {"name": "Parkinson Saguenay-Lac-Saint-Jean", "designationCode": "C", "categoryCode": "11", "address": "278 BALLANTYNE", "city": "CHICOUTIMI", "province": "QC", "country": "CA", "postalCode": "G7J2L7", "twitter": "None", "instagram": "None", "facebook": "None", "youtube": "None", "website": "None", "summary": "None", "logo": "None", "latitude": 48.40602338882807, "longitude": -71.07959146684739}, "827838053RR0001": {"name": "Parkinson Society Newfoundland and Labrador Inc. / Soci\u00e9t\u00e9 Parkinson Terre Neuve & Labrador Inc.", "designationCode": "C", "categoryCode": "11", "address": "305-136 CROSBIE ROAD", "city": "ST JOHN'S", "province": "NL", "country": "CA", "postalCode": "A1B3K3", "twitter": "None", "instagram": "None", "facebook": "None", "youtube": "None", "website": "None", "summary": "None", "logo": "None", "latitude": 47.56040837443002, "longitude": -52.74392585354066}, "831302708RR0001": {"name": "Parkinson Society Southwestern Ontario", "designationCode": "C", "categoryCode": "11", "address": "4500 BLAKIE ROAD              UNIT 117", "city": "LONDON", "province": "ON", "country": "CA", "postalCode": "N6L1G5", "twitter": "None", "instagram": "None", "facebook": "None", "youtube": "None", "website": "None", "summary": "None", "logo": "None", "latitude": 42.91837740002254, "longitude": -81.26437334361466}, "783660525RR0001": {"name": "Parkinson's Resource Centre", "designationCode": "C", "categoryCode": "11", "address": "720 BATHURST STREET", "city": "TORONTO", "province": "ON", "country": "CA", "postalCode": "M5S2R4", "twitter": "None", "instagram": "None", "facebook": "None", "youtube": "None", "website": "None", "summary": "None", "logo": "None", "latitude": 43.66323143574358, "longitude": -79.41047606191914}, "847003852RR0001": {"name": "Parkland Celebration Choir Society", "designationCode": "C", "categoryCode": "22", "address": "9005-2 ASPENGLEN DRIVE", "city": "SPRUCE GROVE", "province": "AB", "country": "CA", "postalCode": "T7X4H5", "twitter": "None", "instagram": "None", "facebook": "None", "youtube": "None", "website": "None", "summary": "None", "logo": "None", "latitude": 53.559203009146614, "longitude": -113.91676960165088}, "852075480RR0001": {"name": "Parkland Place Auxiliary", "designationCode": "C", "categoryCode": "19", "address": "PO BOX 639", "city": "MELFORT", "province": "SK", "country": "CA", "postalCode": "S0E1A0", "twitter": "None", "instagram": "None", "facebook": "None", "youtube": "None", "website": "None", "summary": "None", "logo": "None", "latitude": 52.85637, "longitude": -104.63436225000001}, "803833334RR0001": {"name": "Parkland Restorative Justice Inc.", "designationCode": "C", "categoryCode": "59", "address": "250 28TH STREET WEST", "city": "PRINCE ALBERT", "province": "SK", "country": "CA", "postalCode": "S6V4S9", "twitter": "None", "instagram": "None", "facebook": "None", "youtube": "None", "website": "None", "summary": "None", "logo": "None", "latitude": 53.1877845004327, "longitude": -105.761304}, "106693047RR0055": {"name": "Parkland Seventh-day Adventist Church", "designationCode": "C", "categoryCode": "41", "address": "5816 HIGHWAY, 2A", "city": "LACOMBE", "province": "AB", "country": "CA", "postalCode": "T4L2G5", "twitter": "None", "instagram": "None", "facebook": "None", "youtube": "None", "website": "None", "summary": "None", "logo": "None", "latitude": 52.474063600197404, "longitude": -113.71692568401835}, "894312966RR0001": {"name": "Parkland Therapeutic Riding Association, Inc.", "designationCode": "C", "categoryCode": "01", "address": "P.O. BOX 1294", "city": "YORKTON", "province": "SK", "country": "CA", "postalCode": "S3N2X3", "twitter": "None", "instagram": "None", "facebook": "None", "youtube": "None", "website": "None", "summary": "None", "logo": "None", "latitude": 51.20403900000005, "longitude": -102.44985199999994}, "829109347RR0001": {"name": "Parkside Academy Society", "designationCode": "C", "categoryCode": "01", "address": "6671 BEAUMONT AVE", "city": "DUNCAN", "province": "BC", "country": "CA", "postalCode": "V9L5X8", "twitter": "None", "instagram": "None", "facebook": "None", "youtube": "None", "website": "None", "summary": "None", "logo": "None", "latitude": 48.81365013263024, "longitude": -123.6103332280785}, "107396905RR0036": {"name": "Parkside Church", "designationCode": "C", "categoryCode": "39", "address": "33837 PRENTIS AVE", "city": "MISSION", "province": "BC", "country": "CA", "postalCode": "V2V2J7", "twitter": "None", "instagram": "None", "facebook": "None", "youtube": "None", "website": "None", "summary": "None", "logo": "None", "latitude": 49.14569799226705, "longitude": -122.28744725858354}, "119288918RR0855": {"name": "Parkside Spanish Congregation of Jehovah's Witnesses, Toronto, Ontario", "designationCode": "C", "categoryCode": "61", "address": "2101 DUNDAS ST W", "city": "TORONTO", "province": "ON", "country": "CA", "postalCode": "M6R1X1", "twitter": "None", "instagram": "None", "facebook": "None", "youtube": "None", "website": "None", "summary": "None", "logo": "None", "latitude": 43.652413844566965, "longitude": -79.44879209645674}, "846999605RR0001": {"name": "Parksville Lions Housing Society", "designationCode": "C", "categoryCode": "09", "address": "241A MOILLIET STREET", "city": "PARKSVILLE", "province": "BC", "country": "CA", "postalCode": "V9P1M8", "twitter": "None", "instagram": "None", "facebook": "None", "youtube": "None", "website": "None", "summary": "None", "logo": "None", "latitude": 49.316912577311236, "longitude": -124.3237463379571}, "119051001RR0001": {"name": "Parkview Meadows Christian Retirement Village", "designationCode": "C", "categoryCode": "01", "address": "72 TOWN CENTRE DR.", "city": "TOWNSEND", "province": "ON", "country": "CA", "postalCode": "N0A1S0", "twitter": "None", "instagram": "None", "facebook": "None", "youtube": "None", "website": "None", "summary": "None", "logo": "None", "latitude": 42.887842100236305, "longitude": -80.14105748277466}, "814001228RR0001": {"name": "Parkway House Foundation", "designationCode": "A", "categoryCode": "03", "address": "2475 REGINA ST", "city": "OTTAWA", "province": "ON", "country": "CA", "postalCode": "K2B6X3", "twitter": "None", "instagram": "None", "facebook": "None", "youtube": "None", "website": "None", "summary": "None", "logo": "None", "latitude": 45.36955393340632, "longitude": -75.78496346699161}, "804231462RR0001": {"name": "Parkway Road Pentecostal Church Property Corporation", "designationCode": "C", "categoryCode": "43", "address": "7275 PARKWAY ROAD             PO BOX 250", "city": "GREELY", "province": "ON", "country": "CA", "postalCode": "K4P1N5", "twitter": "None", "instagram": "None", "facebook": "None", "youtube": "None", "website": "None", "summary": "None", "logo": "None", "latitude": 45.26625440414885, "longitude": -75.5522415286223}, "803778117RR0001": {"name": "Parnham Family Foundation", "designationCode": "B", "categoryCode": "03", "address": "1050 NO. 1 SIDE ROAD", "city": "BURLINGTON", "province": "ON", "country": "CA", "postalCode": "L7R3X4", "twitter": "None", "instagram": "None", "facebook": "None", "youtube": "None", "website": "None", "summary": "None", "logo": "None", "latitude": 43.334254334812584, "longitude": -79.78346483138382}, "107910259RR0181": {"name": "Paroisse de la Sainte-Famille", "designationCode": "C", "categoryCode": "38", "address": "1780 BOUL. MEADOWVALE", "city": "MISSISSAUGA", "province": "ON", "country": "CA", "postalCode": "L5N7K8", "twitter": "None", "instagram": "None", "facebook": "None", "youtube": "None", "website": "None", "summary": "None", "logo": "None", "latitude": 43.614820294679944, "longitude": -79.74612332563858}, "107307191RR0073": {"name": "Paroisse de St-Denis", "designationCode": "C", "categoryCode": "38", "address": "C.P. 69", "city": "ST-DENIS", "province": "SK", "country": "CA", "postalCode": "S0K3W0", "twitter": "None", "instagram": "None", "facebook": "None", "youtube": "None", "website": "None", "summary": "None", "logo": "None"}, "129930228RR0004": {"name": "Paroisse Cath\u00e9drale de l'Immacul\u00e9e-Conception", "designationCode": "C", "categoryCode": "38", "address": "145, RUE RICE", "city": "EDMUNDSTON", "province": "NB", "country": "CA", "postalCode": "E3V1T5", "twitter": "None", "instagram": "None", "facebook": "None", "youtube": "None", "website": "None", "summary": "None", "logo": "None", "latitude": 47.36369464348956, "longitude": -68.33162299915489}, "815266705RR0001": {"name": "Paroisse Orthodoxe de Saint-S\u00e9raphim de Sarov", "designationCode": "C", "categoryCode": "39", "address": "4022 RUE WOODLAND", "city": "RAWDON", "province": "QC", "country": "CA", "postalCode": "J0K1S0", "twitter": "None", "instagram": "None", "facebook": "None", "youtube": "None", "website": "None", "summary": "None", "logo": "None", "latitude": 46.057509302816015, "longitude": -73.71224637633459}, "855821492RR0001": {"name": "Paroisse Orthodoxe Roumaine St. George / St. George RomanianOrthodox Parish", "designationCode": "C", "categoryCode": "39", "address": "2525 RUE AUBERT               APP. 11", "city": "BROSSARD", "province": "QC", "country": "CA", "postalCode": "J4Z2V6", "twitter": "None", "instagram": "None", "facebook": "None", "youtube": "None", "website": "None", "summary": "None", "logo": "None", "latitude": 45.475669174562974, "longitude": -73.46407678991848}, "132304239RR0001": {"name": "Paroisse Sacr\u00e9-Coeur-de-J\u00e9sus", "designationCode": "C", "categoryCode": "38", "address": "848 PRINCIPALE", "city": "WICKHAM", "province": "QC", "country": "CA", "postalCode": "J0C1S0", "twitter": "None", "instagram": "None", "facebook": "None", "youtube": "None", "website": "None", "summary": "None", "logo": "None", "latitude": 45.758927868887774, "longitude": -72.49970073589638}, "129930228RR0011": {"name": "Paroisse Saint-Fran\u00e7ois d'Assise", "designationCode": "C", "categoryCode": "38", "address": "678 PRINCIPALE", "city": "CLAIR", "province": "NB", "country": "CA", "postalCode": "E7A2H4", "twitter": "None", "instagram": "None", "facebook": "None", "youtube": "None", "website": "None", "summary": "None", "logo": "None", "latitude": 47.255271923751074, "longitude": -68.60192139221448}, "130599442RR0038": {"name": "Paroisse Saint-Joseph", "designationCode": "C", "categoryCode": "38", "address": "567, BOULEVARD EYRE", "city": "TIMMINS", "province": "ON", "country": "CA", "postalCode": "P4N4Z2", "twitter": "None", "instagram": "None", "facebook": "None", "youtube": "None", "website": "None", "summary": "None", "logo": "None", "latitude": 48.4880288194877, "longitude": -81.337842213304}, "830752937RR0001": {"name": "Paroisse St. Theresa Parish", "designationCode": "C", "categoryCode": "38", "address": "4609 50 AVE", "city": "ST PAUL", "province": "AB", "country": "CA", "postalCode": "T0A3A3", "twitter": "None", "instagram": "None", "facebook": "None", "youtube": "None", "website": "None", "summary": "None", "logo": "None", "latitude": 53.99135148730496, "longitude": -111.28695202553523}, "123414526RR0001": {"name": "Parrainage civique de Vaudreuil Soulanges", "designationCode": "C", "categoryCode": "09", "address": "36A AVENUE ST-CHARLES", "city": "VAUDREUIL-DORION", "province": "QC", "country": "CA", "postalCode": "J7V2K5", "twitter": "None", "instagram": "None", "facebook": "None", "youtube": "None", "website": "None", "summary": "None", "logo": "None", "latitude": 45.38467977301969, "longitude": -74.01039561028945}, "810688135RR0001": {"name": "Parrot Partner Organization", "designationCode": "C", "categoryCode": "54", "address": "25 INDUSTRIAL AVE", "city": "CARLETON PLACE", "province": "ON", "country": "CA", "postalCode": "K7C3V7", "twitter": "None", "instagram": "None", "facebook": "None", "youtube": "None", "website": "None", "summary": "None", "logo": "None", "latitude": 45.1483479511799, "longitude": -76.1464307604308}, "119086130RR0001": {"name": "Parrsborough Shore Pastoral Charge", "designationCode": "C", "categoryCode": "44", "address": "BOX 355", "city": "PARRSBORO", "province": "NS", "country": "CA", "postalCode": "B0M1S0", "twitter": "None", "instagram": "None", "facebook": "None", "youtube": "None", "website": "None", "summary": "None", "logo": "None", "latitude": 45.385971000000055, "longitude": -64.25530099999993}, "119125177RR0002": {"name": "Parry Sound Rotary Trust", "designationCode": "A", "categoryCode": "65", "address": "27 MEADOWCREST DR", "city": "MCDOUGALL", "province": "ON", "country": "CA", "postalCode": "P2A2W9", "twitter": "None", "instagram": "None", "facebook": "None", "youtube": "None", "website": "None", "summary": "None", "logo": "None", "latitude": 45.40121397256021, "longitude": -80.05663615707782}, "119295418RR0001": {"name": "Parry Sound Seniors Club", "designationCode": "C", "categoryCode": "56", "address": "80 JAMES STREET", "city": "PARRY SOUND", "province": "ON", "country": "CA", "postalCode": "P2A1T9", "twitter": "None", "instagram": "None", "facebook": "None", "youtube": "None", "website": "None", "summary": "None", "logo": "None", "latitude": 45.34668986955393, "longitude": -80.03375248032181}, "784620890RR0001": {"name": "Partage Jeunesse Youth Share", "designationCode": "A", "categoryCode": "03", "address": "CP 829 SUCC BUREAU-CHEF", "city": "STE-CATHERINE-DE-LA-J-CARTIER", "province": "QC", "country": "CA", "postalCode": "G3N2V2", "twitter": "None", "instagram": "None", "facebook": "None", "youtube": "None", "website": "None", "summary": "None", "logo": "None", "latitude": 46.84453800000006, "longitude": -71.61465049999994}, "843579400RR0001": {"name": "Partage Notre-Dame", "designationCode": "C", "categoryCode": "09", "address": "309 RACINE", "city": "GRANBY", "province": "QC", "country": "CA", "postalCode": "J2G3B6", "twitter": "None", "instagram": "None", "facebook": "None", "youtube": "None", "website": "None", "summary": "None", "logo": "None", "latitude": 45.40041871663105, "longitude": -72.73112185261704}, "808880199RR0001": {"name": "Partage Saint-Liguori", "designationCode": "C", "categoryCode": "09", "address": "838 RUE RICHARD", "city": "SAINT-LIGUORI", "province": "QC", "country": "CA", "postalCode": "J0K2X0", "twitter": "None", "instagram": "None", "facebook": "None", "youtube": "None", "website": "None", "summary": "None", "logo": "None", "latitude": 46.00786109994787, "longitude": -73.56969840847759}, "876448879RR0001": {"name": "Partageons l'espoir (Qu\u00e9bec)", "designationCode": "C", "categoryCode": "01", "address": "625 FORTUNE", "city": "MONTREAL", "province": "QC", "country": "CA", "postalCode": "H3K2R9", "twitter": "None", "instagram": "None", "facebook": "None", "youtube": "None", "website": "None", "summary": "None", "logo": "None", "latitude": 45.47802516126144, "longitude": -73.5594735858965}, "831125794RR0001": {"name": "Partenariat de la Cit\u00e9 des m\u00e9tiers du Queb\u00e9c", "designationCode": "C", "categoryCode": "59", "address": "5.501-1751 RUE RICHARDSON", "city": "MONTREAL", "province": "QC", "country": "CA", "postalCode": "H3K1G6", "twitter": "None", "instagram": "None", "facebook": "None", "youtube": "None", "website": "None", "summary": "None", "logo": "None", "latitude": 45.48405242659698, "longitude": -73.56187541646942}, "834259905RR0001": {"name": "Partenariat pour le D\u00e9veloppement des Communaut\u00e9s/Community Development Partnership", "designationCode": "C", "categoryCode": "09", "address": "6450 AV CHRISTOPHE-COLOMB", "city": "MONTREAL", "province": "QC", "country": "CA", "postalCode": "H2S2G7", "twitter": "None", "instagram": "None", "facebook": "None", "youtube": "None", "website": "None", "summary": "None", "logo": "None", "latitude": 45.537677855098536, "longitude": -73.6013040960527}, "888505195RR0001": {"name": "Partenariat Afrique - Canada pour le d\u00e9veloppement int\u00e9gr\u00e9 (PACDI) Inc.", "designationCode": "C", "categoryCode": "09", "address": "7341 RUE DES JASEURS", "city": "LEVIS", "province": "QC", "country": "CA", "postalCode": "G6X3P8", "twitter": "None", "instagram": "None", "facebook": "None", "youtube": "None", "website": "None", "summary": "None", "logo": "None", "latitude": 46.72211195643139, "longitude": -71.24667798640999}, "842708448RR0001": {"name": "Partners for International Development (PfID)", "designationCode": "C", "categoryCode": "09", "address": "226 WILLOWRIDGE CRT", "city": "OAKVILLE", "province": "ON", "country": "CA", "postalCode": "L6L5J2", "twitter": "None", "instagram": "None", "facebook": "None", "youtube": "None", "website": "None", "summary": "None", "logo": "None", "latitude": 43.41931479793992, "longitude": -79.6918020760574}, "889925772RR0001": {"name": "Partners in Faith", "designationCode": "C", "categoryCode": "32", "address": "BOX 621", "city": "SPIRITWOOD", "province": "SK", "country": "CA", "postalCode": "S0J2M0", "twitter": "None", "instagram": "None", "facebook": "None", "youtube": "None", "website": "None", "summary": "None", "logo": "None", "latitude": 53.366550000000075, "longitude": -107.51787999999999}, "821820149RR0001": {"name": "Partners in Missions & Outreach International", "designationCode": "C", "categoryCode": "39", "address": "14-190 MARYCROFT AVE", "city": "WOODBRIDGE", "province": "ON", "country": "CA", "postalCode": "L4L5Y1", "twitter": "None", "instagram": "None", "facebook": "None", "youtube": "None", "website": "None", "summary": "None", "logo": "None", "latitude": 43.783805349674196, "longitude": -79.56605125962182}, "714067725RR0001": {"name": "Partners in Possibility Foundation", "designationCode": "B", "categoryCode": "03", "address": "10 - 12 ROSEHILL ST", "city": "NANAIMO", "province": "BC", "country": "CA", "postalCode": "V9S1C7", "twitter": "None", "instagram": "None", "facebook": "None", "youtube": "None", "website": "None", "summary": "None", "logo": "None", "latitude": 49.17683226340233, "longitude": -123.9433675402504}, "847260619RR0001": {"name": "Partners in Process Equine Learning Center", "designationCode": "C", "categoryCode": "56", "address": "RR#4 FIRE # 317505", "city": "OWEN SOUND", "province": "ON", "country": "CA", "postalCode": "N4K5N6", "twitter": "None", "instagram": "None", "facebook": "None", "youtube": "None", "website": "None", "summary": "None", "logo": "None", "latitude": 44.55869100000005, "longitude": -80.92581649999994}, "899016117RR0001": {"name": "Partners Family Services Inc.", "designationCode": "C", "categoryCode": "09", "address": "BOX 2741", "city": "HUMBOLDT", "province": "SK", "country": "CA", "postalCode": "S0K2A0", "twitter": "None", "instagram": "None", "facebook": "None", "youtube": "None", "website": "None", "summary": "None", "logo": "None", "latitude": 51.7871843348964, "longitude": -104.71638483007007}, "836757807RR0001": {"name": "Partners Worldwide Canada", "designationCode": "C", "categoryCode": "09", "address": "117-350 KING STREET EAST      PO BOX 75042 FIRST PLACE PO", "city": "HAMILTON", "province": "ON", "country": "CA", "postalCode": "L8N4G6", "twitter": "None", "instagram": "None", "facebook": "None", "youtube": "None", "website": "None", "summary": "None", "logo": "None", "latitude": 43.261962000000054, "longitude": -79.88800399999994}, "853104859RR0001": {"name": "Partnersanew Inc.", "designationCode": "C", "categoryCode": "01", "address": "29 PARKVIEW BAY               SS 10", "city": "BLUMENORT", "province": "MB", "country": "CA", "postalCode": "R0A0C1", "twitter": "None", "instagram": "None", "facebook": "None", "youtube": "None", "website": "None", "summary": "None", "logo": "None", "latitude": 49.60267545657561, "longitude": -96.70278086081134}, "818716581RR0001": {"name": "Partnership in Christ Centre Inc.", "designationCode": "C", "categoryCode": "39", "address": "73 SANDFORD CRESCENT,", "city": "WHITBY", "province": "ON", "country": "CA", "postalCode": "L1R2S1", "twitter": "None", "instagram": "None", "facebook": "None", "youtube": "None", "website": "None", "summary": "None", "logo": "None", "latitude": 43.91393921622701, "longitude": -78.91131709423505}, "810245464RR0001": {"name": "Pass it Forward Inc.", "designationCode": "C", "categoryCode": "09", "address": "108 GERALDINE DR", "city": "WINNIPEG", "province": "MB", "country": "CA", "postalCode": "R3R1W2", "twitter": "None", "instagram": "None", "facebook": "None", "youtube": "None", "website": "None", "summary": "None", "logo": "None", "latitude": 49.862377466066214, "longitude": -97.26111770020421}, "824225064RR0001": {"name": "Passion for Christ Church Inc.", "designationCode": "C", "categoryCode": "39", "address": "166 SOUTHFIELD AVENUE", "city": "COURTICE", "province": "ON", "country": "CA", "postalCode": "L1E3K1", "twitter": "None", "instagram": "None", "facebook": "None", "youtube": "None", "website": "None", "summary": "None", "logo": "None", "latitude": 43.88826715072983, "longitude": -78.79509775757393}, "841194954RR0001": {"name": "Passion to Lead Society", "designationCode": "C", "categoryCode": "09", "address": "34 WOODCHUCK COURT", "city": "MAPLE", "province": "ON", "country": "CA", "postalCode": "L6A4C8", "twitter": "None", "instagram": "None", "facebook": "None", "youtube": "None", "website": "None", "summary": "None", "logo": "None", "latitude": 43.849651851232075, "longitude": -79.47318743300228}, "829282177RR0001": {"name": "Passion Canada", "designationCode": "B", "categoryCode": "39", "address": "910 RUE DES MARQUISES", "city": "BELOEIL", "province": "QC", "country": "CA", "postalCode": "J3G6T9", "twitter": "None", "instagram": "None", "facebook": "None", "youtube": "None", "website": "None", "summary": "None", "logo": "None", "latitude": 45.57656072329616, "longitude": -73.21102286037866}, "832451116RR0001": {"name": "Pasto-Art-Mobile", "designationCode": "C", "categoryCode": "49", "address": "520 RUE TACHE #2 CP 3088", "city": "ST-PASCAL", "province": "QC", "country": "CA", "postalCode": "G0L3Y0", "twitter": "None", "instagram": "None", "facebook": "None", "youtube": "None", "website": "None", "summary": "None", "logo": "None", "latitude": 47.527130003029754, "longitude": -69.80657892148974}, "803402585RR0001": {"name": "Pastors In Exile", "designationCode": "C", "categoryCode": "34", "address": "200 WATERLOO ST", "city": "KITCHENER", "province": "ON", "country": "CA", "postalCode": "N2H3W1", "twitter": "None", "instagram": "None", "facebook": "None", "youtube": "None", "website": "None", "summary": "None", "logo": "None", "latitude": 43.460391079664085, "longitude": -80.50339083997933}, "846678514RR0001": {"name": "Pat the Dog Playwright Centre", "designationCode": "C", "categoryCode": "22", "address": "159B FREDERICK STREET", "city": "KITCHENER", "province": "ON", "country": "CA", "postalCode": "N2H1K8", "twitter": "None", "instagram": "None", "facebook": "None", "youtube": "None", "website": "None", "summary": "None", "logo": "None", "latitude": 43.452592989225515, "longitude": -80.48370335168458}, "821656055RR0001": {"name": "Pat-Mos Foundation", "designationCode": "A", "categoryCode": "03", "address": "1250-1500 W. GEORGIA ST       BOX 62", "city": "VANCOUVER", "province": "BC", "country": "CA", "postalCode": "V6G2Z6", "twitter": "None", "instagram": "None", "facebook": "None", "youtube": "None", "website": "None", "summary": "None", "logo": "None", "latitude": 49.290187500000016, "longitude": -123.130035}, "746007525RR0001": {"name": "Paterson Family Foundation Inc.", "designationCode": "B", "categoryCode": "03", "address": "22ND FLOOR - 333 MAIN STREET", "city": "WINNIPEG", "province": "MB", "country": "CA", "postalCode": "R3C4E2", "twitter": "None", "instagram": "None", "facebook": "None", "youtube": "None", "website": "None", "summary": "None", "logo": "None", "latitude": 49.894839387183296, "longitude": -97.13795044529421}, "827151648RR0001": {"name": "Pathfinder Partners' Foundation", "designationCode": "B", "categoryCode": "05", "address": "1320 - 885 WEST GEORGIA STREET", "city": "VANCOUVER", "province": "BC", "country": "CA", "postalCode": "V6C3E8", "twitter": "None", "instagram": "None", "facebook": "None", "youtube": "None", "website": "None", "summary": "None", "logo": "None", "latitude": 49.28358111685609, "longitude": -123.1197964114491}, "806510061RR0001": {"name": "Pathway to Freedom Recovery Society", "designationCode": "C", "categoryCode": "57", "address": "9034 PRINCE CHARLES BLVD", "city": "SURREY", "province": "BC", "country": "CA", "postalCode": "V3V1R5", "twitter": "None", "instagram": "None", "facebook": "None", "youtube": "None", "website": "None", "summary": "None", "logo": "None", "latitude": 49.166961853165304, "longitude": -122.8653641740147}, "832166052RR0001": {"name": "Pathway to Progress Nicaragua", "designationCode": "C", "categoryCode": "09", "address": "PO BOX 27092                  3595 FENWICK STREET", "city": "HALIFAX", "province": "NS", "country": "CA", "postalCode": "B3H4M8", "twitter": "None", "instagram": "None", "facebook": "None", "youtube": "None", "website": "None", "summary": "None", "logo": "None", "latitude": 44.637551382568624, "longitude": -63.57530459982435}, "817018187RR0001": {"name": "Pathway Camp Ministries Inc.", "designationCode": "C", "categoryCode": "39", "address": "16 LEVINE BOULEVARD", "city": "MOOSEHORN", "province": "MB", "country": "CA", "postalCode": "R0C2E0", "twitter": "None", "instagram": "None", "facebook": "None", "youtube": "None", "website": "None", "summary": "None", "logo": "None", "latitude": 51.29112183204736, "longitude": -98.42539524792868}, "817086481RR0001": {"name": "Pathway Church Kanata of the Christian and Missionary Alliance", "designationCode": "C", "categoryCode": "39", "address": "680 EAGLESON ROAD             POST OFFICE BOX 45022", "city": "KANATA", "province": "ON", "country": "CA", "postalCode": "K2M2G9", "twitter": "None", "instagram": "None", "facebook": "None", "youtube": "None", "website": "None", "summary": "None", "logo": "None", "latitude": 45.286739352184355, "longitude": -75.86743162470367}, "835254251RR0001": {"name": "Pathway Community Church", "designationCode": "C", "categoryCode": "39", "address": "PO BOX 203 STN MAIN", "city": "WINKLER", "province": "MB", "country": "CA", "postalCode": "R6W4A5", "twitter": "None", "instagram": "None", "facebook": "None", "youtube": "None", "website": "None", "summary": "None", "logo": "None", "latitude": 49.18426565617661, "longitude": -97.93929615472052}, "842129686RR0001": {"name": "Pathway Life Church", "designationCode": "C", "categoryCode": "39", "address": "993 TALWOOD DR", "city": "PETERBOROUGH", "province": "ON", "country": "CA", "postalCode": "K9J7R8", "twitter": "None", "instagram": "None", "facebook": "None", "youtube": "None", "website": "None", "summary": "None", "logo": "None", "latitude": 44.29319998690095, "longitude": -78.34707511515397}, "817140668RR0001": {"name": "Pathway Ministries Inc.", "designationCode": "C", "categoryCode": "39", "address": "2803 MELROSE AVE", "city": "SASKATOON", "province": "SK", "country": "CA", "postalCode": "S7J0W1", "twitter": "None", "instagram": "None", "facebook": "None", "youtube": "None", "website": "None", "summary": "None", "logo": "None", "latitude": 52.09462908909917, "longitude": -106.66455179791124}, "861908499RR0001": {"name": "Pathways to Education Canada/Passeport pour ma r\u00e9ussite Canada", "designationCode": "A", "categoryCode": "21", "address": "439 UNIVERSITY AVE            16TH FLOOR", "city": "TORONTO", "province": "ON", "country": "CA", "postalCode": "M5G1Y8", "twitter": "None", "instagram": "None", "facebook": "None", "youtube": "None", "website": "None", "summary": "None", "logo": "None", "latitude": 43.65431993617628, "longitude": -79.38789973613633}, "118978568RR0001": {"name": "Pathways Abilities Society", "designationCode": "C", "categoryCode": "11", "address": "123 FRANKLYN RD", "city": "KELOWNA", "province": "BC", "country": "CA", "postalCode": "V1X6A9", "twitter": "None", "instagram": "None", "facebook": "None", "youtube": "None", "website": "None", "summary": "None", "logo": "None", "latitude": 49.88943041909516, "longitude": -119.40234081995537}, "841121049RR0001": {"name": "Pathways Adventure & Challenge Camping Society (PACCS)", "designationCode": "C", "categoryCode": "09", "address": "PO BOX 33039                  RPO QUINPOOL CENTRE", "city": "HALIFAX", "province": "NS", "country": "CA", "postalCode": "B3L4T6", "twitter": "None", "instagram": "None", "facebook": "None", "youtube": "None", "website": "None", "summary": "None", "logo": "None", "latitude": 44.64653994445754, "longitude": -63.596449982688654}, "846903110RR0001": {"name": "Patients Canada", "designationCode": "C", "categoryCode": "11", "address": "720 BATHURST ST", "city": "TORONTO", "province": "ON", "country": "CA", "postalCode": "M5S2R4", "twitter": "None", "instagram": "None", "facebook": "None", "youtube": "None", "website": "None", "summary": "None", "logo": "None", "latitude": 43.66323143574358, "longitude": -79.41047606191914}, "835990086RR0001": {"name": "Patrick Akpobasa Ministries", "designationCode": "C", "categoryCode": "39", "address": "3 - 21 PENN DR", "city": "NORTH YORK", "province": "ON", "country": "CA", "postalCode": "M9L2A6", "twitter": "None", "instagram": "None", "facebook": "None", "youtube": "None", "website": "None", "summary": "None", "logo": "None", "latitude": 43.751022448501566, "longitude": -79.55480055884148}, "841799984RR0001": {"name": "Patrick J McNally Charitable Foundation", "designationCode": "B", "categoryCode": "03", "address": "81 CONCESSION 8 E", "city": "FREELTON", "province": "ON", "country": "CA", "postalCode": "L8B1N9", "twitter": "None", "instagram": "None", "facebook": "None", "youtube": "None", "website": "None", "summary": "None", "logo": "None", "latitude": 43.34668800000006, "longitude": -79.88503849999994}, "854478757RR0001": {"name": "Patrick Street Productions Society", "designationCode": "C", "categoryCode": "22", "address": "730 FOURTH STREET", "city": "NEW WESTMINSTER", "province": "BC", "country": "CA", "postalCode": "V3L2W3", "twitter": "None", "instagram": "None", "facebook": "None", "youtube": "None", "website": "None", "summary": "None", "logo": "None", "latitude": 49.21669693712709, "longitude": -122.92048022718988}, "802100149RR0001": {"name": "Patrick 4 Life AIDS Awareness and Education", "designationCode": "A", "categoryCode": "13", "address": "570 FIRST AVE E", "city": "NORTH BAY", "province": "ON", "country": "CA", "postalCode": "P1B1K6", "twitter": "None", "instagram": "None", "facebook": "None", "youtube": "None", "website": "None", "summary": "None", "logo": "None", "latitude": 46.3055907607766, "longitude": -79.45513668743182}, "890755846RR0001": {"name": "Patrimoine a\u00e9ronautique Saguenay-Lac-St-Jean", "designationCode": "C", "categoryCode": "59", "address": "BFC BAGOTVILLE                C.P.5000 SUCC BUREAU-CHEF", "city": "ALOUETTE", "province": "QC", "country": "CA", "postalCode": "G0V1A0", "twitter": "None", "instagram": "None", "facebook": "None", "youtube": "None", "website": "None", "summary": "None", "logo": "None", "latitude": 48.33934000000005, "longitude": -70.98781999999994}, "856890215RR0001": {"name": "Patrimoine et Culture du Portage", "designationCode": "C", "categoryCode": "52", "address": "234 RTE DU FLEUVE", "city": "NOTRE-DAME-DU-PORTAGE", "province": "QC", "country": "CA", "postalCode": "G0L1Y0", "twitter": "None", "instagram": "None", "facebook": "None", "youtube": "None", "website": "None", "summary": "None", "logo": "None", "latitude": 47.790096665706784, "longitude": -69.58938454618884}, "829428903RR0001": {"name": "Patrimoine B\u00e9cancour", "designationCode": "C", "categoryCode": "50", "address": "14135 BOUL BECANCOUR          BUREAU 101", "city": "BECANCOUR", "province": "QC", "country": "CA", "postalCode": "G9H2K8", "twitter": "None", "instagram": "None", "facebook": "None", "youtube": "None", "website": "None", "summary": "None", "logo": "None", "latitude": 46.33441034729338, "longitude": -72.50959823497438}, "816618631RR0001": {"name": "Patrimoine St-Antoine d'Aubigny Heritage Corp.", "designationCode": "C", "categoryCode": "50", "address": "POST OFFICE BOX 62", "city": "AUBIGNY", "province": "MB", "country": "CA", "postalCode": "R0G0C0", "twitter": "None", "instagram": "None", "facebook": "None", "youtube": "None", "website": "None", "summary": "None", "logo": "None", "latitude": 49.458060000000046, "longitude": -97.24410999999998}, "874121320RR0001": {"name": "Patrons of the Arts for the Vatican Museums Inc.", "designationCode": "A", "categoryCode": "43", "address": "125 BALSAM AVE", "city": "TORONTO", "province": "ON", "country": "CA", "postalCode": "M4E3B9", "twitter": "None", "instagram": "None", "facebook": "None", "youtube": "None", "website": "None", "summary": "None", "logo": "None", "latitude": 43.67557664807545, "longitude": -79.2913110474351}, "832063663RR0001": {"name": "Patten Family Foundation Inc.", "designationCode": "B", "categoryCode": "03", "address": "60 WATER ST", "city": "ST. JOHN'S", "province": "NL", "country": "CA", "postalCode": "A1C1A3", "twitter": "None", "instagram": "None", "facebook": "None", "youtube": "None", "website": "None", "summary": "None", "logo": "None", "latitude": 47.5686157574297, "longitude": -52.70191299959596}, "119288918RR1686": {"name": "Patterson Tagalog Congregation of Jehovah's Witnesses, Calgary, Alberta", "designationCode": "C", "categoryCode": "61", "address": "8104 BOWNESS RD NW", "city": "CALGARY", "province": "AB", "country": "CA", "postalCode": "T3B0H6", "twitter": "None", "instagram": "None", "facebook": "None", "youtube": "None", "website": "None", "summary": "None", "logo": "None", "latitude": 51.08897249321934, "longitude": -114.20264291909515}, "839895091RR0001": {"name": "Paul and Susan Ash Foundation", "designationCode": "B", "categoryCode": "03", "address": "200 - 15127 100 AVE", "city": "SURREY", "province": "BC", "country": "CA", "postalCode": "V3R0N9", "twitter": "None", "instagram": "None", "facebook": "None", "youtube": "None", "website": "None", "summary": "None", "logo": "None", "latitude": 49.1842764893242, "longitude": -122.80312282944774}, "815435961RR0001": {"name": "Paul Band Bible Baptist Church", "designationCode": "C", "categoryCode": "31", "address": "PO BOX 1083", "city": "ONOWAY", "province": "AB", "country": "CA", "postalCode": "T0E1V0", "twitter": "None", "instagram": "None", "facebook": "None", "youtube": "None", "website": "None", "summary": "None", "logo": "None", "latitude": 53.70302000000004, "longitude": -114.19152999999994}, "805569233RR0001": {"name": "Paul Hellyer Charitable Foundation", "designationCode": "B", "categoryCode": "03", "address": "506 - 65 HARBOUR SQ", "city": "TORONTO", "province": "ON", "country": "CA", "postalCode": "M5J2L4", "twitter": "None", "instagram": "None", "facebook": "None", "youtube": "None", "website": "None", "summary": "None", "logo": "None", "latitude": 43.64025517011957, "longitude": -79.3790558939353}, "812815439RR0001": {"name": "Paul Sugar Palliative Support Foundation", "designationCode": "C", "categoryCode": "11", "address": "6425 FOX STREET", "city": "WEST VANCOUVER", "province": "BC", "country": "CA", "postalCode": "V7W2C3", "twitter": "None", "instagram": "None", "facebook": "None", "youtube": "None", "website": "None", "summary": "None", "logo": "None", "latitude": 49.36884642521201, "longitude": -123.27863199457565}, "846295574RR0001": {"name": "Pause4Change Rescue Foundation", "designationCode": "C", "categoryCode": "54", "address": "POST OFFICE BOX 34235         WESTBROOK POST OFFICE", "city": "CALGARY", "province": "AB", "country": "CA", "postalCode": "T3C3W2", "twitter": "None", "instagram": "None", "facebook": "None", "youtube": "None", "website": "None", "summary": "None", "logo": "None", "latitude": 51.04910400000006, "longitude": -114.14071249999994}, "827814229RR0001": {"name": "Pavillon de la rose", "designationCode": "C", "categoryCode": "11", "address": "38 PLACE QU\u00c9VILLON            C.P.873", "city": "LEBEL-SUR-QU\u00c9VILLON", "province": "QC", "country": "CA", "postalCode": "J0Y1X0", "twitter": "None", "instagram": "None", "facebook": "None", "youtube": "None", "website": "None", "summary": "None", "logo": "None", "latitude": 49.05325055642544, "longitude": -76.9796346812963}, "828351932RR0001": {"name": "Pavillon du Coeur Beauce-Etchemin", "designationCode": "C", "categoryCode": "11", "address": "2640 BOULEVARD DIONNE", "city": "SAINT-GEORGES", "province": "QC", "country": "CA", "postalCode": "G5Y3X8", "twitter": "None", "instagram": "None", "facebook": "None", "youtube": "None", "website": "None", "summary": "None", "logo": "None", "latitude": 46.11151055311927, "longitude": -70.67174053335417}, "898973623RR0001": {"name": "Pavillon l'Essence Ciel", "designationCode": "C", "categoryCode": "57", "address": "3823 GRAND BOULEVARD", "city": "ST. HUBERT", "province": "QC", "country": "CA", "postalCode": "J4T2M3", "twitter": "None", "instagram": "None", "facebook": "None", "youtube": "None", "website": "None", "summary": "None", "logo": "None", "latitude": 45.48960985818562, "longitude": -73.46844420286814}, "103058673RR0001": {"name": "Pavillon D'H\u00e9bergement de Barraute Inc.", "designationCode": "C", "categoryCode": "09", "address": "581, 3E RUE OUEST", "city": "BARRAUTE", "province": "QC", "country": "CA", "postalCode": "J0Y1A0", "twitter": "None", "instagram": "None", "facebook": "None", "youtube": "None", "website": "None", "summary": "None", "logo": "None", "latitude": 48.43951200000001, "longitude": -77.63977292997252}, "839310455RR0001": {"name": "Pavillon Hamford", "designationCode": "C", "categoryCode": "57", "address": "236 AVENUE HAMFORD", "city": "LACHUTE", "province": "QC", "country": "CA", "postalCode": "J8H3P1", "twitter": "None", "instagram": "None", "facebook": "None", "youtube": "None", "website": "None", "summary": "None", "logo": "None", "latitude": 45.64924679822836, "longitude": -74.35290612326138}, "118989276RR0009": {"name": "Pavillon St-Redempteur", "designationCode": "C", "categoryCode": "46", "address": "10018 AVENUE ROYALE", "city": "SAINTE-ANNE-DE-BEAUPRE", "province": "QC", "country": "CA", "postalCode": "G0A3C0", "twitter": "None", "instagram": "None", "facebook": "None", "youtube": "None", "website": "None", "summary": "None", "logo": "None", "latitude": 47.025011014946315, "longitude": -70.92776782093631}, "806379376RR0001": {"name": "Paw Pet and Wildlife Rescue", "designationCode": "C", "categoryCode": "54", "address": "PO BOX 858", "city": "DRESDEN", "province": "ON", "country": "CA", "postalCode": "N0P1M0", "twitter": "None", "instagram": "None", "facebook": "None", "youtube": "None", "website": "None", "summary": "None", "logo": "None", "latitude": 42.58952000000005, "longitude": -82.17963999999995}, "809844533RR0001": {"name": "Pawed Pals Animal Rescue, Inc.", "designationCode": "C", "categoryCode": "54", "address": "511 ROBINSON AVE", "city": "SELKIRK", "province": "MB", "country": "CA", "postalCode": "R1A1E5", "twitter": "None", "instagram": "None", "facebook": "None", "youtube": "None", "website": "None", "summary": "None", "logo": "None", "latitude": 50.15066325394396, "longitude": -96.87568125685895}, "811071786RR0001": {"name": "Paws & Claws Animal Rescue Incorporated", "designationCode": "C", "categoryCode": "54", "address": "59 DOGWOOD CRES", "city": "YORKTON", "province": "SK", "country": "CA", "postalCode": "S3N2M6", "twitter": "None", "instagram": "None", "facebook": "None", "youtube": "None", "website": "None", "summary": "None", "logo": "None", "latitude": 51.20326017346645, "longitude": -102.4878814844481}}