{"858587926RR0001": {"name": "WIZARD LAKE WATERSHED AND LAKE STEWARDSHIP ASSOCIATION", "designationCode": "C", "categoryCode": "59", "address": "RR 4, SITE 2, BOX 50", "city": "CALMAR", "province": "AB", "country": "CA", "postalCode": "T0C0V0", "twitter": "None", "instagram": "None", "facebook": "None", "youtube": "None", "website": "None", "summary": "None", "logo": "None", "latitude": 53.26348053171986, "longitude": -113.80545}, "108104647RR0001": {"name": "WLADYSLAW REYMONT FOUNDATION", "designationCode": "C", "categoryCode": "03", "address": "14 HESTER STREET", "city": "HAMILTON", "province": "ON", "country": "CA", "postalCode": "L9A2N2", "twitter": "None", "instagram": "None", "facebook": "None", "youtube": "None", "website": "None", "summary": "None", "logo": "None", "latitude": 43.22480494419771, "longitude": -79.88238995796057}, "105723332RR0001": {"name": "WLK SENIORS ASSISTANCE ASSOCIATION INC.", "designationCode": "C", "categoryCode": "01", "address": "1-75 ALBERT ST", "city": "LONDON", "province": "ON", "country": "CA", "postalCode": "N6A1L7", "twitter": "None", "instagram": "None", "facebook": "None", "youtube": "None", "website": "None", "summary": "None", "logo": "None", "latitude": 42.98782501301309, "longitude": -81.25567358338634}, "815115670RR0001": {"name": "WNDX Inc.", "designationCode": "C", "categoryCode": "22", "address": "406-100 ARTHUR ST", "city": "WINNIPEG", "province": "MB", "country": "CA", "postalCode": "R3B1H3", "twitter": "None", "instagram": "None", "facebook": "None", "youtube": "None", "website": "None", "summary": "None", "logo": "None", "latitude": 49.897593000000015, "longitude": -97.1406225}, "868663220RR0001": {"name": "WOCO FOUNDATION", "designationCode": "B", "categoryCode": "03", "address": "17 METAMORA CRESCENT", "city": "LONDON", "province": "ON", "country": "CA", "postalCode": "N6G1R2", "twitter": "None", "instagram": "None", "facebook": "None", "youtube": "None", "website": "None", "summary": "None", "logo": "None", "latitude": 43.00332300917525, "longitude": -81.29068480930822}, "119301844RR0001": {"name": "WOF MINISTRIES INTERNATIONAL, INC", "designationCode": "C", "categoryCode": "39", "address": "56 LADYSBRIDGE DR", "city": "SCARBOROUGH", "province": "ON", "country": "CA", "postalCode": "M1G3H7", "twitter": "None", "instagram": "None", "facebook": "None", "youtube": "None", "website": "None", "summary": "None", "logo": "None", "latitude": 43.76813314126612, "longitude": -79.20610104443399}, "107552390RR0001": {"name": "WOFCAM INCORPORATED", "designationCode": "C", "categoryCode": "39", "address": "370 SOUTH PELHAM ROAD", "city": "WELLAND", "province": "ON", "country": "CA", "postalCode": "L3B5N8", "twitter": "None", "instagram": "None", "facebook": "None", "youtube": "None", "website": "None", "summary": "None", "logo": "None", "latitude": 42.99221700000001, "longitude": -79.28531642454911}, "891253346RR0001": {"name": "WOKING SCHOOL FOUNDATION", "designationCode": "C", "categoryCode": "21", "address": "P.O. BOX 11", "city": "WOKING", "province": "AB", "country": "CA", "postalCode": "T0H3V0", "twitter": "None", "instagram": "None", "facebook": "None", "youtube": "None", "website": "None", "summary": "None", "logo": "None", "latitude": 55.612190000000055, "longitude": -118.77559999999994}, "862331881RR0001": {"name": "WOLASTOKWIYIK NAWICOWOK THE SACRED LAND TRUST INC.", "designationCode": "C", "categoryCode": "11", "address": "130 MALISSET DRIVE", "city": "FREDERICTON", "province": "NB", "country": "CA", "postalCode": "E3A2V9", "twitter": "None", "instagram": "None", "facebook": "None", "youtube": "None", "website": "None", "summary": "None", "logo": "None", "latitude": 45.975082034133564, "longitude": -66.63008847847549}, "119288918RR1273": {"name": "WOLEVER PARK CONGREGATION OF JEHOVAH'S WITNESSES", "designationCode": "C", "categoryCode": "61", "address": "1060 WOLEVER AVENUE", "city": "WINNIPEG", "province": "MB", "country": "CA", "postalCode": "R3G3N6", "twitter": "None", "instagram": "None", "facebook": "None", "youtube": "None", "website": "None", "summary": "None", "logo": "None", "latitude": 49.88683655727421, "longitude": -97.17702180544174}, "119301851RR0001": {"name": "WOLF AWARENESS INC", "designationCode": "C", "categoryCode": "59", "address": "33239 MCLEAN ROAD             R.R. #3", "city": "AILSA CRAIG", "province": "ON", "country": "CA", "postalCode": "N0M1A0", "twitter": "None", "instagram": "None", "facebook": "None", "youtube": "None", "website": "None", "summary": "None", "logo": "None", "latitude": 43.164665190432004, "longitude": -81.58025902437952}, "892930272RR0001": {"name": "WOLF CREEK CHARITABLE TRUST", "designationCode": "B", "categoryCode": "39", "address": "3425 2 AVE S", "city": "LETHBRIDGE", "province": "AB", "country": "CA", "postalCode": "T1J4V1", "twitter": "None", "instagram": "None", "facebook": "None", "youtube": "None", "website": "None", "summary": "None", "logo": "None", "latitude": 49.696839530439966, "longitude": -112.78914308381903}, "860554807RR0001": {"name": "WOLF CREEK COMMUNITY CHURCH, A CHRISTIAN REFORMED CONGREGATION", "designationCode": "C", "categoryCode": "39", "address": "PO BOX 5072", "city": "LACOMBE", "province": "AB", "country": "CA", "postalCode": "T4L1W7", "twitter": "None", "instagram": "None", "facebook": "None", "youtube": "None", "website": "None", "summary": "None", "logo": "None", "latitude": 52.463094000000055, "longitude": -113.73671149999993}, "139975718RR0001": {"name": "WOLF CREEK SCHOOL DIVISION NO 72", "designationCode": "C", "categoryCode": "20", "address": "6000 HIGHWAY 2A", "city": "PONOKA", "province": "AB", "country": "CA", "postalCode": "T4J1P6", "twitter": "None", "instagram": "None", "facebook": "None", "youtube": "None", "website": "None", "summary": "None", "logo": "None", "latitude": 52.68601207109261, "longitude": -113.57891757462707}, "119301869RR0001": {"name": "WOLF CREEK SENIOR CITIZEN FRIENDSHIP CLUB", "designationCode": "C", "categoryCode": "56", "address": "BOX 461", "city": "WOLSELEY", "province": "SK", "country": "CA", "postalCode": "S0G5H0", "twitter": "None", "instagram": "None", "facebook": "None", "youtube": "None", "website": "None", "summary": "None", "logo": "None", "latitude": 50.411354882397546, "longitude": -102.93411353717349}, "866212319RR0001": {"name": "WOLFE ISLAND EARLY YEARS CENTRE INC.", "designationCode": "C", "categoryCode": "20", "address": "P.O. BOX 185", "city": "WOLFE ISLAND", "province": "ON", "country": "CA", "postalCode": "K0H2Y0", "twitter": "None", "instagram": "None", "facebook": "None", "youtube": "None", "website": "None", "summary": "None", "logo": "None", "latitude": 44.194210000000055, "longitude": -76.43937999999997}, "868670969RR0001": {"name": "WOLFE ISLAND METIS CHARITABLE ASSOCIATION", "designationCode": "C", "categoryCode": "53", "address": "302 LAFONTAINE RD. W", "city": "TINY", "province": "ON", "country": "CA", "postalCode": "L9M0H1", "twitter": "None", "instagram": "None", "facebook": "None", "youtube": "None", "website": "None", "summary": "None", "logo": "None", "latitude": 44.759331178985605, "longitude": -80.05014381101596}, "132145178RR0001": {"name": "WOLFE ISLAND PASTORAL CHARGE,", "designationCode": "C", "categoryCode": "44", "address": "7 JOSLIN LANE                 RR1", "city": "WOLFE ISLAND", "province": "ON", "country": "CA", "postalCode": "K0H2Y0", "twitter": "None", "instagram": "None", "facebook": "None", "youtube": "None", "website": "None", "summary": "None", "logo": "None", "latitude": 44.22138252580878, "longitude": -76.21440797976243}, "891495970RR0001": {"name": "WOLFVILLE AREA INTERCHURCH COUNCIL", "designationCode": "C", "categoryCode": "47", "address": "P.O. BOX 2270", "city": "WOLFVILLE", "province": "NS", "country": "CA", "postalCode": "B4P2N5", "twitter": "None", "instagram": "None", "facebook": "None", "youtube": "None", "website": "None", "summary": "None", "logo": "None", "latitude": 45.09137400000006, "longitude": -64.36303099999994}, "108219098RR0001": {"name": "WOLFVILLE CHILDREN'S CENTRE SOCIETY", "designationCode": "C", "categoryCode": "01", "address": "17 EARNSCLIFF AVE", "city": "WOLFVILLE", "province": "NS", "country": "CA", "postalCode": "B4P1X4", "twitter": "None", "instagram": "None", "facebook": "None", "youtube": "None", "website": "None", "summary": "None", "logo": "None", "latitude": 45.088765868168956, "longitude": -64.37149556422776}, "872108014RR0001": {"name": "WOLFVILLE CONCERT BAND ASSOCIATION", "designationCode": "C", "categoryCode": "22", "address": "19 ACADIA STREET", "city": "WOLFVILLE", "province": "NS", "country": "CA", "postalCode": "B4P1K8", "twitter": "None", "instagram": "None", "facebook": "None", "youtube": "None", "website": "None", "summary": "None", "logo": "None", "latitude": 45.08964948456366, "longitude": -64.36133949708581}, "119301943RR0001": {"name": "WOLFVILLE HISTORICAL SOCIETY", "designationCode": "C", "categoryCode": "50", "address": "259 MAIN STREET", "city": "WOLFVILLE", "province": "NS", "country": "CA", "postalCode": "B4P1C6", "twitter": "None", "instagram": "None", "facebook": "None", "youtube": "None", "website": "None", "summary": "None", "logo": "None", "latitude": 45.092135893127235, "longitude": -64.35541704203942}, "108219106RR0001": {"name": "WOLFVILLE L'ARCHE HOMEFIRES SOCIETY", "designationCode": "C", "categoryCode": "11", "address": "341 MAIN ST, PO BOX 2192", "city": "WOLFVILLE", "province": "NS", "country": "CA", "postalCode": "B4P2N5", "twitter": "None", "instagram": "None", "facebook": "None", "youtube": "None", "website": "None", "summary": "None", "logo": "None", "latitude": 45.09175554478342, "longitude": -64.35851083812484}, "136268018RR0001": {"name": "WOLFVILLE RIDGE UNITED BAPTIST CHURCH", "designationCode": "C", "categoryCode": "31", "address": "1366 RIDGE RD                 RR #1", "city": "WOLFVILLE", "province": "NS", "country": "CA", "postalCode": "B4P2R1", "twitter": "None", "instagram": "None", "facebook": "None", "youtube": "None", "website": "None", "summary": "None", "logo": "None", "latitude": 45.07908062334828, "longitude": -64.34781991020836}, "865728646RR0001": {"name": "WOLODYMYR GEORGE DANYLIW FOUNDATION", "designationCode": "B", "categoryCode": "21", "address": "319 KING ST. WEST             SUITE 300", "city": "TORONTO", "province": "ON", "country": "CA", "postalCode": "M5V1J5", "twitter": "None", "instagram": "None", "facebook": "None", "youtube": "None", "website": "None", "summary": "None", "logo": "None", "latitude": 43.64634287870052, "longitude": -79.39076758881069}, "890972813RR0001": {"name": "WOLSELEY FAMILY PLACE INC.", "designationCode": "C", "categoryCode": "09", "address": "691 WOLSELEY AVENUE           LOWER LEVEL", "city": "WINNIPEG", "province": "MB", "country": "CA", "postalCode": "R3G1C3", "twitter": "None", "instagram": "None", "facebook": "None", "youtube": "None", "website": "None", "summary": "None", "logo": "None", "latitude": 49.880317493219316, "longitude": -97.16011260782504}, "871339206RR0001": {"name": "WOLSELEY FOOD BANK INC.", "designationCode": "C", "categoryCode": "09", "address": "612 FRONT STREET              P.O. BOX 340", "city": "WOLSELEY", "province": "SK", "country": "CA", "postalCode": "S0G5H0", "twitter": "None", "instagram": "None", "facebook": "None", "youtube": "None", "website": "None", "summary": "None", "logo": "None", "latitude": 50.422933160181096, "longitude": -103.27014005910564}, "892016916RR0001": {"name": "WOLSELEY HERITAGE FOUNDATION INC.", "designationCode": "C", "categoryCode": "52", "address": "PO BOX 275", "city": "WOLSELEY", "province": "SK", "country": "CA", "postalCode": "S0G5H0", "twitter": "None", "instagram": "None", "facebook": "None", "youtube": "None", "website": "None", "summary": "None", "logo": "None", "latitude": 50.411354882397546, "longitude": -102.93411353717349}, "892922964RR0001": {"name": "WOLVERINES WHEELCHAIR SPORTS ASSOCIATION", "designationCode": "C", "categoryCode": "56", "address": "10 KNOWLEDGE WAY", "city": "GRANDE PRAIRIE", "province": "AB", "country": "CA", "postalCode": "T8W2V9", "twitter": "None", "instagram": "None", "facebook": "None", "youtube": "None", "website": "None", "summary": "None", "logo": "None", "latitude": 55.14484249624909, "longitude": -118.81274336081135}, "891621864RR0001": {"name": "WOMAN HEALING FOR CHANGE, MANITOBA INC", "designationCode": "C", "categoryCode": "09", "address": "3388 RALEIGH ST", "city": "EAST ST. PAUL", "province": "MB", "country": "CA", "postalCode": "R2E1B9", "twitter": "None", "instagram": "None", "facebook": "None", "youtube": "None", "website": "None", "summary": "None", "logo": "None", "latitude": 49.961209831744384, "longitude": -97.03118959743188}, "108219346RR0001": {"name": "WOMANPOWER INC.", "designationCode": "C", "categoryCode": "59", "address": "119 MCMAHEN ST", "city": "LONDON", "province": "ON", "country": "CA", "postalCode": "N5Y0A2", "twitter": "None", "instagram": "None", "facebook": "None", "youtube": "None", "website": "None", "summary": "None", "logo": "None", "latitude": 42.99876185648353, "longitude": -81.23161657770218}, "119302131RR0001": {"name": "WOMANS CHRISTIAN TEMPERANCE UNION", "designationCode": "C", "categoryCode": "57", "address": "BOX 115", "city": "VERONA", "province": "ON", "country": "CA", "postalCode": "K0H2W0", "twitter": "None", "instagram": "None", "facebook": "None", "youtube": "None", "website": "None", "summary": "None", "logo": "None", "latitude": 44.48114752082804, "longitude": -76.69501084524111}, "129951588RR0001": {"name": "WOMEN & CHILDREN'S SHELTER (BARRIE)", "designationCode": "C", "categoryCode": "09", "address": "115 EDGEHILL DR", "city": "BARRIE", "province": "ON", "country": "CA", "postalCode": "L4N1L9", "twitter": "None", "instagram": "None", "facebook": "None", "youtube": "None", "website": "None", "summary": "None", "logo": "None", "latitude": 44.38551678628316, "longitude": -79.71028183804609}, "884181223RR0001": {"name": "WOMEN BUILDING FUTURES SOCIETY", "designationCode": "C", "categoryCode": "20", "address": "10326 107 ST", "city": "EDMONTON", "province": "AB", "country": "CA", "postalCode": "T5J1K2", "twitter": "None", "instagram": "None", "facebook": "None", "youtube": "None", "website": "None", "summary": "None", "logo": "None", "latitude": 53.54541836081137, "longitude": -113.5047787037622}, "898034905RR0001": {"name": "WOMEN FOR MUSIC SOCIETY", "designationCode": "C", "categoryCode": "25", "address": "6199 CHEBUCTO RD", "city": "HALIFAX", "province": "NS", "country": "CA", "postalCode": "B3L1K7", "twitter": "None", "instagram": "None", "facebook": "None", "youtube": "None", "website": "None", "summary": "None", "logo": "None", "latitude": 44.64993414351647, "longitude": -63.59753741799863}, "129777645RR0001": {"name": "WOMEN IN CRISIS (ALGOMA) INC", "designationCode": "C", "categoryCode": "09", "address": "23 OAKLAND AVENUE", "city": "SAULT STE. MARIE", "province": "ON", "country": "CA", "postalCode": "P6A2T2", "twitter": "None", "instagram": "None", "facebook": "None", "youtube": "None", "website": "None", "summary": "None", "logo": "None", "latitude": 46.51022250678067, "longitude": -84.32339910782504}, "859629073RR0001": {"name": "WOMEN IN DAWAH", "designationCode": "C", "categoryCode": "09", "address": "P.O. BOX 43092 RPO            RICHMOND CTR", "city": "RICHMOND", "province": "BC", "country": "CA", "postalCode": "V6Y3Y3", "twitter": "None", "instagram": "None", "facebook": "None", "youtube": "None", "website": "None", "summary": "None", "logo": "None", "latitude": 49.163343000000054, "longitude": -123.13664449999993}, "135185411RR0001": {"name": "WOMEN IN NEED SOCIETY OF CALGARY", "designationCode": "C", "categoryCode": "09", "address": "UNIT 1, 3525 26 AVE SE", "city": "CALGARY", "province": "AB", "country": "CA", "postalCode": "T2B2M9", "twitter": "None", "instagram": "None", "facebook": "None", "youtube": "None", "website": "None", "summary": "None", "logo": "None", "latitude": 51.030472506780676, "longitude": -113.98238194310116}, "829627074RR0001": {"name": "WOMEN IN SERVICE EVANGELISM (W.I.S.E.) INTERNATIONAL MINISTRIES", "designationCode": "C", "categoryCode": "47", "address": "525-115 FIRST ST", "city": "COLLINGWOOD", "province": "ON", "country": "CA", "postalCode": "L9Y4W3", "twitter": "None", "instagram": "None", "facebook": "None", "youtube": "None", "website": "None", "summary": "None", "logo": "None", "latitude": 44.502609473507384, "longitude": -80.22093772527076}, "836990325RR0001": {"name": "WOMEN IN TRADES AND TECHNOLOGY ASSOCIATION", "designationCode": "C", "categoryCode": "20", "address": "108 ELLIOTT ST                PO BOX 191", "city": "WHITEHORSE", "province": "YT", "country": "CA", "postalCode": "Y1A6C4", "twitter": "None", "instagram": "None", "facebook": "None", "youtube": "None", "website": "None", "summary": "None", "logo": "None", "latitude": 60.719183759708926, "longitude": -135.05063278692015}, "119302305RR0002": {"name": "WOMEN IN TRANSITION HOUSE INC", "designationCode": "C", "categoryCode": "09", "address": "PO BOX 1143", "city": "FREDERICTON", "province": "NB", "country": "CA", "postalCode": "E3B5C2", "twitter": "None", "instagram": "None", "facebook": "None", "youtube": "None", "website": "None", "summary": "None", "logo": "None", "latitude": 45.96062100000006, "longitude": -66.63911299999994}, "850376591RR0001": {"name": "WOMEN OF EXCELLENCE SUPPORT AND RELIEF ORGANIZATION", "designationCode": "C", "categoryCode": "59", "address": "1945 WESTON RD", "city": "YORK", "province": "ON", "country": "CA", "postalCode": "M9N1W8", "twitter": "None", "instagram": "None", "facebook": "None", "youtube": "None", "website": "None", "summary": "None", "logo": "None", "latitude": 43.70075983195002, "longitude": -79.51805614649861}, "888337839RR0001": {"name": "WOMEN OF NOTE INC.", "designationCode": "C", "categoryCode": "22", "address": "9 WESTFIELD DR", "city": "WINNIPEG", "province": "MB", "country": "CA", "postalCode": "R3R2B4", "twitter": "None", "instagram": "None", "facebook": "None", "youtube": "None", "website": "None", "summary": "None", "logo": "None", "latitude": 49.861985783513205, "longitude": -97.32059137451692}, "889892196RR0001": {"name": "WOMEN OF THE CHURCH", "designationCode": "C", "categoryCode": "47", "address": "10 CAMPBELL ST. R.R.#6", "city": "WOODVILLE", "province": "ON", "country": "CA", "postalCode": "K0M2T0", "twitter": "None", "instagram": "None", "facebook": "None", "youtube": "None", "website": "None", "summary": "None", "logo": "None", "latitude": 44.53189392030726, "longitude": -79.0780457965836}, "868788910RR0001": {"name": "WOMEN REFRESHED AT THE WELL INC.", "designationCode": "C", "categoryCode": "49", "address": "5839 HENDERSON HIGHWAY", "city": "NAROL", "province": "MB", "country": "CA", "postalCode": "R1C0B5", "twitter": "None", "instagram": "None", "facebook": "None", "youtube": "None", "website": "None", "summary": "None", "logo": "None", "latitude": 50.059503401501416, "longitude": -96.97432830198032}, "119302479RR0001": {"name": "WOMEN S AUXILIARY MONTREAL CHINESE HOSPITAL DAMES AUXILIAIRES DE HOPITAL CHINOIS", "designationCode": "C", "categoryCode": "19", "address": "189 VIGER EAST", "city": "MONTR\u00c9AL", "province": "QC", "country": "CA", "postalCode": "H2X3Y9", "twitter": "None", "instagram": "None", "facebook": "None", "youtube": "None", "website": "None", "summary": "None", "logo": "None", "latitude": 45.50921999890348, "longitude": -73.55748344399521}, "141069252RR0001": {"name": "WOMEN'S ADDICTION RECOVERY MEDIATION", "designationCode": "C", "categoryCode": "09", "address": "PO BOX 622", "city": "FONTHILL", "province": "ON", "country": "CA", "postalCode": "L0S1E0", "twitter": "None", "instagram": "None", "facebook": "None", "youtube": "None", "website": "None", "summary": "None", "logo": "None", "latitude": 43.04568000000006, "longitude": -79.28625999999997}, "834075368RR0001": {"name": "WOMEN'S ART MUSEUM SOCIETY OF CANADA", "designationCode": "C", "categoryCode": "50", "address": "200 - 8627 91 ST NW", "city": "EDMONTON", "province": "AB", "country": "CA", "postalCode": "T6C3N1", "twitter": "None", "instagram": "None", "facebook": "None", "youtube": "None", "website": "None", "summary": "None", "logo": "None", "latitude": 53.5223435029142, "longitude": -113.46738528455239}, "890781446RR0001": {"name": "WOMEN'S AUXILIARY OF OUR LADY OF THE ROSARY HOSPITAL,", "designationCode": "C", "categoryCode": "19", "address": "BOX 164", "city": "CASTOR", "province": "AB", "country": "CA", "postalCode": "T0C0X0", "twitter": "None", "instagram": "None", "facebook": "None", "youtube": "None", "website": "None", "summary": "None", "logo": "None", "latitude": 52.21792000000005, "longitude": -111.90889999999996}, "119302503RR0001": {"name": "WOMEN'S AUXILIARY OF THE HOSPITAL FOR SICK CHILDREN, TORONTO, THE", "designationCode": "C", "categoryCode": "19", "address": "555 UNIVERSITY AVE", "city": "TORONTO", "province": "ON", "country": "CA", "postalCode": "M5G1X8", "twitter": "None", "instagram": "None", "facebook": "None", "youtube": "None", "website": "None", "summary": "None", "logo": "None", "latitude": 43.65701607885604, "longitude": -79.3890803209659}, "839563921RR0001": {"name": "WOMEN'S CANADIAN CLUB OF WINNIPEG CENTENNIAL EDUCATIONAL FUND", "designationCode": "A", "categoryCode": "05", "address": "3627 VIALOUX DRIVE", "city": "WINNIPEG", "province": "MB", "country": "CA", "postalCode": "R3R0A5", "twitter": "None", "instagram": "None", "facebook": "None", "youtube": "None", "website": "None", "summary": "None", "logo": "None", "latitude": 49.8701354616246, "longitude": -97.26011389038594}, "858748288RR0001": {"name": "WOMEN'S CED NETWORK SOCIETY", "designationCode": "C", "categoryCode": "09", "address": "P.O. BOX 38", "city": "HUBBARDS", "province": "NS", "country": "CA", "postalCode": "B0J1T0", "twitter": "None", "instagram": "None", "facebook": "None", "youtube": "None", "website": "None", "summary": "None", "logo": "None", "latitude": 44.503890000000055, "longitude": -64.06356499999993}, "874914955RR0001": {"name": "WOMEN'S CENTRE OF CALGARY", "designationCode": "C", "categoryCode": "09", "address": "39 4 STREET NE", "city": "CALGARY", "province": "AB", "country": "CA", "postalCode": "T2E3R6", "twitter": "None", "instagram": "None", "facebook": "None", "youtube": "None", "website": "None", "summary": "None", "logo": "None", "latitude": 51.05247517929482, "longitude": -114.05175710090015}, "134859024RR0001": {"name": "WOMEN'S CENTRE OF YORK REGION", "designationCode": "C", "categoryCode": "09", "address": "120 HARRY WALKER PARKWAY NORTH", "city": "NEWMARKET", "province": "ON", "country": "CA", "postalCode": "L3Y7B2", "twitter": "None", "instagram": "None", "facebook": "None", "youtube": "None", "website": "None", "summary": "None", "logo": "None", "latitude": 44.07077862282869, "longitude": -79.42528074095416}, "137559092RR0001": {"name": "WOMEN'S COLLEGE HEALTH RESEARCH", "designationCode": "C", "categoryCode": "11", "address": "12TH FLOOR-790 BAY STREET", "city": "TORONTO", "province": "ON", "country": "CA", "postalCode": "M5G1N8", "twitter": "None", "instagram": "None", "facebook": "None", "youtube": "None", "website": "None", "summary": "None", "logo": "None", "latitude": 43.66052561059501, "longitude": -79.38575567516854}, "119302636RR0001": {"name": "WOMEN'S COLLEGE HOSPITAL", "designationCode": "C", "categoryCode": "10", "address": "76 GRENVILLE ST", "city": "TORONTO", "province": "ON", "country": "CA", "postalCode": "M5S1B2", "twitter": "None", "instagram": "None", "facebook": "None", "youtube": "None", "website": "None", "summary": "None", "logo": "None", "latitude": 43.6613191906918, "longitude": -79.38724995504639}, "888453669RR0001": {"name": "WOMEN'S COLLEGE HOSPITAL ALUMNAE MEMORIAL FUND, THE", "designationCode": "C", "categoryCode": "21", "address": "1 CONCORDE PLACE  # 2301", "city": "TORONTO", "province": "ON", "country": "CA", "postalCode": "M3C3K6", "twitter": "None", "instagram": "None", "facebook": "None", "youtube": "None", "website": "None", "summary": "None", "logo": "None", "latitude": 43.728647050233725, "longitude": -79.32828271031265}, "119302628RR0001": {"name": "WOMEN'S COLLEGE HOSPITAL FOUNDATION", "designationCode": "A", "categoryCode": "19", "address": "76 GRENVILLE STREET", "city": "TORONTO", "province": "ON", "country": "CA", "postalCode": "M5S1B2", "twitter": "None", "instagram": "None", "facebook": "None", "youtube": "None", "website": "None", "summary": "None", "logo": "None", "latitude": 43.6613191906918, "longitude": -79.38724995504639}, "106716525RR0001": {"name": "WOMEN'S CRISIS SERVICES OF WATERLOO REGION", "designationCode": "C", "categoryCode": "09", "address": "700 HERITAGE DR", "city": "KITCHENER", "province": "ON", "country": "CA", "postalCode": "N2A3N9", "twitter": "None", "instagram": "None", "facebook": "None", "youtube": "None", "website": "None", "summary": "None", "logo": "None", "latitude": 43.454637082174266, "longitude": -80.43239363915998}, "815260476RR0001": {"name": "WOMEN'S EDUCATION AND LITERACY IN NEPAL", "designationCode": "C", "categoryCode": "21", "address": "178A PALMERSTON AVENUE", "city": "TORONTO", "province": "ON", "country": "CA", "postalCode": "M6J2J4", "twitter": "None", "instagram": "None", "facebook": "None", "youtube": "None", "website": "None", "summary": "None", "logo": "None", "latitude": 43.65238583268411, "longitude": -79.40875644366078}, "889933669RR0001": {"name": "WOMEN'S EDUCATION AND RESEARCH FOUNDATION OF ONTARIO INCORPORATED", "designationCode": "C", "categoryCode": "59", "address": "FACULTY OF LAW, UNIV OF OTTAWA57 LOUIS PASTEUR", "city": "OTTAWA", "province": "ON", "country": "CA", "postalCode": "K1N6N5", "twitter": "None", "instagram": "None", "facebook": "None", "youtube": "None", "website": "None", "summary": "None", "logo": "None", "latitude": 45.421123514397415, "longitude": -75.68043137672491}, "896380532RR0001": {"name": "WOMEN'S EMPLOYMENT RESOURCE CENTRE OF OXFORD COUNTY", "designationCode": "C", "categoryCode": "59", "address": "424 DUNDAS ST", "city": "WOODSTOCK", "province": "ON", "country": "CA", "postalCode": "N4S1C1", "twitter": "None", "instagram": "None", "facebook": "None", "youtube": "None", "website": "None", "summary": "None", "logo": "None", "latitude": 43.12973460170821, "longitude": -80.75891646517394}, "896501806RR0001": {"name": "WOMEN'S EMPOWERMENT INTERNATIONAL FOUNDATION", "designationCode": "C", "categoryCode": "09", "address": "21303 46 AVE NW", "city": "EDMONTON", "province": "AB", "country": "CA", "postalCode": "T6M0G8", "twitter": "None", "instagram": "None", "facebook": "None", "youtube": "None", "website": "None", "summary": "None", "logo": "None", "latitude": 53.48445151399403, "longitude": -113.68679022300768}, "129398368RR0001": {"name": "WOMEN'S ENTERPRISE SKILLS TRAINING OF WINDSOR", "designationCode": "C", "categoryCode": "20", "address": "SUITE 201 647 OUELLETTE AVE", "city": "WINDSOR", "province": "ON", "country": "CA", "postalCode": "N9A4J4", "twitter": "None", "instagram": "None", "facebook": "None", "youtube": "None", "website": "None", "summary": "None", "logo": "None", "latitude": 42.31356382901505, "longitude": -83.03650048228371}, "813848678RR0001": {"name": "WOMEN'S EXECUTIVE NETWORK FOUNDATION", "designationCode": "A", "categoryCode": "03", "address": "502-180 BLOOR STREET WEST", "city": "TORONTO", "province": "ON", "country": "CA", "postalCode": "M5S2V6", "twitter": "None", "instagram": "None", "facebook": "None", "youtube": "None", "website": "None", "summary": "None", "logo": "None", "latitude": 43.668599048588945, "longitude": -79.39481856731483}, "129122065RR0001": {"name": "WOMEN'S HABITAT OF ETOBICOKE", "designationCode": "C", "categoryCode": "01", "address": "140 ISLINGTON AVENUE", "city": "ETOBICOKE", "province": "ON", "country": "CA", "postalCode": "M8V3B6", "twitter": "None", "instagram": "None", "facebook": "None", "youtube": "None", "website": "None", "summary": "None", "logo": "None", "latitude": 43.60118568720067, "longitude": -79.50547724398392}, "119302693RR0001": {"name": "WOMEN'S HEALTH CLINIC INC", "designationCode": "C", "categoryCode": "09", "address": "304-419 GRAHAM AVENUE", "city": "WINNIPEG", "province": "MB", "country": "CA", "postalCode": "R3C0M3", "twitter": "None", "instagram": "None", "facebook": "None", "youtube": "None", "website": "None", "summary": "None", "logo": "None", "latitude": 49.890789000000005, "longitude": -97.1485335}, "125634790RR0001": {"name": "WOMEN'S HEALTH IN WOMEN'S HANDS", "designationCode": "C", "categoryCode": "11", "address": "2 CARLTON ST                  SUITE 500", "city": "TORONTO", "province": "ON", "country": "CA", "postalCode": "M5B1J3", "twitter": "None", "instagram": "None", "facebook": "None", "youtube": "None", "website": "None", "summary": "None", "logo": "None", "latitude": 43.66141244936224, "longitude": -79.38286545198797}, "119262533RR0001": {"name": "WOMEN'S HEALTHY ENVIRONMENTS NETWORK", "designationCode": "C", "categoryCode": "29", "address": "400 - 215 SPADINA AVE", "city": "TORONTO", "province": "ON", "country": "CA", "postalCode": "M5T2C7", "twitter": "None", "instagram": "None", "facebook": "None", "youtube": "None", "website": "None", "summary": "None", "logo": "None", "latitude": 43.65063316348313, "longitude": -79.39697013165816}, "119302727RR0001": {"name": "WOMEN'S HOSTELS INCORPORATED", "designationCode": "C", "categoryCode": "01", "address": "970 QUEEN'S ST. EAST          PO BOX 98118", "city": "TORONTO", "province": "ON", "country": "CA", "postalCode": "M4M1J8", "twitter": "None", "instagram": "None", "facebook": "None", "youtube": "None", "website": "None", "summary": "None", "logo": "None", "latitude": 43.66103013240799, "longitude": -79.34032789967677}, "108104464RR0001": {"name": "WOMEN'S HOUSE SERVING BRUCE & GREY", "designationCode": "C", "categoryCode": "09", "address": "PO BOX 760 STN MAIN", "city": "KINCARDINE", "province": "ON", "country": "CA", "postalCode": "N2Z2Z4", "twitter": "None", "instagram": "None", "facebook": "None", "youtube": "None", "website": "None", "summary": "None", "logo": "None", "latitude": 44.18160900000005, "longitude": -81.63174049999994}, "135064590RR0001": {"name": "WOMEN'S INITIATIVES FOR SAFER ENVIRONMENTS/INITIATIVES DES FEMMES POUR LA SECURITE ENVIRONMENTALE", "designationCode": "C", "categoryCode": "59", "address": "211 BRONSON AVE ROOM 205", "city": "OTTAWA", "province": "ON", "country": "CA", "postalCode": "K1R6H5", "twitter": "None", "instagram": "None", "facebook": "None", "youtube": "None", "website": "None", "summary": "None", "logo": "None", "latitude": 45.41349725618897, "longitude": -75.7068905103587}, "105731186RR0001": {"name": "WOMEN'S INSTITUTE HOME COMPANY LIMITED", "designationCode": "C", "categoryCode": "01", "address": "129 CHAPEL STREET", "city": "WOODSTOCK", "province": "NB", "country": "CA", "postalCode": "E7M1G7", "twitter": "None", "instagram": "None", "facebook": "None", "youtube": "None", "website": "None", "summary": "None", "logo": "None", "latitude": 46.152278823734946, "longitude": -67.57726728310915}, "890816143RR0001": {"name": "WOMEN'S INSTITUTE OF TORAH STUDY", "designationCode": "C", "categoryCode": "20", "address": "83 GREEN LANE", "city": "THORNHILL", "province": "ON", "country": "CA", "postalCode": "L3T6K6", "twitter": "None", "instagram": "None", "facebook": "None", "youtube": "None", "website": "None", "summary": "None", "logo": "None", "latitude": 43.822739830948315, "longitude": -79.3942358845289}, "108219890RR0001": {"name": "WOMEN'S INTER-CHURCH COUNCIL OF CANADA", "designationCode": "C", "categoryCode": "49", "address": "47 QUEENS PARK CRES. E", "city": "TORONTO", "province": "ON", "country": "CA", "postalCode": "M5S2C3", "twitter": "None", "instagram": "None", "facebook": "None", "youtube": "None", "website": "None", "summary": "None", "logo": "None", "latitude": 43.66464755704306, "longitude": -79.3910169669343}, "139417992RR0001": {"name": "WOMEN'S LEGAL EDUCATION AND ACTION FUND FOUNDATION/LA FONDATION DU FONDS D'ACTION ET D'EDUCATION JURIDIQUES POUR LES FEM", "designationCode": "A", "categoryCode": "23", "address": "4009 - 1 KING ST W", "city": "TORONTO", "province": "ON", "country": "CA", "postalCode": "M5H1A1", "twitter": "None", "instagram": "None", "facebook": "None", "youtube": "None", "website": "None", "summary": "None", "logo": "None", "latitude": 43.64813467004466, "longitude": -79.38254906728791}, "108219916RR0001": {"name": "WOMEN'S LEGAL EDUCATION AND ACTION FUND INC./ FONDS D'ACTIONET D'EDUCATION JURIDIQUES POUR LES FEMMES INC.", "designationCode": "C", "categoryCode": "21", "address": "309 - 260 SPADINA AVE", "city": "TORONTO", "province": "ON", "country": "CA", "postalCode": "M5T2E4", "twitter": "None", "instagram": "None", "facebook": "None", "youtube": "None", "website": "None", "summary": "None", "logo": "None", "latitude": 43.65198494587113, "longitude": -79.39782395216086}, "891325342RR0001": {"name": "WOMEN'S MEMORIAL SOCIETY OF ONTARIO", "designationCode": "C", "categoryCode": "59", "address": "48 PARKVIEW HILLS CRES", "city": "TORONTO", "province": "ON", "country": "CA", "postalCode": "M4B1P9", "twitter": "None", "instagram": "None", "facebook": "None", "youtube": "None", "website": "None", "summary": "None", "logo": "None", "latitude": 43.703729474897465, "longitude": -79.32655257799065}, "890237175RR0001": {"name": "WOMEN'S MINISTRIES INTERNATIONAL OF THE CANADA EAST CONFERENCE OF THE FREE METHODIST CHURCH IN CANADA", "designationCode": "C", "categoryCode": "47", "address": "400 GINGER ST", "city": "NAPANEE", "province": "ON", "country": "CA", "postalCode": "K7R3X8", "twitter": "None", "instagram": "None", "facebook": "None", "youtube": "None", "website": "None", "summary": "None", "logo": "None", "latitude": 44.26112753482606, "longitude": -76.94675380601865}, "118904382RR0001": {"name": "WOMEN'S MISSIONARY SOCIETY", "designationCode": "C", "categoryCode": "47", "address": "162 MOWAT AVE", "city": "KINGSTON", "province": "ON", "country": "CA", "postalCode": "K7M1K7", "twitter": "None", "instagram": "None", "facebook": "None", "youtube": "None", "website": "None", "summary": "None", "logo": "None", "latitude": 44.22233316541636, "longitude": -76.52029101154119}, "119302909RR0001": {"name": "WOMEN'S MISSIONARY SOCIETY OF KNOX PRESBYTERIAN CHURCH; MONKTON", "designationCode": "B", "categoryCode": "47", "address": "RR #3                         6658 LINE 57", "city": "MONKTON", "province": "ON", "country": "CA", "postalCode": "N0K1P0", "twitter": "None", "instagram": "None", "facebook": "None", "youtube": "None", "website": "None", "summary": "None", "logo": "None", "latitude": 43.618293972768065, "longitude": -81.13813986132777}, "119302958RR0001": {"name": "WOMEN'S MISSIONARY SOCIETY WD LAUREL LEA - ST MATTHEW'S PRESBYTERIAN CHURCH", "designationCode": "C", "categoryCode": "47", "address": "5700 BLACKWELL SIDE ROAD, #364", "city": "SARNIA", "province": "ON", "country": "CA", "postalCode": "N7W1B7", "twitter": "None", "instagram": "None", "facebook": "None", "youtube": "None", "website": "None", "summary": "None", "logo": "None", "latitude": 42.97764782910824, "longitude": -82.32166315310214}, "889706966RR0001": {"name": "WOMEN'S MISSIONARY SOCIETY-FIRST PRESBYTERIAN CHURCH, NORTH PELHAM", "designationCode": "A", "categoryCode": "47", "address": "785 KILMAN RD RR#3", "city": "FENWICK", "province": "ON", "country": "CA", "postalCode": "L0S1C0", "twitter": "None", "instagram": "None", "facebook": "None", "youtube": "None", "website": "None", "summary": "None", "logo": "None", "latitude": 43.07043750216346, "longitude": -79.35753349570084}, "891566598RR0001": {"name": "WOMEN'S MISSIONARY SOCIETY, ALMONTE PRESBYTERIAN CHURCH", "designationCode": "C", "categoryCode": "47", "address": "111 CHURCH ST.", "city": "ALMONTE", "province": "ON", "country": "CA", "postalCode": "K0A1A0", "twitter": "None", "instagram": "None", "facebook": "None", "youtube": "None", "website": "None", "summary": "None", "logo": "None", "latitude": 45.222881113509196, "longitude": -76.19207849815366}, "119101780RR0002": {"name": "WOMEN'S MISSIONARY SOCIETY, FAIRVIEW PRESBYTERIAN CHURCH", "designationCode": "C", "categoryCode": "47", "address": "206 - 611 41ST AVE W", "city": "VANCOUVER", "province": "BC", "country": "CA", "postalCode": "V5Z0C7", "twitter": "None", "instagram": "None", "facebook": "None", "youtube": "None", "website": "None", "summary": "None", "logo": "None", "latitude": 49.23369448039729, "longitude": -123.11827661274658}, "890588791RR0001": {"name": "WOMEN'S MISSIONARY SOCIETY, KNOX PRESBYTERIAN CHURCH, CENTRE ROAD", "designationCode": "C", "categoryCode": "47", "address": "10655 TOWNSEND LINE", "city": "STRATHROY", "province": "ON", "country": "CA", "postalCode": "N7G3H7", "twitter": "None", "instagram": "None", "facebook": "None", "youtube": "None", "website": "None", "summary": "None", "logo": "None", "latitude": 43.05004783870993, "longitude": -81.69033787867187}, "119262855RR0001": {"name": "WOMEN'S MISSIONARY SOCIETY, WD, HURON-PERTH PRESBYTERIAL", "designationCode": "C", "categoryCode": "47", "address": "#65-300 JOHN ST. S.", "city": "STRATFORD", "province": "ON", "country": "CA", "postalCode": "N5A7V5", "twitter": "None", "instagram": "None", "facebook": "None", "youtube": "None", "website": "None", "summary": "None", "logo": "None", "latitude": 43.36671107309325, "longitude": -80.99849228055007}, "888254190RR0001": {"name": "WOMEN'S MISSIONARY SOCIETY, WESTERN DIVISION, THE CHINESE PRESBYTERIAN CHURCH", "designationCode": "C", "categoryCode": "47", "address": "8700 14TH AVE", "city": "MONTREAL", "province": "QC", "country": "CA", "postalCode": "H1Z3M5", "twitter": "None", "instagram": "None", "facebook": "None", "youtube": "None", "website": "None", "summary": "None", "logo": "None", "latitude": 45.57018371689085, "longitude": -73.61952419859765}, "888934999RR0001": {"name": "WOMEN'S MISSIONARY SOCIETY, WESTMINSTER PRESBYTERIAN CHURCH,SMITHS FALLS, ONTARIO", "designationCode": "A", "categoryCode": "47", "address": "11 CHURCH ST W", "city": "SMITH FALLS", "province": "ON", "country": "CA", "postalCode": "K7A1P6", "twitter": "None", "instagram": "None", "facebook": "None", "youtube": "None", "website": "None", "summary": "None", "logo": "None", "latitude": 44.90209852510254, "longitude": -76.02193785345375}, "885394940RR0001": {"name": "WOMEN'S MULTICULTURAL RESOURCE AND COUNSELLING CENTRE OF DURHAM", "designationCode": "C", "categoryCode": "57", "address": "1355 KINGSTON ROAD            P.O. BOX 66164", "city": "PICKERING", "province": "ON", "country": "CA", "postalCode": "L1V6P7", "twitter": "None", "instagram": "None", "facebook": "None", "youtube": "None", "website": "None", "summary": "None", "logo": "None", "latitude": 43.83808909457809, "longitude": -79.08720627462992}, "130511488RR0001": {"name": "WOMEN'S MUSICAL CLUB OF WINNIPEG,", "designationCode": "C", "categoryCode": "22", "address": "46 ASHFORD DR", "city": "WINNIPEG", "province": "MB", "country": "CA", "postalCode": "R2N1K8", "twitter": "None", "instagram": "None", "facebook": "None", "youtube": "None", "website": "None", "summary": "None", "logo": "None", "latitude": 49.81463721397665, "longitude": -97.09860053176763}, "872624416RR0001": {"name": "WOMEN'S OWN RESOURCE CENTRE", "designationCode": "C", "categoryCode": "09", "address": "105 OTTAWA AVENUE             PO BOX 155", "city": "SOUTH RIVER", "province": "ON", "country": "CA", "postalCode": "P0A1X0", "twitter": "None", "instagram": "None", "facebook": "None", "youtube": "None", "website": "None", "summary": "None", "logo": "None", "latitude": 45.84113457448209, "longitude": -79.37918309575592}, "129718037RR0001": {"name": "WOMEN'S PLACE (ST CATHARINES & DISTRICT) INC", "designationCode": "C", "categoryCode": "01", "address": "PO BOX 1387  STN MAIN", "city": "ST CATHARINES", "province": "ON", "country": "CA", "postalCode": "L2R7J8", "twitter": "None", "instagram": "None", "facebook": "None", "youtube": "None", "website": "None", "summary": "None", "logo": "None", "latitude": 43.15634700000005, "longitude": -79.24869349999993}, "108219973RR0001": {"name": "WOMEN'S PLACE KENORA", "designationCode": "C", "categoryCode": "09", "address": "530 THIRD STREET NORTH", "city": "KENORA", "province": "ON", "country": "CA", "postalCode": "P9N2M3", "twitter": "None", "instagram": "None", "facebook": "None", "youtube": "None", "website": "None", "summary": "None", "logo": "None", "latitude": 49.7695714782157, "longitude": -94.47814311226844}, "131135717RR0001": {"name": "WOMEN'S PLACE OF SOUTH NIAGARA INC", "designationCode": "C", "categoryCode": "09", "address": "P.O. BOX 853                  STATION MAIN", "city": "NIAGARA FALLS", "province": "ON", "country": "CA", "postalCode": "L2E6V6", "twitter": "None", "instagram": "None", "facebook": "None", "youtube": "None", "website": "None", "summary": "None", "logo": "None", "latitude": 43.10663100000005, "longitude": -79.06433299999993}, "122590334RR0002": {"name": "WOMEN'S RURAL RESOURCE CENTRE OF STRATHROY & AREA", "designationCode": "C", "categoryCode": "59", "address": "145 BEECH STREET", "city": "STRATHROY", "province": "ON", "country": "CA", "postalCode": "N7G1K9", "twitter": "None", "instagram": "None", "facebook": "None", "youtube": "None", "website": "None", "summary": "None", "logo": "None", "latitude": 42.95239322427708, "longitude": -81.62521769750111}, "118920008RR0001": {"name": "WOMEN'S SAFE HAVEN / RESOURCE SERVICE, INC.", "designationCode": "C", "categoryCode": "09", "address": "60 HAPNOT STREET", "city": "FLIN FLON", "province": "MB", "country": "CA", "postalCode": "R8A1L6", "twitter": "None", "instagram": "None", "facebook": "None", "youtube": "None", "website": "None", "summary": "None", "logo": "None", "latitude": 54.766597233135236, "longitude": -101.87542564573818}, "889034260RR0001": {"name": "WOMEN'S SAVINGS ACTION FOR THE THEOLOGICAL COLLEGE OF THE CANADIAN REFORMED CHURCHES", "designationCode": "A", "categoryCode": "25", "address": "483 MOORES RD", "city": "CALEDONIA", "province": "ON", "country": "CA", "postalCode": "N3W2H6", "twitter": "None", "instagram": "None", "facebook": "None", "youtube": "None", "website": "None", "summary": "None", "logo": "None", "latitude": 43.06371945132415, "longitude": -79.85186135417491}, "136663812RR0001": {"name": "WOMEN'S SHELTER OF YORK REGION INC.", "designationCode": "C", "categoryCode": "09", "address": "P.O. BOX 248", "city": "SUTTON WEST", "province": "ON", "country": "CA", "postalCode": "L0E1R0", "twitter": "None", "instagram": "None", "facebook": "None", "youtube": "None", "website": "None", "summary": "None", "logo": "None", "latitude": 44.33123400000005, "longitude": -79.33264549999993}, "107564338RR0001": {"name": "WOMEN'S SHELTER, SAAKAATE HOUSE INC.", "designationCode": "C", "categoryCode": "09", "address": "P.O. BOX 49", "city": "KENORA", "province": "ON", "country": "CA", "postalCode": "P9N3X1", "twitter": "None", "instagram": "None", "facebook": "None", "youtube": "None", "website": "None", "summary": "None", "logo": "None", "latitude": 49.77125700000006, "longitude": -94.48912249999994}}