{"106880073RR0005": {"name": "THE ROMAN CATHOLIC BISHOP OF KAMLOOPS ST. JOSEPH'S PARISH", "designationCode": "C", "categoryCode": "38", "address": "PO BOX 331", "city": "ARMSTRONG", "province": "BC", "country": "CA", "postalCode": "V0E1B0", "twitter": "None", "instagram": "None", "facebook": "None", "youtube": "None", "website": "None", "summary": "None", "logo": "None", "latitude": 50.44798500000006, "longitude": -119.19492799999993}, "106880073RR0028": {"name": "THE ROMAN CATHOLIC BISHOP OF KAMLOOPS ST. JOSEPH'S PARISH", "designationCode": "C", "categoryCode": "38", "address": "90 1 ST SE", "city": "SALMON ARM", "province": "BC", "country": "CA", "postalCode": "V1E4H4", "twitter": "None", "instagram": "None", "facebook": "None", "youtube": "None", "website": "None", "summary": "None", "logo": "None", "latitude": 50.69902567206254, "longitude": -119.28368189177718}, "106880073RR0021": {"name": "THE ROMAN CATHOLIC BISHOP OF KAMLOOPS ST. MICHAEL'S PARISH", "designationCode": "C", "categoryCode": "38", "address": "PO BOX 1228", "city": "LOGAN LAKE", "province": "BC", "country": "CA", "postalCode": "V0K1W0", "twitter": "None", "instagram": "None", "facebook": "None", "youtube": "None", "website": "None", "summary": "None", "logo": "None", "latitude": 50.49127000000004, "longitude": -120.81466999999998}, "106880073RR0018": {"name": "THE ROMAN CATHOLIC BISHOP OF KAMLOOPS-ST. JOHN VIANNEY", "designationCode": "C", "categoryCode": "38", "address": "2826 BANK ROAD", "city": "KAMLOOPS", "province": "BC", "country": "CA", "postalCode": "V2B8E5", "twitter": "None", "instagram": "None", "facebook": "None", "youtube": "None", "website": "None", "summary": "None", "logo": "None", "latitude": 50.75427100167344, "longitude": -120.34750223232717}, "106880073RR0030": {"name": "THE ROMAN CATHOLIC BISHOP OF KAMLOOPS, OUR LADY OF THE LAKE PARISH", "designationCode": "C", "categoryCode": "38", "address": "2385 GOLF COURSE DR", "city": "BLIND BAY", "province": "BC", "country": "CA", "postalCode": "V0E1H2", "twitter": "None", "instagram": "None", "facebook": "None", "youtube": "None", "website": "None", "summary": "None", "logo": "None", "latitude": 50.87034430986012, "longitude": -119.38023184615209}, "106880073RR0033": {"name": "THE ROMAN CATHOLIC BISHOP OF KAMLOOPS, OUR LADY OF THE MOUNTAINS PARISH", "designationCode": "C", "categoryCode": "38", "address": "6299 LORIMER ROAD", "city": "WHISTLER", "province": "BC", "country": "CA", "postalCode": "V0N1B6", "twitter": "None", "instagram": "None", "facebook": "None", "youtube": "None", "website": "None", "summary": "None", "logo": "None", "latitude": 50.12654056670927, "longitude": -122.97086744659136}, "106880073RR0013": {"name": "THE ROMAN CATHOLIC BISHOP OF KAMLOOPS, ST. ANN'S PARISH", "designationCode": "C", "categoryCode": "38", "address": "PO BOX 331", "city": "ARMSTRONG", "province": "BC", "country": "CA", "postalCode": "V0E1B0", "twitter": "None", "instagram": "None", "facebook": "None", "youtube": "None", "website": "None", "summary": "None", "logo": "None", "latitude": 50.44798500000006, "longitude": -119.19492799999993}, "106880073RR0007": {"name": "THE ROMAN CATHOLIC BISHOP OF KAMLOOPS, ST. GEORGES PARISH", "designationCode": "C", "categoryCode": "38", "address": "635A TRANQUILLE RD", "city": "KAMLOOPS", "province": "BC", "country": "CA", "postalCode": "V2B3H5", "twitter": "None", "instagram": "None", "facebook": "None", "youtube": "None", "website": "None", "summary": "None", "logo": "None", "latitude": 50.69513785619937, "longitude": -120.36046005142083}, "106880073RR0010": {"name": "THE ROMAN CATHOLIC BISHOP OF KAMLOOPS, ST. JAMES PARISH", "designationCode": "C", "categoryCode": "38", "address": "635A TRANQUILLE RD", "city": "KAMLOOPS", "province": "BC", "country": "CA", "postalCode": "V2B3H5", "twitter": "None", "instagram": "None", "facebook": "None", "youtube": "None", "website": "None", "summary": "None", "logo": "None", "latitude": 50.69513785619937, "longitude": -120.36046005142083}, "108094392RR0002": {"name": "THE ROMAN CATHOLIC BISHOP OF NELSON", "designationCode": "C", "categoryCode": "38", "address": "3665 BENVOULIN RD", "city": "KELOWNA", "province": "BC", "country": "CA", "postalCode": "V1W4M7", "twitter": "None", "instagram": "None", "facebook": "None", "youtube": "None", "website": "None", "summary": "None", "logo": "None", "latitude": 49.85056104631423, "longitude": -119.46776856721908}, "107020331RR0016": {"name": "THE ROMAN CATHOLIC BISHOP OF SAINT JOHN", "designationCode": "C", "categoryCode": "38", "address": "ONE BAYARD DRIVE", "city": "SAINT JOHN", "province": "NB", "country": "CA", "postalCode": "E2L3L5", "twitter": "None", "instagram": "None", "facebook": "None", "youtube": "None", "website": "None", "summary": "None", "logo": "None", "latitude": 45.27953726914648, "longitude": -66.05748716039407}, "119264174RR0001": {"name": "THE ROMAN CATHOLIC BISHOP OF THUNDER BAY", "designationCode": "C", "categoryCode": "38", "address": "PO BOX 10400", "city": "THUNDER BAY", "province": "ON", "country": "CA", "postalCode": "P7B6T8", "twitter": "None", "instagram": "None", "facebook": "None", "youtube": "None", "website": "None", "summary": "None", "logo": "None", "latitude": 48.38168400000005, "longitude": -89.24550199999993}, "140751884RR0001": {"name": "THE ROMAN CATHOLIC CHURCH COMMUNITY OF THE PRESENTATION EPHPHATHA HOUSE", "designationCode": "C", "categoryCode": "47", "address": "10628 146 ST NW", "city": "EDMONTON", "province": "AB", "country": "CA", "postalCode": "T5N3A7", "twitter": "None", "instagram": "None", "facebook": "None", "youtube": "None", "website": "None", "summary": "None", "logo": "None", "latitude": 53.5495862514571, "longitude": -113.57265672540227}, "119109700RR0001": {"name": "THE ROMAN CATHOLIC CHURCH OF OUR LADY OF THE CYPRESS", "designationCode": "C", "categoryCode": "38", "address": "PO BOX 130", "city": "HOLLAND", "province": "MB", "country": "CA", "postalCode": "R0G0X0", "twitter": "None", "instagram": "None", "facebook": "None", "youtube": "None", "website": "None", "summary": "None", "logo": "None", "latitude": 49.7686281543147, "longitude": -97.632704369717}, "119109726RR0001": {"name": "THE ROMAN CATHOLIC CHURCH OF SAINT MARY", "designationCode": "C", "categoryCode": "38", "address": "BOX 730", "city": "CARMAN", "province": "MB", "country": "CA", "postalCode": "R0G0J0", "twitter": "None", "instagram": "None", "facebook": "None", "youtube": "None", "website": "None", "summary": "None", "logo": "None", "latitude": 49.50860000000006, "longitude": -98.00231999999994}, "107910275RR0001": {"name": "THE ROMAN CATHOLIC EPISCOPAL CORPORATION OF MACKENZIE-FORT SMITH", "designationCode": "C", "categoryCode": "38", "address": "5117 52 ST", "city": "YELLOWKNIFE", "province": "NT", "country": "CA", "postalCode": "X1A1T7", "twitter": "None", "instagram": "None", "facebook": "None", "youtube": "None", "website": "None", "summary": "None", "logo": "None", "latitude": 62.45152717689483, "longitude": -114.37082072687275}, "128967353RR0001": {"name": "THE ROMAN CATHOLIC EPISCOPAL CORPORATION OF OTTAWA", "designationCode": "C", "categoryCode": "38", "address": "1247 KILBORN PLACE", "city": "OTTAWA", "province": "ON", "country": "CA", "postalCode": "K1H6K9", "twitter": "None", "instagram": "None", "facebook": "None", "youtube": "None", "website": "None", "summary": "None", "logo": "None", "latitude": 45.38617910467131, "longitude": -75.67189246282967}, "119110385RR0008": {"name": "THE ROMAN CATHOLIC EPISCOPAL CORPORATION OF PEMBROKE", "designationCode": "C", "categoryCode": "38", "address": "PO BOX 7                      188 RENFREW STREET", "city": "PEMBROKE", "province": "ON", "country": "CA", "postalCode": "K8A6X1", "twitter": "None", "instagram": "None", "facebook": "None", "youtube": "None", "website": "None", "summary": "None", "logo": "None", "latitude": 45.82408544949359, "longitude": -77.11675287406864}, "119110385RR0015": {"name": "THE ROMAN CATHOLIC EPISCOPAL CORPORATION OF PEMBROKE, CANADIAN MARTYRS", "designationCode": "C", "categoryCode": "38", "address": "2797 DAFOE RD, RR 2", "city": "COMBERMERE", "province": "ON", "country": "CA", "postalCode": "K0J1L0", "twitter": "None", "instagram": "None", "facebook": "None", "youtube": "None", "website": "None", "summary": "None", "logo": "None"}, "119110385RR0017": {"name": "THE ROMAN CATHOLIC EPISCOPAL CORPORATION OF PEMBROKE, HOLY NAME OF JESUS PARISH, PEMBROKE", "designationCode": "C", "categoryCode": "38", "address": "284 TRAFALGAR ROAD", "city": "PEMBROKE", "province": "ON", "country": "CA", "postalCode": "K8A5A8", "twitter": "None", "instagram": "None", "facebook": "None", "youtube": "None", "website": "None", "summary": "None", "logo": "None", "latitude": 45.82377326674921, "longitude": -77.12985966420428}, "119110385RR0010": {"name": "THE ROMAN CATHOLIC EPISCOPAL CORPORATION OF PEMBROKE, IMMACULATE CONCEPTION PARISH BRYSON", "designationCode": "C", "categoryCode": "38", "address": "162 FRONT ST, PO BOX 159", "city": "CAMPBELL'S BAY", "province": "QC", "country": "CA", "postalCode": "J0X1K0", "twitter": "None", "instagram": "None", "facebook": "None", "youtube": "None", "website": "None", "summary": "None", "logo": "None", "latitude": 45.73538977990651, "longitude": -76.60283478628315}, "119110385RR0027": {"name": "THE ROMAN CATHOLIC EPISCOPAL CORPORATION OF PEMBROKE, MOST PRECIOUS BLOOD OF OUR LORD PARISH", "designationCode": "C", "categoryCode": "38", "address": "BOX 60", "city": "CALABOGIE", "province": "ON", "country": "CA", "postalCode": "K0J1H0", "twitter": "None", "instagram": "None", "facebook": "None", "youtube": "None", "website": "None", "summary": "None", "logo": "None", "latitude": 45.390308555409, "longitude": -76.57315519536785}, "119110385RR0013": {"name": "THE ROMAN CATHOLIC EPISCOPAL CORPORATION OF PEMBROKE, NATIVITY OF MARY MISSION, GOLDEN LAKE", "designationCode": "C", "categoryCode": "38", "address": "PO BOX 190", "city": "EGANVILLE", "province": "ON", "country": "CA", "postalCode": "K0J1T0", "twitter": "None", "instagram": "None", "facebook": "None", "youtube": "None", "website": "None", "summary": "None", "logo": "None", "latitude": 45.57147000000006, "longitude": -77.04741949999993}, "119110385RR0045": {"name": "THE ROMAN CATHOLIC EPISCOPAL CORPORATION OF PEMBROKE, OUR LADY OF FATIMA PARISH", "designationCode": "C", "categoryCode": "38", "address": "100 LISGAR AVE W", "city": "RENFREW", "province": "ON", "country": "CA", "postalCode": "K7V3M2", "twitter": "None", "instagram": "None", "facebook": "None", "youtube": "None", "website": "None", "summary": "None", "logo": "None", "latitude": 45.474367865793965, "longitude": -76.69107048938487}, "119110385RR0035": {"name": "THE ROMAN CATHOLIC EPISCOPAL CORPORATION OF PEMBROKE, OUR LADY OF GOOD COUNSEL PARISH DEEP RIVER", "designationCode": "C", "categoryCode": "38", "address": "80 HIGHWAY 17 EAST PO 336", "city": "DEEP RIVER", "province": "ON", "country": "CA", "postalCode": "K0J1P0", "twitter": "None", "instagram": "None", "facebook": "None", "youtube": "None", "website": "None", "summary": "None", "logo": "None", "latitude": 46.09843843638107, "longitude": -77.49553780306906}, "119110385RR0032": {"name": "THE ROMAN CATHOLIC EPISCOPAL CORPORATION OF PEMBROKE, OUR LADY OF GRACE MISSION", "designationCode": "C", "categoryCode": "38", "address": "88 LACROIX BAY ROAD", "city": "WESTMEATH", "province": "ON", "country": "CA", "postalCode": "K0J2L0", "twitter": "None", "instagram": "None", "facebook": "None", "youtube": "None", "website": "None", "summary": "None", "logo": "None", "latitude": 45.81318484762537, "longitude": -76.76973084367292}, "119110385RR0028": {"name": "THE ROMAN CATHOLIC EPISCOPAL CORPORATION OF PEMBROKE, OUR LADY OF LOURDES PARISH", "designationCode": "C", "categoryCode": "38", "address": "280 LOURDESVIEW DRIVE", "city": "PEMBROKE", "province": "ON", "country": "CA", "postalCode": "K8A2G4", "twitter": "None", "instagram": "None", "facebook": "None", "youtube": "None", "website": "None", "summary": "None", "logo": "None", "latitude": 45.8209352828207, "longitude": -77.0927713450283}, "119110385RR0011": {"name": "THE ROMAN CATHOLIC EPISCOPAL CORPORATION OF PEMBROKE, OUR LADY OF MERCY PARISH", "designationCode": "C", "categoryCode": "38", "address": "196 BRIDGE ST W, PO BOX 879", "city": "BANCROFT", "province": "ON", "country": "CA", "postalCode": "K0L1C0", "twitter": "None", "instagram": "None", "facebook": "None", "youtube": "None", "website": "None", "summary": "None", "logo": "None", "latitude": 45.0568379222978, "longitude": -77.8628692386465}, "119110385RR0036": {"name": "THE ROMAN CATHOLIC EPISCOPAL CORPORATION OF PEMBROKE, OUR LADY OF MOUNT CARMEL PARISH", "designationCode": "C", "categoryCode": "38", "address": "88 LACROIX BAY ROAD", "city": "WESTMEATH", "province": "ON", "country": "CA", "postalCode": "K0J2L0", "twitter": "None", "instagram": "None", "facebook": "None", "youtube": "None", "website": "None", "summary": "None", "logo": "None", "latitude": 45.81318484762537, "longitude": -76.76973084367292}, "119110385RR0040": {"name": "THE ROMAN CATHOLIC EPISCOPAL CORPORATION OF PEMBROKE, OUR LADY OF THE HOLY ROSARY PARISH GRIFFITH", "designationCode": "C", "categoryCode": "38", "address": "P.O. BOX 12", "city": "GRIFFITH", "province": "ON", "country": "CA", "postalCode": "K0J2R0", "twitter": "None", "instagram": "None", "facebook": "None", "youtube": "None", "website": "None", "summary": "None", "logo": "None", "latitude": 45.244530000000054, "longitude": -77.16464999999994}, "119110385RR0064": {"name": "THE ROMAN CATHOLIC EPISCOPAL CORPORATION OF PEMBROKE, OUR LADY OF THE SNOWS' PARISH, STONECLIFFE", "designationCode": "C", "categoryCode": "38", "address": "52 MAIN STREET PO BOX 129", "city": "CHALK RIVER", "province": "ON", "country": "CA", "postalCode": "K0J1J0", "twitter": "None", "instagram": "None", "facebook": "None", "youtube": "None", "website": "None", "summary": "None", "logo": "None", "latitude": 46.015949994200284, "longitude": -77.45865124897558}, "119110385RR0022": {"name": "THE ROMAN CATHOLIC EPISCOPAL CORPORATION OF PEMBROKE, PAROISSE COEUR DE JESUS CORBEIL", "designationCode": "C", "categoryCode": "38", "address": "CP 118", "city": "CORBEIL", "province": "ON", "country": "CA", "postalCode": "P0H1K0", "twitter": "None", "instagram": "None", "facebook": "None", "youtube": "None", "website": "None", "summary": "None", "logo": "None", "latitude": 46.26281400000006, "longitude": -79.28751499999993}, "119110385RR0066": {"name": "THE ROMAN CATHOLIC EPISCOPAL CORPORATION OF PEMBROKE, PAROISSE ST-FRANCOIS D'ASSISE", "designationCode": "C", "categoryCode": "38", "address": "2, CHEMIN LIONEL BEAUSOLEIL", "city": "LAC DES LOUPS", "province": "QC", "country": "CA", "postalCode": "J0X3K0", "twitter": "None", "instagram": "None", "facebook": "None", "youtube": "None", "website": "None", "summary": "None", "logo": "None", "latitude": 45.68541948268776, "longitude": -76.211343}, "119110385RR0001": {"name": "THE ROMAN CATHOLIC EPISCOPAL CORPORATION OF PEMBROKE, PAROISSE ST-JEAN-BAPTISTE", "designationCode": "C", "categoryCode": "38", "address": "500 RUE ISABELLA", "city": "PEMBROKE", "province": "ON", "country": "CA", "postalCode": "K8A5T9", "twitter": "None", "instagram": "None", "facebook": "None", "youtube": "None", "website": "None", "summary": "None", "logo": "None", "latitude": 45.82306759391792, "longitude": -77.12585552567946}, "119110385RR0030": {"name": "THE ROMAN CATHOLIC EPISCOPAL CORPORATION OF PEMBROKE, PAROISSE ST-ROCK LAC CAYAMANT", "designationCode": "C", "categoryCode": "38", "address": "367 AVE MARTINEAU", "city": "OTTER LAKE", "province": "QC", "country": "CA", "postalCode": "J0X2P0", "twitter": "None", "instagram": "None", "facebook": "None", "youtube": "None", "website": "None", "summary": "None", "logo": "None", "latitude": 45.84800472551785, "longitude": -76.43067745562331}, "119110385RR0018": {"name": "THE ROMAN CATHOLIC EPISCOPAL CORPORATION OF PEMBROKE, PAROISSE STE-ANNE", "designationCode": "C", "categoryCode": "38", "address": "PO BOX 190", "city": "L'ILE DU GRAND CALUMET", "province": "QC", "country": "CA", "postalCode": "J0X1J0", "twitter": "None", "instagram": "None", "facebook": "None", "youtube": "None", "website": "None", "summary": "None", "logo": "None", "latitude": 45.58634944221181, "longitude": -76.6706869817137}, "119110385RR0024": {"name": "THE ROMAN CATHOLIC EPISCOPAL CORPORATION OF PEMBROKE, PAROISSE STE-THERESE TEMISCAMING", "designationCode": "C", "categoryCode": "38", "address": "CP 940 67 RUE BOUCHER", "city": "TEMISCAMING", "province": "QC", "country": "CA", "postalCode": "J0Z3R0", "twitter": "None", "instagram": "None", "facebook": "None", "youtube": "None", "website": "None", "summary": "None", "logo": "None", "latitude": 46.72079308630053, "longitude": -79.09959556604542}, "119110385RR0023": {"name": "THE ROMAN CATHOLIC EPISCOPAL CORPORATION OF PEMBROKE, PAROISSE THOMAS D'AQUIN ASTORVILLE", "designationCode": "C", "categoryCode": "38", "address": "1389 VILLAGE RD               RR 1", "city": "ASTORVILLE", "province": "ON", "country": "CA", "postalCode": "P0H1B0", "twitter": "None", "instagram": "None", "facebook": "None", "youtube": "None", "website": "None", "summary": "None", "logo": "None", "latitude": 46.18655106364822, "longitude": -79.27998180825156}, "119110385RR0038": {"name": "THE ROMAN CATHOLIC EPISCOPAL CORPORATION OF PEMBROKE, ST HEDWIG'S PARISH", "designationCode": "C", "categoryCode": "38", "address": "BOX 309,                      35 KAROL WOJTYLA SQUARE", "city": "BARRY'S BAY", "province": "ON", "country": "CA", "postalCode": "K0J1B0", "twitter": "None", "instagram": "None", "facebook": "None", "youtube": "None", "website": "None", "summary": "None", "logo": "None", "latitude": 45.48194738656236, "longitude": -77.68116804461795}, "119110385RR0031": {"name": "THE ROMAN CATHOLIC EPISCOPAL CORPORATION OF PEMBROKE, ST LAWRENCE O'TOOLE'S PARISH", "designationCode": "C", "categoryCode": "38", "address": "19454 OPEONGO LINE            BOX 118", "city": "BARRY'S BAY", "province": "ON", "country": "CA", "postalCode": "K0J1B0", "twitter": "None", "instagram": "None", "facebook": "None", "youtube": "None", "website": "None", "summary": "None", "logo": "None", "latitude": 45.48781310460304, "longitude": -77.67364396019742}, "119110385RR0053": {"name": "THE ROMAN CATHOLIC EPISCOPAL CORPORATION OF PEMBROKE, ST. ALPHONSUS PARISH CHAPEAU QUEBEC", "designationCode": "C", "categoryCode": "38", "address": "106 RUE ST. JACQUES           P.O. BOX 40", "city": "CHAPEAU", "province": "QC", "country": "CA", "postalCode": "J0X1M0", "twitter": "None", "instagram": "None", "facebook": "None", "youtube": "None", "website": "None", "summary": "None", "logo": "None", "latitude": 45.91039984205681, "longitude": -77.07783537731555}, "119110385RR0056": {"name": "THE ROMAN CATHOLIC EPISCOPAL CORPORATION OF PEMBROKE, ST. ANDREW'S PARISH KILLALOE", "designationCode": "C", "categoryCode": "38", "address": "111 QUEEN ST, BOX 10", "city": "KILLALOE", "province": "ON", "country": "CA", "postalCode": "K0J2A0", "twitter": "None", "instagram": "None", "facebook": "None", "youtube": "None", "website": "None", "summary": "None", "logo": "None", "latitude": 45.559806600464555, "longitude": -77.4172798594696}, "119110385RR0055": {"name": "THE ROMAN CATHOLIC EPISCOPAL CORPORATION OF PEMBROKE, ST. ANTHONY'S MISSION HALIBURTON", "designationCode": "C", "categoryCode": "38", "address": "27 VICTORIA ST                BOX 1200", "city": "HALIBURTON", "province": "ON", "country": "CA", "postalCode": "K0M1S0", "twitter": "None", "instagram": "None", "facebook": "None", "youtube": "None", "website": "None", "summary": "None", "logo": "None", "latitude": 45.04868866422476, "longitude": -78.5089570760906}, "119110385RR0052": {"name": "THE ROMAN CATHOLIC EPISCOPAL CORPORATION OF PEMBROKE, ST. ANTHONY'S PARISH CHALK RIVER", "designationCode": "C", "categoryCode": "38", "address": "53 MAIN STREET,               P.O. BOX 129", "city": "CHALK RIVER", "province": "ON", "country": "CA", "postalCode": "K0J1J0", "twitter": "None", "instagram": "None", "facebook": "None", "youtube": "None", "website": "None", "summary": "None", "logo": "None", "latitude": 46.01596671576985, "longitude": -77.45816947371114}, "119110385RR0063": {"name": "THE ROMAN CATHOLIC EPISCOPAL CORPORATION OF PEMBROKE, ST. CASIMIR'S PARISH", "designationCode": "C", "categoryCode": "38", "address": "2642 ROUND LAKE ROAD", "city": "ROUND LAKE CENTRE", "province": "ON", "country": "CA", "postalCode": "K0J2J0", "twitter": "None", "instagram": "None", "facebook": "None", "youtube": "None", "website": "None", "summary": "None", "logo": "None"}, "119110385RR0003": {"name": "THE ROMAN CATHOLIC EPISCOPAL CORPORATION OF PEMBROKE, ST. CHARLES BORROMEO PARISH OTTER LAKE", "designationCode": "C", "categoryCode": "38", "address": "C.P. 220                      367 MARTINEAU ST", "city": "OTTER LAKE", "province": "QC", "country": "CA", "postalCode": "J0X2P0", "twitter": "None", "instagram": "None", "facebook": "None", "youtube": "None", "website": "None", "summary": "None", "logo": "None", "latitude": 45.84800472551785, "longitude": -76.43067745562331}, "119110385RR0026": {"name": "THE ROMAN CATHOLIC EPISCOPAL CORPORATION OF PEMBROKE, ST. COLUMBKILLE'S CATHEDRAL PARISH", "designationCode": "C", "categoryCode": "38", "address": "PO BOX 7", "city": "PEMBROKE", "province": "ON", "country": "CA", "postalCode": "K8A6X1", "twitter": "None", "instagram": "None", "facebook": "None", "youtube": "None", "website": "None", "summary": "None", "logo": "None", "latitude": 45.826494000000054, "longitude": -77.11217449999994}, "119110385RR0043": {"name": "THE ROMAN CATHOLIC EPISCOPAL CORPORATION OF PEMBROKE, ST. EDWARD PARISH OF BRISTOL MINES", "designationCode": "C", "categoryCode": "38", "address": "BOX 40", "city": "QUYON", "province": "QC", "country": "CA", "postalCode": "J0X2V0", "twitter": "None", "instagram": "None", "facebook": "None", "youtube": "None", "website": "None", "summary": "None", "logo": "None", "latitude": 45.51949799999999, "longitude": -76.24085174999999}, "119110385RR0029": {"name": "THE ROMAN CATHOLIC EPISCOPAL CORPORATION OF PEMBROKE, ST. ELIZABETH'S PARISH VINTON", "designationCode": "C", "categoryCode": "38", "address": "529, RUE BAUME, CP 130", "city": "FORT-COULONGE", "province": "QC", "country": "CA", "postalCode": "J0X1V0", "twitter": "None", "instagram": "None", "facebook": "None", "youtube": "None", "website": "None", "summary": "None", "logo": "None", "latitude": 45.84304064721009, "longitude": -76.73686660012169}, "119110385RR0062": {"name": "THE ROMAN CATHOLIC EPISCOPAL CORPORATION OF PEMBROKE, ST. FRANCIS XAVIER PARISH", "designationCode": "C", "categoryCode": "38", "address": "331 PLAUNT ST BOX 396", "city": "RENFREW", "province": "ON", "country": "CA", "postalCode": "K7V4A6", "twitter": "None", "instagram": "None", "facebook": "None", "youtube": "None", "website": "None", "summary": "None", "logo": "None", "latitude": 45.47051412992647, "longitude": -76.68089373391463}, "119110385RR0058": {"name": "THE ROMAN CATHOLIC EPISCOPAL CORPORATION OF PEMBROKE, ST. IGNATIUS MARTYR PARISH", "designationCode": "C", "categoryCode": "38", "address": "BOX 100", "city": "MAYNOOTH", "province": "ON", "country": "CA", "postalCode": "K0L2S0", "twitter": "None", "instagram": "None", "facebook": "None", "youtube": "None", "website": "None", "summary": "None", "logo": "None", "latitude": 45.23704866223066, "longitude": -77.91475778681479}, "119110385RR0033": {"name": "THE ROMAN CATHOLIC EPISCOPAL CORPORATION OF PEMBROKE, ST. JAME'S PARISH PORTAGE-DU-FORT", "designationCode": "C", "categoryCode": "38", "address": "BOX 159", "city": "CAMPBELL'S BAY", "province": "QC", "country": "CA", "postalCode": "J0X1K0", "twitter": "None", "instagram": "None", "facebook": "None", "youtube": "None", "website": "None", "summary": "None", "logo": "None", "latitude": 45.67874163255157, "longitude": -76.54371060945196}, "119110385RR0014": {"name": "THE ROMAN CATHOLIC EPISCOPAL CORPORATION OF PEMBROKE, ST. JAMES", "designationCode": "C", "categoryCode": "38", "address": "PO BOX 190", "city": "EGANVILLE", "province": "ON", "country": "CA", "postalCode": "K0J1T0", "twitter": "None", "instagram": "None", "facebook": "None", "youtube": "None", "website": "None", "summary": "None", "logo": "None", "latitude": 45.57147000000006, "longitude": -77.04741949999993}, "119110385RR0006": {"name": "THE ROMAN CATHOLIC EPISCOPAL CORPORATION OF PEMBROKE, ST. JOHN CHRYSOSTOM CHURCH", "designationCode": "C", "categoryCode": "38", "address": "295 ALBERT STREET", "city": "ARNPRIOR", "province": "ON", "country": "CA", "postalCode": "K7S2M7", "twitter": "None", "instagram": "None", "facebook": "None", "youtube": "None", "website": "None", "summary": "None", "logo": "None", "latitude": 45.43913715955934, "longitude": -76.35096393819643}, "119110385RR0009": {"name": "THE ROMAN CATHOLIC EPISCOPAL CORPORATION OF PEMBROKE, ST. JOHN THE EVANGELIST PARISH", "designationCode": "C", "categoryCode": "38", "address": "PO BOX 159                    162 FRONT STREET", "city": "CAMPBELL'S BAY", "province": "QC", "country": "CA", "postalCode": "J0X1K0", "twitter": "None", "instagram": "None", "facebook": "None", "youtube": "None", "website": "None", "summary": "None", "logo": "None", "latitude": 45.73538977990651, "longitude": -76.60283478628315}, "119110385RR0041": {"name": "THE ROMAN CATHOLIC EPISCOPAL CORPORATION OF PEMBROKE, ST. JOSEPH MISSION ESMONDE", "designationCode": "C", "categoryCode": "38", "address": "PO BOX 12", "city": "GRIFFITH", "province": "ON", "country": "CA", "postalCode": "K0J2R0", "twitter": "None", "instagram": "None", "facebook": "None", "youtube": "None", "website": "None", "summary": "None", "logo": "None", "latitude": 45.244530000000054, "longitude": -77.16464999999994}, "119110385RR0065": {"name": "THE ROMAN CATHOLIC EPISCOPAL CORPORATION OF PEMBROKE, ST. MARTIN OF TOURS PARISH", "designationCode": "C", "categoryCode": "38", "address": "PO BOX 140", "city": "WHITNEY", "province": "ON", "country": "CA", "postalCode": "K0J2M0", "twitter": "None", "instagram": "None", "facebook": "None", "youtube": "None", "website": "None", "summary": "None", "logo": "None", "latitude": 45.49273000000005, "longitude": -78.23737999999997}, "119110385RR0039": {"name": "THE ROMAN CATHOLIC EPISCOPAL CORPORATION OF PEMBROKE, ST. MARY'S PARISH WILNO", "designationCode": "C", "categoryCode": "38", "address": "ST. MARY'S PARISH             17329 HIGHWAY 60", "city": "WILNO", "province": "ON", "country": "CA", "postalCode": "K0J2N0", "twitter": "None", "instagram": "None", "facebook": "None", "youtube": "None", "website": "None", "summary": "None", "logo": "None", "latitude": 45.51608681612305, "longitude": -77.54632206602754}, "119110385RR0057": {"name": "THE ROMAN CATHOLIC EPISCOPAL CORPORATION OF PEMBROKE, ST. MATHEW'S PARISH MADAWASKA", "designationCode": "C", "categoryCode": "38", "address": "P.O. BOX 140", "city": "WHITNEY", "province": "ON", "country": "CA", "postalCode": "K0J2M0", "twitter": "None", "instagram": "None", "facebook": "None", "youtube": "None", "website": "None", "summary": "None", "logo": "None", "latitude": 45.49273000000005, "longitude": -78.23737999999997}, "119110385RR0021": {"name": "THE ROMAN CATHOLIC EPISCOPAL CORPORATION OF PEMBROKE, ST. MICHAEL'S PARISH DOUGLAS", "designationCode": "C", "categoryCode": "38", "address": "PO BOX 23", "city": "DOUGLAS", "province": "ON", "country": "CA", "postalCode": "K0J1S0", "twitter": "None", "instagram": "None", "facebook": "None", "youtube": "None", "website": "None", "summary": "None", "logo": "None", "latitude": 45.50876000000005, "longitude": -76.93874999999997}, "119110385RR0044": {"name": "THE ROMAN CATHOLIC EPISCOPAL CORPORATION OF PEMBROKE, ST. PATRICK'S PARISH, MOUNT ST. PATRICK", "designationCode": "C", "categoryCode": "38", "address": "4024 HIGHWAY 132", "city": "RENFREW", "province": "ON", "country": "CA", "postalCode": "K7V3Z7", "twitter": "None", "instagram": "None", "facebook": "None", "youtube": "None", "website": "None", "summary": "None", "logo": "None", "latitude": 45.391270800467304, "longitude": -76.84579896236708}, "119110385RR0034": {"name": "THE ROMAN CATHOLIC EPISCOPAL CORPORATION OF PEMBROKE, ST. PAUL THE HERMINT PARISH", "designationCode": "C", "categoryCode": "38", "address": "106 ST. JACQUES ST.           P.O. BOX 40", "city": "CHAPEAU", "province": "QC", "country": "CA", "postalCode": "J0X1M0", "twitter": "None", "instagram": "None", "facebook": "None", "youtube": "None", "website": "None", "summary": "None", "logo": "None", "latitude": 45.91039984205681, "longitude": -77.07783537731555}, "119110450RR0003": {"name": "THE ROMAN CATHOLIC EPISCOPAL CORPORATION OF THE DIOCESE OF HAMILTON, IN ONTARIO", "designationCode": "C", "categoryCode": "38", "address": "700 KING ST WEST", "city": "HAMILTON", "province": "ON", "country": "CA", "postalCode": "L8P1C7", "twitter": "None", "instagram": "None", "facebook": "None", "youtube": "None", "website": "None", "summary": "None", "logo": "None", "latitude": 43.26284446770546, "longitude": -79.89023923809737}, "119110443RR0002": {"name": "THE ROMAN CATHOLIC EPISCOPAL CORPORATION OF THE DIOCESE OF KINGSTON, IN CANADA", "designationCode": "C", "categoryCode": "38", "address": "390 PALACE RD", "city": "KINGSTON", "province": "ON", "country": "CA", "postalCode": "K7L4T3", "twitter": "None", "instagram": "None", "facebook": "None", "youtube": "None", "website": "None", "summary": "None", "logo": "None", "latitude": 44.235708841797, "longitude": -76.51408037235254}, "119109817RR0010": {"name": "THE ROMAN CATHOLIC EPISCOPAL CORPORATION OF THE DIOCESE OF LONDON IN ONTARIO", "designationCode": "C", "categoryCode": "38", "address": "1070 WATERLOO STREET NORTH", "city": "LONDON", "province": "ON", "country": "CA", "postalCode": "N6A3Y2", "twitter": "None", "instagram": "None", "facebook": "None", "youtube": "None", "website": "None", "summary": "None", "logo": "None", "latitude": 43.01155863809214, "longitude": -81.25570305851494}, "122418601RR0001": {"name": "THE ROMAN CATHOLIC EPISCOPAL CORPORATION OF YARMOUTH - LA CORPORATION EPISCOPALE CATHOLIQUE ROMAINE DE YARMOUTH", "designationCode": "C", "categoryCode": "38", "address": "P.O. BOX 1527", "city": "HALIFAX", "province": "NS", "country": "CA", "postalCode": "B3J2Y3", "twitter": "None", "instagram": "None", "facebook": "None", "youtube": "None", "website": "None", "summary": "None", "logo": "None", "latitude": 44.645478000000054, "longitude": -63.576552499999934}, "119110385RR0012": {"name": "THE ROMAN CATHOLIC EPISCOPAL CORPORATION, DIOCESE OF PEMBROKE PAROISSE ST-PIERRE", "designationCode": "C", "categoryCode": "38", "address": "529 RUE BAUME, CP 130", "city": "FORT COULONGE", "province": "QC", "country": "CA", "postalCode": "J0X1V0", "twitter": "None", "instagram": "None", "facebook": "None", "youtube": "None", "website": "None", "summary": "None", "logo": "None", "latitude": 45.84304064721009, "longitude": -76.73686660012169}, "119110385RR0042": {"name": "THE ROMAN CATHOLIC EPISCOPAL CORPOTATION OF PEMBROKE, OUR LADY OF SORROW'S PARISH", "designationCode": "C", "categoryCode": "38", "address": "11 MOHNS AVENUE", "city": "PETAWAWA", "province": "ON", "country": "CA", "postalCode": "K8H2B5", "twitter": "None", "instagram": "None", "facebook": "None", "youtube": "None", "website": "None", "summary": "None", "logo": "None", "latitude": 45.8970521232702, "longitude": -77.28053219678932}, "119221034RR0001": {"name": "THE ROMAN CATHOLIC FAMILY OF DAYSLAND, HEISLER, KILLAM AND PARISHES", "designationCode": "C", "categoryCode": "38", "address": "BOX 570", "city": "KILLAM", "province": "AB", "country": "CA", "postalCode": "T0B2L0", "twitter": "None", "instagram": "None", "facebook": "None", "youtube": "None", "website": "None", "summary": "None", "logo": "None", "latitude": 52.78344000000004, "longitude": -111.85174999999998}, "132276163RR0001": {"name": "THE ROMAN CATHOLIC MILITARY ORDINARIATE OF CANADA - L'ORDINARIAT MILITAIRE CATHOLIQUE ROMAIN DU CANADA", "designationCode": "C", "categoryCode": "38", "address": "BUILDING 469,CFSU(O)          UPLANDS SITE", "city": "OTTAWA", "province": "ON", "country": "CA", "postalCode": "K1A0K2", "twitter": "None", "instagram": "None", "facebook": "None", "youtube": "None", "website": "None", "summary": "None", "logo": "None", "latitude": 45.423609000000056, "longitude": -75.69094399999993}, "106797897RR0001": {"name": "THE ROMAN CATHOLIC PARISH OF BLESSED SACRAMENT", "designationCode": "C", "categoryCode": "38", "address": "710B ROANOKE ST", "city": "WINNIPEG", "province": "MB", "country": "CA", "postalCode": "R2C0K9", "twitter": "None", "instagram": "None", "facebook": "None", "youtube": "None", "website": "None", "summary": "None", "logo": "None", "latitude": 49.89841030535562, "longitude": -96.99572786869179}, "131683484RR0001": {"name": "THE ROMAN CATHOLIC PARISH OF CHRIST THE KING", "designationCode": "C", "categoryCode": "38", "address": "847 ST MARY'S ROAD", "city": "WINNIPEG", "province": "MB", "country": "CA", "postalCode": "R2M3P6", "twitter": "None", "instagram": "None", "facebook": "None", "youtube": "None", "website": "None", "summary": "None", "logo": "None", "latitude": 49.84825108159734, "longitude": -97.1124194101797}, "107307191RR0029": {"name": "THE ROMAN CATHOLIC PARISH OF HOLY FAMILY", "designationCode": "C", "categoryCode": "38", "address": "123 NELSON ROAD", "city": "SASKATOON", "province": "SK", "country": "CA", "postalCode": "S7S1H1", "twitter": "None", "instagram": "None", "facebook": "None", "youtube": "None", "website": "None", "summary": "None", "logo": "None", "latitude": 52.14830526371943, "longitude": -106.58267235821334}, "119111045RR0001": {"name": "THE ROMAN CATHOLIC PARISH OF OUR LADY QUEEN OF POLAND", "designationCode": "C", "categoryCode": "38", "address": "BOX 760", "city": "BEAUSEJOUR", "province": "MB", "country": "CA", "postalCode": "R0E0C0", "twitter": "None", "instagram": "None", "facebook": "None", "youtube": "None", "website": "None", "summary": "None", "logo": "None", "latitude": 50.061750000000075, "longitude": -96.50519999999995}, "119111128RR0001": {"name": "THE ROMAN CATHOLIC PARISH OF SAINT ALEXANDER (IR)", "designationCode": "C", "categoryCode": "38", "address": "PO BOX 2", "city": "FORT ALEXANDER", "province": "MB", "country": "CA", "postalCode": "R0E0P0", "twitter": "None", "instagram": "None", "facebook": "None", "youtube": "None", "website": "None", "summary": "None", "logo": "None", "latitude": 50.612220000000036, "longitude": -96.29613999999998}, "108003799RR0001": {"name": "THE ROMAN CATHOLIC PARISH OF SAINT ANDREW BOBOLA", "designationCode": "C", "categoryCode": "38", "address": "541 MARION ST", "city": "WINNIPEG", "province": "MB", "country": "CA", "postalCode": "R2J0J9", "twitter": "None", "instagram": "None", "facebook": "None", "youtube": "None", "website": "None", "summary": "None", "logo": "None", "latitude": 49.8820334643659, "longitude": -97.10100272439267}, "119111185RR0001": {"name": "THE ROMAN CATHOLIC PARISH OF ST. ALPHONSUS", "designationCode": "C", "categoryCode": "38", "address": "341 MUNROE AVE", "city": "WINNIPEG", "province": "MB", "country": "CA", "postalCode": "R2K1H2", "twitter": "None", "instagram": "None", "facebook": "None", "youtube": "None", "website": "None", "summary": "None", "logo": "None", "latitude": 49.91982284098893, "longitude": -97.10403247250287}, "119111193RR0001": {"name": "THE ROMAN CATHOLIC PARISH OF ST. ANNE", "designationCode": "C", "categoryCode": "38", "address": "1701 COWAN CRES", "city": "REGINA", "province": "SK", "country": "CA", "postalCode": "S4S4C4", "twitter": "None", "instagram": "None", "facebook": "None", "youtube": "None", "website": "None", "summary": "None", "logo": "None", "latitude": 50.41830449509524, "longitude": -104.60560105536962}, "108026808RR0001": {"name": "THE ROMAN CATHOLIC PARISH OF ST. JOSEPH THE WORKER", "designationCode": "C", "categoryCode": "38", "address": "505 BREWSTER STREET", "city": "WINNIPEG", "province": "MB", "country": "CA", "postalCode": "R2C2W6", "twitter": "None", "instagram": "None", "facebook": "None", "youtube": "None", "website": "None", "summary": "None", "logo": "None", "latitude": 49.89710696863639, "longitude": -97.02097366172276}, "119111466RR0001": {"name": "THE ROMAN CATHOLIC PARISH OF ST. MAURICE", "designationCode": "C", "categoryCode": "38", "address": "P.O. BOX 360", "city": "MORRIS", "province": "MB", "country": "CA", "postalCode": "R0G1K0", "twitter": "None", "instagram": "None", "facebook": "None", "youtube": "None", "website": "None", "summary": "None", "logo": "None", "latitude": 49.35468000000003, "longitude": -97.36605999999995}, "119111516RR0001": {"name": "THE ROMAN CATHOLIC PARISH OF ST. MICHAEL", "designationCode": "C", "categoryCode": "38", "address": "BOX 6, GRP 22, RR 2", "city": "DUGALD", "province": "MB", "country": "CA", "postalCode": "R0E0K0", "twitter": "None", "instagram": "None", "facebook": "None", "youtube": "None", "website": "None", "summary": "None", "logo": "None", "latitude": 49.88499864004564, "longitude": -96.36123557915003}, "107910945RR0001": {"name": "THE ROMAN CATHOLIC PARISH OF ST. PETER", "designationCode": "C", "categoryCode": "38", "address": "100 ARGYLE ST", "city": "REGINA", "province": "SK", "country": "CA", "postalCode": "S4R4C3", "twitter": "None", "instagram": "None", "facebook": "None", "youtube": "None", "website": "None", "summary": "None", "logo": "None", "latitude": 50.47803702943037, "longitude": -104.63268418295881}, "119111565RR0001": {"name": "THE ROMAN CATHOLIC PARISH OF ST. STANISLAUS", "designationCode": "C", "categoryCode": "38", "address": "PO BOX 59", "city": "EAST SELKIRK", "province": "MB", "country": "CA", "postalCode": "R0E0M0", "twitter": "None", "instagram": "None", "facebook": "None", "youtube": "None", "website": "None", "summary": "None", "logo": "None", "latitude": 50.582348999999994, "longitude": -96.58096875000001}, "107487423RR0001": {"name": "THE ROMAN CATHOLIC PARISH OF THE HOLY REDEEMER", "designationCode": "C", "categoryCode": "38", "address": "264 DONWOOD DR", "city": "WINNIPEG", "province": "MB", "country": "CA", "postalCode": "R2G0W5", "twitter": "None", "instagram": "None", "facebook": "None", "youtube": "None", "website": "None", "summary": "None", "logo": "None", "latitude": 49.943178348289216, "longitude": -97.07337367502431}, "119111672RR0001": {"name": "THE ROMAN CATHOLIC PARISH OF THE SACRED HEART", "designationCode": "C", "categoryCode": "38", "address": "BOX 70", "city": "GARSON QUARRY", "province": "MB", "country": "CA", "postalCode": "R0E0R0", "twitter": "None", "instagram": "None", "facebook": "None", "youtube": "None", "website": "None", "summary": "None", "logo": "None", "latitude": 50.07780000000008, "longitude": -96.70729999999998}, "828181818RR0001": {"name": "THE ROMAN CATHOLIC PETERBOROUGH DIOCESE GOOD SHEPHERD FOUNDATION INC.", "designationCode": "C", "categoryCode": "49", "address": "350 HUNTER ST WEST", "city": "PETERBOROUGH", "province": "ON", "country": "CA", "postalCode": "K9J6Y8", "twitter": "None", "instagram": "None", "facebook": "None", "youtube": "None", "website": "None", "summary": "None", "logo": "None", "latitude": 44.30553552264969, "longitude": -78.3287134730798}, "881295729RR0001": {"name": "THE ROMANIAN ORTHODOX CHURCH \"ST JOHN THE EVANGELIST\" TORONTO", "designationCode": "C", "categoryCode": "39", "address": "238 MILESTONE CRES", "city": "AURORA", "province": "ON", "country": "CA", "postalCode": "L4G3M2", "twitter": "None", "instagram": "None", "facebook": "None", "youtube": "None", "website": "None", "summary": "None", "logo": "None", "latitude": 43.99466756258298, "longitude": -79.47817682171478}, "810052258RR0001": {"name": "THE ROMANIAN ORTHODOX CHURCH OF NIAGARA INC.", "designationCode": "C", "categoryCode": "39", "address": "4662 BRIDGE STREET", "city": "NIAGARA FALLS", "province": "ON", "country": "CA", "postalCode": "L2E2R8", "twitter": "None", "instagram": "None", "facebook": "None", "youtube": "None", "website": "None", "summary": "None", "logo": "None", "latitude": 43.10858953895234, "longitude": -79.07046274854291}, "872401278RR0001": {"name": "THE ROMANIAN ORTHODOX CHURCH OF THE ST APOSTOL ANDREW", "designationCode": "C", "categoryCode": "39", "address": "4030 DIXIE ROAD", "city": "MISSISSAUGA", "province": "ON", "country": "CA", "postalCode": "L4W1M4", "twitter": "None", "instagram": "None", "facebook": "None", "youtube": "None", "website": "None", "summary": "None", "logo": "None", "latitude": 43.62317320203144, "longitude": -79.60333204250077}, "119122984RR0001": {"name": "THE ROMNEY: TRINITY PASTORAL CHARGE", "designationCode": "C", "categoryCode": "44", "address": "305-14 ELM STREET", "city": "TILBURY", "province": "ON", "country": "CA", "postalCode": "N0P2L0", "twitter": "None", "instagram": "None", "facebook": "None", "youtube": "None", "website": "None", "summary": "None", "logo": "None", "latitude": 42.25973413627446, "longitude": -82.43448485922481}, "873370993RR0001": {"name": "THE RON AND NANCY CLARK FOUNDATION", "designationCode": "B", "categoryCode": "03", "address": "186 GREEN'S ROAD", "city": "CALEDONIA", "province": "ON", "country": "CA", "postalCode": "N3W1X2", "twitter": "None", "instagram": "None", "facebook": "None", "youtube": "None", "website": "None", "summary": "None", "logo": "None", "latitude": 43.093495223583666, "longitude": -79.96164479136172}, "863259529RR0001": {"name": "THE RON PETTIGREW ATHLETIC CITIZENSHIP AWARD", "designationCode": "C", "categoryCode": "21", "address": "1 - 575 PARK ST", "city": "REGINA", "province": "SK", "country": "CA", "postalCode": "S4N5B2", "twitter": "None", "instagram": "None", "facebook": "None", "youtube": "None", "website": "None", "summary": "None", "logo": "None", "latitude": 50.46919228227245, "longitude": -104.57228187821052}, "888702396RR0001": {"name": "THE RONALD D QUILTY MEMORIAL SCHOLARSHIP FUND", "designationCode": "C", "categoryCode": "21", "address": "440 UNIVERSITY AVENUE", "city": "CHARLOTTETOWN", "province": "PE", "country": "CA", "postalCode": "C1A4N6", "twitter": "None", "instagram": "None", "facebook": "None", "youtube": "None", "website": "None", "summary": "None", "logo": "None", "latitude": 46.248195174303184, "longitude": -63.13633318538301}, "119252831RR0001": {"name": "THE RONALD K. FRASER FOUNDATION", "designationCode": "B", "categoryCode": "03", "address": "10 TURNER AVE", "city": "HAMILTON", "province": "ON", "country": "CA", "postalCode": "L8P3K5", "twitter": "None", "instagram": "None", "facebook": "None", "youtube": "None", "website": "None", "summary": "None", "logo": "None", "latitude": 43.24689845490217, "longitude": -79.87979696699162}, "889917712RR0001": {"name": "THE RONALD P. SMYTH MEMORIAL SCHOLARSHIP FUND", "designationCode": "C", "categoryCode": "25", "address": "165 GOLDLEAF CT.", "city": "RIVERVIEW", "province": "NB", "country": "CA", "postalCode": "E1B5V3", "twitter": "None", "instagram": "None", "facebook": "None", "youtube": "None", "website": "None", "summary": "None", "logo": "None", "latitude": 46.068594798516834, "longitude": -64.75119835524276}, "851965202RR0001": {"name": "THE ROOMS CORPORATION OF NEWFOUNDLAND AND LABRADOR", "designationCode": "C", "categoryCode": "50", "address": "9 BONAVENTURE AVENUE          PO BOX 1800 STATION C", "city": "ST JOHN'S", "province": "NL", "country": "CA", "postalCode": "A1C5P9", "twitter": "None", "instagram": "None", "facebook": "None", "youtube": "None", "website": "None", "summary": "None", "logo": "None", "latitude": 47.56676058944588, "longitude": -52.71139370872518}, "890565195RR0001": {"name": "THE ROSALIND AGRICULTURAL SOCIETY", "designationCode": "C", "categoryCode": "56", "address": "BOX 32", "city": "ROSALIND", "province": "AB", "country": "CA", "postalCode": "T0B3Y0", "twitter": "None", "instagram": "None", "facebook": "None", "youtube": "None", "website": "None", "summary": "None", "logo": "None", "latitude": 52.78343000000007, "longitude": -112.45186999999999}, "863892592RR0001": {"name": "THE ROSE CRAIG FOUNDATION", "designationCode": "B", "categoryCode": "13", "address": "55 PRINCE PHILIP DRIVE", "city": "ST.CATHARINES", "province": "ON", "country": "CA", "postalCode": "L2N3H9", "twitter": "None", "instagram": "None", "facebook": "None", "youtube": "None", "website": "None", "summary": "None", "logo": "None", "latitude": 43.20486941909516, "longitude": -79.23269227696366}, "878081751RR0001": {"name": "THE ROSE GARDEN FAMILY SUPPORT CENTRE", "designationCode": "C", "categoryCode": "59", "address": "L1 139 KING STREET WEST", "city": "BROCKVILLE", "province": "ON", "country": "CA", "postalCode": "K6V3R4", "twitter": "None", "instagram": "None", "facebook": "None", "youtube": "None", "website": "None", "summary": "None", "logo": "None", "latitude": 44.58795412155929, "longitude": -75.68700900415493}, "893469163RR0001": {"name": "THE ROSEDALE DAY SCHOOL", "designationCode": "C", "categoryCode": "20", "address": "131 BLOOR STREET WEST         SUITE 426", "city": "TORONTO", "province": "ON", "country": "CA", "postalCode": "M5S1R1", "twitter": "None", "instagram": "None", "facebook": "None", "youtube": "None", "website": "None", "summary": "None", "logo": "None", "latitude": 43.6690298892321, "longitude": -79.3924665777022}}