{"107828931RR0001": {"name": "PEACE RIVER SCHOOL DIVISION NO. 10", "designationCode": "C", "categoryCode": "20", "address": "10018 101 ST", "city": "PEACE RIVER", "province": "AB", "country": "CA", "postalCode": "T8S2A5", "twitter": "None", "instagram": "None", "facebook": "None", "youtube": "None", "website": "None", "summary": "None", "logo": "None", "latitude": 56.233106245628704, "longitude": -117.28879340273518}, "119087658RR0001": {"name": "PEACE RIVER SCOTTISH SOCIETY", "designationCode": "C", "categoryCode": "22", "address": "PO BOX 5251", "city": "PEACE RIVER", "province": "AB", "country": "CA", "postalCode": "T8S1R8", "twitter": "None", "instagram": "None", "facebook": "None", "youtube": "None", "website": "None", "summary": "None", "logo": "None", "latitude": 56.232969000000054, "longitude": -117.29043349999993}, "106693047RR0020": {"name": "PEACE RIVER SEVENTH-DAY ADVENTIST CHURCH", "designationCode": "C", "categoryCode": "41", "address": "5816 HIGHWAY, 2A", "city": "LACOMBE", "province": "AB", "country": "CA", "postalCode": "T4L2G5", "twitter": "None", "instagram": "None", "facebook": "None", "youtube": "None", "website": "None", "summary": "None", "logo": "None", "latitude": 52.474063600197404, "longitude": -113.71692568401835}, "139696876RR0001": {"name": "PEACE RIVER SOCIETY FOR THE PREVENTION OF CRUELTY TO ANIMALS", "designationCode": "C", "categoryCode": "54", "address": "9510 94 AVE", "city": "PEACE RIVER", "province": "AB", "country": "CA", "postalCode": "T8S1J1", "twitter": "None", "instagram": "None", "facebook": "None", "youtube": "None", "website": "None", "summary": "None", "logo": "None", "latitude": 56.23911752207278, "longitude": -117.29780983236193}, "805807542RR0001": {"name": "PEACE TOWER CHURCH", "designationCode": "C", "categoryCode": "36", "address": "PO BOX 35068 RPO WESTGATE", "city": "OTTAWA", "province": "ON", "country": "CA", "postalCode": "K1Z1A2", "twitter": "None", "instagram": "None", "facebook": "None", "youtube": "None", "website": "None", "summary": "None", "logo": "None", "latitude": 45.42177300000006, "longitude": -75.69115999999994}, "119087674RR0001": {"name": "PEACE UNITED CHURCH", "designationCode": "C", "categoryCode": "44", "address": "BOX 315", "city": "IRVINE", "province": "AB", "country": "CA", "postalCode": "T0J1V0", "twitter": "None", "instagram": "None", "facebook": "None", "youtube": "None", "website": "None", "summary": "None", "logo": "None", "latitude": 49.95443000000006, "longitude": -110.26623999999998}, "118818087RR0001": {"name": "PEACE UNITED PASTORAL CHARGE", "designationCode": "C", "categoryCode": "44", "address": "20 SAMUEL ST. BOX 232", "city": "PLATTSVILLE", "province": "ON", "country": "CA", "postalCode": "N0J1S0", "twitter": "None", "instagram": "None", "facebook": "None", "youtube": "None", "website": "None", "summary": "None", "logo": "None", "latitude": 43.30401355536961, "longitude": -80.62262793479128}, "864266291RR0001": {"name": "PEACE VALLEY COMMUNITY CHURCH", "designationCode": "C", "categoryCode": "39", "address": "10122 BEATTIE DRIVE           P.O. BOX NO. 428", "city": "HUDSON'S HOPE", "province": "BC", "country": "CA", "postalCode": "V0C1V0", "twitter": "None", "instagram": "None", "facebook": "None", "youtube": "None", "website": "None", "summary": "None", "logo": "None", "latitude": 56.02747915385025, "longitude": -121.9201272572999}, "119288918RR0141": {"name": "PEACE VIEW CONGREGATION OF JEHOVAH'S WITNESSES, FORT ST JOHN, BRITISH COLUMBIA", "designationCode": "C", "categoryCode": "61", "address": "46 - 9203 82 ST", "city": "FORT ST. JOHN", "province": "BC", "country": "CA", "postalCode": "V1J5G5", "twitter": "None", "instagram": "None", "facebook": "None", "youtube": "None", "website": "None", "summary": "None", "logo": "None", "latitude": 56.23833090443823, "longitude": -120.81453833305443}, "139713382RR0001": {"name": "PEACE WAPITI SCHOOL DIVISION No. 76", "designationCode": "C", "categoryCode": "20", "address": "8611A 108 ST", "city": "GRANDE PRAIRIE", "province": "AB", "country": "CA", "postalCode": "T8V4C5", "twitter": "None", "instagram": "None", "facebook": "None", "youtube": "None", "website": "None", "summary": "None", "logo": "None", "latitude": 55.15818148696188, "longitude": -118.82032327189852}, "838776524RR0001": {"name": "PEACEBUILDERS INTERNATIONAL (CANADA)", "designationCode": "C", "categoryCode": "59", "address": "585 DUNDAS STREET E           SUITE 300", "city": "TORONTO", "province": "ON", "country": "CA", "postalCode": "M5A2B7", "twitter": "None", "instagram": "None", "facebook": "None", "youtube": "None", "website": "None", "summary": "None", "logo": "None", "latitude": 43.66027180930821, "longitude": -79.36201567984308}, "816637748RR0001": {"name": "PEACEFUL HARBOUR MINISTRIES", "designationCode": "C", "categoryCode": "39", "address": "104 - 80 ANTIBES DR", "city": "NORTH YORK", "province": "ON", "country": "CA", "postalCode": "M2R3N5", "twitter": "None", "instagram": "None", "facebook": "None", "youtube": "None", "website": "None", "summary": "None", "logo": "None", "latitude": 43.77975749047805, "longitude": -79.44813047155058}, "865998215RR0001": {"name": "PEACEFUL SCHOOLS INTERNATIONAL SOCIETY", "designationCode": "C", "categoryCode": "21", "address": "923 ROBIE ST.", "city": "HALIFAX", "province": "NS", "country": "CA", "postalCode": "B3H3C3", "twitter": "None", "instagram": "None", "facebook": "None", "youtube": "None", "website": "None", "summary": "None", "logo": "None", "latitude": 44.6326423648221, "longitude": -63.58312188047902}, "846788743RR0001": {"name": "PEACEFUND CANADA FOUNDATION/ FONDATION FONDS CANADIEN POUR LA PAIX", "designationCode": "A", "categoryCode": "03", "address": "220 - 211 BRONSON AVE", "city": "OTTAWA", "province": "ON", "country": "CA", "postalCode": "K1R6H5", "twitter": "None", "instagram": "None", "facebook": "None", "youtube": "None", "website": "None", "summary": "None", "logo": "None", "latitude": 45.41349725618897, "longitude": -75.7068905103587}, "855612487RR0001": {"name": "PEACEKEEPER PARK A LIVING MEMORIAL", "designationCode": "C", "categoryCode": "59", "address": "3555 TILE YARK RD", "city": "PETROLIA", "province": "ON", "country": "CA", "postalCode": "N0N1R0", "twitter": "None", "instagram": "None", "facebook": "None", "youtube": "None", "website": "None", "summary": "None", "logo": "None", "latitude": 42.84272719900167, "longitude": -82.1476909150262}, "872057823RR0001": {"name": "PEACEMAKERS TRUST", "designationCode": "C", "categoryCode": "21", "address": "1745 GARNET ROAD", "city": "VICTORIA", "province": "BC", "country": "CA", "postalCode": "V8P3E2", "twitter": "None", "instagram": "None", "facebook": "None", "youtube": "None", "website": "None", "summary": "None", "logo": "None", "latitude": 48.46633652842077, "longitude": -123.32424463780367}, "891064149RR0001": {"name": "PEACEMAKERS: AN ASSOCIATION FOR ALTERNATIVE DISPUTE RESOLUTION", "designationCode": "C", "categoryCode": "59", "address": "12 GLENLEE DRIVE", "city": "KENTVILLE", "province": "NS", "country": "CA", "postalCode": "B4N4Y5", "twitter": "None", "instagram": "None", "facebook": "None", "youtube": "None", "website": "None", "summary": "None", "logo": "None", "latitude": 45.07326909628387, "longitude": -64.52426986984239}, "119087716RR0001": {"name": "PEACHLAND AND DISTRICT RETIREMENT SOCIETY", "designationCode": "C", "categoryCode": "09", "address": "5672 BEACH AVE", "city": "PEACHLAND", "province": "BC", "country": "CA", "postalCode": "V0H1X6", "twitter": "None", "instagram": "None", "facebook": "None", "youtube": "None", "website": "None", "summary": "None", "logo": "None", "latitude": 49.77832226533556, "longitude": -119.73332228963002}, "119087690RR0001": {"name": "PEACHLAND BAPTIST CHURCH", "designationCode": "C", "categoryCode": "31", "address": "4204 LAKE AVE", "city": "PEACHLAND", "province": "BC", "country": "CA", "postalCode": "V0H1X6", "twitter": "None", "instagram": "None", "facebook": "None", "youtube": "None", "website": "None", "summary": "None", "logo": "None", "latitude": 49.78252952928612, "longitude": -119.72365102553522}, "895609725RR0001": {"name": "PEACHLAND COMMUNITY ARTS COUNCIL", "designationCode": "C", "categoryCode": "22", "address": "6005 TURNER AVE.", "city": "PEACHLAND", "province": "BC", "country": "CA", "postalCode": "V0H1X4", "twitter": "None", "instagram": "None", "facebook": "None", "youtube": "None", "website": "None", "summary": "None", "logo": "None", "latitude": 49.7666159059092, "longitude": -119.7591908948007}, "892228172RR0001": {"name": "PEACHLAND COMMUNITY CHURCH", "designationCode": "C", "categoryCode": "36", "address": "4751 MCLAUGHLAN PL", "city": "PEACHLAND", "province": "BC", "country": "CA", "postalCode": "V0H1X4", "twitter": "None", "instagram": "None", "facebook": "None", "youtube": "None", "website": "None", "summary": "None", "logo": "None", "latitude": 49.76464560727679, "longitude": -119.75663997934087}, "119288918RR1263": {"name": "PEACHLAND CONGREGATION OF JEHOVAH'S WITNESSES", "designationCode": "C", "categoryCode": "61", "address": "#16-5371 PRINCETON AVE.", "city": "PEACHLAND", "province": "BC", "country": "CA", "postalCode": "V0H1X0", "twitter": "None", "instagram": "None", "facebook": "None", "youtube": "None", "website": "None", "summary": "None", "logo": "None", "latitude": 49.752277312799336, "longitude": -119.78831196996312}, "119087724RR0001": {"name": "PEACHLAND FOOD BANK", "designationCode": "C", "categoryCode": "09", "address": "5848A BEACH AVENUE", "city": "PEACHLAND", "province": "BC", "country": "CA", "postalCode": "V0H1X7", "twitter": "None", "instagram": "None", "facebook": "None", "youtube": "None", "website": "None", "summary": "None", "logo": "None", "latitude": 49.772788471970436, "longitude": -119.73720679981037}, "865186134RR0001": {"name": "PEACHLAND LITTLE SCHOOLHOUSE SOCIETY", "designationCode": "C", "categoryCode": "52", "address": "1898 BRANDON LANE", "city": "PEACHLAND", "province": "BC", "country": "CA", "postalCode": "V0H1X6", "twitter": "None", "instagram": "None", "facebook": "None", "youtube": "None", "website": "None", "summary": "None", "logo": "None", "latitude": 49.775346, "longitude": -119.73626325000001}, "107829012RR0001": {"name": "PEACHLAND UNITED CHURCH", "designationCode": "C", "categoryCode": "44", "address": "4421-4TH ST", "city": "PEACHLAND", "province": "BC", "country": "CA", "postalCode": "V0H1X6", "twitter": "None", "instagram": "None", "facebook": "None", "youtube": "None", "website": "None", "summary": "None", "logo": "None", "latitude": 49.77490934886614, "longitude": -119.73591205787977}, "880460712RR0001": {"name": "PEACHLAND WELLNESS CENTRE SOCIETY", "designationCode": "C", "categoryCode": "56", "address": "4426 FIFTH STREET", "city": "PEACHLAND", "province": "BC", "country": "CA", "postalCode": "V0H1X6", "twitter": "None", "instagram": "None", "facebook": "None", "youtube": "None", "website": "None", "summary": "None", "logo": "None", "latitude": 49.77584946517395, "longitude": -119.73542931251086}, "808701544RR0001": {"name": "PEAK POTENTIALS LOVE FUND", "designationCode": "C", "categoryCode": "02", "address": "1707 WELCH STREET", "city": "NORTH VANCOUVER", "province": "BC", "country": "CA", "postalCode": "V7P3G9", "twitter": "None", "instagram": "None", "facebook": "None", "youtube": "None", "website": "None", "summary": "None", "logo": "None", "latitude": 49.31755378879849, "longitude": -123.11721964071977}, "107829111RR0001": {"name": "PEARCE WILLIAMS UNITED CHURCH CHRISTIAN CENTRE", "designationCode": "C", "categoryCode": "49", "address": "8009 IONA RD", "city": "FINGEL", "province": "ON", "country": "CA", "postalCode": "N0L1K0", "twitter": "None", "instagram": "None", "facebook": "None", "youtube": "None", "website": "None", "summary": "None", "logo": "None", "latitude": 42.67446869004183, "longitude": -81.36550680272194}, "760269092RR0001": {"name": "PEARL LIFE RENEWAL SOCIETY", "designationCode": "C", "categoryCode": "09", "address": "PO BOX 591 STATION MAIN", "city": "CHILLIWACK", "province": "BC", "country": "CA", "postalCode": "V2P7V5", "twitter": "None", "instagram": "None", "facebook": "None", "youtube": "None", "website": "None", "summary": "None", "logo": "None", "latitude": 49.169860930294725, "longitude": -121.95627179555584}, "107829277RR0001": {"name": "PEARSON COMMUNITY CO-OPERATIVE NURSERY SCHOOL INC.", "designationCode": "C", "categoryCode": "20", "address": "1433 HEADON RD", "city": "BURLINGTON", "province": "ON", "country": "CA", "postalCode": "L7M1V7", "twitter": "None", "instagram": "None", "facebook": "None", "youtube": "None", "website": "None", "summary": "None", "logo": "None", "latitude": 43.37335300057691, "longitude": -79.8089940254779}, "107815664RR0001": {"name": "PECIP INC.", "designationCode": "C", "categoryCode": "11", "address": "83 NORTH STREET", "city": "YORKTON", "province": "SK", "country": "CA", "postalCode": "S3N0G9", "twitter": "None", "instagram": "None", "facebook": "None", "youtube": "None", "website": "None", "summary": "None", "logo": "None", "latitude": 51.21382547100232, "longitude": -102.47877055536961}, "890849771RR0001": {"name": "PEDER PEDERSON TRUST FUND", "designationCode": "B", "categoryCode": "15", "address": "BOX 115", "city": "BORDEN", "province": "SK", "country": "CA", "postalCode": "S0K0N0", "twitter": "None", "instagram": "None", "facebook": "None", "youtube": "None", "website": "None", "summary": "None", "logo": "None", "latitude": 52.37279920269652, "longitude": -107.14668130840676}, "892684960RR0001": {"name": "PEDIATRIC GLAUCOMA & CATARACT FAMILY ASSOCIATION", "designationCode": "C", "categoryCode": "11", "address": "99 COLIN AVE", "city": "TORONTO", "province": "ON", "country": "CA", "postalCode": "M5P2C1", "twitter": "None", "instagram": "None", "facebook": "None", "youtube": "None", "website": "None", "summary": "None", "logo": "None", "latitude": 43.702179390789965, "longitude": -79.40097699053628}, "823114673RR0001": {"name": "PEDIATRIC OBESITY FOUNDATION", "designationCode": "C", "categoryCode": "11", "address": "167 SCHOONER COVE NW", "city": "CALGARY", "province": "AB", "country": "CA", "postalCode": "T3L1Y7", "twitter": "None", "instagram": "None", "facebook": "None", "youtube": "None", "website": "None", "summary": "None", "logo": "None", "latitude": 51.12251339938831, "longitude": -114.22637218318995}, "104125323RR0001": {"name": "PEDIATRIC ONCOLOGY FAMILY CENTRE OF MANITOBA INC.", "designationCode": "C", "categoryCode": "09", "address": "566 BANNATYNE AVENUE", "city": "WINNIPEG", "province": "MB", "country": "CA", "postalCode": "R3A0G7", "twitter": "None", "instagram": "None", "facebook": "None", "youtube": "None", "website": "None", "summary": "None", "logo": "None", "latitude": 49.90208310072725, "longitude": -97.15291061561533}, "871067245RR0001": {"name": "PEDIATRIC ONCOLOGY GROUP OF ONTARIO", "designationCode": "C", "categoryCode": "11", "address": "480 UNIVERSITY AVE            SUITE #1014", "city": "TORONTO", "province": "ON", "country": "CA", "postalCode": "M5G1V2", "twitter": "None", "instagram": "None", "facebook": "None", "youtube": "None", "website": "None", "summary": "None", "logo": "None", "latitude": 43.655170275318866, "longitude": -79.38868546367338}, "136533841RR0001": {"name": "PEDVAC FOUNDATION", "designationCode": "C", "categoryCode": "09", "address": "12 CHURCH ST", "city": "PORT ELGIN", "province": "NB", "country": "CA", "postalCode": "E4M2C9", "twitter": "None", "instagram": "None", "facebook": "None", "youtube": "None", "website": "None", "summary": "None", "logo": "None", "latitude": 46.04900710404547, "longitude": -64.09090909827441}, "136765740RR0001": {"name": "PEE-KIS-KWE-TAN / LET'S TALK SOCIETY", "designationCode": "C", "categoryCode": "11", "address": "BOX 180", "city": "WABASCA", "province": "AB", "country": "CA", "postalCode": "T0G2K0", "twitter": "None", "instagram": "None", "facebook": "None", "youtube": "None", "website": "None", "summary": "None", "logo": "None", "latitude": 55.987460000000056, "longitude": -113.91912999999994}, "891224149RR0001": {"name": "PEEL ARYA SAMAJ", "designationCode": "C", "categoryCode": "39", "address": "173 ADVANCE BLVD, UNIT 50 & 51", "city": "BRAMPTON", "province": "ON", "country": "CA", "postalCode": "L6T2Z7", "twitter": "None", "instagram": "None", "facebook": "None", "youtube": "None", "website": "None", "summary": "None", "logo": "None", "latitude": 43.693352782099545, "longitude": -79.69295737670996}, "119087781RR0001": {"name": "PEEL ASSOCIATION FOR HANDICAPPED ADULTS", "designationCode": "C", "categoryCode": "11", "address": "28 NATIVE LANDING", "city": "BRAMPTON", "province": "ON", "country": "CA", "postalCode": "L6X4X9", "twitter": "None", "instagram": "None", "facebook": "None", "youtube": "None", "website": "None", "summary": "None", "logo": "None", "latitude": 43.68587303690353, "longitude": -79.80465001912992}, "107830606RR0001": {"name": "PEEL CAREER ASSESSMENT SERVICES INC.", "designationCode": "C", "categoryCode": "59", "address": "975 MEYERSIDE DR", "city": "MISSISSAUGA", "province": "ON", "country": "CA", "postalCode": "L5T1P9", "twitter": "None", "instagram": "None", "facebook": "None", "youtube": "None", "website": "None", "summary": "None", "logo": "None", "latitude": 43.65043449073784, "longitude": -79.6653803045181}, "119087799RR0001": {"name": "PEEL CHESHIRE HOMES (BRAMPTON) INC.", "designationCode": "C", "categoryCode": "01", "address": "156 MURRAY STREET", "city": "BRAMPTON", "province": "ON", "country": "CA", "postalCode": "L6X3L7", "twitter": "None", "instagram": "None", "facebook": "None", "youtube": "None", "website": "None", "summary": "None", "logo": "None", "latitude": 43.69848248407272, "longitude": -79.78056214914332}, "138676796RR0001": {"name": "PEEL CHESHIRE HOMES INC", "designationCode": "C", "categoryCode": "01", "address": "361 QUEEN STREET SOUTH", "city": "MISSISSAUGA", "province": "ON", "country": "CA", "postalCode": "L5M1M3", "twitter": "None", "instagram": "None", "facebook": "None", "youtube": "None", "website": "None", "summary": "None", "logo": "None", "latitude": 43.57570321706373, "longitude": -79.7055830071847}, "864521240RR0001": {"name": "PEEL CHILDREN'S AID FOUNDATION", "designationCode": "A", "categoryCode": "03", "address": "6860 CENTURY AVENUE           WEST TOWER", "city": "MISSISSAUGA", "province": "ON", "country": "CA", "postalCode": "L5N2W5", "twitter": "None", "instagram": "None", "facebook": "None", "youtube": "None", "website": "None", "summary": "None", "logo": "None", "latitude": 43.60205400000005, "longitude": -79.74806299999993}, "119087807RR0001": {"name": "PEEL CHILDREN'S CENTRE", "designationCode": "C", "categoryCode": "01", "address": "85 A AVENTURA COURT", "city": "MISSISSAUGA", "province": "ON", "country": "CA", "postalCode": "L5T2Y6", "twitter": "None", "instagram": "None", "facebook": "None", "youtube": "None", "website": "None", "summary": "None", "logo": "None", "latitude": 43.646335328956795, "longitude": -79.7028521194522}, "867063182RR0001": {"name": "PEEL CRIME STOPPERS INC", "designationCode": "C", "categoryCode": "59", "address": "7750 HURONTARIO STREET", "city": "BRAMPTON", "province": "ON", "country": "CA", "postalCode": "L6V3W6", "twitter": "None", "instagram": "None", "facebook": "None", "youtube": "None", "website": "None", "summary": "None", "logo": "None", "latitude": 43.66121485175166, "longitude": -79.72695232145497}, "108092008RR0001": {"name": "PEEL DISTRICT SCHOOL BOARD", "designationCode": "C", "categoryCode": "20", "address": "5650 HURONTARIO STREET", "city": "MISSISSAUGA", "province": "ON", "country": "CA", "postalCode": "L5R1C6", "twitter": "None", "instagram": "None", "facebook": "None", "youtube": "None", "website": "None", "summary": "None", "logo": "None", "latitude": 43.618890775146, "longitude": -79.66971144621691}, "107830648RR0001": {"name": "PEEL FAMILY EDUCATION CENTRE", "designationCode": "C", "categoryCode": "59", "address": "104 - 4 SIR LOU DR", "city": "BRAMPTON", "province": "ON", "country": "CA", "postalCode": "L6Y4J7", "twitter": "None", "instagram": "None", "facebook": "None", "youtube": "None", "website": "None", "summary": "None", "logo": "None", "latitude": 43.66046654570343, "longitude": -79.72915710081323}, "864331095RR0001": {"name": "PEEL FAMILY MEDIATION SERVICES", "designationCode": "C", "categoryCode": "59", "address": "7755 HURONTARIO RM 250", "city": "BRAMPTON", "province": "ON", "country": "CA", "postalCode": "L6W4T1", "twitter": "None", "instagram": "None", "facebook": "None", "youtube": "None", "website": "None", "summary": "None", "logo": "None", "latitude": 43.66132915214347, "longitude": -79.72675237835475}, "864434428RR0001": {"name": "PEEL FOUNTAIN OF WISDOM SENIOR SERVICES", "designationCode": "C", "categoryCode": "09", "address": "74 KENNINGHALL CR.", "city": "MISSISSAUGA", "province": "ON", "country": "CA", "postalCode": "L5N2T9", "twitter": "None", "instagram": "None", "facebook": "None", "youtube": "None", "website": "None", "summary": "None", "logo": "None", "latitude": 43.60534961616358, "longitude": -79.71937862464635}, "888731791RR0001": {"name": "PEEL GUYANESE ASSOCIATION FOR GUYANA HEALTH RELIEF", "designationCode": "C", "categoryCode": "11", "address": "P.O. BOX 1412                 STATION B", "city": "MISSISSAUGA", "province": "ON", "country": "CA", "postalCode": "L4Y4B6", "twitter": "None", "instagram": "None", "facebook": "None", "youtube": "None", "website": "None", "summary": "None", "logo": "None", "latitude": 43.58690700000005, "longitude": -79.64535049999994}, "118954858RR0001": {"name": "PEEL HALTON DUFFERIN ACQUIRED BRAIN INJURY SERVICES", "designationCode": "C", "categoryCode": "09", "address": "176 ROBERT SPECK PKWY", "city": "MISSISSAUGA", "province": "ON", "country": "CA", "postalCode": "L4Z3G1", "twitter": "None", "instagram": "None", "facebook": "None", "youtube": "None", "website": "None", "summary": "None", "logo": "None", "latitude": 43.597796950012196, "longitude": -79.63268350616549}, "138294640RR0001": {"name": "PEEL HIV/AIDS NETWORK INC.", "designationCode": "C", "categoryCode": "09", "address": "601 - 7700 HURONTARIO ST", "city": "BRAMPTON", "province": "ON", "country": "CA", "postalCode": "L6Y4M3", "twitter": "None", "instagram": "None", "facebook": "None", "youtube": "None", "website": "None", "summary": "None", "logo": "None", "latitude": 43.66015379664278, "longitude": -79.7255409433323}, "849010079RR0001": {"name": "PEEL INTERNATIONAL BAPTIST CHURCH", "designationCode": "C", "categoryCode": "39", "address": "18 AUTOMATIC RD, UNIT 16 & 17", "city": "BRAMPTON", "province": "ON", "country": "CA", "postalCode": "L6S5N5", "twitter": "None", "instagram": "None", "facebook": "None", "youtube": "None", "website": "None", "summary": "None", "logo": "None", "latitude": 43.75799238273989, "longitude": -79.71120081894482}, "892497645RR0001": {"name": "PEEL METHODIST CHURCH", "designationCode": "C", "categoryCode": "39", "address": "2743 COUNCIL RING ROAD", "city": "MISSISSAUGA", "province": "ON", "country": "CA", "postalCode": "L5L1W5", "twitter": "None", "instagram": "None", "facebook": "None", "youtube": "None", "website": "None", "summary": "None", "logo": "None", "latitude": 43.52984168082403, "longitude": -79.68931644460173}, "119087906RR0001": {"name": "PEEL MUSIC FESTIVAL", "designationCode": "C", "categoryCode": "22", "address": "PO BOX 70083                  FLETCHERS CREEK", "city": "BRAMPTON", "province": "ON", "country": "CA", "postalCode": "L7A0N6", "twitter": "None", "instagram": "None", "facebook": "None", "youtube": "None", "website": "None", "summary": "None", "logo": "None", "latitude": 43.687178611151644, "longitude": -79.79778167114058}, "858183379RR0001": {"name": "PEEL PARAMEDIC ASSOCIATION", "designationCode": "C", "categoryCode": "59", "address": "P.O. BOX 42069                128 QUEEN STREET SOUTH", "city": "MISSISSAUGA", "province": "ON", "country": "CA", "postalCode": "L5M4Z0", "twitter": "None", "instagram": "None", "facebook": "None", "youtube": "None", "website": "None", "summary": "None", "logo": "None", "latitude": 43.58333477961806, "longitude": -79.7160299705983}, "107830739RR0001": {"name": "PEEL PENTECOSTAL TABERNACLE", "designationCode": "C", "categoryCode": "36", "address": "2005 COUNTRYSIDE DR", "city": "BRAMPTON", "province": "ON", "country": "CA", "postalCode": "L6R0N6", "twitter": "None", "instagram": "None", "facebook": "None", "youtube": "None", "website": "None", "summary": "None", "logo": "None", "latitude": 43.76458237549787, "longitude": -79.7704417386465}, "119087930RR0001": {"name": "PEEL REGION SCIENCE FAIR", "designationCode": "C", "categoryCode": "21", "address": "P.O. BOX 98029                2126 BURNHAMTHORPE RD. WEST", "city": "MISSISSAUGA", "province": "ON", "country": "CA", "postalCode": "L5L5V4", "twitter": "None", "instagram": "None", "facebook": "None", "youtube": "None", "website": "None", "summary": "None", "logo": "None", "latitude": 43.546111033485005, "longitude": -79.68359393350826}, "138549738RR0001": {"name": "PEEL SENIOR LINK", "designationCode": "C", "categoryCode": "09", "address": "50 BURNHAMTHORPE RD W         SUITE 300", "city": "MISSISSAUGA", "province": "ON", "country": "CA", "postalCode": "L5B3C2", "twitter": "None", "instagram": "None", "facebook": "None", "youtube": "None", "website": "None", "summary": "None", "logo": "None", "latitude": 43.592316121530615, "longitude": -79.63669127777172}, "119087948RR0001": {"name": "PEEL UNITED BAPTIST CHURCH", "designationCode": "C", "categoryCode": "31", "address": "7432 RTE 105", "city": "PEEL", "province": "NB", "country": "CA", "postalCode": "E7L3Y4", "twitter": "None", "instagram": "None", "facebook": "None", "youtube": "None", "website": "None", "summary": "None", "logo": "None", "latitude": 46.34410273458804, "longitude": -67.55214165467828}, "888731429RR0001": {"name": "PEEL-HALTON-DUFFERIN ADULT LEARNING NETWORK", "designationCode": "C", "categoryCode": "21", "address": "151 SUPERIOR BLVD             UNITS 19-23", "city": "MISSISSAUGA", "province": "ON", "country": "CA", "postalCode": "L5T2L1", "twitter": "None", "instagram": "None", "facebook": "None", "youtube": "None", "website": "None", "summary": "None", "logo": "None", "latitude": 43.643778167955176, "longitude": -79.69654090639919}, "863734158RR0001": {"name": "PEER MEDIATION AND SKILLS TRAINING", "designationCode": "C", "categoryCode": "59", "address": "103 - 1811 4 ST SW", "city": "CALGARY", "province": "AB", "country": "CA", "postalCode": "T2S1W2", "twitter": "None", "instagram": "None", "facebook": "None", "youtube": "None", "website": "None", "summary": "None", "logo": "None", "latitude": 51.036415742714524, "longitude": -114.07157510090015}, "818604001RR0001": {"name": "PEER Servants Canada Foundation", "designationCode": "C", "categoryCode": "21", "address": "2097 TROMPETER WAY", "city": "EDMONTON", "province": "AB", "country": "CA", "postalCode": "T5S0G1", "twitter": "None", "instagram": "None", "facebook": "None", "youtube": "None", "website": "None", "summary": "None", "logo": "None", "latitude": 53.587758699953966, "longitude": -113.67179710906579}, "140591629RR0001": {"name": "PEERNET ASSOCIATION OF BRITISH COLUMBIA", "designationCode": "C", "categoryCode": "09", "address": "408-602 HASTINGS ST W", "city": "VANCOUVER", "province": "BC", "country": "CA", "postalCode": "V6B1P2", "twitter": "None", "instagram": "None", "facebook": "None", "youtube": "None", "website": "None", "summary": "None", "logo": "None", "latitude": 49.2848045950431, "longitude": -123.11311626536421}, "888909199RR0001": {"name": "PEERS VICTORIA RESOURCES SOCIETY", "designationCode": "C", "categoryCode": "59", "address": "744 FAIRVIEW RD", "city": "VICTORIA", "province": "BC", "country": "CA", "postalCode": "V9A5T9", "twitter": "None", "instagram": "None", "facebook": "None", "youtube": "None", "website": "None", "summary": "None", "logo": "None", "latitude": 48.434749900080824, "longitude": -123.39887396370206}, "104129135RR0001": {"name": "PEFFERLAW & LIONS HOUSING CORPORATION", "designationCode": "C", "categoryCode": "01", "address": "18 PETES LANE", "city": "PEFFERLAW", "province": "ON", "country": "CA", "postalCode": "L0E1N0", "twitter": "None", "instagram": "None", "facebook": "None", "youtube": "None", "website": "None", "summary": "None", "logo": "None", "latitude": 44.31164368800874, "longitude": -79.19376629502479}, "890850860RR0001": {"name": "PEGASUS COMMUNITY PROJECT FOR ADULTS WITH SPECIAL NEEDS INCORPORATED", "designationCode": "C", "categoryCode": "09", "address": "931 KINGSTON RD", "city": "TORONTO", "province": "ON", "country": "CA", "postalCode": "M4E1S6", "twitter": "None", "instagram": "None", "facebook": "None", "youtube": "None", "website": "None", "summary": "None", "logo": "None", "latitude": 43.68039159781307, "longitude": -79.28846951817762}, "138661657RR0001": {"name": "PEGASUS RIDING ASSOCIATION NURTURING CHALLENGED EQUESTRIANS", "designationCode": "C", "categoryCode": "56", "address": "PO BOX 2037", "city": "PORT ELGIN", "province": "ON", "country": "CA", "postalCode": "N0H2C0", "twitter": "None", "instagram": "None", "facebook": "None", "youtube": "None", "website": "None", "summary": "None", "logo": "None", "latitude": 44.43698400000005, "longitude": -81.38664349999993}, "890729130RR0001": {"name": "PEGGY BAKER DANCE PROJECTS", "designationCode": "C", "categoryCode": "22", "address": "251 CRAWFORD STREET", "city": "TORONTO", "province": "ON", "country": "CA", "postalCode": "M6J2V7", "twitter": "None", "instagram": "None", "facebook": "None", "youtube": "None", "website": "None", "summary": "None", "logo": "None", "latitude": 43.65022255842804, "longitude": -79.41707919481806}, "854834215RR0001": {"name": "PEI Allied Youth Inc.", "designationCode": "C", "categoryCode": "29", "address": "40 ENMAN CRESCENT             SUITE 121", "city": "CHARLOTTETOWN", "province": "PE", "country": "CA", "postalCode": "C1E1E6", "twitter": "None", "instagram": "None", "facebook": "None", "youtube": "None", "website": "None", "summary": "None", "logo": "None", "latitude": 46.26020892990774, "longitude": -63.147127340887}, "107831109RR0001": {"name": "PEI COUNCIL OF PEOPLE WITH DISABILITIES INC.", "designationCode": "C", "categoryCode": "09", "address": "5 MALPEQUE ROAD", "city": "CHARLOTTETOWN", "province": "PE", "country": "CA", "postalCode": "C1E1R4", "twitter": "None", "instagram": "None", "facebook": "None", "youtube": "None", "website": "None", "summary": "None", "logo": "None", "latitude": 46.26705795554325, "longitude": -63.14883867407612}, "131905614RR0001": {"name": "PEI FAMILY VIOLENCE PREVENTION SERVICES INC.", "designationCode": "C", "categoryCode": "09", "address": "PO BOX 964", "city": "CHARLOTTETOWN", "province": "PE", "country": "CA", "postalCode": "C1A7M4", "twitter": "None", "instagram": "None", "facebook": "None", "youtube": "None", "website": "None", "summary": "None", "logo": "None", "latitude": 46.23659700000006, "longitude": -63.12815449999994}, "890380025RR0001": {"name": "PEI FOUNDATION FOR PEOPLE WITH DISABILITIES INC.", "designationCode": "C", "categoryCode": "21", "address": "2 - 5 LOWER MALPEQUE RD", "city": "CHARLOTTETOWN", "province": "PE", "country": "CA", "postalCode": "C1E1R4", "twitter": "None", "instagram": "None", "facebook": "None", "youtube": "None", "website": "None", "summary": "None", "logo": "None", "latitude": 46.26540476741304, "longitude": -63.15885331461699}, "139691695RR0001": {"name": "PEI LITERACY ALLIANCE", "designationCode": "C", "categoryCode": "21", "address": "PO BOX 20107", "city": "CHARLOTTETOWN", "province": "PE", "country": "CA", "postalCode": "C1A9E3", "twitter": "None", "instagram": "None", "facebook": "None", "youtube": "None", "website": "None", "summary": "None", "logo": "None", "latitude": 46.23659700000006, "longitude": -63.12815449999994}, "867892549RR0001": {"name": "PEI MILITARY SITES MUSEUM INC", "designationCode": "C", "categoryCode": "50", "address": "80 BELL CRESCENT", "city": "CHARLOTTETOWN", "province": "PE", "country": "CA", "postalCode": "C1E1Z9", "twitter": "None", "instagram": "None", "facebook": "None", "youtube": "None", "website": "None", "summary": "None", "logo": "None", "latitude": 46.27224738634657, "longitude": -63.164117329880426}, "864411061RR0001": {"name": "PEI-DE CHINESE SCHOOL FOUNDATION", "designationCode": "C", "categoryCode": "20", "address": "2596 KENNA COURT", "city": "MISSISSAUGA", "province": "ON", "country": "CA", "postalCode": "L5K2K6", "twitter": "None", "instagram": "None", "facebook": "None", "youtube": "None", "website": "None", "summary": "None", "logo": "None", "latitude": 43.52516919481808, "longitude": -79.65422155242676}, "895370013RR0001": {"name": "PEJE (PROJET D'ENTRAIDE DES JEUNES DE L'ESPOIR)", "designationCode": "C", "categoryCode": "09", "address": "695 L\u00c9O-LACOMBE", "city": "LAVAL", "province": "QC", "country": "CA", "postalCode": "H7N3Y7", "twitter": "None", "instagram": "None", "facebook": "None", "youtube": "None", "website": "None", "summary": "None", "logo": "None", "latitude": 45.55464636193653, "longitude": -73.70466006907519}, "826157943RR0001": {"name": "PELEE ISLAND BIRD OBSERVATORY", "designationCode": "C", "categoryCode": "54", "address": "105 ADMIRAL RD.", "city": "TORONTO", "province": "ON", "country": "CA", "postalCode": "M5R2L7", "twitter": "None", "instagram": "None", "facebook": "None", "youtube": "None", "website": "None", "summary": "None", "logo": "None", "latitude": 43.6739818975993, "longitude": -79.40136955909186}, "872085675RR0001": {"name": "PELEE ISLAND COMMUNITY ARTS", "designationCode": "C", "categoryCode": "22", "address": "82 EAST WEST ROAD", "city": "PELEE ISLAND", "province": "ON", "country": "CA", "postalCode": "N0R1M0", "twitter": "None", "instagram": "None", "facebook": "None", "youtube": "None", "website": "None", "summary": "None", "logo": "None", "latitude": 41.75576292625732, "longitude": -82.68360788713859}, "886144799RR0001": {"name": "PELEE ISLAND HERITAGE PRESERVATION CENTRE", "designationCode": "C", "categoryCode": "50", "address": "1073 WEST SHORE RD", "city": "PELEE ISLAND", "province": "ON", "country": "CA", "postalCode": "N0R1M0", "twitter": "None", "instagram": "None", "facebook": "None", "youtube": "None", "website": "None", "summary": "None", "logo": "None", "latitude": 41.76455625081039, "longitude": -82.68885428499998}, "886385004RR0001": {"name": "PELHAM CARES INC.", "designationCode": "C", "categoryCode": "09", "address": "BOX 1173", "city": "FONTHILL", "province": "ON", "country": "CA", "postalCode": "L0S1E0", "twitter": "None", "instagram": "None", "facebook": "None", "youtube": "None", "website": "None", "summary": "None", "logo": "None", "latitude": 43.04568000000006, "longitude": -79.28625999999997}, "107831539RR0001": {"name": "PELHAM EVANGELICAL FRIENDS CHURCH", "designationCode": "C", "categoryCode": "39", "address": "940 HAIST STREET", "city": "FONTHILL", "province": "ON", "country": "CA", "postalCode": "L0S1E4", "twitter": "None", "instagram": "None", "facebook": "None", "youtube": "None", "website": "None", "summary": "None", "logo": "None", "latitude": 43.01961350291418, "longitude": -79.29548907819219}, "119088094RR0001": {"name": "PELHAM EXECUTIVE MEETING OF THE RELIGIOUS SOCIETY OF FRIENDS", "designationCode": "C", "categoryCode": "39", "address": "425 MCALPINE AVE N.", "city": "WELLAND", "province": "ON", "country": "CA", "postalCode": "L3B1T4", "twitter": "None", "instagram": "None", "facebook": "None", "youtube": "None", "website": "None", "summary": "None", "logo": "None", "latitude": 42.99485366472388, "longitude": -79.23552004818492}, "891785248RR0001": {"name": "PELHAM HIGH ALUMNI SCHOLARSHIP", "designationCode": "C", "categoryCode": "21", "address": "1502 PELHAM STREET            BOX 482", "city": "FONTHILL", "province": "ON", "country": "CA", "postalCode": "L0S1E0", "twitter": "None", "instagram": "None", "facebook": "None", "youtube": "None", "website": "None", "summary": "None", "logo": "None", "latitude": 43.043737210238156, "longitude": -79.28552438656372}, "886689991RR0001": {"name": "PELLETIER YOUTH IN TRANSITION", "designationCode": "C", "categoryCode": "01", "address": "50 FAIRFIELD RD", "city": "TORONTO", "province": "ON", "country": "CA", "postalCode": "M4P1T2", "twitter": "None", "instagram": "None", "facebook": "None", "youtube": "None", "website": "None", "summary": "None", "logo": "None", "latitude": 43.7114131906918, "longitude": -79.38541909423505}, "119088144RR0001": {"name": "PELLY FELLOWSHIP CHAPEL", "designationCode": "C", "categoryCode": "34", "address": "BOX 70", "city": "PELLY", "province": "SK", "country": "CA", "postalCode": "S0A2Z0", "twitter": "None", "instagram": "None", "facebook": "None", "youtube": "None", "website": "None", "summary": "None", "logo": "None", "latitude": 50.38314143458857, "longitude": -101.69730002519363}, "119088169RR0001": {"name": "PELLY UNITED CHURCH", "designationCode": "C", "categoryCode": "44", "address": "PO BOX 81", "city": "PELLY", "province": "SK", "country": "CA", "postalCode": "S0A2Z0", "twitter": "None", "instagram": "None", "facebook": "None", "youtube": "None", "website": "None", "summary": "None", "logo": "None", "latitude": 50.38314143458857, "longitude": -101.69730002519363}, "861988863RR0001": {"name": "PEMA CHOLING CANADA", "designationCode": "C", "categoryCode": "29", "address": "1801 FULFORD-GANGES ROAD", "city": "SALT SPRING ISLAND", "province": "BC", "country": "CA", "postalCode": "V8K2A5", "twitter": "None", "instagram": "None", "facebook": "None", "youtube": "None", "website": "None", "summary": "None", "logo": "None", "latitude": 48.79387854466109, "longitude": -123.4962089250653}, "889692976RR0001": {"name": "PEMBERTON & DISTRICT HEALTH CARE FOUNDATION", "designationCode": "A", "categoryCode": "13", "address": "BOX 310-1403 PORTAGE RD", "city": "PEMBERTON", "province": "BC", "country": "CA", "postalCode": "V0N2L0", "twitter": "None", "instagram": "None", "facebook": "None", "youtube": "None", "website": "None", "summary": "None", "logo": "None", "latitude": 50.32118927393391, "longitude": -122.80518582843814}, "107831794RR0001": {"name": "PEMBERTON AND DISTRICT MUSEUM AND ARCHIVES SOCIETY", "designationCode": "C", "categoryCode": "50", "address": "PO BOX 267", "city": "PEMBERTON", "province": "BC", "country": "CA", "postalCode": "V0N2L0", "twitter": "None", "instagram": "None", "facebook": "None", "youtube": "None", "website": "None", "summary": "None", "logo": "None", "latitude": 50.443383074414584, "longitude": -122.91368590568882}, "131814709RR0001": {"name": "PEMBERTON AND DISTRICT PUBLIC LIBRARY ASSOCIATION", "designationCode": "C", "categoryCode": "50", "address": "BOX 430", "city": "PEMBERTON", "province": "BC", "country": "CA", "postalCode": "V0N2L0", "twitter": "None", "instagram": "None", "facebook": "None", "youtube": "None", "website": "None", "summary": "None", "logo": "None", "latitude": 50.443383074414584, "longitude": -122.91368590568882}, "872164520RR0001": {"name": "PEMBERTON CHILD CARE SOCIETY", "designationCode": "C", "categoryCode": "01", "address": "POST OFFICE BOX 684", "city": "PEMBERTON", "province": "BC", "country": "CA", "postalCode": "V0N2L0", "twitter": "None", "instagram": "None", "facebook": "None", "youtube": "None", "website": "None", "summary": "None", "logo": "None", "latitude": 50.32081000000005, "longitude": -122.80836}, "119288918RR1691": {"name": "PEMBERTON CONGREGATION OF JEHOVAH'S WITNESSES, PEMBERTON, B RITISH COLUMBIA", "designationCode": "C", "categoryCode": "61", "address": "1539 PORTAGE ROAD (HIGHWAY 99)", "city": "PEMBERTON", "province": "BC", "country": "CA", "postalCode": "V0N2L0", "twitter": "None", "instagram": "None", "facebook": "None", "youtube": "None", "website": "None", "summary": "None", "logo": "None", "latitude": 50.31722542755001, "longitude": -122.79843104016818}, "895363489RR0001": {"name": "PEMBERTON DISTRICT SEARCH AND RESCUE SOCIETY", "designationCode": "C", "categoryCode": "59", "address": "1350 ASTER STREET", "city": "PEMBERTON", "province": "BC", "country": "CA", "postalCode": "V0N2L0", "twitter": "None", "instagram": "None", "facebook": "None", "youtube": "None", "website": "None", "summary": "None", "logo": "None", "latitude": 50.321215725790225, "longitude": -122.80978544272135}, "119088243RR0001": {"name": "PEMBERTON PASTORAL CHARGE", "designationCode": "C", "categoryCode": "44", "address": "PO BOX 346", "city": "PEMBERTON", "province": "BC", "country": "CA", "postalCode": "V0N2L0", "twitter": "None", "instagram": "None", "facebook": "None", "youtube": "None", "website": "None", "summary": "None", "logo": "None", "latitude": 50.443383074414584, "longitude": -122.91368590568882}, "845048545RR0001": {"name": "PEMBERTON VALLEY SENIOR'S SOCIETY", "designationCode": "C", "categoryCode": "56", "address": "P.O. BOX 430", "city": "PEMBERTON", "province": "BC", "country": "CA", "postalCode": "V0N2L0", "twitter": "None", "instagram": "None", "facebook": "None", "youtube": "None", "website": "None", "summary": "None", "logo": "None", "latitude": 50.443383074414584, "longitude": -122.91368590568882}, "870214111RR0001": {"name": "PEMBERTON VALLEY TRAILS ASSOCIATION", "designationCode": "C", "categoryCode": "56", "address": "BOX 282", "city": "PEMBERTON", "province": "BC", "country": "CA", "postalCode": "V0N2L0", "twitter": "None", "instagram": "None", "facebook": "None", "youtube": "None", "website": "None", "summary": "None", "logo": "None", "latitude": 50.443383074414584, "longitude": -122.91368590568882}, "892289166RR0001": {"name": "PEMBINA BIBLE CAMP FELLOWSHIP", "designationCode": "C", "categoryCode": "56", "address": "62213, RANGE ROAD 11          RR 1", "city": "DAPP", "province": "AB", "country": "CA", "postalCode": "T0G0S0", "twitter": "None", "instagram": "None", "facebook": "None", "youtube": "None", "website": "None", "summary": "None", "logo": "None", "latitude": 54.35793967497643, "longitude": -114.0268962643176}, "132346594RR0001": {"name": "PEMBINA COUNSELLING CENTRE INC.", "designationCode": "C", "categoryCode": "09", "address": "103-400 STEPHEN STREET", "city": "MORDEN", "province": "MB", "country": "CA", "postalCode": "R6M1W3", "twitter": "None", "instagram": "None", "facebook": "None", "youtube": "None", "website": "None", "summary": "None", "logo": "None", "latitude": 49.189840492353945, "longitude": -98.10360951757205}}