{"132784851RR0001": {"name": "BALANCE FOR BLIND ADULTS", "designationCode": "C", "categoryCode": "09", "address": "SUITE 302                     4920 DUNDAS ST W", "city": "ETOBICOKE", "province": "ON", "country": "CA", "postalCode": "M9A1B7", "twitter": "None", "instagram": "None", "facebook": "None", "youtube": "None", "website": "None", "summary": "None", "logo": "None", "latitude": 43.648684287311916, "longitude": -79.52890517795628}, "863749016RR0001": {"name": "BALCARRES & DISTRICT COMMUNITY FOUNDATION INC.", "designationCode": "A", "categoryCode": "50", "address": "BOX 850", "city": "BALCARRES", "province": "SK", "country": "CA", "postalCode": "S0G0C0", "twitter": "None", "instagram": "None", "facebook": "None", "youtube": "None", "website": "None", "summary": "None", "logo": "None", "latitude": 50.80006000000003, "longitude": -103.55101999999994}, "871573267RR0001": {"name": "BALCARRES BAPTIST CHURCH", "designationCode": "C", "categoryCode": "31", "address": "BOX 766", "city": "BALCARRES", "province": "SK", "country": "CA", "postalCode": "S0G0C0", "twitter": "None", "instagram": "None", "facebook": "None", "youtube": "None", "website": "None", "summary": "None", "logo": "None", "latitude": 50.80006000000003, "longitude": -103.55101999999994}, "118798446RR0001": {"name": "BALCARRES GOLDEN AGE GROUP INC.", "designationCode": "C", "categoryCode": "56", "address": "BOX 767 MAIN STREET", "city": "BALCARRES", "province": "SK", "country": "CA", "postalCode": "S0G0C0", "twitter": "None", "instagram": "None", "facebook": "None", "youtube": "None", "website": "None", "summary": "None", "logo": "None", "latitude": 50.80360998579348, "longitude": -103.54228472301376}, "895351484RR0001": {"name": "BALDERSON UNITED CHURCH", "designationCode": "C", "categoryCode": "44", "address": "3465 DRUMMOND CON 7", "city": "BALDERSON", "province": "ON", "country": "CA", "postalCode": "K0G1A0", "twitter": "None", "instagram": "None", "facebook": "None", "youtube": "None", "website": "None", "summary": "None", "logo": "None", "latitude": 44.97631800000005, "longitude": -76.30297099999993}, "891574444RR0001": {"name": "BALDONNEL PARENT ADVISORY COUNCIL", "designationCode": "C", "categoryCode": "21", "address": "5836 BALDONNEL ROAD", "city": "BALDONNEL", "province": "BC", "country": "CA", "postalCode": "V0C1C6", "twitter": "None", "instagram": "None", "facebook": "None", "youtube": "None", "website": "None", "summary": "None", "logo": "None", "latitude": 56.217451633661504, "longitude": -120.69353720050977}, "825677743RR0001": {"name": "BALDUR & AREA DONOR'S CHOICE", "designationCode": "A", "categoryCode": "03", "address": "BOX 220", "city": "BALDUR", "province": "MB", "country": "CA", "postalCode": "R0K0B0", "twitter": "None", "instagram": "None", "facebook": "None", "youtube": "None", "website": "None", "summary": "None", "logo": "None", "latitude": 49.38489000000004, "longitude": -99.24488999999994}, "801731944RR0001": {"name": "BALDUR UNITED CHURCH", "designationCode": "C", "categoryCode": "44", "address": "BOX 280", "city": "BALDUR", "province": "MB", "country": "CA", "postalCode": "R0K0B0", "twitter": "None", "instagram": "None", "facebook": "None", "youtube": "None", "website": "None", "summary": "None", "logo": "None", "latitude": 49.38489000000004, "longitude": -99.24488999999994}, "118798495RR0001": {"name": "BALDWINS MILLS UNITED CHURCH OF CANADA", "designationCode": "C", "categoryCode": "44", "address": "805, CHEMIN PERKINS", "city": "COATICOOK", "province": "QC", "country": "CA", "postalCode": "J1A2S4", "twitter": "None", "instagram": "None", "facebook": "None", "youtube": "None", "website": "None", "summary": "None", "logo": "None", "latitude": 45.01982931118321, "longitude": -71.91683541084353}, "131440158RR0001": {"name": "BALFOUR STREET UNITED CHURCH", "designationCode": "C", "categoryCode": "44", "address": "62 BALFOUR ST.,", "city": "BRANTFORD", "province": "ON", "country": "CA", "postalCode": "N3T1J7", "twitter": "None", "instagram": "None", "facebook": "None", "youtube": "None", "website": "None", "summary": "None", "logo": "None", "latitude": 43.13237161198, "longitude": -80.27455666720537}, "118798529RR0001": {"name": "BALGONIE BAPTIST CHURCH", "designationCode": "C", "categoryCode": "31", "address": "P.O. BOX 436", "city": "BALGONIE", "province": "SK", "country": "CA", "postalCode": "S0G0E0", "twitter": "None", "instagram": "None", "facebook": "None", "youtube": "None", "website": "None", "summary": "None", "logo": "None", "latitude": 50.48924000000005, "longitude": -104.26885999999996}, "118798545RR0001": {"name": "BALGONIE SENIOR CITIZENS CLUB INC.", "designationCode": "C", "categoryCode": "56", "address": "BOX 151", "city": "BALGONIE", "province": "SK", "country": "CA", "postalCode": "S0G0E0", "twitter": "None", "instagram": "None", "facebook": "None", "youtube": "None", "website": "None", "summary": "None", "logo": "None", "latitude": 50.48924000000005, "longitude": -104.26885999999996}, "118798552RR0001": {"name": "BALGONIE UNITED CHURCH", "designationCode": "C", "categoryCode": "44", "address": "P.O. BOX 417", "city": "BALGONIE", "province": "SK", "country": "CA", "postalCode": "S0G0E0", "twitter": "None", "instagram": "None", "facebook": "None", "youtube": "None", "website": "None", "summary": "None", "logo": "None", "latitude": 50.48924000000005, "longitude": -104.26885999999996}, "866920598RR0001": {"name": "BALL'S CEMETERY", "designationCode": "C", "categoryCode": "59", "address": "294 MAIN STREET               P.O. BOX 228", "city": "LONDESBORO", "province": "ON", "country": "CA", "postalCode": "N0M2H0", "twitter": "None", "instagram": "None", "facebook": "None", "youtube": "None", "website": "None", "summary": "None", "logo": "None", "latitude": 43.16518414504396, "longitude": -81.84146013611948}, "106742612RR0001": {"name": "BALLET CLASSIQUE DU HAUT-RICHELIEU INC.", "designationCode": "C", "categoryCode": "22", "address": "240 JEAN-TALON", "city": "ST-JEAN-SUR-RICHELIEU", "province": "QC", "country": "CA", "postalCode": "J2W1M5", "twitter": "None", "instagram": "None", "facebook": "None", "youtube": "None", "website": "None", "summary": "None", "logo": "None", "latitude": 45.35871192062438, "longitude": -73.26885154423151}, "135402600RR0001": {"name": "BALLET CREOLE", "designationCode": "C", "categoryCode": "22", "address": "256 DERRYDOWN RD", "city": "TORONTO", "province": "ON", "country": "CA", "postalCode": "M3J1S1", "twitter": "None", "instagram": "None", "facebook": "None", "youtube": "None", "website": "None", "summary": "None", "logo": "None", "latitude": 43.75667073576097, "longitude": -79.50460406936365}, "890532989RR0001": {"name": "BALLET DIVERTIMENTO DE MONTREAL", "designationCode": "C", "categoryCode": "22", "address": "3505 RUE DU ROCHER", "city": "MONTREAL", "province": "QC", "country": "CA", "postalCode": "H2X2E7", "twitter": "None", "instagram": "None", "facebook": "None", "youtube": "None", "website": "None", "summary": "None", "logo": "None", "latitude": 45.50876700000006, "longitude": -73.57577299999993}, "118798586RR0001": {"name": "BALLET JORGEN CANADA", "designationCode": "C", "categoryCode": "22", "address": "160 KENDALL AVE               RM C 126", "city": "TORONTO", "province": "ON", "country": "CA", "postalCode": "M5R1M3", "twitter": "None", "instagram": "None", "facebook": "None", "youtube": "None", "website": "None", "summary": "None", "logo": "None", "latitude": 43.676167244503525, "longitude": -79.41013767202321}, "118798594RR0001": {"name": "BALLET NORTH ASSOCIATION", "designationCode": "C", "categoryCode": "22", "address": "15009 75TH AVE", "city": "EDMONTON", "province": "AB", "country": "CA", "postalCode": "T5R2Y8", "twitter": "None", "instagram": "None", "facebook": "None", "youtube": "None", "website": "None", "summary": "None", "logo": "None"}, "100384734RR0001": {"name": "BALLET OUEST INC./ BALLET WEST INC.", "designationCode": "C", "categoryCode": "22", "address": "269 BOUL ST JEAN SUITE 218", "city": "POINTE-CLAIRE", "province": "QC", "country": "CA", "postalCode": "H9R3J1", "twitter": "None", "instagram": "None", "facebook": "None", "youtube": "None", "website": "None", "summary": "None", "logo": "None", "latitude": 45.44565532542544, "longitude": -73.81632278783424}, "862570751RR0001": {"name": "BALLET VICTORIA SOCIETY", "designationCode": "C", "categoryCode": "22", "address": "PO 5023", "city": "VICTORIA", "province": "BC", "country": "CA", "postalCode": "V8R6N3", "twitter": "None", "instagram": "None", "facebook": "None", "youtube": "None", "website": "None", "summary": "None", "logo": "None", "latitude": 48.42854700000005, "longitude": -123.36445249999994}, "137546669RR0001": {"name": "BALLINAFAD UNITED CHURCH", "designationCode": "C", "categoryCode": "44", "address": "BOX 111", "city": "BALLINAFAD", "province": "ON", "country": "CA", "postalCode": "N0B1H0", "twitter": "None", "instagram": "None", "facebook": "None", "youtube": "None", "website": "None", "summary": "None", "logo": "None", "latitude": 43.69599000000005, "longitude": -80.01376999999997}, "118798628RR0001": {"name": "BALLYDUFF PRESBYTERIAN CHURCH", "designationCode": "C", "categoryCode": "37", "address": "351 BALLY DUFF ROAD WEST", "city": "PONTY POOL", "province": "ON", "country": "CA", "postalCode": "L0A1K0", "twitter": "None", "instagram": "None", "facebook": "None", "youtube": "None", "website": "None", "summary": "None", "logo": "None", "latitude": 44.12060700000005, "longitude": -78.68250799999993}, "885732289RR0001": {"name": "BALMORAL COMMUNITY HALL INC.", "designationCode": "C", "categoryCode": "56", "address": "P.O. BOX 80", "city": "BALMORAL", "province": "MB", "country": "CA", "postalCode": "R0C0H0", "twitter": "None", "instagram": "None", "facebook": "None", "youtube": "None", "website": "None", "summary": "None", "logo": "None", "latitude": 50.26362000000006, "longitude": -97.32116999999994}, "119288918RR0567": {"name": "BALMORAL CONGREGATION OF JEHOVAH'S WITNESSES, BRAMPTON, ONTARIO", "designationCode": "C", "categoryCode": "61", "address": "PO BOX 4100", "city": "GEORGETOWN", "province": "ON", "country": "CA", "postalCode": "L7G4Y4", "twitter": "None", "instagram": "None", "facebook": "None", "youtube": "None", "website": "None", "summary": "None", "logo": "None", "latitude": 43.65006000000005, "longitude": -79.89909199999994}, "892494162RR0001": {"name": "BALMORAL HALL SCHOOL FOUNDATION INC.", "designationCode": "A", "categoryCode": "23", "address": "630 WESTMINSTER AVE", "city": "WINNIPEG", "province": "MB", "country": "CA", "postalCode": "R3C3S1", "twitter": "None", "instagram": "None", "facebook": "None", "youtube": "None", "website": "None", "summary": "None", "logo": "None", "latitude": 49.88160341114038, "longitude": -97.15644217953708}, "129943932RR0001": {"name": "BALMORAL HALL-SCHOOL FOR GIRLS", "designationCode": "C", "categoryCode": "20", "address": "630 WESTMINSTER AVENUE", "city": "WINNIPEG", "province": "MB", "country": "CA", "postalCode": "R3C3S1", "twitter": "None", "instagram": "None", "facebook": "None", "youtube": "None", "website": "None", "summary": "None", "logo": "None", "latitude": 49.88160341114038, "longitude": -97.15644217953708}, "118798651RR0001": {"name": "BALMORAL UNITED CHURCH", "designationCode": "C", "categoryCode": "44", "address": "BOX 115", "city": "BALMORAL", "province": "MB", "country": "CA", "postalCode": "R0C0H0", "twitter": "None", "instagram": "None", "facebook": "None", "youtube": "None", "website": "None", "summary": "None", "logo": "None", "latitude": 50.26362000000006, "longitude": -97.32116999999994}, "867773822RR0001": {"name": "BALUCHON ALZHEIMER", "designationCode": "C", "categoryCode": "11", "address": "200 - 10138 RUE LAJEUNESSE", "city": "MONTREAL", "province": "QC", "country": "CA", "postalCode": "H3L2E2", "twitter": "None", "instagram": "None", "facebook": "None", "youtube": "None", "website": "None", "summary": "None", "logo": "None", "latitude": 45.55276506076531, "longitude": -73.65985782460031}, "890606189RR0001": {"name": "BALZAC UNITED CHURCH", "designationCode": "C", "categoryCode": "44", "address": "10076 TWP RD 262", "city": "BALZAC", "province": "AB", "country": "CA", "postalCode": "T4B2T3", "twitter": "None", "instagram": "None", "facebook": "None", "youtube": "None", "website": "None", "summary": "None", "logo": "None", "latitude": 51.22709700000006, "longitude": -114.02492299999994}, "802951079RR0001": {"name": "BAMBERTON HISTORICAL SOCIETY", "designationCode": "C", "categoryCode": "50", "address": "296 MILL BAY RD", "city": "MILL BAY", "province": "BC", "country": "CA", "postalCode": "V0R2P4", "twitter": "None", "instagram": "None", "facebook": "None", "youtube": "None", "website": "None", "summary": "None", "logo": "None", "latitude": 48.60996758994418, "longitude": -123.53436964098462}, "894815885RR0001": {"name": "BAMBINERIE DU FJORD", "designationCode": "C", "categoryCode": "20", "address": "1652, RUE ST-MARC", "city": "LA BAIE", "province": "QC", "country": "CA", "postalCode": "G7B2T7", "twitter": "None", "instagram": "None", "facebook": "None", "youtube": "None", "website": "None", "summary": "None", "logo": "None", "latitude": 48.33831584098894, "longitude": -70.89044180878861}, "890357775RR0001": {"name": "BANBURY CROSSROADS SCHOOL SOCIETY", "designationCode": "C", "categoryCode": "20", "address": "201-2451 DIEPPE AVE SW", "city": "CALGARY", "province": "AB", "country": "CA", "postalCode": "T3E7K1", "twitter": "None", "instagram": "None", "facebook": "None", "youtube": "None", "website": "None", "summary": "None", "logo": "None", "latitude": 51.019592502885544, "longitude": -114.1201436575401}, "880844113RR0001": {"name": "BANCROFT & AREA KIDS IN NEED INC.", "designationCode": "C", "categoryCode": "09", "address": "PO BOX 640", "city": "BANCROFT", "province": "ON", "country": "CA", "postalCode": "K0L1C0", "twitter": "None", "instagram": "None", "facebook": "None", "youtube": "None", "website": "None", "summary": "None", "logo": "None", "latitude": 45.03567300000006, "longitude": -77.98000849999994}, "106743131RR0001": {"name": "BANCROFT BIBLE CHAPEL", "designationCode": "C", "categoryCode": "39", "address": "PO BOX 866", "city": "BANCROFT", "province": "ON", "country": "CA", "postalCode": "K0L1C0", "twitter": "None", "instagram": "None", "facebook": "None", "youtube": "None", "website": "None", "summary": "None", "logo": "None", "latitude": 45.03567300000006, "longitude": -77.98000849999994}, "131892259RR0001": {"name": "BANCROFT CHRISTIAN SCHOOL SOCIETY", "designationCode": "C", "categoryCode": "20", "address": "P.O. BOX 550", "city": "BANCROFT", "province": "ON", "country": "CA", "postalCode": "K0L1C0", "twitter": "None", "instagram": "None", "facebook": "None", "youtube": "None", "website": "None", "summary": "None", "logo": "None", "latitude": 45.03567300000006, "longitude": -77.98000849999994}, "883594319RR0001": {"name": "BANCROFT COMMUNITY TRANSIT", "designationCode": "C", "categoryCode": "09", "address": "PO BOX 727", "city": "BANCROFT", "province": "ON", "country": "CA", "postalCode": "K0L1C0", "twitter": "None", "instagram": "None", "facebook": "None", "youtube": "None", "website": "None", "summary": "None", "logo": "None", "latitude": 45.03567300000006, "longitude": -77.98000849999994}, "119288918RR0680": {"name": "BANCROFT CONGREGATION OF JEHOVAH'S WITNESSES", "designationCode": "C", "categoryCode": "61", "address": "BOX 1052", "city": "BANCROFT", "province": "ON", "country": "CA", "postalCode": "K0L1C0", "twitter": "None", "instagram": "None", "facebook": "None", "youtube": "None", "website": "None", "summary": "None", "logo": "None", "latitude": 45.03567300000006, "longitude": -77.98000849999994}, "136223914RR0001": {"name": "BANCROFT DRIVE COMMUNITY CHURCH", "designationCode": "C", "categoryCode": "39", "address": "1422 BANCROFT DR", "city": "SUDBURY", "province": "ON", "country": "CA", "postalCode": "P3B1R5", "twitter": "None", "instagram": "None", "facebook": "None", "youtube": "None", "website": "None", "summary": "None", "logo": "None", "latitude": 46.49258927666306, "longitude": -80.95252400030262}, "118798768RR0001": {"name": "BANCROFT GEM AND MINERAL CLUB", "designationCode": "C", "categoryCode": "21", "address": "BOX 1749", "city": "BANCROFT", "province": "ON", "country": "CA", "postalCode": "K0L1C0", "twitter": "None", "instagram": "None", "facebook": "None", "youtube": "None", "website": "None", "summary": "None", "logo": "None", "latitude": 45.03567300000006, "longitude": -77.98000849999994}, "889051645RR0001": {"name": "BANCROFT LIONS CLUB CHARITABLE TRUST", "designationCode": "A", "categoryCode": "65", "address": "P.O. BOX 906", "city": "BANCROFT", "province": "ON", "country": "CA", "postalCode": "K0L1C0", "twitter": "None", "instagram": "None", "facebook": "None", "youtube": "None", "website": "None", "summary": "None", "logo": "None", "latitude": 45.03567300000006, "longitude": -77.98000849999994}, "867542607RR0001": {"name": "BANCROFT PREGNANCY CARE CENTRE", "designationCode": "C", "categoryCode": "09", "address": "P. O. BOX 511", "city": "BANCROFT", "province": "ON", "country": "CA", "postalCode": "K0L1C0", "twitter": "None", "instagram": "None", "facebook": "None", "youtube": "None", "website": "None", "summary": "None", "logo": "None", "latitude": 45.03567300000006, "longitude": -77.98000849999994}, "118798784RR0001": {"name": "BAND PARENTS' ASSOCIATION OF THE HOLY CROSS HIGH SCHOOL", "designationCode": "C", "categoryCode": "22", "address": "157 MT. ALLISON CRES.", "city": "SASKATOON", "province": "SK", "country": "CA", "postalCode": "S7N4A4", "twitter": "None", "instagram": "None", "facebook": "None", "youtube": "None", "website": "None", "summary": "None", "logo": "None", "latitude": 52.11986475437129, "longitude": -106.59313826501844}, "891029571RR0001": {"name": "BANDEMONIUM MUSIC SOCIETY", "designationCode": "C", "categoryCode": "22", "address": "BOX 616", "city": "SALT SPRING ISLAND", "province": "BC", "country": "CA", "postalCode": "V8K2W2", "twitter": "None", "instagram": "None", "facebook": "None", "youtube": "None", "website": "None", "summary": "None", "logo": "None", "latitude": 48.85955700000005, "longitude": -123.50808349999994}, "888671062RR0001": {"name": "BANFF FOOD BANK SOCIETY", "designationCode": "C", "categoryCode": "09", "address": "P.O.BOX 4373", "city": "BANFF", "province": "AB", "country": "CA", "postalCode": "T1L1E7", "twitter": "None", "instagram": "None", "facebook": "None", "youtube": "None", "website": "None", "summary": "None", "logo": "None", "latitude": 51.17577900000006, "longitude": -115.57274299999993}, "118798792RR0001": {"name": "BANFF INTERNATIONAL AFFAIRS SUMMER SCHOOL", "designationCode": "C", "categoryCode": "21", "address": "#111, 10265 107 STREET", "city": "EDMONTON", "province": "AB", "country": "CA", "postalCode": "T5J5G2", "twitter": "None", "instagram": "None", "facebook": "None", "youtube": "None", "website": "None", "summary": "None", "logo": "None", "latitude": 53.544445239800325, "longitude": -113.50470432177303}, "118798818RR0001": {"name": "BANFF PUBLIC LIBRARY BOARD", "designationCode": "C", "categoryCode": "50", "address": "PO BOX 996", "city": "BANFF", "province": "AB", "country": "CA", "postalCode": "T1L1H3", "twitter": "None", "instagram": "None", "facebook": "None", "youtube": "None", "website": "None", "summary": "None", "logo": "None", "latitude": 51.17577900000006, "longitude": -115.57274299999993}, "140388158RR0001": {"name": "BANFF SENIOR CITIZENS SOCIETY", "designationCode": "C", "categoryCode": "56", "address": "UPSTAIRS 107 BEAR ST. BOX 2194", "city": "BANFF", "province": "AB", "country": "CA", "postalCode": "T1L1B9", "twitter": "None", "instagram": "None", "facebook": "None", "youtube": "None", "website": "None", "summary": "None", "logo": "None", "latitude": 51.17487982783324, "longitude": -115.57267285551431}, "106743370RR0001": {"name": "BANFF'S FULL GOSPEL CHURCH", "designationCode": "C", "categoryCode": "36", "address": "BOX 1075", "city": "BANFF", "province": "AB", "country": "CA", "postalCode": "T1L1B1", "twitter": "None", "instagram": "None", "facebook": "None", "youtube": "None", "website": "None", "summary": "None", "logo": "None", "latitude": 51.17577900000006, "longitude": -115.57274299999993}, "118798867RR0001": {"name": "BANGLADESH VILLAGE DEVELOPMENT RELIEF FOUNDATION", "designationCode": "C", "categoryCode": "09", "address": "417 LIMERICK ST. GILFORD ON   RR#1", "city": "CHURCHILL", "province": "ON", "country": "CA", "postalCode": "L0L1K0", "twitter": "None", "instagram": "None", "facebook": "None", "youtube": "None", "website": "None", "summary": "None", "logo": "None", "latitude": 44.24589565805878, "longitude": -79.53277342099975}, "861452431RR0001": {"name": "BANGLADESH-CANADA HINDU MANDIR", "designationCode": "C", "categoryCode": "48", "address": "16 DOHME AVENUE", "city": "EAST YORK", "province": "ON", "country": "CA", "postalCode": "M4B1Y9", "twitter": "None", "instagram": "None", "facebook": "None", "youtube": "None", "website": "None", "summary": "None", "logo": "None", "latitude": 43.71217036360997, "longitude": -79.31286098638134}, "866914013RR0001": {"name": "BANGLADESHI-CANADIAN COMMUNITY SERVICES", "designationCode": "C", "categoryCode": "59", "address": "2899 DANFORTH AVENUE", "city": "TORONTO", "province": "ON", "country": "CA", "postalCode": "M4C1M3", "twitter": "None", "instagram": "None", "facebook": "None", "youtube": "None", "website": "None", "summary": "None", "logo": "None", "latitude": 43.68990184205679, "longitude": -79.29401617984308}, "869123067RR0001": {"name": "BANGOR CEMETERY INC", "designationCode": "C", "categoryCode": "59", "address": "5 RYAN LANE                   RR2", "city": "MORELL", "province": "PE", "country": "CA", "postalCode": "C0A1S0", "twitter": "None", "instagram": "None", "facebook": "None", "youtube": "None", "website": "None", "summary": "None", "logo": "None", "latitude": 46.43336934837144, "longitude": -62.78240106198155}, "896301777RR0001": {"name": "BANGOR DEVELOPMENT COMMISSION/LA COMMISSION DU DEVELOPPEMENTDE BANGOR", "designationCode": "C", "categoryCode": "52", "address": "PO BOX 127", "city": "METEGHAN RIVER", "province": "NS", "country": "CA", "postalCode": "B0W2L0", "twitter": "None", "instagram": "None", "facebook": "None", "youtube": "None", "website": "None", "summary": "None", "logo": "None", "latitude": 44.16834120064351, "longitude": -66.15999816131917}, "118798883RR0001": {"name": "BANGYA PARISHAD TORONTO", "designationCode": "C", "categoryCode": "39", "address": "5 SUNDEL AVE", "city": "YORK", "province": "ON", "country": "CA", "postalCode": "M6M3K2", "twitter": "None", "instagram": "None", "facebook": "None", "youtube": "None", "website": "None", "summary": "None", "logo": "None", "latitude": 43.69051480405675, "longitude": -79.46587768800873}, "118798974RR0001": {"name": "BANKVIEW HOUSE SENIOR CITIZENS SOCIAL CLUB", "designationCode": "B", "categoryCode": "56", "address": "1826 - 16A STREET SOUTH WEST  #104", "city": "CALGARY", "province": "AB", "country": "CA", "postalCode": "T2T4J7", "twitter": "None", "instagram": "None", "facebook": "None", "youtube": "None", "website": "None", "summary": "None", "logo": "None", "latitude": 51.01673309937227, "longitude": -114.10187954211627}, "896454402RR0001": {"name": "BANMAN FAMILY FOUNDATION", "designationCode": "B", "categoryCode": "03", "address": "204B-219 OXFORD ST W", "city": "LONDON", "province": "ON", "country": "CA", "postalCode": "N6H1S5", "twitter": "None", "instagram": "None", "facebook": "None", "youtube": "None", "website": "None", "summary": "None", "logo": "None", "latitude": 42.98971938930643, "longitude": -81.27260769123129}, "118798982RR0001": {"name": "BANNATYNE SCHOOL PARENT COUNCIL", "designationCode": "C", "categoryCode": "21", "address": "363 THOMPSON DR", "city": "WINNIPEG", "province": "MB", "country": "CA", "postalCode": "R3J3E5", "twitter": "None", "instagram": "None", "facebook": "None", "youtube": "None", "website": "None", "summary": "None", "logo": "None", "latitude": 49.88260567415893, "longitude": -97.26647891779709}, "894142462RR0001": {"name": "BANNER COUNTY HEALTH FOUNDATION INC.", "designationCode": "A", "categoryCode": "13", "address": "BOX 1666", "city": "RUSSELL", "province": "MB", "country": "CA", "postalCode": "R0J1W0", "twitter": "None", "instagram": "None", "facebook": "None", "youtube": "None", "website": "None", "summary": "None", "logo": "None", "latitude": 50.69676379161792, "longitude": -101.40612232134879}, "862584513RR0001": {"name": "BANNER OF LOVE MINISTRIES INTERNATIONAL", "designationCode": "C", "categoryCode": "47", "address": "P.O. BOX 270", "city": "NEW NORWAY", "province": "AB", "country": "CA", "postalCode": "T0B3L0", "twitter": "None", "instagram": "None", "facebook": "None", "youtube": "None", "website": "None", "summary": "None", "logo": "None", "latitude": 52.86856000000006, "longitude": -112.95187999999996}, "132488040RR0001": {"name": "BANNER OF TRUTH RADIO BROADCAST", "designationCode": "C", "categoryCode": "47", "address": "16726 80 AVE", "city": "SURREY", "province": "BC", "country": "CA", "postalCode": "V4N0G8", "twitter": "None", "instagram": "None", "facebook": "None", "youtube": "None", "website": "None", "summary": "None", "logo": "None", "latitude": 49.14774217984309, "longitude": -122.7586547714524}, "889687448RR0001": {"name": "BANNER UNITED CHURCH", "designationCode": "C", "categoryCode": "44", "address": "28 ELLEN ST                   RR 2", "city": "INGERSOLL", "province": "ON", "country": "CA", "postalCode": "N5C3J6", "twitter": "None", "instagram": "None", "facebook": "None", "youtube": "None", "website": "None", "summary": "None", "logo": "None", "latitude": 43.033940160713165, "longitude": -80.90685260277606}, "118799014RR0001": {"name": "BANNOCKBURN COMMUNITY CHURCH", "designationCode": "C", "categoryCode": "39", "address": "1071 BANNOCKBURN RD           P.O. BOX 101", "city": "BALA", "province": "ON", "country": "CA", "postalCode": "P0C1A0", "twitter": "None", "instagram": "None", "facebook": "None", "youtube": "None", "website": "None", "summary": "None", "logo": "None", "latitude": 45.058329471002324, "longitude": -79.6231263141843}, "891271942RR0001": {"name": "BANNOCKBURN FOUNDATION", "designationCode": "A", "categoryCode": "23", "address": "12 BANNOCKBURN AVE", "city": "TORONTO", "province": "ON", "country": "CA", "postalCode": "M5M2M8", "twitter": "None", "instagram": "None", "facebook": "None", "youtube": "None", "website": "None", "summary": "None", "logo": "None", "latitude": 43.73365214741162, "longitude": -79.42187857550914}, "140991241RR0001": {"name": "BANNOCKBURN SCHOOL", "designationCode": "C", "categoryCode": "20", "address": "12 BANNOCKBURN AVE", "city": "TORONTO", "province": "ON", "country": "CA", "postalCode": "M5M2M8", "twitter": "None", "instagram": "None", "facebook": "None", "youtube": "None", "website": "None", "summary": "None", "logo": "None", "latitude": 43.73365214741162, "longitude": -79.42187857550914}, "890466378RR0001": {"name": "BANNON CEMETERY ASSOCIATION", "designationCode": "C", "categoryCode": "59", "address": "2633 ROUTE 103", "city": "SOMERVILLE", "province": "NB", "country": "CA", "postalCode": "E7P3A8", "twitter": "None", "instagram": "None", "facebook": "None", "youtube": "None", "website": "None", "summary": "None", "logo": "None", "latitude": 46.291532579434836, "longitude": -67.53338628802106}, "118932029RR0001": {"name": "BANNON CHURCH ASSOCIATION LTD.", "designationCode": "C", "categoryCode": "31", "address": "360 FOSTER RD.", "city": "MAINSTREAM", "province": "NB", "country": "CA", "postalCode": "E7P1V5", "twitter": "None", "instagram": "None", "facebook": "None", "youtube": "None", "website": "None", "summary": "None", "logo": "None", "latitude": 46.299459353857806, "longitude": -67.38410312507904}, "893822528RR0001": {"name": "BANQUE ALIMENTAIRE BONS VOISINS/GOOD NEIGHBOURS FOOD BANK (GNFB)", "designationCode": "C", "categoryCode": "09", "address": "1012 NOTRE-DAME               P.O. BOX 573", "city": "EMBRUN", "province": "ON", "country": "CA", "postalCode": "K0A1W0", "twitter": "None", "instagram": "None", "facebook": "None", "youtube": "None", "website": "None", "summary": "None", "logo": "None", "latitude": 45.27342870758755, "longitude": -75.27675942741743}, "867995581RR0001": {"name": "BANQUE ALIMENTAIRE CASSELMAN CRYSLER ST-ALBERT FOOD BANK", "designationCode": "C", "categoryCode": "09", "address": "756 RUE BR\u00c9BEUF               P O BOX 561", "city": "CASSELMAN", "province": "ON", "country": "CA", "postalCode": "K0A1M0", "twitter": "None", "instagram": "None", "facebook": "None", "youtube": "None", "website": "None", "summary": "None", "logo": "None", "latitude": 45.314691996421985, "longitude": -75.08681210998942}, "868060096RR0001": {"name": "BANQUE ALIMENTAIRE CENTRALE DE HAWKESBURY/HAWKESBURY CENTRALFOOD BANK", "designationCode": "C", "categoryCode": "09", "address": "548 MAIN EAST", "city": "HAWKESBURY", "province": "ON", "country": "CA", "postalCode": "K6A1A9", "twitter": "None", "instagram": "None", "facebook": "None", "youtube": "None", "website": "None", "summary": "None", "logo": "None", "latitude": 45.61034158280942, "longitude": -74.60252247169481}, "890126014RR0001": {"name": "BANQUE ALIMENTAIRE COUP D'POUCE LTEE", "designationCode": "C", "categoryCode": "09", "address": "609 RUE PRINCIPALE UNITE 1", "city": "PETIT-ROCHER", "province": "NB", "country": "CA", "postalCode": "E8J1H3", "twitter": "None", "instagram": "None", "facebook": "None", "youtube": "None", "website": "None", "summary": "None", "logo": "None", "latitude": 47.781653454957, "longitude": -65.71744930501843}, "858285679RR0001": {"name": "BANQUE ALIMENTAIRE DE BOURGET", "designationCode": "C", "categoryCode": "09", "address": "C.P. 134", "city": "BOURGET", "province": "ON", "country": "CA", "postalCode": "K0A1E0", "twitter": "None", "instagram": "None", "facebook": "None", "youtube": "None", "website": "None", "summary": "None", "logo": "None", "latitude": 45.435575304001055, "longitude": -75.15252548830361}, "871605549RR0001": {"name": "BANQUE ALIMENTAIRE DE L'ORIGNAL ET COMPTOIR DES AMIS DE NOELLIE", "designationCode": "C", "categoryCode": "09", "address": "261 LONGUEUIL ST              P.O. BOX 330", "city": "L'ORIGNAL", "province": "ON", "country": "CA", "postalCode": "K0B1K0", "twitter": "None", "instagram": "None", "facebook": "None", "youtube": "None", "website": "None", "summary": "None", "logo": "None", "latitude": 45.61309807464379, "longitude": -74.69566552533368}, "137426227RR0001": {"name": "BANQUE ALIMENTAIRE DE LA PETITE NATION", "designationCode": "C", "categoryCode": "09", "address": "1264 ROUTE 317", "city": "RIPON", "province": "QC", "country": "CA", "postalCode": "J0V1V0", "twitter": "None", "instagram": "None", "facebook": "None", "youtube": "None", "website": "None", "summary": "None", "logo": "None", "latitude": 45.782703000000005, "longitude": -75.10753467955216}, "890702798RR0001": {"name": "BANQUE ALIMENTAIRE LA VIGNE", "designationCode": "C", "categoryCode": "09", "address": "40 RUE SAINT-ALPHONSE SUD", "city": "THETFORD-MINES", "province": "QC", "country": "CA", "postalCode": "G6G3T7", "twitter": "None", "instagram": "None", "facebook": "None", "youtube": "None", "website": "None", "summary": "None", "logo": "None", "latitude": 46.09109899111321, "longitude": -71.29998988441334}, "137438453RR0001": {"name": "BANQUE ALIMENTAIRE MEMPHREMAGOG INC.", "designationCode": "C", "categoryCode": "09", "address": "581, RUE SHERBROOKE", "city": "MAGOG", "province": "QC", "country": "CA", "postalCode": "J1X2S4", "twitter": "None", "instagram": "None", "facebook": "None", "youtube": "None", "website": "None", "summary": "None", "logo": "None", "latitude": 45.26909743187709, "longitude": -72.14200832128209}, "889654331RR0001": {"name": "BANQUE ALIMENTAIRE REGIONALE DE GRAND-SAULT INC./GRAND FALLS REGIONAL FOOD BANK INC.", "designationCode": "C", "categoryCode": "09", "address": "363 CHEMIN PORTAGE", "city": "GRAND-SAULT", "province": "NB", "country": "CA", "postalCode": "E3Z1M2", "twitter": "None", "instagram": "None", "facebook": "None", "youtube": "None", "website": "None", "summary": "None", "logo": "None", "latitude": 47.03479044962206, "longitude": -67.74682822326747}, "136855228RR0001": {"name": "BANQUE D'ALIMENTS SUDBURY FOOD BANK", "designationCode": "A", "categoryCode": "09", "address": "1105 WEBBWOOD DR", "city": "SUDBURY", "province": "ON", "country": "CA", "postalCode": "P3C3B6", "twitter": "None", "instagram": "None", "facebook": "None", "youtube": "None", "website": "None", "summary": "None", "logo": "None", "latitude": 46.47143129811279, "longitude": -81.0282651369956}, "876780321RR0001": {"name": "BANQUETING TABLE FOOD SERVICES SOCIETY", "designationCode": "C", "categoryCode": "09", "address": "343 EAST 8TH STREET", "city": "NORTH VANCOUVER", "province": "BC", "country": "CA", "postalCode": "V7L1Z2", "twitter": "None", "instagram": "None", "facebook": "None", "youtube": "None", "website": "None", "summary": "None", "logo": "None", "latitude": 49.31464552510253, "longitude": -123.06452230252754}, "131781296RR0001": {"name": "BANWELL COMMUNITY CHURCH", "designationCode": "C", "categoryCode": "31", "address": "2400 BANWELL RD", "city": "WINDSOR", "province": "ON", "country": "CA", "postalCode": "N8P1X9", "twitter": "None", "instagram": "None", "facebook": "None", "youtube": "None", "website": "None", "summary": "None", "logo": "None", "latitude": 42.31536205635056, "longitude": -82.9015363964168}, "891611576RR0001": {"name": "BANYAN COMMUNITY SERVICES FOUNDATION INC.", "designationCode": "A", "categoryCode": "63", "address": "2B - 688 QUEENSDALE AVE E", "city": "HAMILTON", "province": "ON", "country": "CA", "postalCode": "L8V1M1", "twitter": "None", "instagram": "None", "facebook": "None", "youtube": "None", "website": "None", "summary": "None", "logo": "None", "latitude": 43.234258863696894, "longitude": -79.84667814100632}, "866311749RR0001": {"name": "BAO LAM BUDDHIST ASSOCIATION", "designationCode": "C", "categoryCode": "35", "address": "6025 ST. GEORGE STREET", "city": "VANCOUVER", "province": "BC", "country": "CA", "postalCode": "V5W2Y5", "twitter": "None", "instagram": "None", "facebook": "None", "youtube": "None", "website": "None", "summary": "None", "logo": "None", "latitude": 49.22986578573489, "longitude": -123.09395248338024}, "893582825RR0001": {"name": "BAOBAB FAMILIAL", "designationCode": "C", "categoryCode": "09", "address": "6767 CH DE LA C\u00d4TE-DES-NEIGES BUREAU 599", "city": "MONTR\u00c9AL", "province": "QC", "country": "CA", "postalCode": "H3S2T6", "twitter": "None", "instagram": "None", "facebook": "None", "youtube": "None", "website": "None", "summary": "None", "logo": "None", "latitude": 45.50313226868245, "longitude": -73.63713869926147}, "861587095RR0001": {"name": "BAOBAB TREE DRUM DANCE COMMUNITY", "designationCode": "C", "categoryCode": "22", "address": "323 CLIFTON RD", "city": "OTTAWA", "province": "ON", "country": "CA", "postalCode": "K1Z5V1", "twitter": "None", "instagram": "None", "facebook": "None", "youtube": "None", "website": "None", "summary": "None", "logo": "None", "latitude": 45.39663627505908, "longitude": -75.74881303271992}, "118799055RR0001": {"name": "BAPTIST CEMETERY", "designationCode": "C", "categoryCode": "59", "address": "344 HIGHWAY # 15              P.O. BOX 129", "city": "SEELEYS BAY", "province": "ON", "country": "CA", "postalCode": "K0H2N0", "twitter": "None", "instagram": "None", "facebook": "None", "youtube": "None", "website": "None", "summary": "None", "logo": "None", "latitude": 44.485700362972786, "longitude": -76.19451053643428}, "118799063RR0001": {"name": "BAPTIST CHURCH OF PRINCETON", "designationCode": "C", "categoryCode": "31", "address": "BOX 641", "city": "PRINCETON", "province": "BC", "country": "CA", "postalCode": "V0X1W0", "twitter": "None", "instagram": "None", "facebook": "None", "youtube": "None", "website": "None", "summary": "None", "logo": "None", "latitude": 49.458687000000054, "longitude": -120.50591299999994}, "131955882RR0001": {"name": "BAPTIST CHURCH OF SUMMERSIDE, PRINCE EDWARD ISLAND CAN ANA", "designationCode": "C", "categoryCode": "31", "address": "219 CHURCH ST", "city": "SUMMERSIDE", "province": "PE", "country": "CA", "postalCode": "C1N1K3", "twitter": "None", "instagram": "None", "facebook": "None", "youtube": "None", "website": "None", "summary": "None", "logo": "None", "latitude": 46.39352025950717, "longitude": -63.789287752149576}, "889779534RR0001": {"name": "BAPTIST CHURCH PLANTING MINISTRY CANADA", "designationCode": "C", "categoryCode": "49", "address": "300 HIGHBURY AVENUE", "city": "ST.THOMAS", "province": "ON", "country": "CA", "postalCode": "N5P0A5", "twitter": "None", "instagram": "None", "facebook": "None", "youtube": "None", "website": "None", "summary": "None", "logo": "None", "latitude": 42.80505752438302, "longitude": -81.15034956677191}, "106885767RR0001": {"name": "BAPTIST GENERAL CONFERENCE - CENTRAL CANADA INC.", "designationCode": "C", "categoryCode": "31", "address": "877 WILKES AVENUE", "city": "WINNIPEG", "province": "MB", "country": "CA", "postalCode": "R3P1B8", "twitter": "None", "instagram": "None", "facebook": "None", "youtube": "None", "website": "None", "summary": "None", "logo": "None", "latitude": 49.847063039536486, "longitude": -97.18311726032502}, "131879777RR0001": {"name": "BAPTIST GENERAL CONFERENCE IN ALBERTA", "designationCode": "C", "categoryCode": "31", "address": "11525 23 AVE", "city": "EDMONTON", "province": "AB", "country": "CA", "postalCode": "T6J4T3", "twitter": "None", "instagram": "None", "facebook": "None", "youtube": "None", "website": "None", "summary": "None", "logo": "None", "latitude": 53.45376650822484, "longitude": -113.52726215361537}, "898880059RR0001": {"name": "BAPTIST GENERAL CONFERENCE IN SASKATCHEWAN INC.", "designationCode": "C", "categoryCode": "31", "address": "107 MCWILLIE AVE", "city": "SASKATOON", "province": "SK", "country": "CA", "postalCode": "S7S1B2", "twitter": "None", "instagram": "None", "facebook": "None", "youtube": "None", "website": "None", "summary": "None", "logo": "None", "latitude": 52.156008000000014, "longitude": -106.59661627277913}, "129987970RR0001": {"name": "BAPTIST GENERAL CONFERENCE OF CANADA", "designationCode": "C", "categoryCode": "31", "address": "201 - 8315 DAVIES RD NW", "city": "EDMONTON", "province": "AB", "country": "CA", "postalCode": "T6E4N3", "twitter": "None", "instagram": "None", "facebook": "None", "youtube": "None", "website": "None", "summary": "None", "logo": "None", "latitude": 53.49480628140706, "longitude": -113.45169664302647}, "893210773RR0001": {"name": "BAPTIST HAITI MISSION OF CANADA", "designationCode": "C", "categoryCode": "47", "address": "P.O. BOX 11                   602 WELLINGTON AVE", "city": "WALLACEBURG", "province": "ON", "country": "CA", "postalCode": "N8A4L5", "twitter": "None", "instagram": "None", "facebook": "None", "youtube": "None", "website": "None", "summary": "None", "logo": "None", "latitude": 42.59413223593385, "longitude": -82.38603503525874}, "872736590RR0001": {"name": "BAPTIST HOUSING CARE HOMES SOCIETY", "designationCode": "C", "categoryCode": "01", "address": "125-6165 HIGHWAY 17A", "city": "DELTA", "province": "BC", "country": "CA", "postalCode": "V4K5B8", "twitter": "None", "instagram": "None", "facebook": "None", "youtube": "None", "website": "None", "summary": "None", "logo": "None", "latitude": 49.11029597670904, "longitude": -123.05324789938778}, "889772190RR0001": {"name": "BAPTIST INTERNATIONAL MISSIONS (IN ONTARIO) INC", "designationCode": "C", "categoryCode": "47", "address": "100 RIDGEWOOD AVE", "city": "GUELPH", "province": "ON", "country": "CA", "postalCode": "N1H6C5", "twitter": "None", "instagram": "None", "facebook": "None", "youtube": "None", "website": "None", "summary": "None", "logo": "None", "latitude": 43.539172007460586, "longitude": -80.27358600032548}, "106771710RR0001": {"name": "BAPTIST MID-MISSIONS", "designationCode": "C", "categoryCode": "47", "address": "110 GARNET ST. NORTH", "city": "REGINA", "province": "SK", "country": "CA", "postalCode": "S4R3S5", "twitter": "None", "instagram": "None", "facebook": "None", "youtube": "None", "website": "None", "summary": "None", "logo": "None", "latitude": 50.47815820415333, "longitude": -104.62693619619247}, "106771728RR0001": {"name": "BAPTIST MISSIONARY SOCIETY OF LATIN AMERICA", "designationCode": "C", "categoryCode": "47", "address": "3760 HWY 97A", "city": "ARMSTRONG", "province": "BC", "country": "CA", "postalCode": "V0E1B3", "twitter": "None", "instagram": "None", "facebook": "None", "youtube": "None", "website": "None", "summary": "None", "logo": "None", "latitude": 50.45275208901831, "longitude": -119.1715174028619}, "892267162RR0001": {"name": "BAPTIST MISSIONS TO FORGOTTEN PEOPLES - CANADA", "designationCode": "C", "categoryCode": "47", "address": "21 JAMESTON AVE.", "city": "HAMILTON", "province": "ON", "country": "CA", "postalCode": "L9C2R9", "twitter": "None", "instagram": "None", "facebook": "None", "youtube": "None", "website": "None", "summary": "None", "logo": "None", "latitude": 43.22305487870054, "longitude": -79.88541777200065}, "890107063RR0001": {"name": "BAPTIST WORLD MISSION", "designationCode": "C", "categoryCode": "47", "address": "P.O. BOX 51", "city": "MILTON", "province": "ON", "country": "CA", "postalCode": "L9T2Y3", "twitter": "None", "instagram": "None", "facebook": "None", "youtube": "None", "website": "None", "summary": "None", "logo": "None", "latitude": 43.51104600000005, "longitude": -79.88386399999993}, "119288918RR0255": {"name": "BAR RIVER ONTARIO CONGREGATION OF JEHOVAH'S WITNESSES", "designationCode": "C", "categoryCode": "61", "address": "45 MAIN STREET                P.O. BOX 5, DESBARATS PO", "city": "DESBARATS", "province": "ON", "country": "CA", "postalCode": "P0R1E0", "twitter": "None", "instagram": "None", "facebook": "None", "youtube": "None", "website": "None", "summary": "None", "logo": "None", "latitude": 46.343852999999996, "longitude": -83.93227370644617}}