{"890463995RR0001": {"name": "WESTMINSTER SAVINGS FOUNDATION", "designationCode": "A", "categoryCode": "03", "address": "108-960 QUAYSIDE DR", "city": "NEW WESTMINSTER", "province": "BC", "country": "CA", "postalCode": "V3M6G3", "twitter": "None", "instagram": "None", "facebook": "None", "youtube": "None", "website": "None", "summary": "None", "logo": "None", "latitude": 49.20007677814709, "longitude": -122.91316745741231}, "118818491RR0004": {"name": "WESTMINSTER SEVENTH-DAY ADVENTIST CHURCH", "designationCode": "C", "categoryCode": "41", "address": "PO 1000", "city": "ABBOTSFORD", "province": "BC", "country": "CA", "postalCode": "V2S4P5", "twitter": "None", "instagram": "None", "facebook": "None", "youtube": "None", "website": "None", "summary": "None", "logo": "None", "latitude": 49.03851300000005, "longitude": -122.29441549999993}, "857504146RR0001": {"name": "WESTMINSTER TOWNSHIP HISTORICAL SOCIETY", "designationCode": "C", "categoryCode": "50", "address": "48-5 CADEAU TERRACE", "city": "LONDON", "province": "ON", "country": "CA", "postalCode": "N6K4H9", "twitter": "None", "instagram": "None", "facebook": "None", "youtube": "None", "website": "None", "summary": "None", "logo": "None", "latitude": 42.96520524424374, "longitude": -81.34651831822367}, "108202359RR0001": {"name": "WESTMINSTER UNITED CHURCH", "designationCode": "C", "categoryCode": "44", "address": "180 QUEENSTON ST", "city": "ST CATHARINES", "province": "ON", "country": "CA", "postalCode": "L2R2Z7", "twitter": "None", "instagram": "None", "facebook": "None", "youtube": "None", "website": "None", "summary": "None", "logo": "None", "latitude": 43.162160986900936, "longitude": -79.22697777549176}, "108202391RR0001": {"name": "WESTMINSTER UNITED CHURCH", "designationCode": "C", "categoryCode": "44", "address": "P.O. BOX 188                  115 GEORGE STREET", "city": "THAMESFORD", "province": "ON", "country": "CA", "postalCode": "N0M2M0", "twitter": "None", "instagram": "None", "facebook": "None", "youtube": "None", "website": "None", "summary": "None", "logo": "None", "latitude": 43.05792492020981, "longitude": -80.9996313358308}, "108202409RR0001": {"name": "WESTMINSTER UNITED CHURCH", "designationCode": "C", "categoryCode": "44", "address": "1680 DOUGALL AVE", "city": "WINDSOR", "province": "ON", "country": "CA", "postalCode": "N8X1S3", "twitter": "None", "instagram": "None", "facebook": "None", "youtube": "None", "website": "None", "summary": "None", "logo": "None", "latitude": 42.29609327644406, "longitude": -83.02879371146649}, "108202425RR0001": {"name": "WESTMINSTER UNITED CHURCH", "designationCode": "C", "categoryCode": "44", "address": "745 WESTMINSTER AVE", "city": "WINNIPEG", "province": "MB", "country": "CA", "postalCode": "R3G1A5", "twitter": "None", "instagram": "None", "facebook": "None", "youtube": "None", "website": "None", "summary": "None", "logo": "None", "latitude": 49.88193651875455, "longitude": -97.16170144310117}, "108202508RR0001": {"name": "WESTMINSTER UNITED CHURCH", "designationCode": "C", "categoryCode": "44", "address": "PO BOX 25                     330 EDWARDS AVENUE", "city": "THE PAS", "province": "MB", "country": "CA", "postalCode": "R9A1K3", "twitter": "None", "instagram": "None", "facebook": "None", "youtube": "None", "website": "None", "summary": "None", "logo": "None", "latitude": 53.82316730945246, "longitude": -101.25059211674049}, "119294775RR0001": {"name": "WESTMINSTER UNITED CHURCH", "designationCode": "C", "categoryCode": "44", "address": "4094 TOMKEN ROAD", "city": "MISSISSAUGA", "province": "ON", "country": "CA", "postalCode": "L4W1J5", "twitter": "None", "instagram": "None", "facebook": "None", "youtube": "None", "website": "None", "summary": "None", "logo": "None", "latitude": 43.6159715570144, "longitude": -79.61515045715252}, "119294841RR0001": {"name": "WESTMINSTER UNITED CHURCH", "designationCode": "C", "categoryCode": "44", "address": "3025 13TH AVE", "city": "REGINA", "province": "SK", "country": "CA", "postalCode": "S4T1P1", "twitter": "None", "instagram": "None", "facebook": "None", "youtube": "None", "website": "None", "summary": "None", "logo": "None", "latitude": 50.44548849567219, "longitude": -104.62496302553522}, "119294858RR0001": {"name": "WESTMINSTER UNITED CHURCH", "designationCode": "C", "categoryCode": "44", "address": "101 6 ST SE", "city": "MEDICINE HAT", "province": "AB", "country": "CA", "postalCode": "T1A1G7", "twitter": "None", "instagram": "None", "facebook": "None", "youtube": "None", "website": "None", "summary": "None", "logo": "None", "latitude": 50.03332250346246, "longitude": -110.68413291618097}, "130100647RR0001": {"name": "WESTMINSTER UNITED CHURCH", "designationCode": "C", "categoryCode": "44", "address": "543 BEECHWOOD DR.", "city": "WATERLOO", "province": "ON", "country": "CA", "postalCode": "N2T2S8", "twitter": "None", "instagram": "None", "facebook": "None", "youtube": "None", "website": "None", "summary": "None", "logo": "None", "latitude": 43.4501584393216, "longitude": -80.56286034191257}, "891108441RR0001": {"name": "WESTMINSTER UNITED CHURCH", "designationCode": "C", "categoryCode": "44", "address": "1199 WALLBRIDGE-LOYALIST ROAD R.R.#5", "city": "BELLEVILLE", "province": "ON", "country": "CA", "postalCode": "K8N4Z5", "twitter": "None", "instagram": "None", "facebook": "None", "youtube": "None", "website": "None", "summary": "None", "logo": "None", "latitude": 44.1902342741937, "longitude": -77.45250250383688}, "889326195RR0001": {"name": "WESTMINSTER UNITED CHURCH FOUNDATION", "designationCode": "A", "categoryCode": "43", "address": "SUITE 500                     360 MAIN STREET", "city": "WINNIPEG", "province": "MB", "country": "CA", "postalCode": "R3C3Z3", "twitter": "None", "instagram": "None", "facebook": "None", "youtube": "None", "website": "None", "summary": "None", "logo": "None", "latitude": 49.89459781320337, "longitude": -97.1381563866637}, "119294742RR0001": {"name": "WESTMINSTER UNITED CHURCH,", "designationCode": "C", "categoryCode": "44", "address": "1850 ROSSLAND ROAD EAST", "city": "WHITBY", "province": "ON", "country": "CA", "postalCode": "L1N3P2", "twitter": "None", "instagram": "None", "facebook": "None", "youtube": "None", "website": "None", "summary": "None", "logo": "None", "latitude": 43.90631009359988, "longitude": -78.91134698407274}, "119294817RR0001": {"name": "WESTMINSTER UNITED CHURCH,", "designationCode": "C", "categoryCode": "44", "address": "650 RIVER ST", "city": "THUNDER BAY", "province": "ON", "country": "CA", "postalCode": "P7A3S6", "twitter": "None", "instagram": "None", "facebook": "None", "youtube": "None", "website": "None", "summary": "None", "logo": "None", "latitude": 48.44862502694888, "longitude": -89.23581247403209}, "108202334RR0001": {"name": "WESTMINSTER-ST. PAUL'S PRESBYTERIAN CHURCH", "designationCode": "C", "categoryCode": "37", "address": "206 VICTORIA RD NORTH", "city": "GUELPH", "province": "ON", "country": "CA", "postalCode": "N1E5H8", "twitter": "None", "instagram": "None", "facebook": "None", "youtube": "None", "website": "None", "summary": "None", "logo": "None", "latitude": 43.56655338548119, "longitude": -80.24441749088206}, "892383449RR0001": {"name": "WESTMORELAND BAPTIST CEMETERY", "designationCode": "C", "categoryCode": "59", "address": "BOX 116", "city": "KINKORA", "province": "PE", "country": "CA", "postalCode": "C0B1N0", "twitter": "None", "instagram": "None", "facebook": "None", "youtube": "None", "website": "None", "summary": "None", "logo": "None", "latitude": 46.32277000000005, "longitude": -63.60273999999998}, "119294916RR0001": {"name": "WESTMORLAND-KENT UNITED BAPTIST ASSOCIATION", "designationCode": "C", "categoryCode": "47", "address": "PO BOX 1728 STATION MAIN", "city": "MONCTON", "province": "NB", "country": "CA", "postalCode": "E1C9X5", "twitter": "None", "instagram": "None", "facebook": "None", "youtube": "None", "website": "None", "summary": "None", "logo": "None", "latitude": 46.08872243840578, "longitude": -64.77642630797114}, "119294932RR0001": {"name": "WESTMOUNT BAPTIST CHURCH,", "designationCode": "C", "categoryCode": "31", "address": "411 ROSELYN AVENUE", "city": "WESTMOUNT", "province": "QC", "country": "CA", "postalCode": "H3Y2T6", "twitter": "None", "instagram": "None", "facebook": "None", "youtube": "None", "website": "None", "summary": "None", "logo": "None", "latitude": 45.48039623593386, "longitude": -73.60227914819102}, "119294940RR0001": {"name": "WESTMOUNT BAPTIST CHURCH,", "designationCode": "C", "categoryCode": "31", "address": "200 MAIN ST S", "city": "MOOSE JAW", "province": "SK", "country": "CA", "postalCode": "S6H5S7", "twitter": "None", "instagram": "None", "facebook": "None", "youtube": "None", "website": "None", "summary": "None", "logo": "None", "latitude": 50.385329129272264, "longitude": -105.53462721719282}, "882854508RR0001": {"name": "WESTMOUNT BIBLE CHAPEL OF PETERBOROUGH", "designationCode": "C", "categoryCode": "39", "address": "1150 CLONSILLA AVENUE", "city": "PETERBOROUGH", "province": "ON", "country": "CA", "postalCode": "K9J5Y7", "twitter": "None", "instagram": "None", "facebook": "None", "youtube": "None", "website": "None", "summary": "None", "logo": "None", "latitude": 44.2933572270184, "longitude": -78.34047099731694}, "891145138RR0001": {"name": "WESTMOUNT CHARTER SCHOOL SOCIETY", "designationCode": "C", "categoryCode": "20", "address": "728 - 32 ST. NW", "city": "CALGARY", "province": "AB", "country": "CA", "postalCode": "T2N2V9", "twitter": "None", "instagram": "None", "facebook": "None", "youtube": "None", "website": "None", "summary": "None", "logo": "None", "latitude": 51.05843549541236, "longitude": -114.13193271813158}, "108202631RR0001": {"name": "WESTMOUNT CHRISTIAN REFORMED CHURCH", "designationCode": "C", "categoryCode": "39", "address": "405 DRURY LANE", "city": "STRATHROY", "province": "ON", "country": "CA", "postalCode": "N7G3G2", "twitter": "None", "instagram": "None", "facebook": "None", "youtube": "None", "website": "None", "summary": "None", "logo": "None", "latitude": 42.96112200000002, "longitude": -81.63659547345517}, "119288918RR1265": {"name": "WESTMOUNT CONGREGATION OF JEHOVAH'S WITNESSES - MONTREAL (QU", "designationCode": "C", "categoryCode": "61", "address": "2054 AV BELGRAVE", "city": "MONTREAL", "province": "QC", "country": "CA", "postalCode": "H4A2L7", "twitter": "None", "instagram": "None", "facebook": "None", "youtube": "None", "website": "None", "summary": "None", "logo": "None", "latitude": 45.466360607536586, "longitude": -73.61472291869113}, "119288918RR0320": {"name": "WESTMOUNT CONGREGATION OF JEHOVAH'S WITNESSES, HAMILTON ONTARIO", "designationCode": "C", "categoryCode": "61", "address": "277 STONE CHURCH RD W", "city": "HAMILTON", "province": "ON", "country": "CA", "postalCode": "L9B1A2", "twitter": "None", "instagram": "None", "facebook": "None", "youtube": "None", "website": "None", "summary": "None", "logo": "None", "latitude": 43.21420087091024, "longitude": -79.90179669207676}, "119288918RR0045": {"name": "WESTMOUNT CONGREGATION OF JEHOVAH'S WITNESSES, MOOSE JAW, SASKATCHEWAN", "designationCode": "C", "categoryCode": "61", "address": "BOX 427", "city": "MOOSE JAW", "province": "SK", "country": "CA", "postalCode": "S6H4P1", "twitter": "None", "instagram": "None", "facebook": "None", "youtube": "None", "website": "None", "summary": "None", "logo": "None", "latitude": 50.39688300000006, "longitude": -105.53701399999993}, "119288918RR0169": {"name": "WESTMOUNT CONGREGATION OF JEHOVAH'S WITNESSES, WATERLOO, ONTARIO", "designationCode": "C", "categoryCode": "61", "address": "355 GAGE AVENUE", "city": "KITCHENER", "province": "ON", "country": "CA", "postalCode": "N2M5E1", "twitter": "None", "instagram": "None", "facebook": "None", "youtube": "None", "website": "None", "summary": "None", "logo": "None", "latitude": 43.44524710413147, "longitude": -80.52030736360997}, "890572043RR0001": {"name": "WESTMOUNT GOSPEL CHAPEL", "designationCode": "C", "categoryCode": "39", "address": "202 - 350 MILL RD", "city": "ETOBICOKE", "province": "ON", "country": "CA", "postalCode": "M9C5R7", "twitter": "None", "instagram": "None", "facebook": "None", "youtube": "None", "website": "None", "summary": "None", "logo": "None", "latitude": 43.640432570633074, "longitude": -79.58546414184303}, "119295038RR0001": {"name": "WESTMOUNT HIGH SCHOOL ALUMNAE ASSOCIATION ENDOWMENT FUND", "designationCode": "C", "categoryCode": "21", "address": "29-331 CLARKE AVE", "city": "WESTMOUNT", "province": "QC", "country": "CA", "postalCode": "H3Z2E7", "twitter": "None", "instagram": "None", "facebook": "None", "youtube": "None", "website": "None", "summary": "None", "logo": "None", "latitude": 45.485742319752895, "longitude": -73.59182076045947}, "119295061RR0001": {"name": "WESTMOUNT PARK UNITED CHURCH,", "designationCode": "C", "categoryCode": "44", "address": "4695 DE MAISONNEUVE BLVD WEST", "city": "WESTMOUNT", "province": "QC", "country": "CA", "postalCode": "H3Z1L9", "twitter": "None", "instagram": "None", "facebook": "None", "youtube": "None", "website": "None", "summary": "None", "logo": "None", "latitude": 45.47970606523736, "longitude": -73.5978818272547}, "889236865RR0001": {"name": "WESTMOUNT PRESBYTERIAN CHURCH", "designationCode": "C", "categoryCode": "37", "address": "13820 109A AVE", "city": "EDMONTON", "province": "AB", "country": "CA", "postalCode": "T5M2K1", "twitter": "None", "instagram": "None", "facebook": "None", "youtube": "None", "website": "None", "summary": "None", "logo": "None", "latitude": 53.55579252986305, "longitude": -113.560704}, "889296844RR0001": {"name": "WESTMOUNT PRESBYTERIAN CHURCH,", "designationCode": "C", "categoryCode": "37", "address": "521 VILLAGE GREEN AVE", "city": "LONDON", "province": "ON", "country": "CA", "postalCode": "N6K1G3", "twitter": "None", "instagram": "None", "facebook": "None", "youtube": "None", "website": "None", "summary": "None", "logo": "None", "latitude": 42.95042407158535, "longitude": -81.29135990045617}, "118793074RR0011": {"name": "WESTMOUNT SEVENTH-DAY ADVENTIST CHURCH", "designationCode": "C", "categoryCode": "41", "address": "571 AV VICTORIA", "city": "WESTMOUNT", "province": "QC", "country": "CA", "postalCode": "H3Y2R7", "twitter": "None", "instagram": "None", "facebook": "None", "youtube": "None", "website": "None", "summary": "None", "logo": "None", "latitude": 45.48165009714925, "longitude": -73.60927056535294}, "119295129RR0001": {"name": "WESTMOUNT UNITED CHURCH,", "designationCode": "C", "categoryCode": "44", "address": "23 WESTMOUNT DRIVE SOUTH", "city": "ORILLIA", "province": "ON", "country": "CA", "postalCode": "L3V6C8", "twitter": "None", "instagram": "None", "facebook": "None", "youtube": "None", "website": "None", "summary": "None", "logo": "None", "latitude": 44.601305256510464, "longitude": -79.43332196328193}, "119295137RR0001": {"name": "WESTMOUNT VOLUNTEER FIRE DEPARTMENT", "designationCode": "C", "categoryCode": "59", "address": "180 FULTON AVENUE", "city": "SYDNEY", "province": "NS", "country": "CA", "postalCode": "B1R1K1", "twitter": "None", "instagram": "None", "facebook": "None", "youtube": "None", "website": "None", "summary": "None", "logo": "None", "latitude": 46.139138725806305, "longitude": -60.217675400109464}, "108202714RR0001": {"name": "WESTMOUNT-LEITCHES CREEK PASTORAL CHARGE", "designationCode": "C", "categoryCode": "44", "address": "95 WINDEMERE DR", "city": "SYDNEY", "province": "NS", "country": "CA", "postalCode": "B1R1E7", "twitter": "None", "instagram": "None", "facebook": "None", "youtube": "None", "website": "None", "summary": "None", "logo": "None", "latitude": 46.13592804302036, "longitude": -60.206459446592284}, "119288918RR0919": {"name": "WESTNEY CONGREGATION OF JEHOVAH'S WITNESSES", "designationCode": "C", "categoryCode": "61", "address": "74 BROCKMAN CRESCENT", "city": "AJAX", "province": "ON", "country": "CA", "postalCode": "L1T2L7", "twitter": "None", "instagram": "None", "facebook": "None", "youtube": "None", "website": "None", "summary": "None", "logo": "None", "latitude": 43.86902305799535, "longitude": -79.04354684067182}, "138198718RR0001": {"name": "WESTNEY HEIGHTS BAPTIST CHURCH", "designationCode": "C", "categoryCode": "31", "address": "1201 RAVENSCROFT RD", "city": "AJAX", "province": "ON", "country": "CA", "postalCode": "L1T4K5", "twitter": "None", "instagram": "None", "facebook": "None", "youtube": "None", "website": "None", "summary": "None", "logo": "None", "latitude": 43.882750075537814, "longitude": -79.05676823224118}, "119295202RR0001": {"name": "WESTON AREA EMERGENCY SUPPORT", "designationCode": "C", "categoryCode": "09", "address": "1844 WESTON ROAD", "city": "WESTON", "province": "ON", "country": "CA", "postalCode": "M9N1V8", "twitter": "None", "instagram": "None", "facebook": "None", "youtube": "None", "website": "None", "summary": "None", "logo": "None", "latitude": 43.699428388828075, "longitude": -79.5143114937676}, "108203035RR0001": {"name": "WESTON CHRISTIAN FELLOWSHIP CHURCH", "designationCode": "C", "categoryCode": "39", "address": "P.O. BOX 526", "city": "BERWICK", "province": "NS", "country": "CA", "postalCode": "B0P1E0", "twitter": "None", "instagram": "None", "facebook": "None", "youtube": "None", "website": "None", "summary": "None", "logo": "None", "latitude": 45.04982000000007, "longitude": -64.73769999999996}, "119295236RR0001": {"name": "WESTON COLLEGIATE ALUMNI FOUNDATION", "designationCode": "C", "categoryCode": "21", "address": "P.O. BOX 79775                1995 WESTON ROAD", "city": "TORONTO", "province": "ON", "country": "CA", "postalCode": "M9N3W9", "twitter": "None", "instagram": "None", "facebook": "None", "youtube": "None", "website": "None", "summary": "None", "logo": "None", "latitude": 43.701102008627004, "longitude": -79.5195066017082}, "119288918RR0403": {"name": "WESTON CONGREGATION OF JEHOVAH'S WITNESSES", "designationCode": "C", "categoryCode": "61", "address": "95 CAMBORNE AVE", "city": "NORTH YORK", "province": "ON", "country": "CA", "postalCode": "M3M2R3", "twitter": "None", "instagram": "None", "facebook": "None", "youtube": "None", "website": "None", "summary": "None", "logo": "None", "latitude": 43.73288283484344, "longitude": -79.49607851041601}, "875484917RR0001": {"name": "WESTON KING NEIGHBOURHOOD CENTRE", "designationCode": "C", "categoryCode": "09", "address": "2017 WESTON ROAD", "city": "TORONTO", "province": "ON", "country": "CA", "postalCode": "M9N1X2", "twitter": "None", "instagram": "None", "facebook": "None", "youtube": "None", "website": "None", "summary": "None", "logo": "None", "latitude": 43.701264030267076, "longitude": -79.52008328766813}, "844350140RR0001": {"name": "WESTON MATHEMATICS AND MUSIC COMMUNITY CENTRE INC.", "designationCode": "C", "categoryCode": "22", "address": "7 - 60 WINGES RD", "city": "WOODBRIDGE", "province": "ON", "country": "CA", "postalCode": "L4L6B1", "twitter": "None", "instagram": "None", "facebook": "None", "youtube": "None", "website": "None", "summary": "None", "logo": "None", "latitude": 43.78679137471847, "longitude": -79.55344083155387}, "718792526RR0001": {"name": "WESTON PARK BAPTIST CHURCH", "designationCode": "C", "categoryCode": "31", "address": "1871 WESTON RD", "city": "YORK", "province": "ON", "country": "CA", "postalCode": "M9N1V9", "twitter": "None", "instagram": "None", "facebook": "None", "youtube": "None", "website": "None", "summary": "None", "logo": "None", "latitude": 43.699856520139534, "longitude": -79.5153306382077}, "119295269RR0001": {"name": "WESTON PRESBYTERIAN CHURCH,", "designationCode": "C", "categoryCode": "37", "address": "11 CROSS ST", "city": "TORONTO", "province": "ON", "country": "CA", "postalCode": "M9N2B8", "twitter": "None", "instagram": "None", "facebook": "None", "youtube": "None", "website": "None", "summary": "None", "logo": "None", "latitude": 43.70421354705973, "longitude": -79.52461685232858}, "108203118RR0001": {"name": "WESTOVER BAPTIST CHURCH", "designationCode": "C", "categoryCode": "31", "address": "1454 6TH CONC. W RR#2", "city": "BRANCHTON", "province": "ON", "country": "CA", "postalCode": "N0B1L0", "twitter": "None", "instagram": "None", "facebook": "None", "youtube": "None", "website": "None", "summary": "None", "logo": "None", "latitude": 43.31257392309992, "longitude": -80.25993488412432}, "888358538RR0001": {"name": "WESTOVER FOUNDATION", "designationCode": "A", "categoryCode": "53", "address": "PO BOX 8", "city": "THAMESVILLE", "province": "ON", "country": "CA", "postalCode": "N0P2K0", "twitter": "None", "instagram": "None", "facebook": "None", "youtube": "None", "website": "None", "summary": "None", "logo": "None", "latitude": 42.551870000000065, "longitude": -81.97652999999997}, "119295319RR0001": {"name": "WESTOVER TREATMENT CENTRE", "designationCode": "C", "categoryCode": "57", "address": "PO BOX 8 VICTORIA ST", "city": "THAMESVILLE", "province": "ON", "country": "CA", "postalCode": "N0P2K0", "twitter": "None", "instagram": "None", "facebook": "None", "youtube": "None", "website": "None", "summary": "None", "logo": "None", "latitude": 42.55318023178081, "longitude": -81.9790204660502}, "130289424RR0001": {"name": "WESTPARK CHURCH OF THE NAZARENE SOCIETY", "designationCode": "C", "categoryCode": "39", "address": "3920-57 AVE", "city": "RED DEER", "province": "AB", "country": "CA", "postalCode": "T4N4R9", "twitter": "None", "instagram": "None", "facebook": "None", "youtube": "None", "website": "None", "summary": "None", "logo": "None", "latitude": 52.260192335276145, "longitude": -113.82966838429776}, "129922597RR0001": {"name": "WESTPARK SCHOOL", "designationCode": "C", "categoryCode": "20", "address": "2375B SASKATCHEWAN AVE W", "city": "PORTAGE LA PRAIRIE", "province": "MB", "country": "CA", "postalCode": "R1N4A6", "twitter": "None", "instagram": "None", "facebook": "None", "youtube": "None", "website": "None", "summary": "None", "logo": "None", "latitude": 49.97177449774714, "longitude": -98.32273884150094}, "890551591RR0001": {"name": "WESTPOINTE CHRISTIAN CENTRE", "designationCode": "C", "categoryCode": "49", "address": "10880 HOGARTH DR", "city": "RICHMOND", "province": "BC", "country": "CA", "postalCode": "V7E3Z8", "twitter": "None", "instagram": "None", "facebook": "None", "youtube": "None", "website": "None", "summary": "None", "logo": "None", "latitude": 49.134726, "longitude": -123.15390853883676}, "825407521RR0001": {"name": "WESTPORT ARTS COUNCIL", "designationCode": "C", "categoryCode": "22", "address": "140 CONCESSION RD. 9          P.O. BOX 2", "city": "WESTPORT", "province": "ON", "country": "CA", "postalCode": "K0G1X0", "twitter": "None", "instagram": "None", "facebook": "None", "youtube": "None", "website": "None", "summary": "None", "logo": "None", "latitude": 44.670699290467184, "longitude": -76.39337830486087}, "119295491RR0001": {"name": "WESTPORT BAPTIST CHURCH", "designationCode": "C", "categoryCode": "31", "address": "PO BOX 1221", "city": "WESTPORT", "province": "NS", "country": "CA", "postalCode": "B0V1H0", "twitter": "None", "instagram": "None", "facebook": "None", "youtube": "None", "website": "None", "summary": "None", "logo": "None", "latitude": 44.26168000000007, "longitude": -66.35150999999996}, "806829206RR0001": {"name": "WESTPORT FREE METHODIST CHURCH", "designationCode": "C", "categoryCode": "39", "address": "PO BOX 105", "city": "WESTPORT", "province": "ON", "country": "CA", "postalCode": "K0G1X0", "twitter": "None", "instagram": "None", "facebook": "None", "youtube": "None", "website": "None", "summary": "None", "logo": "None", "latitude": 39.63902000000007, "longitude": -123.78490999999997}, "888346939RR0001": {"name": "WESTPORT HARBOUR AUTHORITY", "designationCode": "C", "categoryCode": "59", "address": "PO BOX 53", "city": "WESTPORT", "province": "NS", "country": "CA", "postalCode": "B0V1H0", "twitter": "None", "instagram": "None", "facebook": "None", "youtube": "None", "website": "None", "summary": "None", "logo": "None", "latitude": 44.26168000000007, "longitude": -66.35150999999996}, "119242345RR0001": {"name": "WESTPORT LIONS CLUB BUS FOR THE HANDICAPPED", "designationCode": "C", "categoryCode": "65", "address": "P.O. BOX 428", "city": "WESTPORT", "province": "ON", "country": "CA", "postalCode": "K0G1X0", "twitter": "None", "instagram": "None", "facebook": "None", "youtube": "None", "website": "None", "summary": "None", "logo": "None", "latitude": 39.63902000000007, "longitude": -123.78490999999997}, "108203449RR0001": {"name": "WESTPORT PUBLIC LIBRARY", "designationCode": "C", "categoryCode": "50", "address": "P.O.BOX 28", "city": "WESTPORT", "province": "ON", "country": "CA", "postalCode": "K0G1X0", "twitter": "None", "instagram": "None", "facebook": "None", "youtube": "None", "website": "None", "summary": "None", "logo": "None", "latitude": 39.63902000000007, "longitude": -123.78490999999997}, "119295509RR0001": {"name": "WESTPORT UNITED CHURCH", "designationCode": "C", "categoryCode": "44", "address": "PO BOX 166", "city": "WESTPORT", "province": "ON", "country": "CA", "postalCode": "K0G1X0", "twitter": "None", "instagram": "None", "facebook": "None", "youtube": "None", "website": "None", "summary": "None", "logo": "None", "latitude": 39.63902000000007, "longitude": -123.78490999999997}, "889834396RR0001": {"name": "WESTROC CHARITABLE TRUST", "designationCode": "B", "categoryCode": "39", "address": "780 SASKATCHEWAN AVE W", "city": "PORTAGE LA PRAIRIE", "province": "MB", "country": "CA", "postalCode": "R1N0M7", "twitter": "None", "instagram": "None", "facebook": "None", "youtube": "None", "website": "None", "summary": "None", "logo": "None", "latitude": 49.97373494820344, "longitude": -98.30132080652011}, "130565963RR0009": {"name": "WESTSHORE ALLIANCE CHURCH", "designationCode": "C", "categoryCode": "39", "address": "2207 MILLSTREAM RD", "city": "VICTORIA", "province": "BC", "country": "CA", "postalCode": "V9B0J7", "twitter": "None", "instagram": "None", "facebook": "None", "youtube": "None", "website": "None", "summary": "None", "logo": "None", "latitude": 48.47033223035452, "longitude": -123.50315444081906}, "887517332RR0001": {"name": "WESTSHORE COMMUNITY FOUNDATION INC", "designationCode": "C", "categoryCode": "03", "address": "BOX 395", "city": "GIMLI", "province": "MB", "country": "CA", "postalCode": "R0C1B0", "twitter": "None", "instagram": "None", "facebook": "None", "youtube": "None", "website": "None", "summary": "None", "logo": "None", "latitude": 50.30677349294383, "longitude": -96.92898988377391}, "839697166RR0001": {"name": "WESTSHORE LIFE ENHANCEMENT FOUNDATION", "designationCode": "C", "categoryCode": "49", "address": "SUITE 310                     108-800 KELLY ROAD", "city": "VICTORIA", "province": "BC", "country": "CA", "postalCode": "V9B6J9", "twitter": "None", "instagram": "None", "facebook": "None", "youtube": "None", "website": "None", "summary": "None", "logo": "None", "latitude": 48.438232500432704, "longitude": -123.506433}, "119295608RR0001": {"name": "WESTSIDE ALLIANCE CHURCH", "designationCode": "C", "categoryCode": "39", "address": "2011 DAIMLER DRIVE", "city": "KELOWNA", "province": "BC", "country": "CA", "postalCode": "V1Z3H6", "twitter": "None", "instagram": "None", "facebook": "None", "youtube": "None", "website": "None", "summary": "None", "logo": "None", "latitude": 49.857462075192046, "longitude": -119.59851283432384}, "108203662RR0001": {"name": "WESTSIDE BAPTIST CHURCH", "designationCode": "C", "categoryCode": "31", "address": "261 WHITNEY AVE", "city": "HAMILTON", "province": "ON", "country": "CA", "postalCode": "L8S2G9", "twitter": "None", "instagram": "None", "facebook": "None", "youtube": "None", "website": "None", "summary": "None", "logo": "None", "latitude": 43.25267470716732, "longitude": -79.92971876949049}, "893433201RR0001": {"name": "WESTSIDE BAPTIST CHURCH", "designationCode": "C", "categoryCode": "31", "address": "8506 ASH STREET", "city": "VANCOUVER", "province": "BC", "country": "CA", "postalCode": "V6P3M2", "twitter": "None", "instagram": "None", "facebook": "None", "youtube": "None", "website": "None", "summary": "None", "logo": "None", "latitude": 49.20815520843672, "longitude": -123.11900112929224}, "134770197RR0001": {"name": "WESTSIDE BIBLE CHURCH", "designationCode": "C", "categoryCode": "39", "address": "3307 WISHART RD", "city": "VICTORIA", "province": "BC", "country": "CA", "postalCode": "V9C1R2", "twitter": "None", "instagram": "None", "facebook": "None", "youtube": "None", "website": "None", "summary": "None", "logo": "None", "latitude": 48.42158090034061, "longitude": -123.4938938531653}, "139094080RR0001": {"name": "WESTSIDE CALGARY CHINESE ALLIANCE CHURCH", "designationCode": "C", "categoryCode": "39", "address": "6600 COUNTRY HILLS BLVD NW", "city": "CALGARY", "province": "AB", "country": "CA", "postalCode": "T3G4H4", "twitter": "None", "instagram": "None", "facebook": "None", "youtube": "None", "website": "None", "summary": "None", "logo": "None", "latitude": 51.142462323071115, "longitude": -114.18442039771487}, "119295640RR0001": {"name": "WESTSIDE CHRISTIAN FELLOWSHIP", "designationCode": "C", "categoryCode": "47", "address": "247 CARIBOU MARSH RD.", "city": "DUTCH BROOK", "province": "NS", "country": "CA", "postalCode": "B1M1B5", "twitter": "None", "instagram": "None", "facebook": "None", "youtube": "None", "website": "None", "summary": "None", "logo": "None", "latitude": 46.051470973368254, "longitude": -60.189271817156744}, "108203696RR0001": {"name": "WESTSIDE CHURCH OF CHRIST INC.", "designationCode": "C", "categoryCode": "39", "address": "2255 TOTTEN ST", "city": "WINDSOR", "province": "ON", "country": "CA", "postalCode": "N9A1X6", "twitter": "None", "instagram": "None", "facebook": "None", "youtube": "None", "website": "None", "summary": "None", "logo": "None", "latitude": 42.28786938493295, "longitude": -83.05074220661905}, "841456031RR0001": {"name": "WESTSIDE CHURCH VANCOUVER", "designationCode": "C", "categoryCode": "34", "address": "777 HOMER ST", "city": "VANCOUVER", "province": "BC", "country": "CA", "postalCode": "V6B2W1", "twitter": "None", "instagram": "None", "facebook": "None", "youtube": "None", "website": "None", "summary": "None", "logo": "None", "latitude": 49.27999212796458, "longitude": -123.11613052694885}, "107834533RR0001": {"name": "WESTSIDE COMMUNITY CHURCH", "designationCode": "C", "categoryCode": "36", "address": "480 MCMASTER BLVD W", "city": "LETHBRIDGE", "province": "AB", "country": "CA", "postalCode": "T1K6R3", "twitter": "None", "instagram": "None", "facebook": "None", "youtube": "None", "website": "None", "summary": "None", "logo": "None", "latitude": 49.663213378816096, "longitude": -112.87798657669165}, "835066523RR0001": {"name": "WESTSIDE COMMUNITY CHURCH", "designationCode": "C", "categoryCode": "37", "address": "3637 GRAND PARK DRIVE", "city": "MISSISSAUGA", "province": "ON", "country": "CA", "postalCode": "L5B4L6", "twitter": "None", "instagram": "None", "facebook": "None", "youtube": "None", "website": "None", "summary": "None", "logo": "None", "latitude": 43.57958576937493, "longitude": -79.64594806463178}, "890479645RR0001": {"name": "WESTSIDE COMMUNITY CHURCH", "designationCode": "C", "categoryCode": "36", "address": "BOX 2001", "city": "FAIRVIEW", "province": "AB", "country": "CA", "postalCode": "T0H1L0", "twitter": "None", "instagram": "None", "facebook": "None", "youtube": "None", "website": "None", "summary": "None", "logo": "None", "latitude": 56.06862000000007, "longitude": -118.39200999999997}, "858710536RR0001": {"name": "WESTSIDE CONGREGATION OF JEHOVAH'S WITNESSES", "designationCode": "C", "categoryCode": "61", "address": "786 BLACKFOOT TERR W", "city": "LETHBRIDGE", "province": "AB", "country": "CA", "postalCode": "T1K7Y8", "twitter": "None", "instagram": "None", "facebook": "None", "youtube": "None", "website": "None", "summary": "None", "logo": "None", "latitude": 49.67560663670715, "longitude": -112.89555176937492}, "119288918RR0054": {"name": "WESTSIDE CONGREGATION OF JEHOVAH'S WITNESSES, RED DEER, ALBE", "designationCode": "C", "categoryCode": "61", "address": "20 KOVAC STREET", "city": "RED DEER", "province": "AB", "country": "CA", "postalCode": "T4P3M3", "twitter": "None", "instagram": "None", "facebook": "None", "youtube": "None", "website": "None", "summary": "None", "logo": "None", "latitude": 52.30826437275658, "longitude": -113.82684534124874}, "899188718RR0001": {"name": "WESTSIDE EVANGELICAL LUTHERAN CHURCH", "designationCode": "C", "categoryCode": "39", "address": "510 FERNDALE DRIVE NORTH", "city": "BARRIE", "province": "ON", "country": "CA", "postalCode": "L4M4S4", "twitter": "None", "instagram": "None", "facebook": "None", "youtube": "None", "website": "None", "summary": "None", "logo": "None", "latitude": 44.39591756007282, "longitude": -79.73747808996453}, "108203746RR0001": {"name": "WESTSIDE FAMILY FELLOWSHIP SOCIETY", "designationCode": "C", "categoryCode": "39", "address": "3791 HIGHWAY 16 WEST", "city": "PRINCE GEORGE", "province": "BC", "country": "CA", "postalCode": "V2N5P8", "twitter": "None", "instagram": "None", "facebook": "None", "youtube": "None", "website": "None", "summary": "None", "logo": "None", "latitude": 53.911346074870615, "longitude": -122.65910886599366}, "108203761RR0001": {"name": "WESTSIDE FELLOWSHIP CHRISTIAN REFORMED CHURCH OF KINGSTON", "designationCode": "C", "categoryCode": "39", "address": "1021 WOODBINE RD", "city": "KINGSTON", "province": "ON", "country": "CA", "postalCode": "K7P2V9", "twitter": "None", "instagram": "None", "facebook": "None", "youtube": "None", "website": "None", "summary": "None", "logo": "None", "latitude": 44.258610491777034, "longitude": -76.59289100138497}, "140374752RR0001": {"name": "WESTSIDE HEALTH NETWORK SOCIETY", "designationCode": "C", "categoryCode": "11", "address": "160-2300 CARRINGTON RD", "city": "WESTBANK", "province": "BC", "country": "CA", "postalCode": "V4T2N6", "twitter": "None", "instagram": "None", "facebook": "None", "youtube": "None", "website": "None", "summary": "None", "logo": "None", "latitude": 49.84257591035295, "longitude": -119.60438148417447}, "140605643RR0001": {"name": "WESTSIDE KING'S CHURCH SOCIETY", "designationCode": "C", "categoryCode": "36", "address": "3939 69TH ST SW", "city": "CALGARY", "province": "AB", "country": "CA", "postalCode": "T3H3Y1", "twitter": "None", "instagram": "None", "facebook": "None", "youtube": "None", "website": "None", "summary": "None", "logo": "None"}, "877655027RR0001": {"name": "WESTSIDE PENTECOSTAL CHURCH", "designationCode": "C", "categoryCode": "36", "address": "3488 FAIRLIGHT DR", "city": "SASKATOON", "province": "SK", "country": "CA", "postalCode": "S7M3Z4", "twitter": "None", "instagram": "None", "facebook": "None", "youtube": "None", "website": "None", "summary": "None", "logo": "None", "latitude": 52.12601224372414, "longitude": -106.73266733227503}, "884397712RR0001": {"name": "WESTSIDE PENTECOSTAL CHURCH", "designationCode": "C", "categoryCode": "36", "address": "1200-38 LEOPOLD PLACE", "city": "NEW WESTMINSTER", "province": "BC", "country": "CA", "postalCode": "V3L2C6", "twitter": "None", "instagram": "None", "facebook": "None", "youtube": "None", "website": "None", "summary": "None", "logo": "None", "latitude": 49.2106533511165, "longitude": -122.89897808840666}, "127654135RR0001": {"name": "WESTSIDE PRESBYTERIAN CHURCH", "designationCode": "C", "categoryCode": "37", "address": "3637 GRAND PARK DRIVE", "city": "MISSISSAUGA", "province": "ON", "country": "CA", "postalCode": "L5B4L6", "twitter": "None", "instagram": "None", "facebook": "None", "youtube": "None", "website": "None", "summary": "None", "logo": "None", "latitude": 43.57958576937493, "longitude": -79.64594806463178}, "119295749RR0001": {"name": "WESTSIDE SENIOR CITIZENS SERVICE ASSOCIATION", "designationCode": "C", "categoryCode": "09", "address": "3661 OLD OKANAGAN HWY.", "city": "WESTBANK", "province": "BC", "country": "CA", "postalCode": "V4T1P6", "twitter": "None", "instagram": "None", "facebook": "None", "youtube": "None", "website": "None", "summary": "None", "logo": "None", "latitude": 49.830569999999994, "longitude": -119.62538037492095}, "107833394RR0021": {"name": "WESTSIDE TABERNACLE", "designationCode": "C", "categoryCode": "36", "address": "37 ELIZABETH ST               PO BOX 1107", "city": "CORNER BROOK", "province": "NL", "country": "CA", "postalCode": "A2H6T2", "twitter": "None", "instagram": "None", "facebook": "None", "youtube": "None", "website": "None", "summary": "None", "logo": "None", "latitude": 48.94050673357978, "longitude": -57.9467953327976}, "119295756RR0001": {"name": "WESTSIDE UNITED CHURCH,", "designationCode": "C", "categoryCode": "44", "address": "310-10TH ST WEST", "city": "OWEN SOUND", "province": "ON", "country": "CA", "postalCode": "N4K3R5", "twitter": "None", "instagram": "None", "facebook": "None", "youtube": "None", "website": "None", "summary": "None", "logo": "None"}, "119288918RR0399": {"name": "WESTSYDE CONGREGATION OF JEHOVAH'S WITNESSES", "designationCode": "C", "categoryCode": "61", "address": "565 MCCURRACH PLACE", "city": "KAMLOOPS", "province": "BC", "country": "CA", "postalCode": "V2B8R1", "twitter": "None", "instagram": "None", "facebook": "None", "youtube": "None", "website": "None", "summary": "None", "logo": "None", "latitude": 50.76974424534026, "longitude": -120.3363252882164}, "129795373RR0001": {"name": "WESTSYDE FELLOWSHIP BAPTIST CHURCH", "designationCode": "C", "categoryCode": "31", "address": "2833 WESTSYDE ROAD", "city": "KAMLOOPS", "province": "BC", "country": "CA", "postalCode": "V2B7E1", "twitter": "None", "instagram": "None", "facebook": "None", "youtube": "None", "website": "None", "summary": "None", "logo": "None", "latitude": 50.75438337217966, "longitude": -120.3517962944488}, "864901459RR0001": {"name": "WESTVIEW BAPTIST CHURCH OF LONDON", "designationCode": "C", "categoryCode": "31", "address": "1000 WONDERLAND ROAD SOUTH", "city": "LONDON", "province": "ON", "country": "CA", "postalCode": "N6K3S4", "twitter": "None", "instagram": "None", "facebook": "None", "youtube": "None", "website": "None", "summary": "None", "logo": "None", "latitude": 42.94218980808899, "longitude": -81.28295342132016}, "801658022RR0001": {"name": "WESTVIEW BAPTIST CHURCH SOCIETY", "designationCode": "C", "categoryCode": "31", "address": "1313 RANCHLANDS WAY N.W", "city": "CALGARY", "province": "AB", "country": "CA", "postalCode": "T3G2A1", "twitter": "None", "instagram": "None", "facebook": "None", "youtube": "None", "website": "None", "summary": "None", "logo": "None", "latitude": 51.119790748254445, "longitude": -114.19588040218693}, "890854342RR0001": {"name": "WESTVIEW BAPTIST CHURCH,", "designationCode": "C", "categoryCode": "31", "address": "3676 JOYCE AVENUE", "city": "POWELL RIVER", "province": "BC", "country": "CA", "postalCode": "V8A2Y6", "twitter": "None", "instagram": "None", "facebook": "None", "youtube": "None", "website": "None", "summary": "None", "logo": "None", "latitude": 49.81526046572222, "longitude": -124.52028051255174}, "119296077RR0001": {"name": "WESTVIEW CHRISTIAN FELLOWSHIP", "designationCode": "C", "categoryCode": "34", "address": "124 QUEENSTON STREET", "city": "ST CATHARINES", "province": "ON", "country": "CA", "postalCode": "L2R2Z7", "twitter": "None", "instagram": "None", "facebook": "None", "youtube": "None", "website": "None", "summary": "None", "logo": "None", "latitude": 43.16338456506448, "longitude": -79.23221433680534}, "134048784RR0001": {"name": "WESTVIEW COMMUNITY CHURCH", "designationCode": "C", "categoryCode": "34", "address": "308 - 4800A 48 AVE", "city": "TABER", "province": "AB", "country": "CA", "postalCode": "T1G2G9", "twitter": "None", "instagram": "None", "facebook": "None", "youtube": "None", "website": "None", "summary": "None", "logo": "None", "latitude": 49.78365631676282, "longitude": -112.15410903426064}, "889644621RR0001": {"name": "WESTVIEW COMMUNITY DAYCARE INC", "designationCode": "C", "categoryCode": "01", "address": "600 HOKA STREET", "city": "WINNIPEG", "province": "MB", "country": "CA", "postalCode": "R2C2V1", "twitter": "None", "instagram": "None", "facebook": "None", "youtube": "None", "website": "None", "summary": "None", "logo": "None", "latitude": 49.89781838773155, "longitude": -97.01617935544525}, "119288918RR0245": {"name": "WESTVIEW CONGREGATION OF JEHOVAH'S WITNESSES CALGARY, ALBERTA", "designationCode": "C", "categoryCode": "61", "address": "72 WESTVIEW DR S.W.", "city": "CALGARY", "province": "AB", "country": "CA", "postalCode": "T3C2R7", "twitter": "None", "instagram": "None", "facebook": "None", "youtube": "None", "website": "None", "summary": "None", "logo": "None", "latitude": 51.047930000836736, "longitude": -114.15609616097296}, "131692022RR0001": {"name": "WESTVIEW CONGREGATION OF JEHOVAH'S WITNESSES, LLOYDMINSTER, ALBERTA", "designationCode": "C", "categoryCode": "61", "address": "BOX 61", "city": "ISLAY", "province": "AB", "country": "CA", "postalCode": "T0B2J0", "twitter": "None", "instagram": "None", "facebook": "None", "youtube": "None", "website": "None", "summary": "None", "logo": "None", "latitude": 53.39456000000007, "longitude": -110.54656999999997}, "829240670RR0001": {"name": "WESTVIEW ELEMENTARY SCHOOL PARENT ADVISORY COUNCIL", "designationCode": "C", "categoryCode": "21", "address": "641 17TH STREET WEST", "city": "NORTH VANCOUVER", "province": "BC", "country": "CA", "postalCode": "V7M0A1", "twitter": "None", "instagram": "None", "facebook": "None", "youtube": "None", "website": "None", "summary": "None", "logo": "None", "latitude": 49.32424547493223, "longitude": -123.08945078746758}, "859393860RR0001": {"name": "WESTVIEW GOSPEL CHAPEL", "designationCode": "C", "categoryCode": "39", "address": "313 BRUNSWICK PLACE", "city": "VICTORIA", "province": "BC", "country": "CA", "postalCode": "V8Z1V5", "twitter": "None", "instagram": "None", "facebook": "None", "youtube": "None", "website": "None", "summary": "None", "logo": "None", "latitude": 48.45909256506447, "longitude": -123.39183428143572}}