{"833844442RR0001": {"name": "ABBEYDALE CHRISTIAN FELLOWSHIP", "designationCode": "C", "categoryCode": "34", "address": "1352 ABBEYDALE DRIVE S.E.", "city": "CALGARY", "province": "AB", "country": "CA", "postalCode": "T2A7L8", "twitter": "None", "instagram": "None", "facebook": "None", "youtube": "None", "website": "None", "summary": "None", "logo": "None", "latitude": 51.0511801110277, "longitude": -113.9310309935947}, "866851165RR0001": {"name": "ABBEYFIELD HOUSE OF ARMSTRONG SPALLUMCHEEN SOCIETY", "designationCode": "C", "categoryCode": "09", "address": "3725 WOOD AVE                 PO BOX 715", "city": "ARMSTRONG", "province": "BC", "country": "CA", "postalCode": "V0E1B0", "twitter": "None", "instagram": "None", "facebook": "None", "youtube": "None", "website": "None", "summary": "None", "logo": "None", "latitude": 50.44865048124546, "longitude": -119.20921200000001}, "891199028RR0001": {"name": "ABBEYFIELD HOUSE SOCIETY OF HIGH RIVER", "designationCode": "C", "categoryCode": "09", "address": "708 2 ST SE", "city": "HIGH RIVER", "province": "AB", "country": "CA", "postalCode": "T1V0C6", "twitter": "None", "instagram": "None", "facebook": "None", "youtube": "None", "website": "None", "summary": "None", "logo": "None", "latitude": 50.57612511943472, "longitude": -113.86584572751198}, "892913765RR0001": {"name": "ABBEYFIELD HOUSE SOCIETY, ST. PAUL'S GOLDEN", "designationCode": "C", "categoryCode": "01", "address": "BOX 2258", "city": "GOLDEN", "province": "BC", "country": "CA", "postalCode": "V0A1H0", "twitter": "None", "instagram": "None", "facebook": "None", "youtube": "None", "website": "None", "summary": "None", "logo": "None", "latitude": 51.30019925579286, "longitude": -117.05412925860504}, "134884824RR0001": {"name": "ABBEYFIELD HOUSE ST PETER'S SOCIETY", "designationCode": "C", "categoryCode": "10", "address": "1133A REYNOLDS RD             BOX 15", "city": "VICTORIA", "province": "BC", "country": "CA", "postalCode": "V8P2K5", "twitter": "None", "instagram": "None", "facebook": "None", "youtube": "None", "website": "None", "summary": "None", "logo": "None", "latitude": 48.46657547888865, "longitude": -123.35969788844596}, "855566162RR0001": {"name": "ABBEYFIELD HOUSES OF FORT ST JOHN 2006", "designationCode": "C", "categoryCode": "09", "address": "8112 96 AVE", "city": "FORT ST. JOHN", "province": "BC", "country": "CA", "postalCode": "V1J1J6", "twitter": "None", "instagram": "None", "facebook": "None", "youtube": "None", "website": "None", "summary": "None", "logo": "None", "latitude": 56.24212445325739, "longitude": -120.8118904417162}, "118775931RR0001": {"name": "ABBEYFIELD HOUSES OF VANCOUVER SOCIETY", "designationCode": "C", "categoryCode": "09", "address": "7882 164B STREET", "city": "SURREY", "province": "BC", "country": "CA", "postalCode": "V4N0M5", "twitter": "None", "instagram": "None", "facebook": "None", "youtube": "None", "website": "None", "summary": "None", "logo": "None", "latitude": 49.14549386265768, "longitude": -122.76522865500036}, "890213192RR0001": {"name": "ABBEYFIELD HOUSES OF VERNON SOCIETY", "designationCode": "C", "categoryCode": "01", "address": "P.O. BOX 416 STN MAIN", "city": "VERNON", "province": "BC", "country": "CA", "postalCode": "V1T6M3", "twitter": "None", "instagram": "None", "facebook": "None", "youtube": "None", "website": "None", "summary": "None", "logo": "None", "latitude": 50.26567200000005, "longitude": -119.27378149999993}, "876746504RR0001": {"name": "ABBEYFIELD HOUSES SOCIETY OF CALEDON", "designationCode": "C", "categoryCode": "09", "address": "22 WALKER ROAD EAST", "city": "CALEDON EAST", "province": "ON", "country": "CA", "postalCode": "L7C3K2", "twitter": "None", "instagram": "None", "facebook": "None", "youtube": "None", "website": "None", "summary": "None", "logo": "None", "latitude": 43.87301863944846, "longitude": -79.8682399444575}, "132041013RR0001": {"name": "ABBEYFIELD HOUSES SOCIETY OF CANADA", "designationCode": "C", "categoryCode": "01", "address": "400 215 SPADINA AVENUE", "city": "TORONTO", "province": "ON", "country": "CA", "postalCode": "M5T2C7", "twitter": "None", "instagram": "None", "facebook": "None", "youtube": "None", "website": "None", "summary": "None", "logo": "None", "latitude": 43.65063316348313, "longitude": -79.39697013165816}, "897427613RR0001": {"name": "ABBEYFIELD HOUSES SOCIETY OF DUNCAN", "designationCode": "C", "categoryCode": "09", "address": "5905 INDIAN RD", "city": "DUNCAN", "province": "BC", "country": "CA", "postalCode": "V9L5L9", "twitter": "None", "instagram": "None", "facebook": "None", "youtube": "None", "website": "None", "summary": "None", "logo": "None", "latitude": 48.7846229030482, "longitude": -123.67130893110422}, "868189390RR0001": {"name": "ABBEYFIELD HOUSES SOCIETY OF DURHAM", "designationCode": "C", "categoryCode": "09", "address": "165 CROSS ST. S. BOX 639", "city": "DURHAM", "province": "ON", "country": "CA", "postalCode": "N0G1R0", "twitter": "None", "instagram": "None", "facebook": "None", "youtube": "None", "website": "None", "summary": "None", "logo": "None", "latitude": 44.17596167309107, "longitude": -80.81201673149044}, "899344758RR0001": {"name": "ABBEYFIELD HOUSES SOCIETY OF OTTAWA", "designationCode": "C", "categoryCode": "01", "address": "425 PARKDALE AVE", "city": "OTTAWA", "province": "ON", "country": "CA", "postalCode": "K1Y1H3", "twitter": "None", "instagram": "None", "facebook": "None", "youtube": "None", "website": "None", "summary": "None", "logo": "None", "latitude": 45.400010992238386, "longitude": -75.72860239630123}, "896340551RR0001": {"name": "ABBEYFIELD HOUSES SOCIETY OF PRINCE ALBERT INC.", "designationCode": "C", "categoryCode": "01", "address": "190 - 26 STREET EAST", "city": "PRINCE ALBERT", "province": "SK", "country": "CA", "postalCode": "S6V1Z7", "twitter": "None", "instagram": "None", "facebook": "None", "youtube": "None", "website": "None", "summary": "None", "logo": "None", "latitude": 53.189633137127714, "longitude": -105.74953628312575}, "871252565RR0001": {"name": "ABBEYFIELD HOUSES SOCIETY OF SASKATOON INC", "designationCode": "C", "categoryCode": "09", "address": "1320 AVENUE K SOUTH", "city": "SASKATOON", "province": "SK", "country": "CA", "postalCode": "S7M2G8", "twitter": "None", "instagram": "None", "facebook": "None", "youtube": "None", "website": "None", "summary": "None", "logo": "None", "latitude": 52.10992863918864, "longitude": -106.68646623226985}, "124186115RR0001": {"name": "ABBEYFIELD HOUSES SOCIETY OF TORONTO", "designationCode": "C", "categoryCode": "01", "address": "276 MERTON STREET", "city": "TORONTO", "province": "ON", "country": "CA", "postalCode": "M4S1A9", "twitter": "None", "instagram": "None", "facebook": "None", "youtube": "None", "website": "None", "summary": "None", "logo": "None", "latitude": 43.697910183478434, "longitude": -79.38764578740832}, "126011766RR0001": {"name": "ABBOTSFORD AGRIFAIR", "designationCode": "C", "categoryCode": "59", "address": "BOX 2334", "city": "ABBOTSFORD", "province": "BC", "country": "CA", "postalCode": "V2T4X2", "twitter": "None", "instagram": "None", "facebook": "None", "youtube": "None", "website": "None", "summary": "None", "logo": "None", "latitude": 49.05161700000005, "longitude": -122.32930399999994}, "118775972RR0001": {"name": "ABBOTSFORD ALANO CLUB", "designationCode": "C", "categoryCode": "59", "address": "2584 CYRIL STREET", "city": "ABBOTSFORD", "province": "BC", "country": "CA", "postalCode": "V2S2G2", "twitter": "None", "instagram": "None", "facebook": "None", "youtube": "None", "website": "None", "summary": "None", "logo": "None", "latitude": 49.04869500000001, "longitude": -122.28642211876065}, "876185166RR0001": {"name": "ABBOTSFORD AMATEUR RADIO EMERGENCY SERVICES SOCIETY", "designationCode": "C", "categoryCode": "59", "address": "6-3292 ELMWOOD DR", "city": "ABBOTSFORD", "province": "BC", "country": "CA", "postalCode": "V2S6B2", "twitter": "None", "instagram": "None", "facebook": "None", "youtube": "None", "website": "None", "summary": "None", "logo": "None", "latitude": 49.06172474715793, "longitude": -122.27798135495432}, "123327165RR0001": {"name": "ABBOTSFORD ARTS COUNCIL", "designationCode": "C", "categoryCode": "23", "address": "PO BOX 336 STN MAIN", "city": "ABBOTSFORD", "province": "BC", "country": "CA", "postalCode": "V2T6Z6", "twitter": "None", "instagram": "None", "facebook": "None", "youtube": "None", "website": "None", "summary": "None", "logo": "None", "latitude": 49.05161700000005, "longitude": -122.32930399999994}, "118775980RR0001": {"name": "ABBOTSFORD BAPTIST CHURCH", "designationCode": "C", "categoryCode": "31", "address": "33651 BUSBY RD", "city": "ABBOTSFORD", "province": "BC", "country": "CA", "postalCode": "V2S1V2", "twitter": "None", "instagram": "None", "facebook": "None", "youtube": "None", "website": "None", "summary": "None", "logo": "None", "latitude": 49.043346504327836, "longitude": -122.2922835}, "131430399RR0001": {"name": "ABBOTSFORD BIBLES FOR MISSION SOCIETY", "designationCode": "A", "categoryCode": "45", "address": "2337 W RAILWAY ST", "city": "ABBOTSFORD", "province": "BC", "country": "CA", "postalCode": "V2S2E3", "twitter": "None", "instagram": "None", "facebook": "None", "youtube": "None", "website": "None", "summary": "None", "logo": "None", "latitude": 49.0443333652261, "longitude": -122.2832777451091}, "862861135RR0001": {"name": "ABBOTSFORD BLIND AND VISUALLY IMPAIRED SOCIETY", "designationCode": "C", "categoryCode": "09", "address": "217 - 33490 COTTAGE LANE", "city": "ABBOTSFORD", "province": "BC", "country": "CA", "postalCode": "V2S6B8", "twitter": "None", "instagram": "None", "facebook": "None", "youtube": "None", "website": "None", "summary": "None", "logo": "None", "latitude": 49.04116254674261, "longitude": -122.29629347155058}, "844060947RR0001": {"name": "ABBOTSFORD CHRISTIAN SCHOOL FOUNDATION", "designationCode": "C", "categoryCode": "23", "address": "35011 OLD CLAYBURN ROAD", "city": "ABBOTSFORD", "province": "BC", "country": "CA", "postalCode": "V2S7L7", "twitter": "None", "instagram": "None", "facebook": "None", "youtube": "None", "website": "None", "summary": "None", "logo": "None", "latitude": 49.06182018347844, "longitude": -122.25448858563671}, "129907234RR0001": {"name": "ABBOTSFORD CHRISTIAN SCHOOL SOCIETY,", "designationCode": "C", "categoryCode": "20", "address": "35011 OLD CLAYBURN RD", "city": "ABBOTSFORD", "province": "BC", "country": "CA", "postalCode": "V2S7L7", "twitter": "None", "instagram": "None", "facebook": "None", "youtube": "None", "website": "None", "summary": "None", "logo": "None", "latitude": 49.06182018347844, "longitude": -122.25448858563671}, "867876906RR0001": {"name": "ABBOTSFORD COMMUNITY CHURCH", "designationCode": "C", "categoryCode": "39", "address": "#206A 2825 CLEARBROOK ROAD", "city": "ABBOTSFORD", "province": "BC", "country": "CA", "postalCode": "V2T6S3", "twitter": "None", "instagram": "None", "facebook": "None", "youtube": "None", "website": "None", "summary": "None", "logo": "None", "latitude": 49.053293999999994, "longitude": -122.33797191124661}, "888499241RR0001": {"name": "ABBOTSFORD COMMUNITY FOUNDATION", "designationCode": "A", "categoryCode": "53", "address": "201-2890 GARDEN ST", "city": "ABBOTSFORD", "province": "BC", "country": "CA", "postalCode": "V2T4W7", "twitter": "None", "instagram": "None", "facebook": "None", "youtube": "None", "website": "None", "summary": "None", "logo": "None", "latitude": 49.054375424923535, "longitude": -122.32148910433393}, "107678195RR0001": {"name": "ABBOTSFORD COMMUNITY SERVICES", "designationCode": "C", "categoryCode": "59", "address": "2420 MONTROSE AVE", "city": "ABBOTSFORD", "province": "BC", "country": "CA", "postalCode": "V2S3S9", "twitter": "None", "instagram": "None", "facebook": "None", "youtube": "None", "website": "None", "summary": "None", "logo": "None", "latitude": 49.04592182653357, "longitude": -122.2903216698311}, "106679319RR0001": {"name": "ABBOTSFORD EVANGELICAL FREE CHURCH", "designationCode": "C", "categoryCode": "39", "address": "33218 MARSHALL RD", "city": "ABBOTSFORD", "province": "BC", "country": "CA", "postalCode": "V2S1K5", "twitter": "None", "instagram": "None", "facebook": "None", "youtube": "None", "website": "None", "summary": "None", "logo": "None", "latitude": 49.0382974773503, "longitude": -122.30428241756594}, "861599579RR0001": {"name": "ABBOTSFORD FIREFIGHTERS' CHARITABLE SOCIETY", "designationCode": "C", "categoryCode": "09", "address": "P.O. BOX 315", "city": "ABBOTSFORD", "province": "BC", "country": "CA", "postalCode": "V2S4N9", "twitter": "None", "instagram": "None", "facebook": "None", "youtube": "None", "website": "None", "summary": "None", "logo": "None", "latitude": 49.03851976853707, "longitude": -122.29441300000173}, "128051331RR0001": {"name": "ABBOTSFORD GOSPEL SOCIETY", "designationCode": "C", "categoryCode": "59", "address": "34623 SANDON DRIVE", "city": "ABBOTSFORD", "province": "BC", "country": "CA", "postalCode": "V2S7J2", "twitter": "None", "instagram": "None", "facebook": "None", "youtube": "None", "website": "None", "summary": "None", "logo": "None", "latitude": 49.051417471579256, "longitude": -122.2655097783773}, "118776053RR0001": {"name": "ABBOTSFORD HOSPICE SOCIETY", "designationCode": "C", "categoryCode": "11", "address": "32780 MARSHALL RD", "city": "ABBOTSFORD", "province": "BC", "country": "CA", "postalCode": "V2S1J7", "twitter": "None", "instagram": "None", "facebook": "None", "youtube": "None", "website": "None", "summary": "None", "logo": "None", "latitude": 49.03805995696939, "longitude": -122.31622562129273}, "890469042RR0001": {"name": "ABBOTSFORD KIWANIS FOUNDATION", "designationCode": "A", "categoryCode": "63", "address": "P.O. BOX 718", "city": "ABBOTSFORD", "province": "BC", "country": "CA", "postalCode": "V2S6R7", "twitter": "None", "instagram": "None", "facebook": "None", "youtube": "None", "website": "None", "summary": "None", "logo": "None", "latitude": 49.03851976853707, "longitude": -122.29441300000173}, "869523324RR0001": {"name": "ABBOTSFORD KOREAN PRESBYTERIAN CHURCH", "designationCode": "C", "categoryCode": "39", "address": "2597 BOURQUIN CRES. E.", "city": "ABBOTSFORD", "province": "BC", "country": "CA", "postalCode": "V2S1Y6", "twitter": "None", "instagram": "None", "facebook": "None", "youtube": "None", "website": "None", "summary": "None", "logo": "None", "latitude": 49.04887500000001, "longitude": -122.30015544731343}, "886360486RR0001": {"name": "ABBOTSFORD LEARNING PLUS SOCIETY", "designationCode": "C", "categoryCode": "21", "address": "2499 MCMILLAN RD", "city": "ABBOTSFORD", "province": "BC", "country": "CA", "postalCode": "V2S7R3", "twitter": "None", "instagram": "None", "facebook": "None", "youtube": "None", "website": "None", "summary": "None", "logo": "None", "latitude": 49.04668926288944, "longitude": -122.26026228200865}, "890501737RR0001": {"name": "ABBOTSFORD LIONS CLUB CHARITABLE TRUST", "designationCode": "C", "categoryCode": "65", "address": "2271 MEADOWS ST", "city": "ABBOTSFORD", "province": "BC", "country": "CA", "postalCode": "V2T3A9", "twitter": "None", "instagram": "None", "facebook": "None", "youtube": "None", "website": "None", "summary": "None", "logo": "None", "latitude": 49.043205618096835, "longitude": -122.33237283406405}, "118776087RR0001": {"name": "ABBOTSFORD PASTORAL CHARGE", "designationCode": "C", "categoryCode": "44", "address": "460 PRINCIPALE EST", "city": "ST. PAUL-D'ABBOTSFORD", "province": "QC", "country": "CA", "postalCode": "J0E1A0", "twitter": "None", "instagram": "None", "facebook": "None", "youtube": "None", "website": "None", "summary": "None", "logo": "None", "latitude": 45.43138841419431, "longitude": -72.90105473570897}, "804812071RR0001": {"name": "ABBOTSFORD PEER SUPPORT FOR SENIORS", "designationCode": "C", "categoryCode": "09", "address": "2499 MCMILLAN RD", "city": "ABBOTSFORD", "province": "BC", "country": "CA", "postalCode": "V2S7R3", "twitter": "None", "instagram": "None", "facebook": "None", "youtube": "None", "website": "None", "summary": "None", "logo": "None", "latitude": 49.04668926288944, "longitude": -122.26026228200865}, "118776103RR0001": {"name": "ABBOTSFORD PENTECOSTAL ASSEMBLY", "designationCode": "C", "categoryCode": "36", "address": "3145 GLADWIN RD", "city": "ABBOTSFORD", "province": "BC", "country": "CA", "postalCode": "V2T5T4", "twitter": "None", "instagram": "None", "facebook": "None", "youtube": "None", "website": "None", "summary": "None", "logo": "None", "latitude": 49.05921166250218, "longitude": -122.31598486098423}, "842920472RR0001": {"name": "ABBOTSFORD POLICE FOUNDATION", "designationCode": "A", "categoryCode": "03", "address": "2838 JUSTICE WAY", "city": "ABBOTSFORD", "province": "BC", "country": "CA", "postalCode": "V2T3P5", "twitter": "None", "instagram": "None", "facebook": "None", "youtube": "None", "website": "None", "summary": "None", "logo": "None", "latitude": 49.05372541326679, "longitude": -122.33082112986915}, "898608237RR0001": {"name": "ABBOTSFORD RAVINE PARK SALMON ENHANCEMENT SOCIETY", "designationCode": "C", "categoryCode": "52", "address": "POST OFFICE BOX 464           STN. A", "city": "ABBOTSFORD", "province": "BC", "country": "CA", "postalCode": "V2T6Z7", "twitter": "None", "instagram": "None", "facebook": "None", "youtube": "None", "website": "None", "summary": "None", "logo": "None", "latitude": 49.05161700000005, "longitude": -122.32930399999994}, "881883318RR0001": {"name": "ABBOTSFORD RESTORATIVE JUSTICE AND ADVOCACY ASSOCIATION", "designationCode": "C", "categoryCode": "59", "address": "105-34194 MARSHALL RD", "city": "ABBOTSFORD", "province": "BC", "country": "CA", "postalCode": "V2S5E4", "twitter": "None", "instagram": "None", "facebook": "None", "youtube": "None", "website": "None", "summary": "None", "logo": "None", "latitude": 49.03833055395598, "longitude": -122.2765351917883}, "118818491RR0006": {"name": "ABBOTSFORD SEVENTH-DAY ADVENTIST CHURCH", "designationCode": "C", "categoryCode": "41", "address": "PO 1000", "city": "ABBOTSFORD", "province": "BC", "country": "CA", "postalCode": "V2S4P5", "twitter": "None", "instagram": "None", "facebook": "None", "youtube": "None", "website": "None", "summary": "None", "logo": "None"}, "118776061RR0001": {"name": "ABBOTSFORD SOCIAL ACTIVITY ASSOCIATION", "designationCode": "C", "categoryCode": "56", "address": "33889 ESSENDENE AVE", "city": "ABBOTSFORD", "province": "BC", "country": "CA", "postalCode": "V2S2H6", "twitter": "None", "instagram": "None", "facebook": "None", "youtube": "None", "website": "None", "summary": "None", "logo": "None", "latitude": 49.048987493219336, "longitude": -122.28654133236194}, "868157819RR0001": {"name": "ABBOTSFORD SPORTS HALL OF FAME SOCIETY", "designationCode": "C", "categoryCode": "50", "address": "PO BOX 854 STN A", "city": "ABBOTSFORD", "province": "BC", "country": "CA", "postalCode": "V2T7A2", "twitter": "None", "instagram": "None", "facebook": "None", "youtube": "None", "website": "None", "summary": "None", "logo": "None", "latitude": 49.05161700000005, "longitude": -122.32930399999994}, "890717077RR0001": {"name": "ABBOTSFORD YOUTH COMMISSION", "designationCode": "C", "categoryCode": "09", "address": "208P - 33355 BEVAN AVE", "city": "ABBOTSFORD", "province": "BC", "country": "CA", "postalCode": "V2S0E7", "twitter": "None", "instagram": "None", "facebook": "None", "youtube": "None", "website": "None", "summary": "None", "logo": "None", "latitude": 49.041983503750906, "longitude": -122.3045322485429}, "119288918RR0300": {"name": "ABBOTT HEIGHTS CONGREGATION OFJEHOVAH'S WITNESSES", "designationCode": "C", "categoryCode": "61", "address": "2566 NORWOOD RD.", "city": "QUESNEL", "province": "BC", "country": "CA", "postalCode": "V2J7C1", "twitter": "None", "instagram": "None", "facebook": "None", "youtube": "None", "website": "None", "summary": "None", "logo": "None", "latitude": 53.02944239325954, "longitude": -122.62519576260372}, "866210602RR0001": {"name": "ABBOTT MINISTRIES SOCIETY", "designationCode": "C", "categoryCode": "47", "address": "6025 SUSSEX AVE. UNIT 80977", "city": "BURNABY", "province": "BC", "country": "CA", "postalCode": "V5H3C5", "twitter": "None", "instagram": "None", "facebook": "None", "youtube": "None", "website": "None", "summary": "None", "logo": "None", "latitude": 49.22968289315591, "longitude": -122.99807041719056}, "131529281RR0001": {"name": "ABBOTTSFIELD YOUTH PROJECT (AYP) SOCIETY", "designationCode": "C", "categoryCode": "09", "address": "10608 34TH STREET", "city": "EDMONTON", "province": "AB", "country": "CA", "postalCode": "T5W1Y2", "twitter": "None", "instagram": "None", "facebook": "None", "youtube": "None", "website": "None", "summary": "None", "logo": "None", "latitude": 53.56024200000002, "longitude": -113.39377821876583}, "888661014RR0001": {"name": "ABBY'S MUSIC SOCIETY", "designationCode": "C", "categoryCode": "22", "address": "33355 BEVAN AVE", "city": "ABBOTSFORD", "province": "BC", "country": "CA", "postalCode": "V2S0E7", "twitter": "None", "instagram": "None", "facebook": "None", "youtube": "None", "website": "None", "summary": "None", "logo": "None", "latitude": 49.041983503750906, "longitude": -122.3045322485429}, "818950305RR0001": {"name": "ABC - Assisting Blossoming Children", "designationCode": "A", "categoryCode": "03", "address": "2 - 3867 BATHURST ST", "city": "NORTH YORK", "province": "ON", "country": "CA", "postalCode": "M3H3N4", "twitter": "None", "instagram": "None", "facebook": "None", "youtube": "None", "website": "None", "summary": "None", "logo": "None", "latitude": 43.74114578657161, "longitude": -79.43489494223579}, "851659953RR0001": {"name": "ABC - Association Burkina Canada", "designationCode": "C", "categoryCode": "21", "address": "2 GARRISON LANE", "city": "BEACONSFIELD", "province": "QC", "country": "CA", "postalCode": "H9W5C2", "twitter": "None", "instagram": "None", "facebook": "None", "youtube": "None", "website": "None", "summary": "None", "logo": "None", "latitude": 45.421580033845096, "longitude": -73.86873489702238}, "874593627RR0001": {"name": "ABC BENEFITS CORPORATION FOUNDATION", "designationCode": "C", "categoryCode": "21", "address": "10009 108 ST NW", "city": "EDMONTON", "province": "AB", "country": "CA", "postalCode": "T5J3C5", "twitter": "None", "instagram": "None", "facebook": "None", "youtube": "None", "website": "None", "summary": "None", "logo": "None", "latitude": 53.53911036663973, "longitude": -113.50655529291959}, "118776194RR0001": {"name": "ABC CHRISTIAN CHILD CARE CENTRE", "designationCode": "C", "categoryCode": "20", "address": "3946 WALLACE ST", "city": "PORT ALBERNI", "province": "BC", "country": "CA", "postalCode": "V9Y3Y7", "twitter": "None", "instagram": "None", "facebook": "None", "youtube": "None", "website": "None", "summary": "None", "logo": "None", "latitude": 49.250615481245454, "longitude": -124.79229000000001}, "891516080RR0001": {"name": "ABC DAY NURSERY OF WINDSOR", "designationCode": "C", "categoryCode": "20", "address": "888 HANNA ST E", "city": "WINDSOR", "province": "ON", "country": "CA", "postalCode": "N8X2N9", "twitter": "None", "instagram": "None", "facebook": "None", "youtube": "None", "website": "None", "summary": "None", "logo": "None", "latitude": 42.302341622280444, "longitude": -83.01375051208944}, "137044962RR0001": {"name": "ABC HEAD START SOCIETY", "designationCode": "C", "categoryCode": "20", "address": "9829 103 ST NW", "city": "EDMONTON", "province": "AB", "country": "CA", "postalCode": "T5K0X9", "twitter": "None", "instagram": "None", "facebook": "None", "youtube": "None", "website": "None", "summary": "None", "logo": "None", "latitude": 53.53619245989384, "longitude": -113.49735395666251}, "132097957RR0001": {"name": "ABC LIFE LITERACY CANADA", "designationCode": "C", "categoryCode": "29", "address": "110 EGLINTON AVE E #604", "city": "TORONTO", "province": "ON", "country": "CA", "postalCode": "M4P2Y1", "twitter": "None", "instagram": "None", "facebook": "None", "youtube": "None", "website": "None", "summary": "None", "logo": "None", "latitude": 43.70742517294684, "longitude": -79.39511966362736}, "895710242RR0001": {"name": "ABC LOTBINIERE", "designationCode": "C", "categoryCode": "21", "address": "3 RUE DU BOIS-DE-L'AIL", "city": "SAINT-FLAVIEN", "province": "QC", "country": "CA", "postalCode": "G0S2M0", "twitter": "None", "instagram": "None", "facebook": "None", "youtube": "None", "website": "None", "summary": "None", "logo": "None", "latitude": 46.51741621980503, "longitude": -71.60037598721806}, "108161647RR0001": {"name": "ABC UNIVERSITY DAYCARE SOCIETY", "designationCode": "C", "categoryCode": "01", "address": "4595 W 8TH AVE", "city": "VANCOUVER", "province": "BC", "country": "CA", "postalCode": "V6R2A4", "twitter": "None", "instagram": "None", "facebook": "None", "youtube": "None", "website": "None", "summary": "None", "logo": "None", "latitude": 49.26570586157148, "longitude": -123.21185583052181}, "829234434RR0001": {"name": "ABCs and Rice", "designationCode": "C", "categoryCode": "21", "address": "45 FERGUSON AVENUE", "city": "CAPREOL", "province": "ON", "country": "CA", "postalCode": "P0M1H0", "twitter": "None", "instagram": "None", "facebook": "None", "youtube": "None", "website": "None", "summary": "None", "logo": "None", "latitude": 46.70525633054428, "longitude": -80.91747049668177}, "844385021RR0001": {"name": "ABCD: Art Building Children's Dreams", "designationCode": "C", "categoryCode": "09", "address": "PO BOX 1113", "city": "MOUNT ALBERT", "province": "ON", "country": "CA", "postalCode": "L0G1M0", "twitter": "None", "instagram": "None", "facebook": "None", "youtube": "None", "website": "None", "summary": "None", "logo": "None"}, "869331074RR0001": {"name": "ABE AND RUTH FEIGELSON FOUNDATION", "designationCode": "B", "categoryCode": "05", "address": "3940 COTE DES NEIGES ROAD     APARTMENT C-63", "city": "MONTREAL", "province": "QC", "country": "CA", "postalCode": "H3H1W2", "twitter": "None", "instagram": "None", "facebook": "None", "youtube": "None", "website": "None", "summary": "None", "logo": "None", "latitude": 45.4952126705236, "longitude": -73.59409627575155}, "118776210RR0001": {"name": "ABE AND SOPHIE BRONFMAN CHARITABLE FOUNDATION", "designationCode": "B", "categoryCode": "03", "address": "5 AV BELLEVUE", "city": "WESTMOUNT", "province": "QC", "country": "CA", "postalCode": "H3Y1G4", "twitter": "None", "instagram": "None", "facebook": "None", "youtube": "None", "website": "None", "summary": "None", "logo": "None", "latitude": 45.48944882237863, "longitude": -73.60542696560663}, "118776301RR0001": {"name": "ABE STERN FAMILY FOUNDATION - FONDATION FAMILLE ABE STERN", "designationCode": "B", "categoryCode": "03", "address": "1200 - 1981 AV MCGILL COLLEGE", "city": "MONTREAL", "province": "QC", "country": "CA", "postalCode": "H3A0G6", "twitter": "None", "instagram": "None", "facebook": "None", "youtube": "None", "website": "None", "summary": "None", "logo": "None", "latitude": 45.50305997394517, "longitude": -73.57323951800474}, "888428448RR0001": {"name": "ABEGWEIT COUNCIL MEMORIAL TRUST FUND", "designationCode": "C", "categoryCode": "11", "address": "205 - 297 ALLEN ST", "city": "CHARLOTTETOWN", "province": "PE", "country": "CA", "postalCode": "C1A2W1", "twitter": "None", "instagram": "None", "facebook": "None", "youtube": "None", "website": "None", "summary": "None", "logo": "None", "latitude": 46.24860378934156, "longitude": -63.12350240022503}, "118793074RR0015": {"name": "ABERCORN SEVENTH-DAY ADVENTIST CHURCH", "designationCode": "C", "categoryCode": "41", "address": "313 WATERHOUSE RD.", "city": "SUTTON", "province": "QC", "country": "CA", "postalCode": "J0E2K0", "twitter": "None", "instagram": "None", "facebook": "None", "youtube": "None", "website": "None", "summary": "None", "logo": "None", "latitude": 45.019684554372866, "longitude": -72.60205474889085}, "119288918RR0671": {"name": "ABERDEEN CONGREGATION OF JEHOVAH'S WITNESSES", "designationCode": "C", "categoryCode": "61", "address": "1238 COPPERHEAD DRIVE", "city": "KAMLOOPS", "province": "BC", "country": "CA", "postalCode": "V2E0A1", "twitter": "None", "instagram": "None", "facebook": "None", "youtube": "None", "website": "None", "summary": "None", "logo": "None", "latitude": 50.663807634456795, "longitude": -120.39106581141435}, "106680085RR0001": {"name": "ABERDEEN EVANGELICAL MENNONITE CHURCH", "designationCode": "C", "categoryCode": "34", "address": "265 FLORA AVE", "city": "WINNIPEG", "province": "MB", "country": "CA", "postalCode": "R2W2R2", "twitter": "None", "instagram": "None", "facebook": "None", "youtube": "None", "website": "None", "summary": "None", "logo": "None", "latitude": 49.911655880950875, "longitude": -97.13521276781707}, "859087348RR0001": {"name": "ABERDEEN HALL PREPARATORY SCHOOL SOCIETY", "designationCode": "C", "categoryCode": "20", "address": "950 ACADEMY WAY", "city": "KELOWNA", "province": "BC", "country": "CA", "postalCode": "V1V3A4", "twitter": "None", "instagram": "None", "facebook": "None", "youtube": "None", "website": "None", "summary": "None", "logo": "None", "latitude": 49.934868620607, "longitude": -119.40110777433699}, "141015628RR0001": {"name": "ABERDEEN HEALTH AND COMMUNITY SERVICES FOUNDATION", "designationCode": "A", "categoryCode": "13", "address": "P.O. BOX 22038                794 COLBORNE STREET, E.,", "city": "BRANTFORD", "province": "ON", "country": "CA", "postalCode": "N3S7V1", "twitter": "None", "instagram": "None", "facebook": "None", "youtube": "None", "website": "None", "summary": "None", "logo": "None", "latitude": 43.143912044139725, "longitude": -80.22602760888155}, "118776251RR0001": {"name": "ABERDEEN HOSPITAL FOUNDATION", "designationCode": "A", "categoryCode": "13", "address": "835 EAST RIVER ROAD", "city": "NEW GLASGOW", "province": "NS", "country": "CA", "postalCode": "B2H3S6", "twitter": "None", "instagram": "None", "facebook": "None", "youtube": "None", "website": "None", "summary": "None", "logo": "None", "latitude": 45.572537761501415, "longitude": -62.64252221776251}, "888784147RR0001": {"name": "ABERDEEN HOSPITAL TRUST", "designationCode": "A", "categoryCode": "13", "address": "835 EAST RIVER ROAD", "city": "NEW GLASGOW", "province": "NS", "country": "CA", "postalCode": "B2H3S6", "twitter": "None", "instagram": "None", "facebook": "None", "youtube": "None", "website": "None", "summary": "None", "logo": "None", "latitude": 45.572537761501415, "longitude": -62.64252221776251}, "106680127RR0001": {"name": "ABERDEEN MENNONITE CHURCH", "designationCode": "C", "categoryCode": "34", "address": "BOX 202", "city": "ABERDEEN", "province": "SK", "country": "CA", "postalCode": "S0K0A0", "twitter": "None", "instagram": "None", "facebook": "None", "youtube": "None", "website": "None", "summary": "None", "logo": "None", "latitude": 52.31678000000005, "longitude": -106.28447999999997}, "888011467RR0001": {"name": "ABERDEEN PALLIATIVE CARE SOCIETY", "designationCode": "C", "categoryCode": "11", "address": "PO BOX 632", "city": "WESTVILLE", "province": "NS", "country": "CA", "postalCode": "B0K2A0", "twitter": "None", "instagram": "None", "facebook": "None", "youtube": "None", "website": "None", "summary": "None", "logo": "None", "latitude": 45.559140000000056, "longitude": -62.70123049999994}, "131738213RR0001": {"name": "ABERFOYLE AGRICULTURAL SOCIETY", "designationCode": "C", "categoryCode": "56", "address": "7 CLAIR ROAD WEST             PO BOX 27011, RPO CLAIR", "city": "GUELPH", "province": "ON", "country": "CA", "postalCode": "N1L0C1", "twitter": "None", "instagram": "None", "facebook": "None", "youtube": "None", "website": "None", "summary": "None", "logo": "None", "latitude": 43.50001578409891, "longitude": -80.18962045513422}, "118776293RR0001": {"name": "ABERNETHY AND DISTRICT DONORS CHOICE", "designationCode": "A", "categoryCode": "05", "address": "BOX 172", "city": "ABERNETHY", "province": "SK", "country": "CA", "postalCode": "S0A0A0", "twitter": "None", "instagram": "None", "facebook": "None", "youtube": "None", "website": "None", "summary": "None", "logo": "None", "latitude": 50.74592000000007, "longitude": -103.42393999999996}, "892951989RR0001": {"name": "ABH CHILD, ADOLESCENT & FAMILY SERVICES", "designationCode": "C", "categoryCode": "09", "address": "145 - 10403 172 ST NW", "city": "EDMONTON", "province": "AB", "country": "CA", "postalCode": "T5S1K9", "twitter": "None", "instagram": "None", "facebook": "None", "youtube": "None", "website": "None", "summary": "None", "logo": "None", "latitude": 53.54985951807258, "longitude": -113.61788409240846}, "873601694RR0001": {"name": "ABHISHEK PENTECOSTAL ASSEMBLY", "designationCode": "C", "categoryCode": "36", "address": "11363 74 AVE", "city": "DELTA", "province": "BC", "country": "CA", "postalCode": "V4C1E2", "twitter": "None", "instagram": "None", "facebook": "None", "youtube": "None", "website": "None", "summary": "None", "logo": "None", "latitude": 49.13781749321934, "longitude": -122.90811283236194}, "867076077RR0001": {"name": "ABIC Foundation Inc.", "designationCode": "C", "categoryCode": "23", "address": "101-111 RESEARCH DR", "city": "SASKATOON", "province": "SK", "country": "CA", "postalCode": "S7N3R2", "twitter": "None", "instagram": "None", "facebook": "None", "youtube": "None", "website": "None", "summary": "None", "logo": "None", "latitude": 52.142157226749895, "longitude": -106.62861205841126}, "881125900RR0001": {"name": "ABIDING LIFE MINISTRIES CANADA", "designationCode": "C", "categoryCode": "49", "address": "PO 1644", "city": "PROVOST", "province": "AB", "country": "CA", "postalCode": "T0B3S0", "twitter": "None", "instagram": "None", "facebook": "None", "youtube": "None", "website": "None", "summary": "None", "logo": "None", "latitude": 52.82485171250891, "longitude": -110.88936481833932}, "851398768RR0001": {"name": "ABIDING MINISTRIES", "designationCode": "C", "categoryCode": "47", "address": "1817 8TH AVE SOUTH", "city": "CRANBROOKE", "province": "BC", "country": "CA", "postalCode": "V1C7E7", "twitter": "None", "instagram": "None", "facebook": "None", "youtube": "None", "website": "None", "summary": "None", "logo": "None", "latitude": 49.49055223406229, "longitude": -115.77085148905633}, "862670296RR0001": {"name": "ABIDING PLACE MINISTRIES", "designationCode": "C", "categoryCode": "39", "address": "213 HOMESTEAD DR", "city": "SHELBURNE", "province": "ON", "country": "CA", "postalCode": "L9V3B5", "twitter": "None", "instagram": "None", "facebook": "None", "youtube": "None", "website": "None", "summary": "None", "logo": "None", "latitude": 44.077954965866425, "longitude": -80.19251638256699}, "118776327RR0001": {"name": "ABIDING WORD EVANGELICAL LUTHERAN CHURCH", "designationCode": "C", "categoryCode": "32", "address": "1575 BELCOURT BLVD", "city": "ORLEANS", "province": "ON", "country": "CA", "postalCode": "K1C1M3", "twitter": "None", "instagram": "None", "facebook": "None", "youtube": "None", "website": "None", "summary": "None", "logo": "None"}, "885629006RR0001": {"name": "ABIGAIL'S LEARNING CENTRE INC.", "designationCode": "C", "categoryCode": "01", "address": "119 STATION STREET", "city": "BELLEVILLE", "province": "ON", "country": "CA", "postalCode": "K8N2S8", "twitter": "None", "instagram": "None", "facebook": "None", "youtube": "None", "website": "None", "summary": "None", "logo": "None", "latitude": 44.173912976686495, "longitude": -77.37952306702637}, "889819116RR0001": {"name": "ABILITIES CENTRE DURHAM", "designationCode": "C", "categoryCode": "56", "address": "55 GORDON STREET", "city": "WHITBY", "province": "ON", "country": "CA", "postalCode": "L1N0J2", "twitter": "None", "instagram": "None", "facebook": "None", "youtube": "None", "website": "None", "summary": "None", "logo": "None", "latitude": 43.862781778911774, "longitude": -78.9454518524595}, "135574564RR0001": {"name": "ABILITY EMPLOYMENT CORPORATION INC", "designationCode": "C", "categoryCode": "09", "address": "56B MANITOBA DR", "city": "CLARENVILLE", "province": "NL", "country": "CA", "postalCode": "A5A1K5", "twitter": "None", "instagram": "None", "facebook": "None", "youtube": "None", "website": "None", "summary": "None", "logo": "None", "latitude": 48.1643870860703, "longitude": -53.9860888030166}, "118835073RR0001": {"name": "ABILITY NEW BRUNSWICK INC./CAPACIT\u00c9 NOUVEAU-BRUNSWICK INC.", "designationCode": "C", "categoryCode": "11", "address": "440 WILSEY ROAD, SUTIE 102", "city": "FREDERICTON", "province": "NB", "country": "CA", "postalCode": "E3B7G5", "twitter": "None", "instagram": "None", "facebook": "None", "youtube": "None", "website": "None", "summary": "None", "logo": "None", "latitude": 45.91798556148647, "longitude": -66.61787895155528}, "137497335RR0001": {"name": "ABILITY ONLINE SUPPORT NETWORK", "designationCode": "C", "categoryCode": "09", "address": "114 SUN ROW DR", "city": "ETOBICOKE", "province": "ON", "country": "CA", "postalCode": "M9P3J5", "twitter": "None", "instagram": "None", "facebook": "None", "youtube": "None", "website": "None", "summary": "None", "logo": "None", "latitude": 43.68508672577765, "longitude": -79.53718581086609}, "892127333RR0001": {"name": "ABILITY SOCIETY OF ALBERTA", "designationCode": "C", "categoryCode": "11", "address": "#104, 17707-105 AVENUE", "city": "EDMONTON", "province": "AB", "country": "CA", "postalCode": "T5S1T1", "twitter": "None", "instagram": "None", "facebook": "None", "youtube": "None", "website": "None", "summary": "None", "logo": "None", "latitude": 53.54857948066852, "longitude": -113.626422}, "118776335RR0001": {"name": "ABILITY TRANSIT INC.", "designationCode": "C", "categoryCode": "09", "address": "115-236 ST. GEORGE ST", "city": "MONCTON", "province": "NB", "country": "CA", "postalCode": "E1C1W1", "twitter": "None", "instagram": "None", "facebook": "None", "youtube": "None", "website": "None", "summary": "None", "logo": "None", "latitude": 46.091121853165305, "longitude": -64.7828863956374}, "894199173RR0001": {"name": "ABLE SAIL / HANDI VOILE INC.", "designationCode": "C", "categoryCode": "59", "address": "PO BOX 9061", "city": "SHEDIAC", "province": "NB", "country": "CA", "postalCode": "E4P8W5", "twitter": "None", "instagram": "None", "facebook": "None", "youtube": "None", "website": "None", "summary": "None", "logo": "None", "latitude": 46.22015000000005, "longitude": -64.53508999999997}, "893017962RR0001": {"name": "ABO THER AL GHAFARI MOSQUE ASSOCIATION", "designationCode": "C", "categoryCode": "60", "address": "273 DONALD STREET", "city": "OTTAWA", "province": "ON", "country": "CA", "postalCode": "K1K1N1", "twitter": "None", "instagram": "None", "facebook": "None", "youtube": "None", "website": "None", "summary": "None", "logo": "None", "latitude": 45.427743446620944, "longitude": -75.65688207383572}, "893168161RR0001": {"name": "ABORIGINAL COUNSELING SERVICES ASSOCIATION OF ALBERTA", "designationCode": "C", "categoryCode": "59", "address": "204-10010 - 105 ST", "city": "EDMONTON", "province": "AB", "country": "CA", "postalCode": "T5J1C4", "twitter": "None", "instagram": "None", "facebook": "None", "youtube": "None", "website": "None", "summary": "None", "logo": "None", "latitude": 53.5390551618097, "longitude": -113.50114817822697}, "892033473RR0001": {"name": "ABORIGINAL DISABLED SELF HELP GROUP (A.D.S.H.G.) INC.", "designationCode": "C", "categoryCode": "09", "address": "304-181 HIGGINS AVENUE", "city": "WINNIPEG", "province": "MB", "country": "CA", "postalCode": "R3B3G1", "twitter": "None", "instagram": "None", "facebook": "None", "youtube": "None", "website": "None", "summary": "None", "logo": "None", "latitude": 49.90420237001527, "longitude": -97.13186954550187}, "893502864RR0001": {"name": "ABORIGINAL HEALTH AND WELLNESS CENTRE OF WINNIPEG INC.", "designationCode": "C", "categoryCode": "13", "address": "215-181 HIGGINS AVE", "city": "WINNIPEG", "province": "MB", "country": "CA", "postalCode": "R3B3G1", "twitter": "None", "instagram": "None", "facebook": "None", "youtube": "None", "website": "None", "summary": "None", "logo": "None", "latitude": 49.90420237001527, "longitude": -97.13186954550187}, "129565040RR0001": {"name": "ABORIGINAL LEGAL SERVICES OF TORONTO INC.", "designationCode": "C", "categoryCode": "59", "address": "500 - 211 YONGE ST", "city": "TORONTO", "province": "ON", "country": "CA", "postalCode": "M5B1M4", "twitter": "None", "instagram": "None", "facebook": "None", "youtube": "None", "website": "None", "summary": "None", "logo": "None", "latitude": 43.65373364807546, "longitude": -79.37975697082943}, "844101071RR0001": {"name": "ABORIGINAL MEDIA EDUCATIONAL FUND", "designationCode": "C", "categoryCode": "29", "address": "339 PORTAGE AVE               2ND FLOOR", "city": "WINNIPEG", "province": "MB", "country": "CA", "postalCode": "R3B2C3", "twitter": "None", "instagram": "None", "facebook": "None", "youtube": "None", "website": "None", "summary": "None", "logo": "None", "latitude": 49.893120731634696, "longitude": -97.14522205886072}, "865196315RR0001": {"name": "ABORIGINAL MOTHER CENTRE SOCIETY", "designationCode": "C", "categoryCode": "01", "address": "2019 DUNDAS ST", "city": "VANCOUVER", "province": "BC", "country": "CA", "postalCode": "V5L1J5", "twitter": "None", "instagram": "None", "facebook": "None", "youtube": "None", "website": "None", "summary": "None", "logo": "None", "latitude": 49.28491747489746, "longitude": -123.06282266472388}, "119471910RR0001": {"name": "ABORIGINAL PEOPLES TELEVISION NETWORK INCORPORATED", "designationCode": "C", "categoryCode": "59", "address": "APTN INC                      339 PORTAGE AVE 2ND FLOOR", "city": "WINNIPEG", "province": "MB", "country": "CA", "postalCode": "R3B2C3", "twitter": "None", "instagram": "None", "facebook": "None", "youtube": "None", "website": "None", "summary": "None", "logo": "None", "latitude": 49.893120731634696, "longitude": -97.14522205886072}, "860471036RR0001": {"name": "ABORIGINAL SENIOR RESOURCES CENTRE (WINNIPEG) INC.", "designationCode": "C", "categoryCode": "09", "address": "45 ROBINSON STREET", "city": "WINNIPEG", "province": "MB", "country": "CA", "postalCode": "R2W5H5", "twitter": "None", "instagram": "None", "facebook": "None", "youtube": "None", "website": "None", "summary": "None", "logo": "None", "latitude": 49.910051662213704, "longitude": -97.13995653465317}}