{"106871361RR0001": {"name": "CAPILANO UNIVERSITY", "designationCode": "C", "categoryCode": "20", "address": "2055 PURCELL WAY", "city": "NORTH VANCOUVER", "province": "BC", "country": "CA", "postalCode": "V7J3H5", "twitter": "None", "instagram": "None", "facebook": "None", "youtube": "None", "website": "None", "summary": "None", "logo": "None", "latitude": 49.317368610130266, "longitude": -123.02108924123715}, "118837756RR0001": {"name": "CAPILANO UNIVERSITY FOUNDATION", "designationCode": "A", "categoryCode": "21", "address": "2055 PURCELL WAY", "city": "NORTH VANCOUVER", "province": "BC", "country": "CA", "postalCode": "V7J3H5", "twitter": "None", "instagram": "None", "facebook": "None", "youtube": "None", "website": "None", "summary": "None", "logo": "None", "latitude": 49.317368610130266, "longitude": -123.02108924123715}, "866335615RR0001": {"name": "CAPITAL AREA RECREATION INC", "designationCode": "C", "categoryCode": "55", "address": "560 UNIVERSITY AVE", "city": "CHARLOTTETOWN", "province": "PE", "country": "CA", "postalCode": "C1A0G9", "twitter": "None", "instagram": "None", "facebook": "None", "youtube": "None", "website": "None", "summary": "None", "logo": "None", "latitude": 46.257273837642074, "longitude": -63.14221253800004}, "138748835RR0001": {"name": "CAPITAL CARE FOUNDATION", "designationCode": "A", "categoryCode": "13", "address": "6TH FLOOR, 10909 JASPER AVENUE", "city": "EDMONTON", "province": "AB", "country": "CA", "postalCode": "T5J3M9", "twitter": "None", "instagram": "None", "facebook": "None", "youtube": "None", "website": "None", "summary": "None", "logo": "None", "latitude": 53.54089147778393, "longitude": -113.50943099999999}, "892051574RR0001": {"name": "CAPITAL CARE GRANDVIEW AUXILIARY ASSOCIATION", "designationCode": "C", "categoryCode": "19", "address": "6215 124 ST NW", "city": "EDMONTON", "province": "AB", "country": "CA", "postalCode": "T6H3V1", "twitter": "None", "instagram": "None", "facebook": "None", "youtube": "None", "website": "None", "summary": "None", "logo": "None", "latitude": 53.498727220093485, "longitude": -113.54367430561555}, "898511381RR0001": {"name": "CAPITAL CARE GROUP INC.", "designationCode": "C", "categoryCode": "11", "address": "10909 JASPER AVE              6TH FLOOR", "city": "EDMONTON", "province": "AB", "country": "CA", "postalCode": "T5J3M9", "twitter": "None", "instagram": "None", "facebook": "None", "youtube": "None", "website": "None", "summary": "None", "logo": "None", "latitude": 53.54089147778393, "longitude": -113.50943099999999}, "118837798RR0001": {"name": "CAPITAL CITY BAPTIST CHURCH", "designationCode": "C", "categoryCode": "31", "address": "805 CONDOR AVE", "city": "VICTORIA", "province": "BC", "country": "CA", "postalCode": "V9A6E6", "twitter": "None", "instagram": "None", "facebook": "None", "youtube": "None", "website": "None", "summary": "None", "logo": "None", "latitude": 48.437676053003706, "longitude": -123.40438963999671}, "830426425RR0001": {"name": "CAPITAL CITY MISSION INC.", "designationCode": "C", "categoryCode": "09", "address": "521 RIDEAU STREET", "city": "OTTAWA", "province": "ON", "country": "CA", "postalCode": "K1N5Z5", "twitter": "None", "instagram": "None", "facebook": "None", "youtube": "None", "website": "None", "summary": "None", "logo": "None", "latitude": 45.43196232307112, "longitude": -75.67812221011017}, "107783615RR0001": {"name": "CAPITAL CITY VOLUNTEER SERVICES ASSOCIATION", "designationCode": "C", "categoryCode": "09", "address": "547 MICHIGAN STREET", "city": "VICTORIA", "province": "BC", "country": "CA", "postalCode": "V8V1S5", "twitter": "None", "instagram": "None", "facebook": "None", "youtube": "None", "website": "None", "summary": "None", "logo": "None", "latitude": 48.416952532315904, "longitude": -123.37130799555659}, "806772273RR0001": {"name": "CAPITAL COMMUNITY CHURCH INC.", "designationCode": "C", "categoryCode": "36", "address": "PO BOX 3059, STN. B           71 DOWNING STREET", "city": "FREDERICTON", "province": "NB", "country": "CA", "postalCode": "E3A5G8", "twitter": "None", "instagram": "None", "facebook": "None", "youtube": "None", "website": "None", "summary": "None", "logo": "None", "latitude": 45.982379834180534, "longitude": -66.5855878158834}, "106871601RR0001": {"name": "CAPITAL DAY CARE CENTRE INC.", "designationCode": "C", "categoryCode": "01", "address": "1230 BANK STREET", "city": "OTTAWA", "province": "ON", "country": "CA", "postalCode": "K1S3Y3", "twitter": "None", "instagram": "None", "facebook": "None", "youtube": "None", "website": "None", "summary": "None", "logo": "None", "latitude": 45.39122199774964, "longitude": -75.68068067407202}, "889312815RR0001": {"name": "CAPITAL REGION HOUSING FOUNDATION", "designationCode": "C", "categoryCode": "09", "address": "10232-112 STREET", "city": "EDMONTON", "province": "AB", "country": "CA", "postalCode": "T5K1M4", "twitter": "None", "instagram": "None", "facebook": "None", "youtube": "None", "website": "None", "summary": "None", "logo": "None", "latitude": 53.54381783819031, "longitude": -113.51396718544032}, "891313561RR0001": {"name": "CAPITAL UNITARIAN UNIVERSALIST CONGREGATION OF VICTORIA", "designationCode": "C", "categoryCode": "39", "address": "185 - 911 YATES ST            STE 559", "city": "VICTORIA", "province": "BC", "country": "CA", "postalCode": "V8V4Y9", "twitter": "None", "instagram": "None", "facebook": "None", "youtube": "None", "website": "None", "summary": "None", "logo": "None", "latitude": 48.42547161555801, "longitude": -123.35756424008879}, "119288918RR1687": {"name": "CAPITOL HILL CONGREGATION OF JEHOVAH'S WITNESSES, VANCOUVER, BRITISH COLUMBIA", "designationCode": "C", "categoryCode": "61", "address": "5975 SUNSET ST", "city": "BURNABY", "province": "BC", "country": "CA", "postalCode": "V5G4N2", "twitter": "None", "instagram": "None", "facebook": "None", "youtube": "None", "website": "None", "summary": "None", "logo": "None", "latitude": 49.24919050375092, "longitude": -122.97664277699232}, "135729598RR0001": {"name": "CAPITOL THEATRE HERITAGE FOUNDATION", "designationCode": "C", "categoryCode": "22", "address": "BOX 416", "city": "PORT HOPE", "province": "ON", "country": "CA", "postalCode": "L1A3Z4", "twitter": "None", "instagram": "None", "facebook": "None", "youtube": "None", "website": "None", "summary": "None", "logo": "None", "latitude": 43.95010200000006, "longitude": -78.29160199999993}, "894727122RR0001": {"name": "CAPP CHARITABLE GIFT FUND", "designationCode": "B", "categoryCode": "25", "address": "350-7TH AVENUE SW,            SUITE 2100", "city": "CALGARY", "province": "AB", "country": "CA", "postalCode": "T2P3N9", "twitter": "None", "instagram": "None", "facebook": "None", "youtube": "None", "website": "None", "summary": "None", "logo": "None", "latitude": 51.046676474897474, "longitude": -114.06982963627445}, "889878922RR0001": {"name": "CAPRE - Community Association of People for REAL Enterprise", "designationCode": "C", "categoryCode": "59", "address": "1 - 8736 COMMERCIAL ST", "city": "NEW MINAS", "province": "NS", "country": "CA", "postalCode": "B4N3C5", "twitter": "None", "instagram": "None", "facebook": "None", "youtube": "None", "website": "None", "summary": "None", "logo": "None", "latitude": 45.07128478694631, "longitude": -64.47300704811839}, "878457647RR0001": {"name": "CAPREOL CHILD CARE CENTRE", "designationCode": "C", "categoryCode": "01", "address": "1748-2 PIERRE STREET", "city": "VAL CARON", "province": "ON", "country": "CA", "postalCode": "P3N1C5", "twitter": "None", "instagram": "None", "facebook": "None", "youtube": "None", "website": "None", "summary": "None", "logo": "None", "latitude": 46.61171945051609, "longitude": -81.0130598068267}, "888370665RR0001": {"name": "CAPRICCIO VOCAL ENSEMBLE SOCIETY", "designationCode": "C", "categoryCode": "22", "address": "PO BOX 48089", "city": "VICTORIA", "province": "BC", "country": "CA", "postalCode": "V8Z7H5", "twitter": "None", "instagram": "None", "facebook": "None", "youtube": "None", "website": "None", "summary": "None", "logo": "None", "latitude": 48.481719000000055, "longitude": -123.40460599999994}, "119063550RR0001": {"name": "CAPSC (CANADIAN ASSOCIATION OF PROVINCIAL SAFETY COUNCILS) SAFETY SERVICES NOVA SCOTIA", "designationCode": "C", "categoryCode": "59", "address": "201 BROWN LOW                 UNIT 1", "city": "DARTMOUTH", "province": "NS", "country": "CA", "postalCode": "B3B1W2", "twitter": "None", "instagram": "None", "facebook": "None", "youtube": "None", "website": "None", "summary": "None", "logo": "None", "latitude": 44.69566378580504, "longitude": -63.59519832995403}, "875969115RR0001": {"name": "CAPSTONE PRESBYTERIAN CHURCH", "designationCode": "C", "categoryCode": "39", "address": "2 NOBERT RD", "city": "TORONTO", "province": "ON", "country": "CA", "postalCode": "M1T1C1", "twitter": "None", "instagram": "None", "facebook": "None", "youtube": "None", "website": "None", "summary": "None", "logo": "None", "latitude": 43.77168951373424, "longitude": -79.31930338025839}, "118837921RR0001": {"name": "CAPTAIN EFTHIMIOS BAROOTES MEMORIAL FOUNDATION", "designationCode": "B", "categoryCode": "21", "address": "105-17704 103 AVE NW", "city": "EDMONTON", "province": "AB", "country": "CA", "postalCode": "T5S1J9", "twitter": "None", "instagram": "None", "facebook": "None", "youtube": "None", "website": "None", "summary": "None", "logo": "None", "latitude": 53.545297533758195, "longitude": -113.62657410935425}, "118837939RR0001": {"name": "CAPTAIN G.O. BAUGH MEMORIAL FUND", "designationCode": "C", "categoryCode": "21", "address": "5591 LEEDS STREET", "city": "HALIFAX", "province": "NS", "country": "CA", "postalCode": "B3K2T3", "twitter": "None", "instagram": "None", "facebook": "None", "youtube": "None", "website": "None", "summary": "None", "logo": "None", "latitude": 44.66964788510584, "longitude": -63.61165066959996}, "854618600RR0001": {"name": "CAPTAIN JULI-ANN MACKENZIE MEMORIAL BURSARY FUND", "designationCode": "B", "categoryCode": "21", "address": "556 MCGILLIVRAY DRIVE", "city": "WEYBURN", "province": "SK", "country": "CA", "postalCode": "S4H1M2", "twitter": "None", "instagram": "None", "facebook": "None", "youtube": "None", "website": "None", "summary": "None", "logo": "None", "latitude": 49.6677364565756, "longitude": -103.83793297446478}, "118837954RR0001": {"name": "CAPTAIN MILES MACDONNELL CHARITABLE FUND INC.", "designationCode": "C", "categoryCode": "09", "address": "100 EAGLEMOUNT CRES", "city": "WINNIPEG", "province": "MB", "country": "CA", "postalCode": "R3P1X3", "twitter": "None", "instagram": "None", "facebook": "None", "youtube": "None", "website": "None", "summary": "None", "logo": "None", "latitude": 49.82931646543375, "longitude": -97.18524927878133}, "860291947RR0001": {"name": "CAPTIONING THE WORD", "designationCode": "C", "categoryCode": "47", "address": "203-2560 DEPARTURE BAY RD", "city": "NANAIMO", "province": "BC", "country": "CA", "postalCode": "V9S5P1", "twitter": "None", "instagram": "None", "facebook": "None", "youtube": "None", "website": "None", "summary": "None", "logo": "None", "latitude": 49.19845775759949, "longitude": -123.97129643243015}, "118837970RR0001": {"name": "CAPUCHIN OUTREACH TO THE POOR PARKDALE", "designationCode": "C", "categoryCode": "01", "address": "1322 QUEEN STREET W.", "city": "TORONTO", "province": "ON", "country": "CA", "postalCode": "M6K1L4", "twitter": "None", "instagram": "None", "facebook": "None", "youtube": "None", "website": "None", "summary": "None", "logo": "None", "latitude": 43.641721150729836, "longitude": -79.43124858702167}, "118837988RR0001": {"name": "CAPUCHINS OF CENTRAL CANADA", "designationCode": "C", "categoryCode": "38", "address": "2100 JANE ST.", "city": "TORONTO", "province": "ON", "country": "CA", "postalCode": "M3M1A1", "twitter": "None", "instagram": "None", "facebook": "None", "youtube": "None", "website": "None", "summary": "None", "logo": "None", "latitude": 43.719352827081806, "longitude": -79.50827734684597}, "140998089RR0001": {"name": "CAR (LE COMITE D'AIDE AUX REFUGIES)", "designationCode": "C", "categoryCode": "09", "address": "518, RUE BEAUBIEN", "city": "MONTREAL", "province": "QC", "country": "CA", "postalCode": "H2S1S5", "twitter": "None", "instagram": "None", "facebook": "None", "youtube": "None", "website": "None", "summary": "None", "logo": "None", "latitude": 45.534967816810045, "longitude": -73.60406820494562}, "118838002RR0001": {"name": "CARA COMMUNITY CORPORATION", "designationCode": "C", "categoryCode": "09", "address": "31 OLD GARDEN RIVER ROAD", "city": "SAULT STE. MARIE", "province": "ON", "country": "CA", "postalCode": "P6B5Y7", "twitter": "None", "instagram": "None", "facebook": "None", "youtube": "None", "website": "None", "summary": "None", "logo": "None", "latitude": 46.535280760719274, "longitude": -84.31812468284419}, "893108779RR0001": {"name": "CARA TRANSITION HOUSE INC", "designationCode": "C", "categoryCode": "09", "address": "PO BOX 305", "city": "GANDER", "province": "NL", "country": "CA", "postalCode": "A1V1W7", "twitter": "None", "instagram": "None", "facebook": "None", "youtube": "None", "website": "None", "summary": "None", "logo": "None", "latitude": 48.95684700000005, "longitude": -54.60917299999993}, "118838010RR0001": {"name": "CARAGANA PRESBYTERIAN CEMETERY", "designationCode": "C", "categoryCode": "59", "address": "BOX 970", "city": "PORCUPINE PLAIN", "province": "SK", "country": "CA", "postalCode": "S0E1H0", "twitter": "None", "instagram": "None", "facebook": "None", "youtube": "None", "website": "None", "summary": "None", "logo": "None", "latitude": 52.59907000000004, "longitude": -103.26022999999998}, "803303676RR0001": {"name": "CARAT - CENTRE D'AIDE ET DE REHABILITATION POUR ALCOOLIQUES ET TOXICOMANES", "designationCode": "C", "categoryCode": "57", "address": "460 RUE PRINCIPALE", "city": "ST-BRIGIDE D'IBERVILLE", "province": "QC", "country": "CA", "postalCode": "J0J1X0", "twitter": "None", "instagram": "None", "facebook": "None", "youtube": "None", "website": "None", "summary": "None", "logo": "None", "latitude": 45.32346733498767, "longitude": -73.06544885832984}, "136029998RR0001": {"name": "CARAVAN STAGE SOCIETY", "designationCode": "C", "categoryCode": "22", "address": "301 - 1021 COLLINSON ST", "city": "VICTORIA", "province": "BC", "country": "CA", "postalCode": "V8V3B9", "twitter": "None", "instagram": "None", "facebook": "None", "youtube": "None", "website": "None", "summary": "None", "logo": "None", "latitude": 48.41897753231591, "longitude": -123.35707475160133}, "862800794RR0001": {"name": "CARAVAN WORLD RHYTHMS SOCIETY", "designationCode": "C", "categoryCode": "22", "address": "557-1917 W 4TH", "city": "VANCOUVER", "province": "BC", "country": "CA", "postalCode": "V6J1M7", "twitter": "None", "instagram": "None", "facebook": "None", "youtube": "None", "website": "None", "summary": "None", "logo": "None", "latitude": 49.26813727275616, "longitude": -123.14837466693348}, "887096089RR0001": {"name": "CARBERRY AND AREA COMMUNITY FOUNDATION, INC.", "designationCode": "A", "categoryCode": "03", "address": "BOX 807                       40 MAIN STREET", "city": "CARBERRY", "province": "MB", "country": "CA", "postalCode": "R0K0H0", "twitter": "None", "instagram": "None", "facebook": "None", "youtube": "None", "website": "None", "summary": "None", "logo": "None", "latitude": 49.866608017446815, "longitude": -99.35936792595723}, "106872294RR0001": {"name": "CARBERRY CHILD CARE CO-OPERATIVE INC.", "designationCode": "C", "categoryCode": "01", "address": "BOX 580", "city": "CARBERRY", "province": "MB", "country": "CA", "postalCode": "R0K0H0", "twitter": "None", "instagram": "None", "facebook": "None", "youtube": "None", "website": "None", "summary": "None", "logo": "None", "latitude": 49.84164228965453, "longitude": -99.31431075066462}, "119288918RR0890": {"name": "CARBERRY CONGREGATION OF JEHOVAH'S WITNESSES", "designationCode": "C", "categoryCode": "61", "address": "PO BOX 213", "city": "CARBERRY", "province": "MB", "country": "CA", "postalCode": "R0K0H0", "twitter": "None", "instagram": "None", "facebook": "None", "youtube": "None", "website": "None", "summary": "None", "logo": "None", "latitude": 49.84164228965453, "longitude": -99.31431075066462}, "106872344RR0001": {"name": "CARBERRY PASTORAL CHARGE", "designationCode": "C", "categoryCode": "44", "address": "PO BOX 239", "city": "CARBERRY", "province": "MB", "country": "CA", "postalCode": "R0K0H0", "twitter": "None", "instagram": "None", "facebook": "None", "youtube": "None", "website": "None", "summary": "None", "logo": "None", "latitude": 49.84164228965453, "longitude": -99.31431075066462}, "131090649RR0001": {"name": "CARBON AND DISTRICT AGRICULTURAL SOCIETY AND CURLING CLUB", "designationCode": "C", "categoryCode": "53", "address": "BOX 213", "city": "CARBON", "province": "AB", "country": "CA", "postalCode": "T0M0L0", "twitter": "None", "instagram": "None", "facebook": "None", "youtube": "None", "website": "None", "summary": "None", "logo": "None", "latitude": 51.485250000000065, "longitude": -113.14202999999998}, "118838093RR0001": {"name": "CARBON BAPTIST CHURCH", "designationCode": "C", "categoryCode": "31", "address": "BOX 429", "city": "CARBON", "province": "AB", "country": "CA", "postalCode": "T0M0L0", "twitter": "None", "instagram": "None", "facebook": "None", "youtube": "None", "website": "None", "summary": "None", "logo": "None", "latitude": 51.485250000000065, "longitude": -113.14202999999998}, "118838127RR0001": {"name": "CARBON NEW HORIZONS GROUP", "designationCode": "C", "categoryCode": "56", "address": "P.O. BOX 233", "city": "CARBON", "province": "AB", "country": "CA", "postalCode": "T0M0L0", "twitter": "None", "instagram": "None", "facebook": "None", "youtube": "None", "website": "None", "summary": "None", "logo": "None", "latitude": 51.485250000000065, "longitude": -113.14202999999998}, "131395493RR0001": {"name": "CARBONEAR GENERAL HOSPITAL AUXILIARY", "designationCode": "A", "categoryCode": "13", "address": "POST OFFICE BOX 102", "city": "VICTORIA, C. BAY", "province": "NL", "country": "CA", "postalCode": "A0A4G0", "twitter": "None", "instagram": "None", "facebook": "None", "youtube": "None", "website": "None", "summary": "None", "logo": "None", "latitude": 47.691130500000014, "longitude": -53.22207149999999}, "871119145RR0001": {"name": "CARBONEAR INTERFAITH CEMETERY ASSOCIATION INC.", "designationCode": "C", "categoryCode": "59", "address": "PO BOX 257", "city": "CARBONEAR", "province": "NL", "country": "CA", "postalCode": "A1Y1B6", "twitter": "None", "instagram": "None", "facebook": "None", "youtube": "None", "website": "None", "summary": "None", "logo": "None", "latitude": 47.73637500000005, "longitude": -53.22950449999993}, "884373820RR0001": {"name": "CARBONEAR PASTORAL CHARGE,", "designationCode": "C", "categoryCode": "44", "address": "2 CHURCH STREET", "city": "CARBONEAR", "province": "NL", "country": "CA", "postalCode": "A1Y1A9", "twitter": "None", "instagram": "None", "facebook": "None", "youtube": "None", "website": "None", "summary": "None", "logo": "None", "latitude": 47.73970562158845, "longitude": -53.21905771711182}, "118838150RR0001": {"name": "CARDALE COMMUNITY RINK INC.", "designationCode": "C", "categoryCode": "56", "address": "BOX 69", "city": "CARDALE", "province": "MB", "country": "CA", "postalCode": "R0K0J0", "twitter": "None", "instagram": "None", "facebook": "None", "youtube": "None", "website": "None", "summary": "None", "logo": "None", "latitude": 50.237280000000055, "longitude": -100.32269999999994}, "118838168RR0001": {"name": "CARDALE ELEVATOR ASSOCIATION TRUST FUND", "designationCode": "A", "categoryCode": "09", "address": "CATHY SHAW, SECRETARY/TREAS.  BOX 98", "city": "CARDALE", "province": "MB", "country": "CA", "postalCode": "R0K0J0", "twitter": "None", "instagram": "None", "facebook": "None", "youtube": "None", "website": "None", "summary": "None", "logo": "None", "latitude": 50.23727700000006, "longitude": -100.32270199999994}, "118838176RR0001": {"name": "CARDALE UNITED CHURCH", "designationCode": "C", "categoryCode": "44", "address": "BOX 9", "city": "CARDALE", "province": "MB", "country": "CA", "postalCode": "R0K0J0", "twitter": "None", "instagram": "None", "facebook": "None", "youtube": "None", "website": "None", "summary": "None", "logo": "None", "latitude": 50.237280000000055, "longitude": -100.32269999999994}, "100807189RR0001": {"name": "CARDI-O-FORME INC.", "designationCode": "C", "categoryCode": "11", "address": "305 RUE SAINT-VALLIER         CSSS DE CHICOUTIMI", "city": "CHICOUTIMI", "province": "QC", "country": "CA", "postalCode": "G7H5H6", "twitter": "None", "instagram": "None", "facebook": "None", "youtube": "None", "website": "None", "summary": "None", "logo": "None", "latitude": 48.42635000000007, "longitude": -71.04887999999994}, "140485996RR0001": {"name": "CARDIAC ATHLETIC SOCIETY OF EDMONTON (CASE)", "designationCode": "C", "categoryCode": "11", "address": "12438 28A AVE NW", "city": "EDMONTON", "province": "AB", "country": "CA", "postalCode": "T6J4E1", "twitter": "None", "instagram": "None", "facebook": "None", "youtube": "None", "website": "None", "summary": "None", "logo": "None", "latitude": 53.459275493219316, "longitude": -113.54490980682671}, "124339151RR0001": {"name": "CARDIAC HEALTH FOUNDATION OF CANADA", "designationCode": "C", "categoryCode": "01", "address": "306 - 901 LAWRENCE AVE W", "city": "NORTH YORK", "province": "ON", "country": "CA", "postalCode": "M6A1C3", "twitter": "None", "instagram": "None", "facebook": "None", "youtube": "None", "website": "None", "summary": "None", "logo": "None", "latitude": 43.71484673567959, "longitude": -79.45006503232214}, "118838192RR0001": {"name": "CARDIFF UNITED CHURCH", "designationCode": "C", "categoryCode": "44", "address": "BOX 130", "city": "CARDIFF", "province": "ON", "country": "CA", "postalCode": "K0L1M0", "twitter": "None", "instagram": "None", "facebook": "None", "youtube": "None", "website": "None", "summary": "None", "logo": "None", "latitude": 44.992560000000026, "longitude": -78.09417999999994}, "118838234RR0001": {"name": "CARDINAL L\u00c9GER ET SES OEUVRES / CARDINAL L\u00c9GER & HIS ENDEAVOURS", "designationCode": "C", "categoryCode": "03", "address": "130 AVENUE DE L'EPEE", "city": "OUTREMONT", "province": "QC", "country": "CA", "postalCode": "H2V3T2", "twitter": "None", "instagram": "None", "facebook": "None", "youtube": "None", "website": "None", "summary": "None", "logo": "None", "latitude": 45.5174456658204, "longitude": -73.59933130503771}, "870953999RR0001": {"name": "CARDIUM REGION VICTIM SERVICES UNIT SOCIETY", "designationCode": "C", "categoryCode": "59", "address": "BOX 6060                      5409 INDUSTRIAL RD", "city": "DRAYTON VALLEY", "province": "AB", "country": "CA", "postalCode": "T7A1R6", "twitter": "None", "instagram": "None", "facebook": "None", "youtube": "None", "website": "None", "summary": "None", "logo": "None", "latitude": 53.225740583934595, "longitude": -114.98622599509524}, "845335355RR0001": {"name": "CARDOZO FUND (CANADA)", "designationCode": "C", "categoryCode": "21", "address": "455 SPRING GATE BLVD", "city": "THORNHILL", "province": "ON", "country": "CA", "postalCode": "L4J5C7", "twitter": "None", "instagram": "None", "facebook": "None", "youtube": "None", "website": "None", "summary": "None", "logo": "None", "latitude": 43.806415842056815, "longitude": -79.44289579349652}, "890658396RR0001": {"name": "CARDSTON AND DISTRICT HEALTH CARE AUXILIARY ASSOCIATION", "designationCode": "C", "categoryCode": "15", "address": "BOX 1440", "city": "CARDSTON", "province": "AB", "country": "CA", "postalCode": "T0K0K0", "twitter": "None", "instagram": "None", "facebook": "None", "youtube": "None", "website": "None", "summary": "None", "logo": "None", "latitude": 49.198480000000075, "longitude": -113.30176999999998}, "888397031RR0001": {"name": "CARDSTON AND DISTRICT HEALTH FOUNDATION", "designationCode": "A", "categoryCode": "15", "address": "PO BOX 1440", "city": "CARDSTON", "province": "AB", "country": "CA", "postalCode": "T0K0K0", "twitter": "None", "instagram": "None", "facebook": "None", "youtube": "None", "website": "None", "summary": "None", "logo": "None", "latitude": 49.198480000000075, "longitude": -113.30176999999998}, "118838291RR0001": {"name": "CARDSTON AND DISTRICT HISTORICAL SOCIETY", "designationCode": "C", "categoryCode": "50", "address": "PO BOX 1830", "city": "CARDSTON", "province": "AB", "country": "CA", "postalCode": "T0K0K0", "twitter": "None", "instagram": "None", "facebook": "None", "youtube": "None", "website": "None", "summary": "None", "logo": "None", "latitude": 49.198480000000075, "longitude": -113.30176999999998}, "886260199RR0001": {"name": "CARDSTON AND DISTRICT PUBLIC LIBRARY BOARD", "designationCode": "C", "categoryCode": "50", "address": "PO BOX 1560", "city": "CARDSTON", "province": "AB", "country": "CA", "postalCode": "T0K0K0", "twitter": "None", "instagram": "None", "facebook": "None", "youtube": "None", "website": "None", "summary": "None", "logo": "None", "latitude": 49.198480000000075, "longitude": -113.30176999999998}, "890580665RR0001": {"name": "CARDSTON COMMUNITY HANDI-BUS ASSOCIATION", "designationCode": "C", "categoryCode": "09", "address": "PO BOX 1122", "city": "CARDSTON", "province": "AB", "country": "CA", "postalCode": "T0K0K0", "twitter": "None", "instagram": "None", "facebook": "None", "youtube": "None", "website": "None", "summary": "None", "logo": "None", "latitude": 49.198480000000075, "longitude": -113.30176999999998}, "135775906RR0001": {"name": "CARDSTON PREHOSPITAL CARE SOCIETY", "designationCode": "A", "categoryCode": "13", "address": "PO BOX 2199", "city": "CARDSTON", "province": "AB", "country": "CA", "postalCode": "T0K0K0", "twitter": "None", "instagram": "None", "facebook": "None", "youtube": "None", "website": "None", "summary": "None", "logo": "None", "latitude": 49.198480000000075, "longitude": -113.30176999999998}, "866477763RR0001": {"name": "CARE & SHARE SASKATOON INC.", "designationCode": "C", "categoryCode": "09", "address": "306-220 THIRD AVE S", "city": "SASKATOON", "province": "SK", "country": "CA", "postalCode": "S7K1M1", "twitter": "None", "instagram": "None", "facebook": "None", "youtube": "None", "website": "None", "summary": "None", "logo": "None", "latitude": 52.12655153482605, "longitude": -106.66294814262244}, "893145110RR0001": {"name": "CARE & SUPPORT FELLOWSHIP CHRISTIAN CHURCH", "designationCode": "C", "categoryCode": "39", "address": "29 FORMOSA DRIVE", "city": "RICHMOND HILL", "province": "ON", "country": "CA", "postalCode": "L4S1S6", "twitter": "None", "instagram": "None", "facebook": "None", "youtube": "None", "website": "None", "summary": "None", "logo": "None", "latitude": 43.88454088201874, "longitude": -79.41065549388316}, "131934622RR0001": {"name": "CARE 'N' SHARE INC", "designationCode": "C", "categoryCode": "01", "address": "341 MAIN STREET", "city": "CHIPMAN", "province": "NB", "country": "CA", "postalCode": "E4A2M8", "twitter": "None", "instagram": "None", "facebook": "None", "youtube": "None", "website": "None", "summary": "None", "logo": "None", "latitude": 46.17087713849617, "longitude": -65.88441681098166}, "106872997RR0001": {"name": "CARE AND SHARE CHILDREN'S CENTRE INC.", "designationCode": "C", "categoryCode": "01", "address": "22 STRAUSS DRIVE", "city": "WINNIPEG", "province": "MB", "country": "CA", "postalCode": "R3J3V2", "twitter": "None", "instagram": "None", "facebook": "None", "youtube": "None", "website": "None", "summary": "None", "logo": "None", "latitude": 49.88784955395597, "longitude": -97.26278208243406}, "118838325RR0001": {"name": "CARE AND SHARE INC.", "designationCode": "C", "categoryCode": "49", "address": "PO BOX 86                     2392 8TH LINE ROAD", "city": "METCALFE", "province": "ON", "country": "CA", "postalCode": "K0A2P0", "twitter": "None", "instagram": "None", "facebook": "None", "youtube": "None", "website": "None", "summary": "None", "logo": "None", "latitude": 45.24646296834794, "longitude": -75.47830265589438}, "844205948RR0001": {"name": "CARE Centre for Internationally Educated Nurses", "designationCode": "C", "categoryCode": "20", "address": "200 - 620 WILSON AVE", "city": "NORTH YORK", "province": "ON", "country": "CA", "postalCode": "M3K1Z3", "twitter": "None", "instagram": "None", "facebook": "None", "youtube": "None", "website": "None", "summary": "None", "logo": "None", "latitude": 43.73199250100961, "longitude": -79.46002264071787}, "118838333RR0001": {"name": "CARE CANADA", "designationCode": "C", "categoryCode": "09", "address": "9 GURDWARA ROAD SUITE 200", "city": "NEPEAN", "province": "ON", "country": "CA", "postalCode": "K2E7X6", "twitter": "None", "instagram": "None", "facebook": "None", "youtube": "None", "website": "None", "summary": "None", "logo": "None", "latitude": 45.335591500778484, "longitude": -75.70260761651029}, "888400561RR0001": {"name": "CARE CONNECT CHRISTIAN SOCIETY", "designationCode": "C", "categoryCode": "99", "address": "POST OFFICE BOX 64247", "city": "CALGARY", "province": "AB", "country": "CA", "postalCode": "T2K6J7", "twitter": "None", "instagram": "None", "facebook": "None", "youtube": "None", "website": "None", "summary": "None", "logo": "None", "latitude": 51.10789200000005, "longitude": -114.07232149999993}, "892982968RR0001": {"name": "CARE FOR KIDS (TORONTO)", "designationCode": "A", "categoryCode": "13", "address": "501-5 PARK HOME AVENUE", "city": "TORONTO", "province": "ON", "country": "CA", "postalCode": "M2N6L4", "twitter": "None", "instagram": "None", "facebook": "None", "youtube": "None", "website": "None", "summary": "None", "logo": "None", "latitude": 43.76880079819972, "longitude": -79.41482618705645}, "896169224RR0001": {"name": "CARE IN ACTION INTERNATIONAL AID SOCIETY", "designationCode": "C", "categoryCode": "09", "address": "5021 RUE DE LA MORANDIERE", "city": "PIERREFONDS", "province": "QC", "country": "CA", "postalCode": "H9K1N4", "twitter": "None", "instagram": "None", "facebook": "None", "youtube": "None", "website": "None", "summary": "None", "logo": "None", "latitude": 45.46067198834325, "longitude": -73.90811145692231}, "822388724RR0001": {"name": "CARE TO SHARE COMMUNITY CENTRE", "designationCode": "C", "categoryCode": "09", "address": "184 ROUTE 190", "city": "CARLINGFORD", "province": "NB", "country": "CA", "postalCode": "E7H1C3", "twitter": "None", "instagram": "None", "facebook": "None", "youtube": "None", "website": "None", "summary": "None", "logo": "None", "latitude": 46.75096706084668, "longitude": -67.75549792439624}, "106872955RR0001": {"name": "CARE-A-LOT CO-OPERATIVE NURSERY SCHOOL INC.", "designationCode": "C", "categoryCode": "20", "address": "BOX 2085", "city": "ANGUS", "province": "ON", "country": "CA", "postalCode": "L0M1B0", "twitter": "None", "instagram": "None", "facebook": "None", "youtube": "None", "website": "None", "summary": "None", "logo": "None", "latitude": 44.31911100000005, "longitude": -79.88208199999994}, "118838317RR0001": {"name": "CARE-A-LOT NURSERY INC.", "designationCode": "C", "categoryCode": "01", "address": "829 WATT ST", "city": "WINNIPEG", "province": "MB", "country": "CA", "postalCode": "R2K2T3", "twitter": "None", "instagram": "None", "facebook": "None", "youtube": "None", "website": "None", "summary": "None", "logo": "None", "latitude": 49.92606873881939, "longitude": -97.08906337812361}, "809406952RR0001": {"name": "CARE-ALIVE, THE CAROLINE CUNNINGHAM FOUNDATION FOR EPILEPSY", "designationCode": "B", "categoryCode": "13", "address": "10 RADWAY AVENUE", "city": "TORONTO", "province": "ON", "country": "CA", "postalCode": "M9C1J8", "twitter": "None", "instagram": "None", "facebook": "None", "youtube": "None", "website": "None", "summary": "None", "logo": "None", "latitude": 43.63277612519463, "longitude": -79.56379739676258}, "106721731RR0001": {"name": "CAREER CONNECTIONS INC.", "designationCode": "C", "categoryCode": "59", "address": "710 3RD STREET", "city": "BRANDON", "province": "MB", "country": "CA", "postalCode": "R7A3C8", "twitter": "None", "instagram": "None", "facebook": "None", "youtube": "None", "website": "None", "summary": "None", "logo": "None", "latitude": 49.83858998473655, "longitude": -99.94185435530008}, "893117044RR0001": {"name": "CAREER EDUCATION COUNCIL GUELPH WELLINGTON DUFFERIN", "designationCode": "C", "categoryCode": "21", "address": "271 STEPHANIE DR", "city": "GUELPH", "province": "ON", "country": "CA", "postalCode": "N1K1T1", "twitter": "None", "instagram": "None", "facebook": "None", "youtube": "None", "website": "None", "summary": "None", "logo": "None", "latitude": 43.52213344484007, "longitude": -80.27759089501777}, "106813157RR0001": {"name": "CAREER SERVICES OF BROCKVILLE", "designationCode": "C", "categoryCode": "59", "address": "89 HUBBELL ST", "city": "BROCKVILLE", "province": "ON", "country": "CA", "postalCode": "K6V4K6", "twitter": "None", "instagram": "None", "facebook": "None", "youtube": "None", "website": "None", "summary": "None", "logo": "None", "latitude": 44.59027186029169, "longitude": -75.69970345056483}, "868350547RR0001": {"name": "CAREER TREK INC.", "designationCode": "C", "categoryCode": "20", "address": "191 LOMBARD AVE", "city": "WINNIPEG", "province": "MB", "country": "CA", "postalCode": "R3B0X1", "twitter": "None", "instagram": "None", "facebook": "None", "youtube": "None", "website": "None", "summary": "None", "logo": "None", "latitude": 49.89628544214888, "longitude": -97.13807425298631}, "886413699RR0001": {"name": "CAREERS THE NEXT GENERATION FOUNDATION", "designationCode": "C", "categoryCode": "21", "address": "204-10470 176 ST NW", "city": "EDMONTON", "province": "AB", "country": "CA", "postalCode": "T5S1L3", "twitter": "None", "instagram": "None", "facebook": "None", "youtube": "None", "website": "None", "summary": "None", "logo": "None", "latitude": 53.547714083819045, "longitude": -113.62395021155247}, "839744943RR0001": {"name": "CAREFIRST FOUNDATION", "designationCode": "A", "categoryCode": "03", "address": "300 SILVER STAR BLVD", "city": "SCARBOROUGH", "province": "ON", "country": "CA", "postalCode": "M1V0G2", "twitter": "None", "instagram": "None", "facebook": "None", "youtube": "None", "website": "None", "summary": "None", "logo": "None", "latitude": 43.8126521720528, "longitude": -79.29444266524253}, "106915861RR0001": {"name": "CAREFIRST SENIORS AND COMMUNITY SERVICES ASSOCIATION", "designationCode": "C", "categoryCode": "09", "address": "300 SILVER STAR BLVD", "city": "SCARBOROUGH", "province": "ON", "country": "CA", "postalCode": "M1V0G2", "twitter": "None", "instagram": "None", "facebook": "None", "youtube": "None", "website": "None", "summary": "None", "logo": "None", "latitude": 43.8126521720528, "longitude": -79.29444266524253}, "119284768RR0001": {"name": "CAREFOR HEALTH & COMMUNITY SERVICES", "designationCode": "C", "categoryCode": "11", "address": "760 BELFAST RD", "city": "OTTAWA", "province": "ON", "country": "CA", "postalCode": "K1G6M8", "twitter": "None", "instagram": "None", "facebook": "None", "youtube": "None", "website": "None", "summary": "None", "logo": "None", "latitude": 45.41432254809893, "longitude": -75.64101335766601}, "118838358RR0001": {"name": "CAREFREE SOCIETY", "designationCode": "C", "categoryCode": "09", "address": "2832 QUEENSWAY STREET", "city": "PRINCE GEORGE", "province": "BC", "country": "CA", "postalCode": "V2L4M5", "twitter": "None", "instagram": "None", "facebook": "None", "youtube": "None", "website": "None", "summary": "None", "logo": "None", "latitude": 53.894287763916765, "longitude": -122.74345618500706}, "124072513RR0015": {"name": "CAREWEST", "designationCode": "C", "categoryCode": "10", "address": "10101 SOUTHPORT ROAD SW", "city": "CALGARY", "province": "AB", "country": "CA", "postalCode": "T2W3N2", "twitter": "None", "instagram": "None", "facebook": "None", "youtube": "None", "website": "None", "summary": "None", "logo": "None"}, "118838432RR0001": {"name": "CAREY HALL", "designationCode": "C", "categoryCode": "20", "address": "5920 IONA DRIVE", "city": "VANCOUVER", "province": "BC", "country": "CA", "postalCode": "V6T1J6", "twitter": "None", "instagram": "None", "facebook": "None", "youtube": "None", "website": "None", "summary": "None", "logo": "None", "latitude": 49.27190746592462, "longitude": -123.24876960657366}, "864940291RR0001": {"name": "CAREY OUTREACH MINISTRIES INC", "designationCode": "C", "categoryCode": "20", "address": "47 KEYS CRES", "city": "GUELPH", "province": "ON", "country": "CA", "postalCode": "N1G5J7", "twitter": "None", "instagram": "None", "facebook": "None", "youtube": "None", "website": "None", "summary": "None", "logo": "None", "latitude": 43.500677910612396, "longitude": -80.20103128423433}, "891267346RR0001": {"name": "CARGILL LIMITED/CARGILL LIMITEE VOLUNTARY CHARITIES FUND", "designationCode": "B", "categoryCode": "75", "address": "300-240 GRAHAM AVE", "city": "WINNIPEG", "province": "MB", "country": "CA", "postalCode": "R3C0J7", "twitter": "None", "instagram": "None", "facebook": "None", "youtube": "None", "website": "None", "summary": "None", "logo": "None", "latitude": 49.89284575823776, "longitude": -97.13935596834793}, "133775528RR0001": {"name": "CARI ST-LAURENT", "designationCode": "C", "categoryCode": "09", "address": "300-774 BOUL. D\u00c9CARIE", "city": "SAINT-LAURENT", "province": "QC", "country": "CA", "postalCode": "H4L3L5", "twitter": "None", "instagram": "None", "facebook": "None", "youtube": "None", "website": "None", "summary": "None", "logo": "None", "latitude": 45.51113775546782, "longitude": -73.6779265653816}, "864985726RR0001": {"name": "CARIBBEAN CHILDREN FOUNDATION INC.", "designationCode": "A", "categoryCode": "13", "address": "60 STRATHDALE RD", "city": "BRAMPTON", "province": "ON", "country": "CA", "postalCode": "L6P2Y4", "twitter": "None", "instagram": "None", "facebook": "None", "youtube": "None", "website": "None", "summary": "None", "logo": "None", "latitude": 43.78142204385709, "longitude": -79.68397203277723}, "858186570RR0001": {"name": "CARIBBEAN GLOBAL MISSIONS", "designationCode": "C", "categoryCode": "21", "address": "37 - 120 NORFINCH DR", "city": "NORTH YORK", "province": "ON", "country": "CA", "postalCode": "M3N1X3", "twitter": "None", "instagram": "None", "facebook": "None", "youtube": "None", "website": "None", "summary": "None", "logo": "None", "latitude": 43.76150642824177, "longitude": -79.52929616163586}, "890149974RR0001": {"name": "CARIBBEAN WORKERS OUTREACH PROJECT - NIAGARA", "designationCode": "C", "categoryCode": "44", "address": "4145 ABERDEEN ROAD", "city": "BEAMSVILLE", "province": "ON", "country": "CA", "postalCode": "L0R1B6", "twitter": "None", "instagram": "None", "facebook": "None", "youtube": "None", "website": "None", "summary": "None", "logo": "None", "latitude": 43.15954000167344, "longitude": -79.46444104645416}, "106873649RR0001": {"name": "CARIBOO ACTION TRAINING SOCIETY", "designationCode": "C", "categoryCode": "56", "address": "130-1460 6TH AVE", "city": "PRINCE GEORGE", "province": "BC", "country": "CA", "postalCode": "V2L3N2", "twitter": "None", "instagram": "None", "facebook": "None", "youtube": "None", "website": "None", "summary": "None", "logo": "None", "latitude": 53.91545889111774, "longitude": -122.75033532401747}, "131486995RR0001": {"name": "CARIBOO ADVENTIST ACADEMY", "designationCode": "C", "categoryCode": "20", "address": "1405 SOUTH LAKESIDE DRIVE", "city": "WILLIAMS LAKE", "province": "BC", "country": "CA", "postalCode": "V2G3A7", "twitter": "None", "instagram": "None", "facebook": "None", "youtube": "None", "website": "None", "summary": "None", "logo": "None", "latitude": 52.112895644541425, "longitude": -122.11493982985034}, "118818491RR0064": {"name": "CARIBOO CENTRAL SEVENTH-DAY ADVENTIST CHURCH", "designationCode": "C", "categoryCode": "41", "address": "PO 1000", "city": "ABBOTSFORD", "province": "BC", "country": "CA", "postalCode": "V2S4P5", "twitter": "None", "instagram": "None", "facebook": "None", "youtube": "None", "website": "None", "summary": "None", "logo": "None", "latitude": 49.03851300000005, "longitude": -122.29441549999993}, "118838481RR0001": {"name": "CARIBOO CHILCOTIN CHILD DEVELOPMENT CENTRE ASSOCIATION", "designationCode": "C", "categoryCode": "11", "address": "51 SOUTH 4TH AVE", "city": "WILLIAMS LAKE", "province": "BC", "country": "CA", "postalCode": "V2G1J6", "twitter": "None", "instagram": "None", "facebook": "None", "youtube": "None", "website": "None", "summary": "None", "logo": "None"}, "866732092RR0001": {"name": "CARIBOO CHILCOTIN PARTNERS FOR LITERACY SOCIETY", "designationCode": "C", "categoryCode": "21", "address": "PO BOX 2565", "city": "WILLIAMS LAKE", "province": "BC", "country": "CA", "postalCode": "V2G4P2", "twitter": "None", "instagram": "None", "facebook": "None", "youtube": "None", "website": "None", "summary": "None", "logo": "None", "latitude": 52.12864500000006, "longitude": -122.14108249999992}, "118838515RR0001": {"name": "CARIBOO CHRISTIAN CHURCH OF HORSEFLY", "designationCode": "C", "categoryCode": "39", "address": "BOX 293                       5726 HORSEFLY ROAD", "city": "HORSEFLY", "province": "BC", "country": "CA", "postalCode": "V0L1L0", "twitter": "None", "instagram": "None", "facebook": "None", "youtube": "None", "website": "None", "summary": "None", "logo": "None", "latitude": 52.32891370020778, "longitude": -121.42368807202672}, "100810290RR0001": {"name": "CARIBOO CHRISTIAN LIFE FELLOWSHIP", "designationCode": "C", "categoryCode": "39", "address": "COMP 281", "city": "108 MILE RANCH", "province": "BC", "country": "CA", "postalCode": "V0K2Z0", "twitter": "None", "instagram": "None", "facebook": "None", "youtube": "None", "website": "None", "summary": "None", "logo": "None", "latitude": 51.75124800000006, "longitude": -121.34758399999993}, "887998466RR0001": {"name": "CARIBOO CHRISTIAN MINISTRIES", "designationCode": "C", "categoryCode": "47", "address": "PO BOX 447 STN A", "city": "ABBOTSFORD", "province": "BC", "country": "CA", "postalCode": "V2T6Z7", "twitter": "None", "instagram": "None", "facebook": "None", "youtube": "None", "website": "None", "summary": "None", "logo": "None", "latitude": 49.05161700000005, "longitude": -122.32930399999994}}