{"119194041RR0001": {"name": "ST PAUL PASTORAL CHARGE", "designationCode": "C", "categoryCode": "44", "address": "5113-51ST.", "city": "ST. PAUL", "province": "AB", "country": "CA", "postalCode": "T0A3A1", "twitter": "None", "instagram": "None", "facebook": "None", "youtube": "None", "website": "None", "summary": "None", "logo": "None", "latitude": 53.99233254674263, "longitude": -111.30065091618097}, "135152429RR0001": {"name": "ST PAUL S ANGLICAN CHURCH JERSEY", "designationCode": "C", "categoryCode": "30", "address": "267 HOLLYWOOD DR", "city": "KESWICK", "province": "ON", "country": "CA", "postalCode": "L4P3W4", "twitter": "None", "instagram": "None", "facebook": "None", "youtube": "None", "website": "None", "summary": "None", "logo": "None", "latitude": 44.20541883484346, "longitude": -79.46805809602405}, "139175798RR0001": {"name": "ST PAUL S INNISFIL CEMETERY BOARD", "designationCode": "C", "categoryCode": "59", "address": "75 ST. PAUL'S CRES.", "city": "BARRIE", "province": "ON", "country": "CA", "postalCode": "L9J0E1", "twitter": "None", "instagram": "None", "facebook": "None", "youtube": "None", "website": "None", "summary": "None", "logo": "None", "latitude": 44.34812221246561, "longitude": -79.62526996987809}, "132001843RR0001": {"name": "ST PAUL S UNITED CHURCH", "designationCode": "C", "categoryCode": "44", "address": "BOX 1910", "city": "CARMAN", "province": "MB", "country": "CA", "postalCode": "R0G0J0", "twitter": "None", "instagram": "None", "facebook": "None", "youtube": "None", "website": "None", "summary": "None", "logo": "None", "latitude": 49.50860000000006, "longitude": -98.00231999999994}, "119197382RR0001": {"name": "ST PAUL THE APOSTLE CHURCH", "designationCode": "C", "categoryCode": "38", "address": "2400 PORTAGE AVE", "city": "WINNIPEG", "province": "MB", "country": "CA", "postalCode": "R3J0M8", "twitter": "None", "instagram": "None", "facebook": "None", "youtube": "None", "website": "None", "summary": "None", "logo": "None", "latitude": 49.87550954169364, "longitude": -97.25241985677198}, "887669794RR0002": {"name": "ST PAUL'S", "designationCode": "C", "categoryCode": "30", "address": "248 HIGH STREET", "city": "SOUTHAMPTON", "province": "ON", "country": "CA", "postalCode": "N0H2L0", "twitter": "None", "instagram": "None", "facebook": "None", "youtube": "None", "website": "None", "summary": "None", "logo": "None", "latitude": 44.49487396303082, "longitude": -81.36950486900359}, "891367195RR0002": {"name": "ST PAUL'S", "designationCode": "C", "categoryCode": "30", "address": "PO BOX 430", "city": "TARA", "province": "ON", "country": "CA", "postalCode": "N0H2N0", "twitter": "None", "instagram": "None", "facebook": "None", "youtube": "None", "website": "None", "summary": "None", "logo": "None", "latitude": 44.63441100000001, "longitude": -81.26877149999999}, "119194124RR0002": {"name": "ST PAUL'S ANGLICAN CHURCH", "designationCode": "C", "categoryCode": "30", "address": "101 PRINCE ST.", "city": "CHARLOTTETOWN", "province": "PE", "country": "CA", "postalCode": "C1A4R5", "twitter": "None", "instagram": "None", "facebook": "None", "youtube": "None", "website": "None", "summary": "None", "logo": "None", "latitude": 46.2357837979399, "longitude": -63.12439193256959}, "119194223RR0001": {"name": "ST PAUL'S ANGLICAN CHURCH", "designationCode": "C", "categoryCode": "30", "address": "BOX 184", "city": "WAWANESA", "province": "MB", "country": "CA", "postalCode": "R0K2G0", "twitter": "None", "instagram": "None", "facebook": "None", "youtube": "None", "website": "None", "summary": "None", "logo": "None", "latitude": 49.59522000000004, "longitude": -99.68362999999994}, "119194256RR0001": {"name": "ST PAUL'S ANGLICAN CHURCH", "designationCode": "C", "categoryCode": "30", "address": "404 - 1ST STREET SW", "city": "DAUPHIN", "province": "MB", "country": "CA", "postalCode": "R7N1N3", "twitter": "None", "instagram": "None", "facebook": "None", "youtube": "None", "website": "None", "summary": "None", "logo": "None", "latitude": 51.147331545905914, "longitude": -100.0558010165911}, "119194298RR0001": {"name": "ST PAUL'S ANGLICAN CHURCH", "designationCode": "C", "categoryCode": "30", "address": "7 SUNMILLS GREEN SE", "city": "CALGARY", "province": "AB", "country": "CA", "postalCode": "T2X3P6", "twitter": "None", "instagram": "None", "facebook": "None", "youtube": "None", "website": "None", "summary": "None", "logo": "None", "latitude": 50.90536858728147, "longitude": -114.04855418082404}, "119194314RR0002": {"name": "ST PAUL'S ANGLICAN CHURCH", "designationCode": "C", "categoryCode": "30", "address": "10127-145 ST", "city": "EDMONTON", "province": "AB", "country": "CA", "postalCode": "T5N2X6", "twitter": "None", "instagram": "None", "facebook": "None", "youtube": "None", "website": "None", "summary": "None", "logo": "None", "latitude": 53.54238616763806, "longitude": -113.57080780734631}, "119194322RR0002": {"name": "ST PAUL'S ANGLICAN CHURCH", "designationCode": "C", "categoryCode": "30", "address": "4416 - 50 STREET", "city": "LEDUC", "province": "AB", "country": "CA", "postalCode": "T9E4Z6", "twitter": "None", "instagram": "None", "facebook": "None", "youtube": "None", "website": "None", "summary": "None", "logo": "None", "latitude": 53.25866222516224, "longitude": -113.55104945988256}, "119195170RR0002": {"name": "ST PAUL'S ANGLICAN CHURCH", "designationCode": "C", "categoryCode": "30", "address": "9 ARTHUR ST", "city": "POINT EDWARD", "province": "ON", "country": "CA", "postalCode": "N7V1T4", "twitter": "None", "instagram": "None", "facebook": "None", "youtube": "None", "website": "None", "summary": "None", "logo": "None", "latitude": 43.000989631427025, "longitude": -82.40761257559606}, "119195261RR0002": {"name": "ST PAUL'S ANGLICAN CHURCH", "designationCode": "C", "categoryCode": "30", "address": "808 RIDGEWAY ST E", "city": "THUNDER BAY", "province": "ON", "country": "CA", "postalCode": "P7E5H5", "twitter": "None", "instagram": "None", "facebook": "None", "youtube": "None", "website": "None", "summary": "None", "logo": "None", "latitude": 48.37920547403208, "longitude": -89.24962049999999}, "119208031RR0003": {"name": "ST PAUL'S ANGLICAN CHURCH", "designationCode": "C", "categoryCode": "30", "address": "PO BOX 570", "city": "DAWSON CITY", "province": "YT", "country": "CA", "postalCode": "Y0B1G0", "twitter": "None", "instagram": "None", "facebook": "None", "youtube": "None", "website": "None", "summary": "None", "logo": "None", "latitude": 64.05386000000004, "longitude": -139.43884999999995}, "126780105RR0002": {"name": "ST PAUL'S ANGLICAN CHURCH", "designationCode": "C", "categoryCode": "30", "address": "BOX 1132", "city": "CLINTON", "province": "ON", "country": "CA", "postalCode": "N0M1L0", "twitter": "None", "instagram": "None", "facebook": "None", "youtube": "None", "website": "None", "summary": "None", "logo": "None", "latitude": 43.617650000000026, "longitude": -81.53971999999999}, "129144549RR0014": {"name": "ST PAUL'S ANGLICAN CHURCH", "designationCode": "C", "categoryCode": "30", "address": "46 13TH AVE S", "city": "CRANBROOK", "province": "BC", "country": "CA", "postalCode": "V1C2Y3", "twitter": "None", "instagram": "None", "facebook": "None", "youtube": "None", "website": "None", "summary": "None", "logo": "None", "latitude": 49.51104844624596, "longitude": -115.76331764639039}, "130654577RR0002": {"name": "ST PAUL'S ANGLICAN CHURCH", "designationCode": "C", "categoryCode": "30", "address": "79 MAIN ST. S.                P.O. BOX 12", "city": "PRINCETON", "province": "ON", "country": "CA", "postalCode": "N0J1V0", "twitter": "None", "instagram": "None", "facebook": "None", "youtube": "None", "website": "None", "summary": "None", "logo": "None", "latitude": 43.167531803768284, "longitude": -80.52578604749242}, "132489691RR0001": {"name": "ST PAUL'S ANGLICAN CHURCH", "designationCode": "C", "categoryCode": "30", "address": "P.O. BOX 433", "city": "WILKIE", "province": "SK", "country": "CA", "postalCode": "S0K4W0", "twitter": "None", "instagram": "None", "facebook": "None", "youtube": "None", "website": "None", "summary": "None", "logo": "None", "latitude": 52.410810000000026, "longitude": -108.70070999999996}, "888010063RR0002": {"name": "ST PAUL'S ANGLICAN CHURCH", "designationCode": "C", "categoryCode": "30", "address": "PO BOX 58", "city": "FORT CHIPEWYAN", "province": "AB", "country": "CA", "postalCode": "T0P1B0", "twitter": "None", "instagram": "None", "facebook": "None", "youtube": "None", "website": "None", "summary": "None", "logo": "None", "latitude": 58.71329000000003, "longitude": -111.15282999999994}, "888612199RR0001": {"name": "ST PAUL'S ANGLICAN CHURCH", "designationCode": "C", "categoryCode": "30", "address": "P.O. BOX 222", "city": "MANSONVILLE", "province": "QC", "country": "CA", "postalCode": "J0E1X0", "twitter": "None", "instagram": "None", "facebook": "None", "youtube": "None", "website": "None", "summary": "None", "logo": "None", "latitude": 45.10755705165745, "longitude": -72.3931084549433}, "889693842RR0002": {"name": "ST PAUL'S ANGLICAN CHURCH", "designationCode": "C", "categoryCode": "30", "address": "10680 FERNHILL DR             R.R.#3", "city": "DENFIELD", "province": "ON", "country": "CA", "postalCode": "N0M1P0", "twitter": "None", "instagram": "None", "facebook": "None", "youtube": "None", "website": "None", "summary": "None", "logo": "None", "latitude": 43.073706826967964, "longitude": -81.54073760498166}, "119194389RR0002": {"name": "ST PAUL'S CATHEDRAL", "designationCode": "C", "categoryCode": "30", "address": "472 RICHMOND ST", "city": "LONDON", "province": "ON", "country": "CA", "postalCode": "N6A3E6", "twitter": "None", "instagram": "None", "facebook": "None", "youtube": "None", "website": "None", "summary": "None", "logo": "None", "latitude": 42.98583169331751, "longitude": -81.25056507386529}, "132090853RR0001": {"name": "ST PAUL'S CATHEDRAL", "designationCode": "C", "categoryCode": "30", "address": "1861 MCINTYRE ST", "city": "REGINA", "province": "SK", "country": "CA", "postalCode": "S4P2R2", "twitter": "None", "instagram": "None", "facebook": "None", "youtube": "None", "website": "None", "summary": "None", "logo": "None", "latitude": 50.4491757485429, "longitude": -104.61652781761809}, "893194571RR0001": {"name": "ST PAUL'S CHAPEL", "designationCode": "A", "categoryCode": "39", "address": "WESTERN AREA TRAINING CENTRE", "city": "DENWOOD", "province": "AB", "country": "CA", "postalCode": "T0B1B0", "twitter": "None", "instagram": "None", "facebook": "None", "youtube": "None", "website": "None", "summary": "None", "logo": "None", "latitude": 52.820673000000056, "longitude": -110.88836449999994}, "119194652RR0001": {"name": "ST PAUL'S CHURCH", "designationCode": "C", "categoryCode": "30", "address": "642 MONTEE DE WAKEMAN", "city": "GASPE", "province": "QC", "country": "CA", "postalCode": "G4X2A1", "twitter": "None", "instagram": "None", "facebook": "None", "youtube": "None", "website": "None", "summary": "None", "logo": "None", "latitude": 48.83860500000006, "longitude": -64.58671699999994}, "119194702RR0001": {"name": "ST PAUL'S CHURCH", "designationCode": "C", "categoryCode": "30", "address": "1 POND ST BM 5 RR 2", "city": "MARBLETON", "province": "QC", "country": "CA", "postalCode": "J0B2L0", "twitter": "None", "instagram": "None", "facebook": "None", "youtube": "None", "website": "None", "summary": "None", "logo": "None", "latitude": 45.65351400000006, "longitude": -71.59512499999994}, "119194868RR0001": {"name": "ST PAUL'S CHURCH", "designationCode": "C", "categoryCode": "30", "address": "5 NORALINE AVE", "city": "MIDHURST", "province": "ON", "country": "CA", "postalCode": "L9X0M8", "twitter": "None", "instagram": "None", "facebook": "None", "youtube": "None", "website": "None", "summary": "None", "logo": "None", "latitude": 44.44023046384864, "longitude": -79.71882358456193}, "119194926RR0001": {"name": "ST PAUL'S CHURCH", "designationCode": "C", "categoryCode": "30", "address": "227 CHURCH ST", "city": "NEWMARKET", "province": "ON", "country": "CA", "postalCode": "L3Y4C5", "twitter": "None", "instagram": "None", "facebook": "None", "youtube": "None", "website": "None", "summary": "None", "logo": "None", "latitude": 44.051297248138866, "longitude": -79.45904810266049}, "119194983RR0002": {"name": "ST PAUL'S CHURCH", "designationCode": "C", "categoryCode": "30", "address": "PO BOX 33", "city": "PORT DOVER", "province": "ON", "country": "CA", "postalCode": "N0A1N0", "twitter": "None", "instagram": "None", "facebook": "None", "youtube": "None", "website": "None", "summary": "None", "logo": "None", "latitude": 42.78459300000006, "longitude": -80.20790899999993}, "119195105RR0002": {"name": "ST PAUL'S CHURCH", "designationCode": "C", "categoryCode": "30", "address": "R.R.#1, 8832 TALBOT TRAIL", "city": "BLENHEIM", "province": "ON", "country": "CA", "postalCode": "N0P1A0", "twitter": "None", "instagram": "None", "facebook": "None", "youtube": "None", "website": "None", "summary": "None", "logo": "None", "latitude": 42.295890364677845, "longitude": -82.02222298537173}, "119195212RR0002": {"name": "ST PAUL'S CHURCH", "designationCode": "C", "categoryCode": "30", "address": "401-35 DAIRY LANE", "city": "HUNTSVILLE", "province": "ON", "country": "CA", "postalCode": "P1H2L8", "twitter": "None", "instagram": "None", "facebook": "None", "youtube": "None", "website": "None", "summary": "None", "logo": "None", "latitude": 45.330781717698905, "longitude": -79.22385559074392}, "119195279RR0002": {"name": "ST PAUL'S CHURCH", "designationCode": "C", "categoryCode": "30", "address": "BOX 707", "city": "MACGREGOR", "province": "MB", "country": "CA", "postalCode": "R0H0R0", "twitter": "None", "instagram": "None", "facebook": "None", "youtube": "None", "website": "None", "summary": "None", "logo": "None", "latitude": 49.965220000000045, "longitude": -98.77929999999998}, "119195287RR0001": {"name": "ST PAUL'S CHURCH", "designationCode": "C", "categoryCode": "30", "address": "BOX 652", "city": "SHOAL LAKE", "province": "MB", "country": "CA", "postalCode": "R0J1Z0", "twitter": "None", "instagram": "None", "facebook": "None", "youtube": "None", "website": "None", "summary": "None", "logo": "None", "latitude": 50.437670000000026, "longitude": -100.59073999999998}, "119195295RR0002": {"name": "ST PAUL'S CHURCH", "designationCode": "C", "categoryCode": "30", "address": "BOX 8", "city": "CLEARWATER", "province": "MB", "country": "CA", "postalCode": "R0K0M0", "twitter": "None", "instagram": "None", "facebook": "None", "youtube": "None", "website": "None", "summary": "None", "logo": "None", "latitude": 49.133110000000045, "longitude": -99.03632999999996}, "119195360RR0001": {"name": "ST PAUL'S CHURCH", "designationCode": "C", "categoryCode": "30", "address": "PO BOX 8", "city": "WASECA", "province": "SK", "country": "CA", "postalCode": "S0M3A0", "twitter": "None", "instagram": "None", "facebook": "None", "youtube": "None", "website": "None", "summary": "None", "logo": "None", "latitude": 53.102100000000064, "longitude": -109.47285999999997}, "119195378RR0001": {"name": "ST PAUL'S CHURCH", "designationCode": "C", "categoryCode": "30", "address": "1302-99TH ST", "city": "NORTH BATTLEFORD", "province": "SK", "country": "CA", "postalCode": "S9A0P8", "twitter": "None", "instagram": "None", "facebook": "None", "youtube": "None", "website": "None", "summary": "None", "logo": "None", "latitude": 52.77683636081136, "longitude": -108.30046554729087}, "119238210RR0005": {"name": "ST PAUL'S CHURCH", "designationCode": "C", "categoryCode": "30", "address": "1696 HODGES AVENUE            BOX 350", "city": "MASSET", "province": "BC", "country": "CA", "postalCode": "V0T1M0", "twitter": "None", "instagram": "None", "facebook": "None", "youtube": "None", "website": "None", "summary": "None", "logo": "None", "latitude": 54.012514894124635, "longitude": -132.14190663710224}, "130312937RR0001": {"name": "ST PAUL'S CHURCH", "designationCode": "C", "categoryCode": "30", "address": "54 ST. PAUL'S CRESCENT", "city": "BARRIE", "province": "ON", "country": "CA", "postalCode": "L9J0E2", "twitter": "None", "instagram": "None", "facebook": "None", "youtube": "None", "website": "None", "summary": "None", "logo": "None", "latitude": 44.34854490873462, "longitude": -79.62556804831615}, "131513897RR0001": {"name": "ST PAUL'S CHURCH", "designationCode": "C", "categoryCode": "30", "address": "588 MAIN ST.", "city": "BURY", "province": "QC", "country": "CA", "postalCode": "J0B1J0", "twitter": "None", "instagram": "None", "facebook": "None", "youtube": "None", "website": "None", "summary": "None", "logo": "None", "latitude": 45.47339445657562, "longitude": -71.49951944018697}, "131895997RR0001": {"name": "ST PAUL'S CHURCH", "designationCode": "C", "categoryCode": "30", "address": "POST BOX 1471", "city": "BIGGAR", "province": "SK", "country": "CA", "postalCode": "S0K0M0", "twitter": "None", "instagram": "None", "facebook": "None", "youtube": "None", "website": "None", "summary": "None", "logo": "None", "latitude": 52.065150000000074, "longitude": -107.99375999999995}, "131900813RR0002": {"name": "ST PAUL'S CHURCH", "designationCode": "C", "categoryCode": "30", "address": "830 NORTH DRIVE", "city": "WINNIPEG", "province": "MB", "country": "CA", "postalCode": "R3T0A6", "twitter": "None", "instagram": "None", "facebook": "None", "youtube": "None", "website": "None", "summary": "None", "logo": "None", "latitude": 49.847187091048774, "longitude": -97.14721860206173}, "132098088RR0002": {"name": "ST PAUL'S CHURCH", "designationCode": "C", "categoryCode": "30", "address": "1749 ARGYLE STREET", "city": "HALIFAX", "province": "NS", "country": "CA", "postalCode": "B3J3K4", "twitter": "None", "instagram": "None", "facebook": "None", "youtube": "None", "website": "None", "summary": "None", "logo": "None", "latitude": 44.64767405639334, "longitude": -63.57504879099566}, "133069062RR0001": {"name": "ST PAUL'S CHURCH", "designationCode": "C", "categoryCode": "30", "address": "PO BOX 673", "city": "UXBRIDGE", "province": "ON", "country": "CA", "postalCode": "L9P1N1", "twitter": "None", "instagram": "None", "facebook": "None", "youtube": "None", "website": "None", "summary": "None", "logo": "None", "latitude": 44.10619800000005, "longitude": -79.12382299999993}, "134869247RR0002": {"name": "ST PAUL'S CHURCH", "designationCode": "C", "categoryCode": "30", "address": "PO BOX 347", "city": "MANITOWANING", "province": "ON", "country": "CA", "postalCode": "P0P1N0", "twitter": "None", "instagram": "None", "facebook": "None", "youtube": "None", "website": "None", "summary": "None", "logo": "None", "latitude": 45.975226935529044, "longitude": -81.92327500984123}, "134971480RR0002": {"name": "ST PAUL'S CHURCH", "designationCode": "C", "categoryCode": "30", "address": "18 DOLSON ROAD", "city": "CHATHAM", "province": "ON", "country": "CA", "postalCode": "N7M5C4", "twitter": "None", "instagram": "None", "facebook": "None", "youtube": "None", "website": "None", "summary": "None", "logo": "None", "latitude": 42.393744231461795, "longitude": -82.16704033432384}, "872519764RR0001": {"name": "ST PAUL'S CHURCH", "designationCode": "C", "categoryCode": "30", "address": "195 INDIAN POINT RD", "city": "GLEN HAVEN", "province": "NS", "country": "CA", "postalCode": "B3Z2S1", "twitter": "None", "instagram": "None", "facebook": "None", "youtube": "None", "website": "None", "summary": "None", "logo": "None", "latitude": 44.646387501586524, "longitude": -63.91929357951985}, "887532463RR0001": {"name": "ST PAUL'S CHURCH", "designationCode": "C", "categoryCode": "30", "address": "37107 HWY 816", "city": "RED DEER COUNTY", "province": "AB", "country": "CA", "postalCode": "T0M1R0", "twitter": "None", "instagram": "None", "facebook": "None", "youtube": "None", "website": "None", "summary": "None", "logo": "None", "latitude": 52.15739992785279, "longitude": -113.50470494154624}, "887765238RR0001": {"name": "ST PAUL'S CHURCH", "designationCode": "C", "categoryCode": "30", "address": "92 ST PAUL'S STREET", "city": "ESSEX", "province": "ON", "country": "CA", "postalCode": "N8M1C5", "twitter": "None", "instagram": "None", "facebook": "None", "youtube": "None", "website": "None", "summary": "None", "logo": "None", "latitude": 42.170355492600684, "longitude": -82.81841207352578}, "888592862RR0001": {"name": "ST PAUL'S CHURCH", "designationCode": "C", "categoryCode": "30", "address": "201 ROUTE 132", "city": "SHIGAWAKE", "province": "QC", "country": "CA", "postalCode": "G0C3E0", "twitter": "None", "instagram": "None", "facebook": "None", "youtube": "None", "website": "None", "summary": "None", "logo": "None", "latitude": 48.09560925809419, "longitude": -65.07203150498144}, "890109242RR0001": {"name": "ST PAUL'S CHURCH", "designationCode": "C", "categoryCode": "30", "address": "P.O. BOX 83", "city": "MINDEN", "province": "ON", "country": "CA", "postalCode": "K0M2K0", "twitter": "None", "instagram": "None", "facebook": "None", "youtube": "None", "website": "None", "summary": "None", "logo": "None", "latitude": 45.00243600000006, "longitude": -78.58882699999994}, "890354467RR0001": {"name": "ST PAUL'S CHURCH", "designationCode": "C", "categoryCode": "30", "address": "PO BOX 10", "city": "SENLAC", "province": "SK", "country": "CA", "postalCode": "S0L2Y0", "twitter": "None", "instagram": "None", "facebook": "None", "youtube": "None", "website": "None", "summary": "None", "logo": "None", "latitude": 52.48345000000006, "longitude": -109.70150999999998}, "891352189RR0001": {"name": "ST PAUL'S CHURCH", "designationCode": "C", "categoryCode": "30", "address": "1127 DUNANY ROAD", "city": "LACHUTE", "province": "QC", "country": "CA", "postalCode": "J8H3W8", "twitter": "None", "instagram": "None", "facebook": "None", "youtube": "None", "website": "None", "summary": "None", "logo": "None", "latitude": 45.738483296150896, "longitude": -74.3151861201743}, "892822164RR0001": {"name": "ST PAUL'S CHURCH", "designationCode": "C", "categoryCode": "30", "address": "BOX 221", "city": "PHILIPSBURG", "province": "QC", "country": "CA", "postalCode": "J0J1N0", "twitter": "None", "instagram": "None", "facebook": "None", "youtube": "None", "website": "None", "summary": "None", "logo": "None", "latitude": 45.084535235192014, "longitude": -73.02525611817462}, "129464509RR0001": {"name": "ST PAUL'S CHURCH BROCKVILLE", "designationCode": "C", "categoryCode": "30", "address": "12 PINE STREET", "city": "BROCKVILLE", "province": "ON", "country": "CA", "postalCode": "K6V1E8", "twitter": "None", "instagram": "None", "facebook": "None", "youtube": "None", "website": "None", "summary": "None", "logo": "None", "latitude": 44.59108111219273, "longitude": -75.6843231093748}, "119194561RR0002": {"name": "ST PAUL'S CHURCH SIX NATIONS RESERVE WEST PARISH", "designationCode": "C", "categoryCode": "30", "address": "881 SOUR SPRINGS RD           RR 6", "city": "HAGERSVILLE", "province": "ON", "country": "CA", "postalCode": "N0A1H0", "twitter": "None", "instagram": "None", "facebook": "None", "youtube": "None", "website": "None", "summary": "None", "logo": "None", "latitude": 42.96624567435869, "longitude": -80.04526476987148}, "119195469RR0001": {"name": "ST PAUL'S COLLEGE", "designationCode": "C", "categoryCode": "20", "address": "ROOM#214-70 DYSART ROAD", "city": "WINNIPEG", "province": "MB", "country": "CA", "postalCode": "R3T2M6", "twitter": "None", "instagram": "None", "facebook": "None", "youtube": "None", "website": "None", "summary": "None", "logo": "None", "latitude": 49.810639227249546, "longitude": -97.13869105614901}, "869129932RR0001": {"name": "ST PAUL'S COLLEGE FOUNDATION INC", "designationCode": "A", "categoryCode": "23", "address": "70 DYSART ROAD", "city": "WINNIPEG", "province": "MB", "country": "CA", "postalCode": "R3T2M6", "twitter": "None", "instagram": "None", "facebook": "None", "youtube": "None", "website": "None", "summary": "None", "logo": "None", "latitude": 49.810639227249546, "longitude": -97.13869105614901}, "119195477RR0001": {"name": "ST PAUL'S COLUMBUS ANGLICAN CEMETERY", "designationCode": "C", "categoryCode": "59", "address": "106 WINCHESTER RD E", "city": "WHITBY", "province": "ON", "country": "CA", "postalCode": "L1M1C6", "twitter": "None", "instagram": "None", "facebook": "None", "youtube": "None", "website": "None", "summary": "None", "logo": "None", "latitude": 43.95550322733552, "longitude": -78.95250781002936}, "127773711RR0001": {"name": "ST PAUL'S CONGREGATIONAL CHURCH (CHATHAM, ONTARIO)", "designationCode": "C", "categoryCode": "47", "address": "450 PARK AVENUE WEST", "city": "CHATHAM", "province": "ON", "country": "CA", "postalCode": "N7M1X2", "twitter": "None", "instagram": "None", "facebook": "None", "youtube": "None", "website": "None", "summary": "None", "logo": "None", "latitude": 42.38626949815369, "longitude": -82.192587154539}, "879701225RR0001": {"name": "ST PAUL'S CONTINUING CARE FOUNDATION", "designationCode": "C", "categoryCode": "09", "address": "96 EMPRESS AVE", "city": "OTTAWA", "province": "ON", "country": "CA", "postalCode": "K1R7G3", "twitter": "None", "instagram": "None", "facebook": "None", "youtube": "None", "website": "None", "summary": "None", "logo": "None", "latitude": 45.411189077702204, "longitude": -75.70929188902963}, "887992246RR0001": {"name": "ST PAUL'S CRUSADER FOUNDATION INC", "designationCode": "A", "categoryCode": "23", "address": "2200 GRANT AVENUE", "city": "WINNIPEG", "province": "MB", "country": "CA", "postalCode": "R3P0P8", "twitter": "None", "instagram": "None", "facebook": "None", "youtube": "None", "website": "None", "summary": "None", "logo": "None", "latitude": 49.8575826621564, "longitude": -97.22658762173216}, "119195535RR0001": {"name": "ST PAUL'S ESTONIAN LUTHERAN CHURCH", "designationCode": "C", "categoryCode": "32", "address": "32 ROBERTSON PLACE", "city": "ST. CATHARINES", "province": "ON", "country": "CA", "postalCode": "L2P3G1", "twitter": "None", "instagram": "None", "facebook": "None", "youtube": "None", "website": "None", "summary": "None", "logo": "None", "latitude": 43.16490320457025, "longitude": -79.21121502856498}, "119195543RR0001": {"name": "ST PAUL'S ESTONIAN LUTHERAN CHURCH", "designationCode": "C", "categoryCode": "32", "address": "87 CLIFTON CRESCENT", "city": "LONDON", "province": "ON", "country": "CA", "postalCode": "N6C3V9", "twitter": "None", "instagram": "None", "facebook": "None", "youtube": "None", "website": "None", "summary": "None", "logo": "None", "latitude": 42.94368375076462, "longitude": -81.24290626115194}, "119195550RR0001": {"name": "ST PAUL'S EVANGELICAL LUTHERAN CHURCH", "designationCode": "C", "categoryCode": "32", "address": "1720 DECARIE BLVD", "city": "VILLE ST-LAURENT", "province": "QC", "country": "CA", "postalCode": "H4L3N3", "twitter": "None", "instagram": "None", "facebook": "None", "youtube": "None", "website": "None", "summary": "None", "logo": "None", "latitude": 45.52006909795729, "longitude": -73.69187719888609}, "119195592RR0001": {"name": "ST PAUL'S EVANGELICAL LUTHERAN CHURCH", "designationCode": "C", "categoryCode": "32", "address": "R R # 5", "city": "MILDMAY", "province": "ON", "country": "CA", "postalCode": "N0G2J0", "twitter": "None", "instagram": "None", "facebook": "None", "youtube": "None", "website": "None", "summary": "None", "logo": "None", "latitude": 44.05249500000005, "longitude": -81.18683449999993}, "119195600RR0001": {"name": "ST PAUL'S EVANGELICAL LUTHERAN CHURCH", "designationCode": "C", "categoryCode": "32", "address": "544 BRIDGEPORT RD E", "city": "KITCHENER", "province": "ON", "country": "CA", "postalCode": "N2K1N7", "twitter": "None", "instagram": "None", "facebook": "None", "youtube": "None", "website": "None", "summary": "None", "logo": "None", "latitude": 43.47650096283668, "longitude": -80.48505641690211}, "119195626RR0001": {"name": "ST PAUL'S EVANGELICAL LUTHERAN CHURCH", "designationCode": "C", "categoryCode": "32", "address": "BOX 928", "city": "HANNA", "province": "AB", "country": "CA", "postalCode": "T0J1P0", "twitter": "None", "instagram": "None", "facebook": "None", "youtube": "None", "website": "None", "summary": "None", "logo": "None", "latitude": 51.64780345530559, "longitude": -111.93814762829588}, "119195782RR0001": {"name": "ST PAUL'S EVANGELICAL LUTHERAN CHURCH", "designationCode": "C", "categoryCode": "32", "address": "25 PHOENIX ST", "city": "BRIDGEWATER", "province": "NS", "country": "CA", "postalCode": "B4V2H6", "twitter": "None", "instagram": "None", "facebook": "None", "youtube": "None", "website": "None", "summary": "None", "logo": "None", "latitude": 44.37571211933757, "longitude": -64.51863665777032}, "123234239RR0001": {"name": "ST PAUL'S EVANGELICAL LUTHERAN CHURCH", "designationCode": "C", "categoryCode": "32", "address": "5485 VICTORIA AVENUE", "city": "NIAGARA FALLS", "province": "ON", "country": "CA", "postalCode": "L2G3L3", "twitter": "None", "instagram": "None", "facebook": "None", "youtube": "None", "website": "None", "summary": "None", "logo": "None", "latitude": 43.09503204662704, "longitude": -79.07278907761528}, "129835773RR0001": {"name": "ST PAUL'S EVANGELICAL LUTHERAN CHURCH", "designationCode": "C", "categoryCode": "32", "address": "132 CHARLES STREET", "city": "PORT HOPE", "province": "ON", "country": "CA", "postalCode": "L1A1T3", "twitter": "None", "instagram": "None", "facebook": "None", "youtube": "None", "website": "None", "summary": "None", "logo": "None", "latitude": 43.95105909244603, "longitude": -78.31074950903103}, "129893707RR0001": {"name": "ST PAUL'S EVANGELICAL LUTHERAN CHURCH", "designationCode": "C", "categoryCode": "32", "address": "12145 LAITY STREET", "city": "MAPLE RIDGE", "province": "BC", "country": "CA", "postalCode": "V2X5A7", "twitter": "None", "instagram": "None", "facebook": "None", "youtube": "None", "website": "None", "summary": "None", "logo": "None", "latitude": 49.22307000000001, "longitude": -122.63186355334946}, "131220196RR0001": {"name": "ST PAUL'S EVANGELICAL LUTHERAN CHURCH, ELLICE TOWNSHIP", "designationCode": "C", "categoryCode": "32", "address": "RR 1                          911# 5196 RD 130", "city": "BRUNNER", "province": "ON", "country": "CA", "postalCode": "N0K1C0", "twitter": "None", "instagram": "None", "facebook": "None", "youtube": "None", "website": "None", "summary": "None", "logo": "None", "latitude": 43.49708657825316, "longitude": -80.96917743039857}, "119196079RR0001": {"name": "ST PAUL'S EVANGELICAL LUTHERAN CONGREGATION OF DAWSON CREEK, BRITISH COLUMBIA", "designationCode": "C", "categoryCode": "32", "address": "PO BOX 2066", "city": "DAWSON CREEK", "province": "BC", "country": "CA", "postalCode": "V1G4K8", "twitter": "None", "instagram": "None", "facebook": "None", "youtube": "None", "website": "None", "summary": "None", "logo": "None", "latitude": 55.76171100000006, "longitude": -120.23704249999994}, "873052492RR0001": {"name": "ST PAUL'S EVANGELICAL MISSIONARY CHURCH", "designationCode": "C", "categoryCode": "39", "address": "BOX 54", "city": "ROSTHERN", "province": "SK", "country": "CA", "postalCode": "S0K3R0", "twitter": "None", "instagram": "None", "facebook": "None", "youtube": "None", "website": "None", "summary": "None", "logo": "None", "latitude": 52.663230000000055, "longitude": -106.32952999999998}, "869389346RR0001": {"name": "ST PAUL'S FOUNDATION (EDMONTON)", "designationCode": "A", "categoryCode": "09", "address": "11526 - 76 AVENUE", "city": "EDMONTON", "province": "AB", "country": "CA", "postalCode": "T6G0K7", "twitter": "None", "instagram": "None", "facebook": "None", "youtube": "None", "website": "None", "summary": "None", "logo": "None", "latitude": 53.51229246047075, "longitude": -113.530824}, "119195683RR0001": {"name": "ST PAUL'S HIGH SCHOOL INC.", "designationCode": "C", "categoryCode": "20", "address": "2200 GRANT AVENUE", "city": "WINNIPEG", "province": "MB", "country": "CA", "postalCode": "R3P0P8", "twitter": "None", "instagram": "None", "facebook": "None", "youtube": "None", "website": "None", "summary": "None", "logo": "None", "latitude": 49.8575826621564, "longitude": -97.22658762173216}, "119195691RR0001": {"name": "ST PAUL'S HOSPITAL FOUNDATION INC", "designationCode": "A", "categoryCode": "13", "address": "1702 20TH ST WEST", "city": "SASKATOON", "province": "SK", "country": "CA", "postalCode": "S7M0Z9", "twitter": "None", "instagram": "None", "facebook": "None", "youtube": "None", "website": "None", "summary": "None", "logo": "None", "latitude": 52.1262570279705, "longitude": -106.696215}, "119195725RR0001": {"name": "ST PAUL'S INDIAN CHURCH PRESERVATION TRUST FUND", "designationCode": "C", "categoryCode": "52", "address": "443 WINDSOR RD E", "city": "NORTH VANCOUVER", "province": "BC", "country": "CA", "postalCode": "V7N1K4", "twitter": "None", "instagram": "None", "facebook": "None", "youtube": "None", "website": "None", "summary": "None", "logo": "None", "latitude": 49.338305488458815, "longitude": -123.0639824701656}, "119195741RR0001": {"name": "ST PAUL'S L'AMOREAUX CENTRE", "designationCode": "C", "categoryCode": "01", "address": "3333 FINCH AVE. EAST", "city": "SCARBOROUGH", "province": "ON", "country": "CA", "postalCode": "M1W2R9", "twitter": "None", "instagram": "None", "facebook": "None", "youtube": "None", "website": "None", "summary": "None", "logo": "None", "latitude": 43.796452162329274, "longitude": -79.31696211030655}, "892290560RR0001": {"name": "ST PAUL'S LODGE NO 374 CHARITY TRUST", "designationCode": "A", "categoryCode": "05", "address": "1212, PINE AVENUE,WEST,APT.902", "city": "MONTREAL", "province": "QC", "country": "CA", "postalCode": "H3G1A9", "twitter": "None", "instagram": "None", "facebook": "None", "youtube": "None", "website": "None", "summary": "None", "logo": "None", "latitude": 45.50292600000006, "longitude": -73.58340499999993}, "119195790RR0001": {"name": "ST PAUL'S LUTHERAN CHURCH", "designationCode": "C", "categoryCode": "32", "address": "BOX 11 163 BRIDGE ST", "city": "DENBIGH", "province": "ON", "country": "CA", "postalCode": "K0H1L0", "twitter": "None", "instagram": "None", "facebook": "None", "youtube": "None", "website": "None", "summary": "None", "logo": "None", "latitude": 45.139121848985724, "longitude": -77.2742750032652}, "119195816RR0001": {"name": "ST PAUL'S LUTHERAN CHURCH", "designationCode": "C", "categoryCode": "32", "address": "10131 BAYVIEW AVE", "city": "RICHMOND HILL", "province": "ON", "country": "CA", "postalCode": "L4C2L4", "twitter": "None", "instagram": "None", "facebook": "None", "youtube": "None", "website": "None", "summary": "None", "logo": "None", "latitude": 43.87927282070518, "longitude": -79.41623694538113}, "119195824RR0001": {"name": "ST PAUL'S LUTHERAN CHURCH", "designationCode": "C", "categoryCode": "32", "address": "1424 DAVENPORT RD", "city": "TORONTO", "province": "ON", "country": "CA", "postalCode": "M6H2H8", "twitter": "None", "instagram": "None", "facebook": "None", "youtube": "None", "website": "None", "summary": "None", "logo": "None", "latitude": 43.67267613240797, "longitude": -79.44250914821967}, "119195857RR0001": {"name": "ST PAUL'S LUTHERAN CHURCH", "designationCode": "C", "categoryCode": "32", "address": "210 SILVERCREEK PKWY N", "city": "GUELPH", "province": "ON", "country": "CA", "postalCode": "N1H7P8", "twitter": "None", "instagram": "None", "facebook": "None", "youtube": "None", "website": "None", "summary": "None", "logo": "None", "latitude": 43.54254165857837, "longitude": -80.28405165090273}, "119195907RR0001": {"name": "ST PAUL'S LUTHERAN CHURCH", "designationCode": "C", "categoryCode": "32", "address": "BOX 7", "city": "MAGNETAWAN", "province": "ON", "country": "CA", "postalCode": "P0A1P0", "twitter": "None", "instagram": "None", "facebook": "None", "youtube": "None", "website": "None", "summary": "None", "logo": "None", "latitude": 45.63884400000006, "longitude": -79.72022599999994}, "119195949RR0001": {"name": "ST PAUL'S LUTHERAN CHURCH", "designationCode": "C", "categoryCode": "32", "address": "BOX 400", "city": "MELVILLE", "province": "SK", "country": "CA", "postalCode": "S0A2P0", "twitter": "None", "instagram": "None", "facebook": "None", "youtube": "None", "website": "None", "summary": "None", "logo": "None", "latitude": 50.87164886256234, "longitude": -103.09293300498788}, "119195980RR0001": {"name": "ST PAUL'S LUTHERAN CHURCH", "designationCode": "C", "categoryCode": "32", "address": "BOX 801                       SECRETARY TREASURER", "city": "BROADVIEW", "province": "SK", "country": "CA", "postalCode": "S0G0K0", "twitter": "None", "instagram": "None", "facebook": "None", "youtube": "None", "website": "None", "summary": "None", "logo": "None", "latitude": 50.37871200000005, "longitude": -102.57909199999993}, "119196087RR0001": {"name": "ST PAUL'S LUTHERAN CHURCH", "designationCode": "C", "categoryCode": "32", "address": "460 MCBRIDE ST", "city": "PRINCE RUPERT", "province": "BC", "country": "CA", "postalCode": "V8J3G2", "twitter": "None", "instagram": "None", "facebook": "None", "youtube": "None", "website": "None", "summary": "None", "logo": "None", "latitude": 54.313906935599356, "longitude": -130.31900552971882}, "128379666RR0001": {"name": "ST PAUL'S LUTHERAN CHURCH", "designationCode": "C", "categoryCode": "32", "address": "394 SHEPHERD AVENUE", "city": "NANAIMO", "province": "BC", "country": "CA", "postalCode": "V9R3X1", "twitter": "None", "instagram": "None", "facebook": "None", "youtube": "None", "website": "None", "summary": "None", "logo": "None", "latitude": 49.15912500000002, "longitude": -123.95100145891288}, "128729928RR0001": {"name": "ST PAUL'S LUTHERAN CHURCH", "designationCode": "C", "categoryCode": "32", "address": "505 WALLACE AVE N", "city": "LISTOWEL", "province": "ON", "country": "CA", "postalCode": "N4W1L8", "twitter": "None", "instagram": "None", "facebook": "None", "youtube": "None", "website": "None", "summary": "None", "logo": "None", "latitude": 43.735983306422696, "longitude": -80.94970859481197}, "131506305RR0001": {"name": "ST PAUL'S LUTHERAN CHURCH", "designationCode": "C", "categoryCode": "32", "address": "210 WILBROD STREET", "city": "OTTAWA", "province": "ON", "country": "CA", "postalCode": "K1N6L5", "twitter": "None", "instagram": "None", "facebook": "None", "youtube": "None", "website": "None", "summary": "None", "logo": "None", "latitude": 45.426099029949974, "longitude": -75.68400949636467}, "131621807RR0001": {"name": "ST PAUL'S LUTHERAN CHURCH", "designationCode": "C", "categoryCode": "32", "address": "BOX 704", "city": "HINES CREEK", "province": "AB", "country": "CA", "postalCode": "T0H2A0", "twitter": "None", "instagram": "None", "facebook": "None", "youtube": "None", "website": "None", "summary": "None", "logo": "None", "latitude": 56.24589996667458, "longitude": -118.60465996667448}, "132003401RR0001": {"name": "ST PAUL'S LUTHERAN CHURCH", "designationCode": "C", "categoryCode": "32", "address": "19 WELLINGTON ST.             BOX 244", "city": "TAVISTOCK", "province": "ON", "country": "CA", "postalCode": "N0B2R0", "twitter": "None", "instagram": "None", "facebook": "None", "youtube": "None", "website": "None", "summary": "None", "logo": "None", "latitude": 43.32190953751828, "longitude": -80.83159665970723}, "890857998RR0001": {"name": "ST PAUL'S LUTHERAN CHURCH", "designationCode": "C", "categoryCode": "32", "address": "44 RIFE AVE", "city": "CAMBRIDGE", "province": "ON", "country": "CA", "postalCode": "N3C2G5", "twitter": "None", "instagram": "None", "facebook": "None", "youtube": "None", "website": "None", "summary": "None", "logo": "None", "latitude": 43.42919071106246, "longitude": -80.3053976230885}, "891462244RR0001": {"name": "ST PAUL'S LUTHERAN CHURCH", "designationCode": "C", "categoryCode": "32", "address": "BOX 204", "city": "WADENA", "province": "SK", "country": "CA", "postalCode": "S0A4J0", "twitter": "None", "instagram": "None", "facebook": "None", "youtube": "None", "website": "None", "summary": "None", "logo": "None", "latitude": 51.94407000000007, "longitude": -103.79973999999999}, "119196103RR0001": {"name": "ST PAUL'S LUTHERAN CHURCH, WALLACE TOWNSHIP", "designationCode": "C", "categoryCode": "32", "address": "505 WALLACE AVE. N.", "city": "LISTOWEL", "province": "ON", "country": "CA", "postalCode": "N4W1L8", "twitter": "None", "instagram": "None", "facebook": "None", "youtube": "None", "website": "None", "summary": "None", "logo": "None", "latitude": 43.735983306422696, "longitude": -80.94970859481197}, "119196111RR0001": {"name": "ST PAUL'S ON-THE-HILL ANGLICAN CHURCH", "designationCode": "C", "categoryCode": "30", "address": "882 KINGSTON ROAD", "city": "PICKERING", "province": "ON", "country": "CA", "postalCode": "L1V1A8", "twitter": "None", "instagram": "None", "facebook": "None", "youtube": "None", "website": "None", "summary": "None", "logo": "None", "latitude": 43.82325998035049, "longitude": -79.10804912245331}, "119196194RR0001": {"name": "ST PAUL'S PARISH", "designationCode": "C", "categoryCode": "38", "address": "PO BOX 205", "city": "VIBANK", "province": "SK", "country": "CA", "postalCode": "S0G4Y0", "twitter": "None", "instagram": "None", "facebook": "None", "youtube": "None", "website": "None", "summary": "None", "logo": "None", "latitude": 50.33337000000006, "longitude": -103.93436999999994}}