{"119100444RR0001": {"name": "PRESBYTERIAN WOMEN'S MISSIONARY SOCIETY, WESTERN DIVISION", "designationCode": "C", "categoryCode": "47", "address": "245539 SOUTHGATE RD 24 RR 1", "city": "PROTON", "province": "ON", "country": "CA", "postalCode": "N0C1L0", "twitter": "None", "instagram": "None", "facebook": "None", "youtube": "None", "website": "None", "summary": "None", "logo": "None", "latitude": 44.15422123603726, "longitude": -80.55529977906039}, "119100501RR0001": {"name": "PRESBYTERIAN WOMEN'S MISSIONARY SOCIETY, WESTERN DIVISION", "designationCode": "C", "categoryCode": "47", "address": "42774 NEWRY RD., R.R.#3", "city": "BRUSSELS", "province": "ON", "country": "CA", "postalCode": "N0G1H0", "twitter": "None", "instagram": "None", "facebook": "None", "youtube": "None", "website": "None", "summary": "None", "logo": "None", "latitude": 43.7443450596719, "longitude": -81.2429147348882}, "119100592RR0001": {"name": "PRESBYTERIAN WOMEN'S MISSIONARY SOCIETY, WESTERN DIVISION", "designationCode": "C", "categoryCode": "47", "address": "P.O. BOX 74", "city": "TIVERTON", "province": "ON", "country": "CA", "postalCode": "N0G2T0", "twitter": "None", "instagram": "None", "facebook": "None", "youtube": "None", "website": "None", "summary": "None", "logo": "None", "latitude": 44.267900000000054, "longitude": -81.54410999999999}, "119100626RR0001": {"name": "PRESBYTERIAN WOMEN'S MISSIONARY SOCIETY, WESTERN DIVISION", "designationCode": "C", "categoryCode": "47", "address": "1063  WELLINGTON ST.", "city": "PORT ELGIN", "province": "ON", "country": "CA", "postalCode": "N0H2C3", "twitter": "None", "instagram": "None", "facebook": "None", "youtube": "None", "website": "None", "summary": "None", "logo": "None", "latitude": 44.44543303468183, "longitude": -81.3767026565009}, "119100865RR0001": {"name": "PRESBYTERIAN WOMEN'S MISSIONARY SOCIETY, WESTERN DIVISION", "designationCode": "C", "categoryCode": "47", "address": "PO BOX 1037 371 GEM AVE", "city": "PETROLIA", "province": "ON", "country": "CA", "postalCode": "N0N1R0", "twitter": "None", "instagram": "None", "facebook": "None", "youtube": "None", "website": "None", "summary": "None", "logo": "None", "latitude": 42.88460517346644, "longitude": -82.16018897547438}, "119100881RR0001": {"name": "PRESBYTERIAN WOMEN'S MISSIONARY SOCIETY, WESTERN DIVISION", "designationCode": "C", "categoryCode": "47", "address": "P.O. BOX 93", "city": "DRESDEN", "province": "ON", "country": "CA", "postalCode": "N0P1M0", "twitter": "None", "instagram": "None", "facebook": "None", "youtube": "None", "website": "None", "summary": "None", "logo": "None", "latitude": 42.58952000000005, "longitude": -82.17963999999995}, "119101087RR0001": {"name": "PRESBYTERIAN WOMEN'S MISSIONARY SOCIETY, WESTERN DIVISION", "designationCode": "C", "categoryCode": "47", "address": "164 GRAND RIVER NORTH", "city": "PARIS", "province": "ON", "country": "CA", "postalCode": "N3L2M6", "twitter": "None", "instagram": "None", "facebook": "None", "youtube": "None", "website": "None", "summary": "None", "logo": "None", "latitude": 43.19669317623642, "longitude": -80.38489814643067}, "119101160RR0001": {"name": "PRESBYTERIAN WOMEN'S MISSIONARY SOCIETY, WESTERN DIVISION", "designationCode": "C", "categoryCode": "47", "address": "220 LIVINGSTONE AVENUE N.", "city": "LISTOWEL", "province": "ON", "country": "CA", "postalCode": "N4W1P9", "twitter": "None", "instagram": "None", "facebook": "None", "youtube": "None", "website": "None", "summary": "None", "logo": "None", "latitude": 43.73364918331856, "longitude": -80.95462583435094}, "886276393RR0001": {"name": "PRESBYTERIAN WOMEN'S MISSIONARY SOCIETY, WESTERN DIVISION", "designationCode": "C", "categoryCode": "47", "address": "9 SECOND STREET", "city": "BEETON", "province": "ON", "country": "CA", "postalCode": "L0G1A0", "twitter": "None", "instagram": "None", "facebook": "None", "youtube": "None", "website": "None", "summary": "None", "logo": "None", "latitude": 44.085966170696494, "longitude": -79.787448358561}, "887407286RR0001": {"name": "PRESBYTERIAN WOMEN'S MISSIONARY SOCIETY, WESTERN DIVISION", "designationCode": "C", "categoryCode": "47", "address": "16769 22 SIDEROAD", "city": "GEORGETOWN", "province": "ON", "country": "CA", "postalCode": "L7G4S7", "twitter": "None", "instagram": "None", "facebook": "None", "youtube": "None", "website": "None", "summary": "None", "logo": "None", "latitude": 43.69256376781092, "longitude": -79.91817570772997}, "887898260RR0001": {"name": "PRESBYTERIAN WOMEN'S MISSIONARY SOCIETY, WESTERN DIVISION", "designationCode": "C", "categoryCode": "47", "address": "1081 MILNE RD                 RR #3", "city": "BRACEBRIDGE", "province": "ON", "country": "CA", "postalCode": "P1L1X1", "twitter": "None", "instagram": "None", "facebook": "None", "youtube": "None", "website": "None", "summary": "None", "logo": "None", "latitude": 45.0075120663339, "longitude": -79.10676674202203}, "888513447RR0001": {"name": "PRESBYTERIAN WOMEN'S MISSIONARY SOCIETY, WESTERN DIVISION", "designationCode": "C", "categoryCode": "47", "address": "363 MACK AVE", "city": "SARNIA", "province": "ON", "country": "CA", "postalCode": "N7T3P7", "twitter": "None", "instagram": "None", "facebook": "None", "youtube": "None", "website": "None", "summary": "None", "logo": "None", "latitude": 42.961920436460304, "longitude": -82.38830460041568}, "888674264RR0001": {"name": "PRESBYTERIAN WOMEN'S MISSIONARY SOCIETY, WESTERN DIVISION", "designationCode": "C", "categoryCode": "47", "address": "1063 ST CLAIR PARKWAY", "city": "MOORETOWN", "province": "ON", "country": "CA", "postalCode": "N0N1M0", "twitter": "None", "instagram": "None", "facebook": "None", "youtube": "None", "website": "None", "summary": "None", "logo": "None", "latitude": 42.84806387180428, "longitude": -82.46319461515304}, "888800596RR0001": {"name": "PRESBYTERIAN WOMEN'S MISSIONARY SOCIETY, WESTERN DIVISION", "designationCode": "C", "categoryCode": "47", "address": "251 CARLUKE RD W.", "city": "ANCASTER", "province": "ON", "country": "CA", "postalCode": "L9G3L1", "twitter": "None", "instagram": "None", "facebook": "None", "youtube": "None", "website": "None", "summary": "None", "logo": "None", "latitude": 43.146492293409615, "longitude": -79.97742659951516}, "889913794RR0001": {"name": "PRESBYTERIAN WOMEN'S MISSIONARY SOCIETY, WESTERN DIVISION", "designationCode": "C", "categoryCode": "47", "address": "278 CAMELOT STREET", "city": "THUNDER BAY", "province": "ON", "country": "CA", "postalCode": "P7A4B4", "twitter": "None", "instagram": "None", "facebook": "None", "youtube": "None", "website": "None", "summary": "None", "logo": "None", "latitude": 48.43829530143102, "longitude": -89.22111086398534}, "890040397RR0001": {"name": "PRESBYTERIAN WOMEN'S MISSIONARY SOCIETY, WESTERN DIVISION", "designationCode": "C", "categoryCode": "47", "address": "52 ALHART DRIVE", "city": "ETOBICOKE", "province": "ON", "country": "CA", "postalCode": "M9V2N3", "twitter": "None", "instagram": "None", "facebook": "None", "youtube": "None", "website": "None", "summary": "None", "logo": "None", "latitude": 43.734510176265076, "longitude": -79.55327639676258}, "890431190RR0001": {"name": "PRESBYTERIAN WOMEN'S MISSIONARY SOCIETY, WESTERN DIVISION", "designationCode": "C", "categoryCode": "47", "address": "1837 6TH AVE E", "city": "OWEN SOUND", "province": "ON", "country": "CA", "postalCode": "N4K2W1", "twitter": "None", "instagram": "None", "facebook": "None", "youtube": "None", "website": "None", "summary": "None", "logo": "None", "latitude": 44.579553894800675, "longitude": -80.93023604824317}, "891187379RR0001": {"name": "PRESBYTERIAN WOMEN'S MISSIONARY SOCIETY, WESTERN DIVISION", "designationCode": "C", "categoryCode": "47", "address": "80 DANIEL ST. N", "city": "ARNPRIOR", "province": "ON", "country": "CA", "postalCode": "K7S2K8", "twitter": "None", "instagram": "None", "facebook": "None", "youtube": "None", "website": "None", "summary": "None", "logo": "None", "latitude": 45.4319876245852, "longitude": -76.35439639630306}, "893114843RR0001": {"name": "PRESBYTERIAN WOMEN'S MISSIONARY SOCIETY, WESTERN DIVISION", "designationCode": "C", "categoryCode": "47", "address": "34 SHAUNAOON HTS. CRES.", "city": "DON MILLS", "province": "ON", "country": "CA", "postalCode": "M3A2P4", "twitter": "None", "instagram": "None", "facebook": "None", "youtube": "None", "website": "None", "summary": "None", "logo": "None", "latitude": 43.74771964060229, "longitude": -79.31579355926476}, "893698266RR0001": {"name": "PRESBYTERIAN WOMEN'S MISSIONARY SOCIETY, WESTERN DIVISION", "designationCode": "C", "categoryCode": "47", "address": "3844 MIDDLE LINE              RR 1", "city": "TILBURY", "province": "ON", "country": "CA", "postalCode": "N0P2L0", "twitter": "None", "instagram": "None", "facebook": "None", "youtube": "None", "website": "None", "summary": "None", "logo": "None", "latitude": 42.25582153895234, "longitude": -82.38725341479599}, "119101202RR0001": {"name": "PRESBYTERIAN WOMEN'S MISSIONARY SOCIETY, WESTERN DIVISION AFTERNOON AUXILIARY, KNOX PRESBYTERIAN CHURCH", "designationCode": "C", "categoryCode": "47", "address": "42260 SOUTHDALE LINE", "city": "ST THOMAS", "province": "ON", "country": "CA", "postalCode": "N5R1B8", "twitter": "None", "instagram": "None", "facebook": "None", "youtube": "None", "website": "None", "summary": "None", "logo": "None", "latitude": 42.75008486535982, "longitude": -81.20086047686401}, "890120199RR0001": {"name": "PRESBYTERIAN WOMEN'S MISSIONARY SOCIETY, WESTERN DIVISION ANNIE PURVES EVENING AUXILIARY ST PAUL'S PRESBYTERIAN CHURCH", "designationCode": "C", "categoryCode": "47", "address": "415 - 155 TORONTO RD", "city": "PORT HOPE", "province": "ON", "country": "CA", "postalCode": "L1A4A1", "twitter": "None", "instagram": "None", "facebook": "None", "youtube": "None", "website": "None", "summary": "None", "logo": "None", "latitude": 43.958978588983584, "longitude": -78.32128495083413}, "891653644RR0001": {"name": "PRESBYTERIAN WOMEN'S MISSIONARY SOCIETY, WESTERN DIVISION AUXILIARY, ESSA RD PRESBYTERIAN CHURCH", "designationCode": "C", "categoryCode": "47", "address": "59 ESSA RD", "city": "BARRIE", "province": "ON", "country": "CA", "postalCode": "L4N3K4", "twitter": "None", "instagram": "None", "facebook": "None", "youtube": "None", "website": "None", "summary": "None", "logo": "None", "latitude": 44.37221363640305, "longitude": -79.69201776851915}, "119101061RR0001": {"name": "PRESBYTERIAN WOMEN'S MISSIONARY SOCIETY, WESTERN DIVISION BRANTFORD CENTRAL AFTERNOON, CENTRAL PRESBYTERIAN CHURCH", "designationCode": "C", "categoryCode": "47", "address": "17 SYMPATICA CRES.            APT. #412", "city": "BRANTFORD", "province": "ON", "country": "CA", "postalCode": "N3P1K8", "twitter": "None", "instagram": "None", "facebook": "None", "youtube": "None", "website": "None", "summary": "None", "logo": "None", "latitude": 43.1771539527247, "longitude": -80.22853584335815}, "119099448RR0001": {"name": "PRESBYTERIAN WOMEN'S MISSIONARY SOCIETY, WESTERN DIVISION CANNINGTON AUXILIARY, CANNINGTON PRESBYTERIAN CHURCH", "designationCode": "C", "categoryCode": "47", "address": "72 BEAVER RIDGE DR.", "city": "CANNINGTON", "province": "ON", "country": "CA", "postalCode": "L0E1E0", "twitter": "None", "instagram": "None", "facebook": "None", "youtube": "None", "website": "None", "summary": "None", "logo": "None", "latitude": 44.35142228036588, "longitude": -79.04246553881616}, "890632987RR0001": {"name": "PRESBYTERIAN WOMEN'S MISSIONARY SOCIETY, WESTERN DIVISION EVE. AUXILIARY, PRESBYTERIAN CHURCH", "designationCode": "C", "categoryCode": "47", "address": "2229 JACK CRES", "city": "INNISFIL", "province": "ON", "country": "CA", "postalCode": "L9S2C7", "twitter": "None", "instagram": "None", "facebook": "None", "youtube": "None", "website": "None", "summary": "None", "logo": "None", "latitude": 44.32429239494491, "longitude": -79.54461793438725}, "890034192RR0001": {"name": "PRESBYTERIAN WOMEN'S MISSIONARY SOCIETY, WESTERN DIVISION KARS AUX ST ANDREW'S PRESBYTERIAN CHURCH", "designationCode": "C", "categoryCode": "47", "address": "20 HARVARD AVENUE", "city": "OTTAWA", "province": "ON", "country": "CA", "postalCode": "K1S4Z3", "twitter": "None", "instagram": "None", "facebook": "None", "youtube": "None", "website": "None", "summary": "None", "logo": "None", "latitude": 45.39006597279134, "longitude": -75.68054109299429}, "119101418RR0001": {"name": "PRESBYTERIAN WOMEN'S MISSIONARY SOCIETY, WESTERN DIVISION LADIES AID AFFILIATED, VICTORIA PRESBYTERIAN CHURCH", "designationCode": "C", "categoryCode": "47", "address": "33 ARIZONA AVE", "city": "SAULT STE. MARIE", "province": "ON", "country": "CA", "postalCode": "P6A4L7", "twitter": "None", "instagram": "None", "facebook": "None", "youtube": "None", "website": "None", "summary": "None", "logo": "None", "latitude": 46.51685648124546, "longitude": -84.2813235}, "119100550RR0001": {"name": "PRESBYTERIAN WOMEN'S MISSIONARY SOCIETY, WESTERN DIVISION MOUNT FOREST AFTERNOON AUXILIARY, ST. ANDREW'S PRESBYTERIAN CHURCH", "designationCode": "C", "categoryCode": "47", "address": "1-155 COLCLEUGH AVENUE", "city": "MOUNT FOREST", "province": "ON", "country": "CA", "postalCode": "N0G2L1", "twitter": "None", "instagram": "None", "facebook": "None", "youtube": "None", "website": "None", "summary": "None", "logo": "None", "latitude": 43.979477575336276, "longitude": -80.74081902986305}, "889555173RR0001": {"name": "PRESBYTERIAN WOMEN'S MISSIONARY SOCIETY, WESTERN DIVISION SR AUXILIARY, OROWILLIS PRESBYTERIAN CHURCH", "designationCode": "C", "categoryCode": "47", "address": "RR # 4                        382 HORSESHOE VALLEY ROAD E", "city": "COLDWATER", "province": "ON", "country": "CA", "postalCode": "L0K1E0", "twitter": "None", "instagram": "None", "facebook": "None", "youtube": "None", "website": "None", "summary": "None", "logo": "None", "latitude": 44.58626965622109, "longitude": -79.59308789103838}, "889050795RR0001": {"name": "PRESBYTERIAN WOMEN'S MISSIONARY SOCIETY, WESTERN DIVISION ST MARY'S FRIENDSHIP AUX.,ST MARY'S PRESBYTERIAN CHURCH", "designationCode": "C", "categoryCode": "47", "address": "PO BOX 833 STN MAIN", "city": "ST MARYS", "province": "ON", "country": "CA", "postalCode": "N4X1B5", "twitter": "None", "instagram": "None", "facebook": "None", "youtube": "None", "website": "None", "summary": "None", "logo": "None", "latitude": 43.25948700000005, "longitude": -81.14143399999993}, "119101749RR0001": {"name": "PRESBYTERIAN WOMEN'S MISSIONARY SOCIETY, WESTERN DIVISION ST. ANDREW'S PRESBYTERIAN CHURCH WOMEN'S MISSIONARY SOCIETY AUXILIARY", "designationCode": "C", "categoryCode": "47", "address": "1136 6TH AVENUE", "city": "KAMLOOPS", "province": "BC", "country": "CA", "postalCode": "V2C3S1", "twitter": "None", "instagram": "None", "facebook": "None", "youtube": "None", "website": "None", "summary": "None", "logo": "None", "latitude": 50.6675443411045, "longitude": -120.32728680226775}, "887592061RR0001": {"name": "PRESBYTERIAN WOMEN'S MISSIONARY SOCIETY, WESTERN DIVISION WALLACE AUX KNOX PRESBYTERIAN CHURCH", "designationCode": "C", "categoryCode": "47", "address": "220 LIVINGSTON AVENUE N.", "city": "LISTOWEL", "province": "ON", "country": "CA", "postalCode": "N4W1P9", "twitter": "None", "instagram": "None", "facebook": "None", "youtube": "None", "website": "None", "summary": "None", "logo": "None", "latitude": 43.73364918331856, "longitude": -80.95462583435094}, "119101806RR0001": {"name": "PRESBYTERIAN WOMEN'S MISSIONARY SOCIETY, WESTERN DIVISION WEST POINT GREY EVENING AFFILIATE, WEST POINT GREY PRESBYTERIAN CURCH", "designationCode": "C", "categoryCode": "47", "address": "4397 WEST 12 AVE", "city": "VANCOUVER", "province": "BC", "country": "CA", "postalCode": "V6R2P9", "twitter": "None", "instagram": "None", "facebook": "None", "youtube": "None", "website": "None", "summary": "None", "logo": "None", "latitude": 49.26197151875454, "longitude": -123.20595038773155}, "119101954RR0001": {"name": "PRESBYTERIAN WOMEN'S MISSIONARY SOCIETY, WESTERN DIVISION WINGHAM EVENING AUXILIARY", "designationCode": "C", "categoryCode": "47", "address": "BOX 1335", "city": "WINGHAM", "province": "ON", "country": "CA", "postalCode": "N0G2W0", "twitter": "None", "instagram": "None", "facebook": "None", "youtube": "None", "website": "None", "summary": "None", "logo": "None", "latitude": 43.88924000000003, "longitude": -81.31057999999996}, "890495591RR0001": {"name": "PRESBYTERIAN WOMEN'S MISSIONARY SOCIETY, WESTERN DIVISION YOUNG WOMEN'S EVENING AUXILIARY, AVONTON PRESBYTERIAN CHURCH", "designationCode": "C", "categoryCode": "47", "address": "PROPERTY 4704,LINE 26 R.R.2", "city": "ST PAUL'S", "province": "ON", "country": "CA", "postalCode": "N0K1V0", "twitter": "None", "instagram": "None", "facebook": "None", "youtube": "None", "website": "None", "summary": "None", "logo": "None", "latitude": 43.51877700000006, "longitude": -79.71154999999993}, "894399062RR0001": {"name": "PRESBYTERIAN WOMEN'S MISSIONARY SOCIETY, WESTERN DIVISION,", "designationCode": "C", "categoryCode": "47", "address": "6225 GODFREY AV.", "city": "MONTREAL", "province": "QC", "country": "CA", "postalCode": "H4B1K3", "twitter": "None", "instagram": "None", "facebook": "None", "youtube": "None", "website": "None", "summary": "None", "logo": "None", "latitude": 45.46801143992717, "longitude": -73.6268170673435}, "890730245RR0001": {"name": "PRESBYTERIAN WOMEN'S MISSIONARY SOCIETY, WESTERN DIVISION, AFTERNOON AUXILIARY, THORNHILL PRESYTERIAN CHURCH", "designationCode": "C", "categoryCode": "47", "address": "271 CENTRE ST", "city": "THORNILL", "province": "ON", "country": "CA", "postalCode": "L4J1G5", "twitter": "None", "instagram": "None", "facebook": "None", "youtube": "None", "website": "None", "summary": "None", "logo": "None", "latitude": 43.814358884760054, "longitude": -79.43350697166615}, "119099620RR0001": {"name": "PRESBYTERIAN WOMEN'S MISSIONARY SOCIETY, WESTERN DIVISION, AUXILIARY", "designationCode": "C", "categoryCode": "47", "address": "143 ST CATHARINES STREET", "city": "SMITHVILLE", "province": "ON", "country": "CA", "postalCode": "L0R2A0", "twitter": "None", "instagram": "None", "facebook": "None", "youtube": "None", "website": "None", "summary": "None", "logo": "None", "latitude": 43.09732552541965, "longitude": -79.54434856714194}, "119106565RR0001": {"name": "PRESBYTERIAN WOMEN'S MISSIONARY SOCIETY, WESTERN DIVISION, AUXILIARY, ST. ANDREW'S PRESBYTERIAN CHURCH", "designationCode": "C", "categoryCode": "47", "address": "P.O. BOX 441                  ST. ANDREW'S PRESBYTERIAN CHUR", "city": "NIAGARA-ON-THE-LAKE", "province": "ON", "country": "CA", "postalCode": "L0S1J0", "twitter": "None", "instagram": "None", "facebook": "None", "youtube": "None", "website": "None", "summary": "None", "logo": "None", "latitude": 43.24913408462734, "longitude": -79.08841112593042}, "894091065RR0001": {"name": "PRESBYTERIAN WOMEN'S MISSIONARY SOCIETY, WESTERN DIVISION, AUXILIARY, UXBRIDGE PRESBYTERIAN CHURCH", "designationCode": "C", "categoryCode": "47", "address": "40B TORONTO STREET S.", "city": "UXBRIDGE", "province": "ON", "country": "CA", "postalCode": "L9P1G9", "twitter": "None", "instagram": "None", "facebook": "None", "youtube": "None", "website": "None", "summary": "None", "logo": "None", "latitude": 44.10757469937528, "longitude": -79.12309536710247}, "890885460RR0001": {"name": "PRESBYTERIAN WOMEN'S MISSIONARY SOCIETY, WESTERN DIVISION, BEAMSVILLE W M S AUXILIARY, ST. ANDREW'S PRESBYTERIAN CHURCH", "designationCode": "C", "categoryCode": "47", "address": "4521 CEDARBROOK LN", "city": "BEAMSVILLE", "province": "ON", "country": "CA", "postalCode": "L0R1B5", "twitter": "None", "instagram": "None", "facebook": "None", "youtube": "None", "website": "None", "summary": "None", "logo": "None", "latitude": 43.17693018096828, "longitude": -79.47952952536234}, "889876447RR0001": {"name": "PRESBYTERIAN WOMEN'S MISSIONARY SOCIETY, WESTERN DIVISION, BEATRICE SCOTT EVENIN", "designationCode": "C", "categoryCode": "47", "address": "BOX 1239", "city": "PORT ELGIN", "province": "ON", "country": "CA", "postalCode": "N0H2C0", "twitter": "None", "instagram": "None", "facebook": "None", "youtube": "None", "website": "None", "summary": "None", "logo": "None", "latitude": 44.43698400000005, "longitude": -81.38664349999993}, "892048448RR0001": {"name": "PRESBYTERIAN WOMEN'S MISSIONARY SOCIETY, WESTERN DIVISION, BESSIE MACMURCY AFFILIATE, KNOX PRESBYTERIAN CHURCH", "designationCode": "C", "categoryCode": "47", "address": "656 INKERMAN ST E", "city": "LISTOWEL", "province": "ON", "country": "CA", "postalCode": "N4W2P1", "twitter": "None", "instagram": "None", "facebook": "None", "youtube": "None", "website": "None", "summary": "None", "logo": "None", "latitude": 43.72915373059135, "longitude": -80.94439156164519}, "119099232RR0001": {"name": "PRESBYTERIAN WOMEN'S MISSIONARY SOCIETY, WESTERN DIVISION, BOBCAYGEON AUXILIARY, BOBCAYGEON PRESBYTERIAN CHURCH", "designationCode": "C", "categoryCode": "47", "address": "155 FRONT STREET WEST         POST OFFICE BOX 1286", "city": "BOBCAYGEON", "province": "ON", "country": "CA", "postalCode": "K0M1A0", "twitter": "None", "instagram": "None", "facebook": "None", "youtube": "None", "website": "None", "summary": "None", "logo": "None", "latitude": 44.53719114351647, "longitude": -78.55351895074722}, "892164161RR0001": {"name": "PRESBYTERIAN WOMEN'S MISSIONARY SOCIETY, WESTERN DIVISION, EVENING AUXILIARY, BURN'S CHURCH", "designationCode": "C", "categoryCode": "47", "address": "3060 LITTLE IRELAND ROAD      RR1", "city": "ALVINSTON", "province": "ON", "country": "CA", "postalCode": "N0N1A0", "twitter": "None", "instagram": "None", "facebook": "None", "youtube": "None", "website": "None", "summary": "None", "logo": "None", "latitude": 42.80933694754458, "longitude": -81.93733607501915}, "892522442RR0001": {"name": "PRESBYTERIAN WOMEN'S MISSIONARY SOCIETY, WESTERN DIVISION, FIRST CHURCH EVENING AUXILIARY, FIRST PRESBYTERIAN CHURCH", "designationCode": "C", "categoryCode": "47", "address": "419 - 490 LINDENWOOD DR E", "city": "WINNIPEG", "province": "MB", "country": "CA", "postalCode": "R3P0Y5", "twitter": "None", "instagram": "None", "facebook": "None", "youtube": "None", "website": "None", "summary": "None", "logo": "None", "latitude": 49.83780732399078, "longitude": -97.18296366704037}, "892302969RR0001": {"name": "PRESBYTERIAN WOMEN'S MISSIONARY SOCIETY, WESTERN DIVISION, GRACE FELLOWSHIP ASSOCIATION, GRACE PRESBYTERIAN CHURCH", "designationCode": "C", "categoryCode": "47", "address": "1009-15 AVE SW", "city": "CALGARY", "province": "AB", "country": "CA", "postalCode": "T2R0S5", "twitter": "None", "instagram": "None", "facebook": "None", "youtube": "None", "website": "None", "summary": "None", "logo": "None", "latitude": 51.039137495672186, "longitude": -114.08490386081135}, "119106516RR0001": {"name": "PRESBYTERIAN WOMEN'S MISSIONARY SOCIETY, WESTERN DIVISION, HELEN BLAIR AFTERNOON AUXILIARY OF ST. ANDREW'S PRESBYTERIAN CHURCH", "designationCode": "C", "categoryCode": "47", "address": "67 VICTORIA AVE", "city": "BELLEVILLE", "province": "ON", "country": "CA", "postalCode": "K8N2A1", "twitter": "None", "instagram": "None", "facebook": "None", "youtube": "None", "website": "None", "summary": "None", "logo": "None", "latitude": 44.16721489312725, "longitude": -77.38201687440136}, "119100659RR0001": {"name": "PRESBYTERIAN WOMEN'S MISSIONARY SOCIETY, WESTERN DIVISION, KNOX AFTERNOON, KNOX PRESBYTERIAN CHURCH", "designationCode": "C", "categoryCode": "47", "address": "RR 1 #375852 RD. 37", "city": "EMBRO", "province": "ON", "country": "CA", "postalCode": "N0J1J0", "twitter": "None", "instagram": "None", "facebook": "None", "youtube": "None", "website": "None", "summary": "None", "logo": "None", "latitude": 43.19365027480425, "longitude": -80.91975622677876}, "891700445RR0001": {"name": "PRESBYTERIAN WOMEN'S MISSIONARY SOCIETY, WESTERN DIVISION, KNOX CAMPBELL AFTERNOON AUXILIARY", "designationCode": "C", "categoryCode": "47", "address": "59 RIDDELL ST.", "city": "WOODSTOCK", "province": "ON", "country": "CA", "postalCode": "N4S6M2", "twitter": "None", "instagram": "None", "facebook": "None", "youtube": "None", "website": "None", "summary": "None", "logo": "None", "latitude": 43.131935147931216, "longitude": -80.75737766362735}, "891619066RR0001": {"name": "PRESBYTERIAN WOMEN'S MISSIONARY SOCIETY, WESTERN DIVISION, LLAWRIE CORMACK EVENNING AUXILIARY, KNOX PRESBYTERIAN CHURCH", "designationCode": "C", "categoryCode": "47", "address": "147 SIMCOE ST N", "city": "OSHAWA", "province": "ON", "country": "CA", "postalCode": "L1H6S1", "twitter": "None", "instagram": "None", "facebook": "None", "youtube": "None", "website": "None", "summary": "None", "logo": "None", "latitude": 43.9014821693115, "longitude": -78.8653372766752}, "119098796RR0001": {"name": "PRESBYTERIAN WOMEN'S MISSIONARY SOCIETY, WESTERN DIVISION, MITCHELL AFTERNOON AUXILIARY, KNOX PRESBYTERIAN CHURCH", "designationCode": "C", "categoryCode": "47", "address": "RR 2                          3953 RD 160", "city": "MITCHELL", "province": "ON", "country": "CA", "postalCode": "N0K1N0", "twitter": "None", "instagram": "None", "facebook": "None", "youtube": "None", "website": "None", "summary": "None", "logo": "None", "latitude": 43.454882138873145, "longitude": -81.17929713290408}, "119099539RR0001": {"name": "PRESBYTERIAN WOMEN'S MISSIONARY SOCIETY, WESTERN DIVISION, SENIOR AUXILIARY, ESSON PRESBYTERIAN CHURCH", "designationCode": "C", "categoryCode": "47", "address": "42 LINE 11 N                  RR#1", "city": "HAWKESTONE", "province": "ON", "country": "CA", "postalCode": "L0L1T0", "twitter": "None", "instagram": "None", "facebook": "None", "youtube": "None", "website": "None", "summary": "None", "logo": "None", "latitude": 44.50818279578051, "longitude": -79.47724474419597}, "892177163RR0001": {"name": "PRESBYTERIAN WOMEN'S MISSIONARY SOCIETY, WESTERN DIVISION, SIMCOE MISSION CIRCLE, EVENING, ST. PAUL'S PRESBYTERIAN CHURCH", "designationCode": "C", "categoryCode": "47", "address": "62 CRESTLYNN CRESCENT", "city": "SIMCOE", "province": "ON", "country": "CA", "postalCode": "N3Y4X3", "twitter": "None", "instagram": "None", "facebook": "None", "youtube": "None", "website": "None", "summary": "None", "logo": "None", "latitude": 42.845913051907175, "longitude": -80.28781738550984}, "834702367RR0001": {"name": "PRESBYTERIAN WOMEN'S MISSIONARY SOCIETY, WESTERN DIVISION, SOUTH KINLOSS AFTERNOON AUXILIARY, SOUTH KINLOSS PRESBYTERIAN CHURCH", "designationCode": "C", "categoryCode": "47", "address": "PO BOX 288", "city": "LUCKNOW", "province": "ON", "country": "CA", "postalCode": "N0G2H0", "twitter": "None", "instagram": "None", "facebook": "None", "youtube": "None", "website": "None", "summary": "None", "logo": "None", "latitude": 43.908877358915426, "longitude": -81.55752636962617}, "891020794RR0001": {"name": "PRESBYTERIAN WOMEN'S MISSIONARY SOCIETY, WESTERN DIVISION, SST. ST JOHN'S AFTERNOON AUXILIARY, ST. JOHN'S PRESBYTERIAN CHURCH", "designationCode": "C", "categoryCode": "47", "address": "1480 GEORGE ST.", "city": "WHITE ROCK", "province": "BC", "country": "CA", "postalCode": "V4B4A3", "twitter": "None", "instagram": "None", "facebook": "None", "youtube": "None", "website": "None", "summary": "None", "logo": "None", "latitude": 49.02885883236195, "longitude": -122.79975955658172}, "119099687RR0001": {"name": "PRESBYTERIAN WOMEN'S MISSIONARY SOCIETY, WESTERN DIVISION, STAMFORD AUXILIARY, STAMFORD PRESBYTERIAN CHURCH", "designationCode": "C", "categoryCode": "47", "address": "3121 ST.PAUL AVE", "city": "NIAGARA FALLS", "province": "ON", "country": "CA", "postalCode": "L2J2L8", "twitter": "None", "instagram": "None", "facebook": "None", "youtube": "None", "website": "None", "summary": "None", "logo": "None", "latitude": 43.127433419095155, "longitude": -79.10005866475252}, "890434996RR0001": {"name": "PRESBYTERIAN WOMEN'S MISSIONARY, WESTERN DIVISION, AFTERNOON AUXILIARY, RICHMOND HILL PRESYTERIAN CHURCH", "designationCode": "C", "categoryCode": "47", "address": "818-309 MAJOR MACKENZIE DR E", "city": "RICHMOND HILL", "province": "ON", "country": "CA", "postalCode": "L4C9V5", "twitter": "None", "instagram": "None", "facebook": "None", "youtube": "None", "website": "None", "summary": "None", "logo": "None", "latitude": 43.87394419450405, "longitude": -79.42509084870134}, "119102044RR0001": {"name": "PRESBYTERIAN WOMENS MISSIONARY SOCIETY WESTERN DIVISION", "designationCode": "C", "categoryCode": "47", "address": "RR1, 37130 ZION ROAD", "city": "LUCKNOW", "province": "ON", "country": "CA", "postalCode": "N0G2H0", "twitter": "None", "instagram": "None", "facebook": "None", "youtube": "None", "website": "None", "summary": "None", "logo": "None", "latitude": 43.99555200000006, "longitude": -81.49588549999993}, "107856783RR0002": {"name": "PRESBYTERIAN WOMENS MISSIONARY SOCIETY, WESTERN DIVISION", "designationCode": "C", "categoryCode": "47", "address": "50 WYNFORD DRIVE", "city": "NORTH YORK", "province": "ON", "country": "CA", "postalCode": "M3C1J7", "twitter": "None", "instagram": "None", "facebook": "None", "youtube": "None", "website": "None", "summary": "None", "logo": "None", "latitude": 43.72435963310046, "longitude": -79.3345945359799}, "119098549RR0001": {"name": "PRESBYTERIAN WOMENS MISSIONARY SOCIETY, WESTERN DIVISION, DR. MARGARET O'HARA RENFREW PRESBYTERIAN CHURCH", "designationCode": "C", "categoryCode": "47", "address": "460 RAGLAN ST.S", "city": "RENFREW", "province": "ON", "country": "CA", "postalCode": "K7V1R8", "twitter": "None", "instagram": "None", "facebook": "None", "youtube": "None", "website": "None", "summary": "None", "logo": "None", "latitude": 45.467904146833845, "longitude": -76.67977350866455}, "873227920RR0001": {"name": "PRESBYTERIAN WOMENS MISSIONARY SOCIETY, WESTERN DIVISION, ST. ANDREW'S AUCILIARY, ST. ANDREW'S PRESBYTERIAN CHURCH", "designationCode": "C", "categoryCode": "47", "address": "82 KENT ST", "city": "OTTAWA", "province": "ON", "country": "CA", "postalCode": "K1P5N6", "twitter": "None", "instagram": "None", "facebook": "None", "youtube": "None", "website": "None", "summary": "None", "logo": "None", "latitude": 45.42053552011089, "longitude": -75.70369847962932}, "888703394RR0001": {"name": "PRESBYTERIAN WOMENS TWEEDSMUIR PRESBYTERIAN CHURCH", "designationCode": "C", "categoryCode": "47", "address": "6 JOHN STREET", "city": "ORANGEVILLE", "province": "ON", "country": "CA", "postalCode": "L9W2Z7", "twitter": "None", "instagram": "None", "facebook": "None", "youtube": "None", "website": "None", "summary": "None", "logo": "None", "latitude": 43.91783547343659, "longitude": -80.09841716603556}, "852264670RR0001": {"name": "PRESBYTERIANS AIDING NICARAGUANS", "designationCode": "A", "categoryCode": "47", "address": "BOX 11", "city": "ARTHUR", "province": "ON", "country": "CA", "postalCode": "N0G1A0", "twitter": "None", "instagram": "None", "facebook": "None", "youtube": "None", "website": "None", "summary": "None", "logo": "None", "latitude": 44.05516430804911, "longitude": -80.92867545949541}, "893614289RR0001": {"name": "PRESBYTERY OF BRAMPTON", "designationCode": "C", "categoryCode": "37", "address": "1695 LINCOLNSHIRE BLVD", "city": "MISSISSAUGA", "province": "ON", "country": "CA", "postalCode": "L5E2T2", "twitter": "None", "instagram": "None", "facebook": "None", "youtube": "None", "website": "None", "summary": "None", "logo": "None", "latitude": 43.602007714957615, "longitude": -79.55854973024971}, "119102143RR0001": {"name": "PRESBYTERY OF CALGARY MACLEOD", "designationCode": "C", "categoryCode": "37", "address": "4612 VARSITY DR NW", "city": "CALGARY", "province": "AB", "country": "CA", "postalCode": "T3A1V7", "twitter": "None", "instagram": "None", "facebook": "None", "youtube": "None", "website": "None", "summary": "None", "logo": "None", "latitude": 51.093059321686134, "longitude": -114.15301773674192}, "897887550RR0001": {"name": "PRESBYTERY OF CENTRAL ALBERTA", "designationCode": "C", "categoryCode": "37", "address": "RR # 3", "city": "ECKVILLE", "province": "AB", "country": "CA", "postalCode": "T0M0X0", "twitter": "None", "instagram": "None", "facebook": "None", "youtube": "None", "website": "None", "summary": "None", "logo": "None", "latitude": 52.35955800000005, "longitude": -114.36146449999993}, "119102150RR0001": {"name": "PRESBYTERY OF EAST TORONTO", "designationCode": "C", "categoryCode": "37", "address": "152 FLOYD AVENUE", "city": "TORONTO", "province": "ON", "country": "CA", "postalCode": "M4K2B7", "twitter": "None", "instagram": "None", "facebook": "None", "youtube": "None", "website": "None", "summary": "None", "logo": "None", "latitude": 43.68731921622701, "longitude": -79.34914540106176}, "891514978RR0001": {"name": "PRESBYTERY OF EDMONTON-LAKELAND", "designationCode": "C", "categoryCode": "37", "address": "11249 75 AVENUE", "city": "EDMONTON", "province": "AB", "country": "CA", "postalCode": "T6G0H4", "twitter": "None", "instagram": "None", "facebook": "None", "youtube": "None", "website": "None", "summary": "None", "logo": "None", "latitude": 53.511276532315904, "longitude": -113.522454}, "890177181RR0001": {"name": "PRESBYTERY OF HURON-PERTH", "designationCode": "C", "categoryCode": "37", "address": "388 GLENDON RD", "city": "STRATFORD", "province": "ON", "country": "CA", "postalCode": "N5A6Y7", "twitter": "None", "instagram": "None", "facebook": "None", "youtube": "None", "website": "None", "summary": "None", "logo": "None", "latitude": 43.38272937448853, "longitude": -80.96656109362213}, "119102184RR0001": {"name": "PRESBYTERY OF KAMLOOPS", "designationCode": "C", "categoryCode": "37", "address": "ST GILES PRESBYTERIAN CHURCH  1500 EDMONTON STREET", "city": "PRINCE GEORGE", "province": "BC", "country": "CA", "postalCode": "V2M1X4", "twitter": "None", "instagram": "None", "facebook": "None", "youtube": "None", "website": "None", "summary": "None", "logo": "None", "latitude": 53.91009724144512, "longitude": -122.7643461907787}, "893218370RR0001": {"name": "PRESBYTERY OF KINGSTON", "designationCode": "C", "categoryCode": "37", "address": "1580 HOMEWARD AVE", "city": "KINGSTON", "province": "ON", "country": "CA", "postalCode": "K7M5N6", "twitter": "None", "instagram": "None", "facebook": "None", "youtube": "None", "website": "None", "summary": "None", "logo": "None", "latitude": 44.2325064532574, "longitude": -76.62820049999999}, "891781981RR0001": {"name": "PRESBYTERY OF LAMBTON-WEST MIDDLESEX", "designationCode": "C", "categoryCode": "37", "address": "709 - 340 WILLOWDALE CRES", "city": "SARNIA", "province": "ON", "country": "CA", "postalCode": "N7T7S8", "twitter": "None", "instagram": "None", "facebook": "None", "youtube": "None", "website": "None", "summary": "None", "logo": "None", "latitude": 42.9872971504108, "longitude": -82.39238534134063}, "107856825RR0001": {"name": "PRESBYTERY OF LONDON", "designationCode": "C", "categoryCode": "37", "address": "2543 CONCESSION DR.           RR#3", "city": "NEWBURY", "province": "ON", "country": "CA", "postalCode": "N0L1Z0", "twitter": "None", "instagram": "None", "facebook": "None", "youtube": "None", "website": "None", "summary": "None", "logo": "None", "latitude": 42.707170268105514, "longitude": -81.75766407853891}, "130790900RR0001": {"name": "PRESBYTERY OF MONTREAL- THE PRESBYTERIAN CHURCH IN CANADA", "designationCode": "C", "categoryCode": "37", "address": "3495 RUE UNIVERSITY", "city": "MONTREAL", "province": "QC", "country": "CA", "postalCode": "H3A2A8", "twitter": "None", "instagram": "None", "facebook": "None", "youtube": "None", "website": "None", "summary": "None", "logo": "None", "latitude": 45.50631208661767, "longitude": -73.57614760141975}, "119102218RR0001": {"name": "PRESBYTERY OF NORTHERN SASKATCHEWAN", "designationCode": "C", "categoryCode": "37", "address": "436 SPADINA CRES E", "city": "SASKATOON", "province": "SK", "country": "CA", "postalCode": "S7K3G6", "twitter": "None", "instagram": "None", "facebook": "None", "youtube": "None", "website": "None", "summary": "None", "logo": "None", "latitude": 52.1242552445322, "longitude": -106.66035816475252}, "119102226RR0001": {"name": "PRESBYTERY OF OTTAWA", "designationCode": "C", "categoryCode": "37", "address": "10 CHESTERTON DRIVE", "city": "OTTAWA", "province": "ON", "country": "CA", "postalCode": "K2E5S9", "twitter": "None", "instagram": "None", "facebook": "None", "youtube": "None", "website": "None", "summary": "None", "logo": "None", "latitude": 45.35309530417233, "longitude": -75.72942177855018}, "119102234RR0001": {"name": "PRESBYTERY OF PARIS", "designationCode": "C", "categoryCode": "37", "address": "95 BALDWIN AVENUE", "city": "BRANTFORD", "province": "ON", "country": "CA", "postalCode": "N3S1H9", "twitter": "None", "instagram": "None", "facebook": "None", "youtube": "None", "website": "None", "summary": "None", "logo": "None", "latitude": 43.12277638386509, "longitude": -80.25926656134222}, "890371198RR0001": {"name": "PRESBYTERY OF PEACE RIVER,", "designationCode": "C", "categoryCode": "37", "address": "10015-88 AVENUE", "city": "GRANDE PRAIRIE", "province": "AB", "country": "CA", "postalCode": "T8V0C5", "twitter": "None", "instagram": "None", "facebook": "None", "youtube": "None", "website": "None", "summary": "None", "logo": "None", "latitude": 55.15982851399403, "longitude": -118.79616222300768}, "119102275RR0001": {"name": "PRESBYTERY OF QUEBEC", "designationCode": "C", "categoryCode": "37", "address": "702 LAFONTAINE", "city": "THETFORD MINES", "province": "QC", "country": "CA", "postalCode": "G6G3J6", "twitter": "None", "instagram": "None", "facebook": "None", "youtube": "None", "website": "None", "summary": "None", "logo": "None", "latitude": 46.08966567773697, "longitude": -71.28272614181438}, "890761372RR0001": {"name": "PRESBYTERY OF SEAWAY-GLENGARRY", "designationCode": "C", "categoryCode": "37", "address": "5652 NORWEST COURT            RR1", "city": "WILLIAMSTOWN", "province": "ON", "country": "CA", "postalCode": "K0C2J0", "twitter": "None", "instagram": "None", "facebook": "None", "youtube": "None", "website": "None", "summary": "None", "logo": "None", "latitude": 45.11225752535308, "longitude": -74.67240097493078}, "892184649RR0001": {"name": "PRESBYTERY OF WATERLOO-WELLINGTON", "designationCode": "C", "categoryCode": "37", "address": "153 MARKSAM RD", "city": "GUELPH", "province": "ON", "country": "CA", "postalCode": "N1H7L1", "twitter": "None", "instagram": "None", "facebook": "None", "youtube": "None", "website": "None", "summary": "None", "logo": "None", "latitude": 43.53839562949379, "longitude": -80.28979289687815}, "119102317RR0001": {"name": "PRESBYTERY OF WESTMINSTER", "designationCode": "C", "categoryCode": "37", "address": "305-20011 56 AVE", "city": "LANGLEY", "province": "BC", "country": "CA", "postalCode": "V3A3Y3", "twitter": "None", "instagram": "None", "facebook": "None", "youtube": "None", "website": "None", "summary": "None", "logo": "None", "latitude": 49.10443031873892, "longitude": -122.6682800385289}, "119102333RR0001": {"name": "PRESCHOOL CENTRE ASSOCIATION", "designationCode": "C", "categoryCode": "01", "address": "80 CRAIGMILLAR AVENUE", "city": "ST JOHN'S", "province": "NL", "country": "CA", "postalCode": "A1E1Z8", "twitter": "None", "instagram": "None", "facebook": "None", "youtube": "None", "website": "None", "summary": "None", "logo": "None", "latitude": 47.54485174274318, "longitude": -52.72871088109511}, "107856908RR0001": {"name": "PRESCHOOL CENTRE INC.", "designationCode": "C", "categoryCode": "20", "address": "717 WINDSOR STREET", "city": "FREDERICTON", "province": "NB", "country": "CA", "postalCode": "E3B4G4", "twitter": "None", "instagram": "None", "facebook": "None", "youtube": "None", "website": "None", "summary": "None", "logo": "None", "latitude": 45.94770607660566, "longitude": -66.64477107022903}, "131984700RR0001": {"name": "PRESCOTT - RUSSELL CHURCH OF GOD", "designationCode": "C", "categoryCode": "39", "address": "271 COUNTY RD 19", "city": "WENDOVER", "province": "ON", "country": "CA", "postalCode": "K0A3K0", "twitter": "None", "instagram": "None", "facebook": "None", "youtube": "None", "website": "None", "summary": "None", "logo": "None", "latitude": 45.54799908213617, "longitude": -75.11418578700811}, "119288918RR0467": {"name": "PRESCOTT ONTARIO CONGREGATION OF JEHOVAH'S WITNESSES", "designationCode": "C", "categoryCode": "61", "address": "26 MARY ST  RR3", "city": "JOHNSTOWN", "province": "ON", "country": "CA", "postalCode": "K0E1T1", "twitter": "None", "instagram": "None", "facebook": "None", "youtube": "None", "website": "None", "summary": "None", "logo": "None", "latitude": 44.748747777107894, "longitude": -75.46718945992248}, "890102858RR0001": {"name": "PRESENCE AMIE DE LA MONTEREGIE", "designationCode": "C", "categoryCode": "09", "address": "1000 CHABOT", "city": "BELOEIL", "province": "QC", "country": "CA", "postalCode": "J3G4S5", "twitter": "None", "instagram": "None", "facebook": "None", "youtube": "None", "website": "None", "summary": "None", "logo": "None", "latitude": 45.59087805883208, "longitude": -73.28003181851213}, "104294954RR0001": {"name": "PRESENCE AMIE DU CENTRE HOSPITALIER FLEURY INC.", "designationCode": "C", "categoryCode": "19", "address": "2180 RUE FLEURY EST", "city": "MONTREAL", "province": "QC", "country": "CA", "postalCode": "H2B1K3", "twitter": "None", "instagram": "None", "facebook": "None", "youtube": "None", "website": "None", "summary": "None", "logo": "None", "latitude": 45.57188462225178, "longitude": -73.65057577280871}, "892266032RR0001": {"name": "PRESENCE LOTBINIERE", "designationCode": "C", "categoryCode": "09", "address": "1000 ST JOSEPH                CP 3", "city": "ST FLAVIEN", "province": "QC", "country": "CA", "postalCode": "G0S2M0", "twitter": "None", "instagram": "None", "facebook": "None", "youtube": "None", "website": "None", "summary": "None", "logo": "None", "latitude": 46.5336715553058, "longitude": -71.62454462307821}, "132003492RR0001": {"name": "PRESENCE MAGAZINE INC", "designationCode": "C", "categoryCode": "47", "address": "1340, BOUL. SAINT-JOSEPH E", "city": "MONTREAL", "province": "QC", "country": "CA", "postalCode": "H2J1M3", "twitter": "None", "instagram": "None", "facebook": "None", "youtube": "None", "website": "None", "summary": "None", "logo": "None", "latitude": 45.53273500998332, "longitude": -73.58173038799134}, "886817196RR0001": {"name": "PRESENCE RELIGIEUSE INTERCOMMUNAUTAIRE, P R I", "designationCode": "C", "categoryCode": "47", "address": "1350 BOUL. ST-JOSEPH EST", "city": "MONTREAL", "province": "QC", "country": "CA", "postalCode": "H2J1M3", "twitter": "None", "instagram": "None", "facebook": "None", "youtube": "None", "website": "None", "summary": "None", "logo": "None", "latitude": 45.53278403494163, "longitude": -73.58169036851565}, "897483046RR0001": {"name": "PRESENCE-FAMILLE ST-AUGUSTIN", "designationCode": "C", "categoryCode": "09", "address": "390 ROUTE 138                 C.P. 28", "city": "SAINT-AUGUSTIN", "province": "QC", "country": "CA", "postalCode": "G3A1V9", "twitter": "None", "instagram": "None", "facebook": "None", "youtube": "None", "website": "None", "summary": "None", "logo": "None", "latitude": 46.74254118601186, "longitude": -71.46458038495588}, "107857146RR0001": {"name": "PRESENTATION HOUSE CULTURAL SOCIETY", "designationCode": "C", "categoryCode": "22", "address": "333 CHESTERFIELD AVENUE", "city": "NORTH VANCOUVER", "province": "BC", "country": "CA", "postalCode": "V7M3G9", "twitter": "None", "instagram": "None", "facebook": "None", "youtube": "None", "website": "None", "summary": "None", "logo": "None", "latitude": 49.315075962452966, "longitude": -123.08000406235134}, "892463969RR0001": {"name": "PRESENTATION OF THE BLESSED VIRGIN MARY UKRAINIAN CATHOLIC PARISH", "designationCode": "C", "categoryCode": "38", "address": "R.R.#1", "city": "STAR", "province": "AB", "country": "CA", "postalCode": "T0B4E0", "twitter": "None", "instagram": "None", "facebook": "None", "youtube": "None", "website": "None", "summary": "None", "logo": "None", "latitude": 53.82654000000005, "longitude": -112.77755449999994}, "119102457RR0001": {"name": "PRESERVE OUR WRECKS (KINGSTON)", "designationCode": "C", "categoryCode": "52", "address": "4 - 53 YONGE ST", "city": "KINGSTON", "province": "ON", "country": "CA", "postalCode": "K7M6G4", "twitter": "None", "instagram": "None", "facebook": "None", "youtube": "None", "website": "None", "summary": "None", "logo": "None", "latitude": 44.21886772797069, "longitude": -76.51822502492965}, "868421546RR0001": {"name": "PRESIDENT'S CHOICE CHILDREN'S CHARITY/LA FONDATION POUR LES ENFANTS LE CHOIX DU PRESIDENT", "designationCode": "C", "categoryCode": "09", "address": "1 PRESIDENT'S CHOICE CIRCLE", "city": "BRAMPTON", "province": "ON", "country": "CA", "postalCode": "L6Y5S5", "twitter": "None", "instagram": "None", "facebook": "None", "youtube": "None", "website": "None", "summary": "None", "logo": "None", "latitude": 43.618767520630485, "longitude": -79.7688504276935}, "891486763RR0001": {"name": "PRESPATOU INDEPENDENT HOUSING SOCIETY", "designationCode": "C", "categoryCode": "01", "address": "PO BOX 12", "city": "ALTONA", "province": "BC", "country": "CA", "postalCode": "V0C2T0", "twitter": "None", "instagram": "None", "facebook": "None", "youtube": "None", "website": "None", "summary": "None", "logo": "None", "latitude": 56.88011892527613, "longitude": -120.9418110731823}, "119102473RR0001": {"name": "PRESSBURGER ASSOCIATION OF CANADA", "designationCode": "C", "categoryCode": "47", "address": "74 SHELBORNE AVE", "city": "TORONTO", "province": "ON", "country": "CA", "postalCode": "M5N1Z3", "twitter": "None", "instagram": "None", "facebook": "None", "youtube": "None", "website": "None", "summary": "None", "logo": "None", "latitude": 43.716623132407975, "longitude": -79.42610753886541}}