{"107032328RR0001": {"name": "DORVAL-STRATHMORE UNITED CHURCH", "designationCode": "C", "categoryCode": "44", "address": "310 BROOKHAVEN AVE", "city": "DORVAL", "province": "QC", "country": "CA", "postalCode": "H9S2N7", "twitter": "None", "instagram": "None", "facebook": "None", "youtube": "None", "website": "None", "summary": "None", "logo": "None", "latitude": 45.44489195031453, "longitude": -73.76914687569942}, "893488304RR0001": {"name": "DOUBLE VM BIBLE CAMP SOCIETY", "designationCode": "C", "categoryCode": "56", "address": "9904 KALAMALKA LAKE RD", "city": "VERNON", "province": "BC", "country": "CA", "postalCode": "V1B1L7", "twitter": "None", "instagram": "None", "facebook": "None", "youtube": "None", "website": "None", "summary": "None", "logo": "None", "latitude": 50.247048963404396, "longitude": -119.26322622643951}, "894056696RR0001": {"name": "DOUCEUR DE LUNE", "designationCode": "C", "categoryCode": "01", "address": "11865 BOUL DE L'ACADIE", "city": "MONTREAL", "province": "QC", "country": "CA", "postalCode": "H3M2T6", "twitter": "None", "instagram": "None", "facebook": "None", "youtube": "None", "website": "None", "summary": "None", "logo": "None", "latitude": 45.53964560395856, "longitude": -73.6924110360668}, "891270548RR0001": {"name": "DOUG PHILPOTT INNER-CITY CHILDREN'S TENNIS FUND", "designationCode": "C", "categoryCode": "09", "address": "119-660 EGLINTON AVE E        STE 320", "city": "TORONTO", "province": "ON", "country": "CA", "postalCode": "M4G2K2", "twitter": "None", "instagram": "None", "facebook": "None", "youtube": "None", "website": "None", "summary": "None", "logo": "None", "latitude": 43.7114745, "longitude": -79.3751355}, "897548681RR0001": {"name": "DOUGLAS AND TANYA MACLELLAN MEMORIAL AWARD", "designationCode": "C", "categoryCode": "21", "address": "32 HUGH ALLEN DR", "city": "DARTMOUTH", "province": "NS", "country": "CA", "postalCode": "B2W2K8", "twitter": "None", "instagram": "None", "facebook": "None", "youtube": "None", "website": "None", "summary": "None", "logo": "None", "latitude": 44.67485801664843, "longitude": -63.4959267623058}, "107033631RR0001": {"name": "DOUGLAS BAPTIST CHURCH", "designationCode": "C", "categoryCode": "31", "address": "1012 ROUTE 105 HIGHWAY", "city": "DOUGLAS", "province": "NB", "country": "CA", "postalCode": "E3G7J4", "twitter": "None", "instagram": "None", "facebook": "None", "youtube": "None", "website": "None", "summary": "None", "logo": "None", "latitude": 45.978423153702465, "longitude": -66.73475183049422}, "118887579RR0001": {"name": "DOUGLAS COLLEGE", "designationCode": "C", "categoryCode": "20", "address": "P.O. BOX 2503", "city": "NEW WESTMINSTER", "province": "BC", "country": "CA", "postalCode": "V3L5B2", "twitter": "None", "instagram": "None", "facebook": "None", "youtube": "None", "website": "None", "summary": "None", "logo": "None"}, "118887587RR0001": {"name": "DOUGLAS COLLEGE FOUNDATION", "designationCode": "A", "categoryCode": "23", "address": "PO BOX 2503", "city": "NEW WESTMINSTER", "province": "BC", "country": "CA", "postalCode": "V3L5B2", "twitter": "None", "instagram": "None", "facebook": "None", "youtube": "None", "website": "None", "summary": "None", "logo": "None", "latitude": 49.20705600000005, "longitude": -122.90841349999994}, "889091161RR0001": {"name": "DOUGLAS GOW TRUST", "designationCode": "B", "categoryCode": "45", "address": "130 KING ST W, 20TH FLOOR     PO BOX 430, STN FIRST CANADIAN", "city": "TORONTO", "province": "ON", "country": "CA", "postalCode": "M5X1K1", "twitter": "None", "instagram": "None", "facebook": "None", "youtube": "None", "website": "None", "summary": "None", "logo": "None", "latitude": 43.64826932503962, "longitude": -79.38190945606182}, "866731896RR0001": {"name": "DOUGLAS LAKE COMMUNITY CHURCH", "designationCode": "C", "categoryCode": "39", "address": "GENERAL DELIVERY", "city": "DOUGLAS LAKE", "province": "BC", "country": "CA", "postalCode": "V0E1S0", "twitter": "None", "instagram": "None", "facebook": "None", "youtube": "None", "website": "None", "summary": "None", "logo": "None", "latitude": 50.13413748602747, "longitude": -120.27140399167472}, "118887645RR0001": {"name": "DOUGLAS MEMORIAL HOSPITAL AUXILIARY", "designationCode": "A", "categoryCode": "19", "address": "230 BERTIE ST.", "city": "FORT ERIE", "province": "ON", "country": "CA", "postalCode": "L2A1Z2", "twitter": "None", "instagram": "None", "facebook": "None", "youtube": "None", "website": "None", "summary": "None", "logo": "None", "latitude": 42.91280324463976, "longitude": -78.92466827638631}, "107033375RR0001": {"name": "DOUGLAS MENNONITE CHURCH INC.", "designationCode": "C", "categoryCode": "34", "address": "1517 ROTHESAY ST", "city": "WINNIPEG", "province": "MB", "country": "CA", "postalCode": "R2G3G5", "twitter": "None", "instagram": "None", "facebook": "None", "youtube": "None", "website": "None", "summary": "None", "logo": "None", "latitude": 49.9459313743727, "longitude": -97.07193507680815}, "118887694RR0001": {"name": "DOUGLAS PARK COMMUNITY CENTRE ASSOCIATION", "designationCode": "C", "categoryCode": "56", "address": "801 WEST 22ND AVENUE", "city": "VANCOUVER", "province": "BC", "country": "CA", "postalCode": "V5Z1Z8", "twitter": "None", "instagram": "None", "facebook": "None", "youtube": "None", "website": "None", "summary": "None", "logo": "None", "latitude": 49.2517351993344, "longitude": -123.1226181142363}, "132001934RR0001": {"name": "DOUGLAS UNITED CHURCH", "designationCode": "C", "categoryCode": "44", "address": "P.O. BOX 24", "city": "DOUGLAS", "province": "MB", "country": "CA", "postalCode": "R0K0R0", "twitter": "None", "instagram": "None", "facebook": "None", "youtube": "None", "website": "None", "summary": "None", "logo": "None", "latitude": 49.89291000000003, "longitude": -99.71012999999999}, "809018112RR0001": {"name": "DOUGLAS WRIGHT FOUNDATION", "designationCode": "B", "categoryCode": "03", "address": "4000-199 BAY ST", "city": "TORONTO", "province": "ON", "country": "CA", "postalCode": "M5L1A9", "twitter": "None", "instagram": "None", "facebook": "None", "youtube": "None", "website": "None", "summary": "None", "logo": "None", "latitude": 43.64868300000006, "longitude": -79.38544399999994}, "873222111RR0001": {"name": "DOUGLASDALE MAINTENANCE ASSOCIATION", "designationCode": "C", "categoryCode": "59", "address": "145 DOUGLASBANK GREEN SE", "city": "CALGARY", "province": "AB", "country": "CA", "postalCode": "T2Z2C6", "twitter": "None", "instagram": "None", "facebook": "None", "youtube": "None", "website": "None", "summary": "None", "logo": "None", "latitude": 50.947963794073445, "longitude": -114.01009583348711}, "870227998RR0001": {"name": "DOUKHOBOR HERITAGE RETREAT SOCIETY #1999", "designationCode": "C", "categoryCode": "59", "address": "PO BOX 3701", "city": "CASTLEGAR", "province": "BC", "country": "CA", "postalCode": "V1N3W4", "twitter": "None", "instagram": "None", "facebook": "None", "youtube": "None", "website": "None", "summary": "None", "logo": "None", "latitude": 49.296228000000056, "longitude": -117.65424049999993}, "118887736RR0001": {"name": "DOUKHOBOR SOCIETY OF SASKATOON", "designationCode": "C", "categoryCode": "39", "address": "525 AVE I SO", "city": "SASKATOON", "province": "SK", "country": "CA", "postalCode": "S7M1Y6", "twitter": "None", "instagram": "None", "facebook": "None", "youtube": "None", "website": "None", "summary": "None", "logo": "None", "latitude": 52.122096838190316, "longitude": -106.68303574940828}, "140412834RR0001": {"name": "DOULOS FOUNDATION", "designationCode": "B", "categoryCode": "03", "address": "4616 VALIANT DRIVE N.W.,      SUITE 206", "city": "CALGARY", "province": "AB", "country": "CA", "postalCode": "T3A0X9", "twitter": "None", "instagram": "None", "facebook": "None", "youtube": "None", "website": "None", "summary": "None", "logo": "None", "latitude": 51.09075150764604, "longitude": -114.1532235}, "859279440RR0001": {"name": "DOULOS MINISTRIES", "designationCode": "C", "categoryCode": "39", "address": "2400 BLACKSTONE CRESCENT", "city": "OTTAWA", "province": "ON", "country": "CA", "postalCode": "K1B4H2", "twitter": "None", "instagram": "None", "facebook": "None", "youtube": "None", "website": "None", "summary": "None", "logo": "None", "latitude": 45.395078689970624, "longitude": -75.60732893770547}, "118887744RR0001": {"name": "DOVE CENTRE", "designationCode": "C", "categoryCode": "09", "address": "6201-52 AVE", "city": "BONNYVILLE", "province": "AB", "country": "CA", "postalCode": "T9N2L7", "twitter": "None", "instagram": "None", "facebook": "None", "youtube": "None", "website": "None", "summary": "None", "logo": "None", "latitude": 54.27041278941135, "longitude": -110.77246228941135}, "869628644RR0001": {"name": "DOVE CHRISTIAN FELLOWSHIP CANADA", "designationCode": "C", "categoryCode": "39", "address": "1363 WAVERLEY CR", "city": "KINGSTON", "province": "ON", "country": "CA", "postalCode": "K7M6J8", "twitter": "None", "instagram": "None", "facebook": "None", "youtube": "None", "website": "None", "summary": "None", "logo": "None", "latitude": 44.24531664167016, "longitude": -76.61519710338165}, "140454125RR0001": {"name": "DOVE HOMES INC", "designationCode": "C", "categoryCode": "01", "address": "49 BREWSTER BAY", "city": "WINNIPEG", "province": "MB", "country": "CA", "postalCode": "R2C2X2", "twitter": "None", "instagram": "None", "facebook": "None", "youtube": "None", "website": "None", "summary": "None", "logo": "None", "latitude": 49.903895043020384, "longitude": -97.01968813027318}, "833774276RR0001": {"name": "DOVE MINISTRIES MALAYSIA", "designationCode": "C", "categoryCode": "47", "address": "760 PRINCESS LOUISE DRIVE", "city": "ORLEANS", "province": "ON", "country": "CA", "postalCode": "K4A3G7", "twitter": "None", "instagram": "None", "facebook": "None", "youtube": "None", "website": "None", "summary": "None", "logo": "None", "latitude": 45.48224847683072, "longitude": -75.4842615019619}, "871527164RR0001": {"name": "DOVE'S NEST MINISTRY", "designationCode": "C", "categoryCode": "09", "address": "P0 BOX 485", "city": "EXETER", "province": "ON", "country": "CA", "postalCode": "N0M1S6", "twitter": "None", "instagram": "None", "facebook": "None", "youtube": "None", "website": "None", "summary": "None", "logo": "None", "latitude": 36.29779000000008, "longitude": -119.13605999999999}, "870300472RR0001": {"name": "DOVER AND AREA COMMUNITY FAMILY COALITION INC.", "designationCode": "C", "categoryCode": "09", "address": "P O BOX 250", "city": "DOVER", "province": "NL", "country": "CA", "postalCode": "A0G1X0", "twitter": "None", "instagram": "None", "facebook": "None", "youtube": "None", "website": "None", "summary": "None", "logo": "None", "latitude": 48.86660000000006, "longitude": -53.96479999999997}, "141074765RR0001": {"name": "DOVER CENTRE CHURCH", "designationCode": "C", "categoryCode": "39", "address": "R. R. #1", "city": "DOVER CENTRE", "province": "ON", "country": "CA", "postalCode": "N0P1L0", "twitter": "None", "instagram": "None", "facebook": "None", "youtube": "None", "website": "None", "summary": "None", "logo": "None", "latitude": 42.489857562743104, "longitude": -82.3177375128352}, "107033938RR0001": {"name": "DOVER COMMUNITY DAY CARE & DAY HOME SOCIETY", "designationCode": "C", "categoryCode": "01", "address": "52 DOVERCREST WAY SE", "city": "CALGARY", "province": "AB", "country": "CA", "postalCode": "T2B2L9", "twitter": "None", "instagram": "None", "facebook": "None", "youtube": "None", "website": "None", "summary": "None", "logo": "None", "latitude": 51.01701417236992, "longitude": -113.99224412585845}, "107033870RR0001": {"name": "DOVERCOURT BAPTIST CHURCH", "designationCode": "C", "categoryCode": "31", "address": "12321-135 STREET", "city": "EDMONTON", "province": "AB", "country": "CA", "postalCode": "T5L1X6", "twitter": "None", "instagram": "None", "facebook": "None", "youtube": "None", "website": "None", "summary": "None", "logo": "None", "latitude": 53.576241788245056, "longitude": -113.55763666426253}, "118887769RR0001": {"name": "DOVERCOURT BAPTIST CHURCH", "designationCode": "C", "categoryCode": "31", "address": "1140 BLOOR STREET WEST", "city": "TORONTO", "province": "ON", "country": "CA", "postalCode": "M6H4E6", "twitter": "None", "instagram": "None", "facebook": "None", "youtube": "None", "website": "None", "summary": "None", "logo": "None", "latitude": 43.65976422344038, "longitude": -79.43590548488079}, "107033888RR0001": {"name": "DOVERCOURT BAPTIST FOUNDATION", "designationCode": "C", "categoryCode": "01", "address": "1140 BLOOR ST W", "city": "TORONTO", "province": "ON", "country": "CA", "postalCode": "M6H4E6", "twitter": "None", "instagram": "None", "facebook": "None", "youtube": "None", "website": "None", "summary": "None", "logo": "None", "latitude": 43.65976422344038, "longitude": -79.43590548488079}, "127722304RR0001": {"name": "DOVERCOURT BOYS' & GIRLS' CLUB", "designationCode": "C", "categoryCode": "09", "address": "180 WESTMORELAND AVE", "city": "TORONTO", "province": "ON", "country": "CA", "postalCode": "M6H3A2", "twitter": "None", "instagram": "None", "facebook": "None", "youtube": "None", "website": "None", "summary": "None", "logo": "None", "latitude": 43.66583006771888, "longitude": -79.43249275549645}, "119444263RR0001": {"name": "DOVERCOURT RECREATION ASSOCIATION", "designationCode": "C", "categoryCode": "56", "address": "411 DOVERCOURT AVE", "city": "OTTAWA", "province": "ON", "country": "CA", "postalCode": "K2A0S9", "twitter": "None", "instagram": "None", "facebook": "None", "youtube": "None", "website": "None", "summary": "None", "logo": "None", "latitude": 45.38307884546101, "longitude": -75.7531223719485}, "118887835RR0001": {"name": "DOVRE LUTHERAN CHURCH", "designationCode": "C", "categoryCode": "32", "address": "P.O. BOX 196", "city": "SPALDING", "province": "SK", "country": "CA", "postalCode": "S0K4C0", "twitter": "None", "instagram": "None", "facebook": "None", "youtube": "None", "website": "None", "summary": "None", "logo": "None", "latitude": 52.332760000000064, "longitude": -104.49557999999996}, "866176712RR0001": {"name": "DOVRE LUTHERAN CHURCH AND CEMETERY FUND", "designationCode": "C", "categoryCode": "59", "address": "RR #1 BOX 13", "city": "ROSE VALLEY", "province": "SK", "country": "CA", "postalCode": "S0E1M0", "twitter": "None", "instagram": "None", "facebook": "None", "youtube": "None", "website": "None", "summary": "None", "logo": "None", "latitude": 52.293510609524304, "longitude": -103.81276429809157}, "118887991RR0001": {"name": "DOW SETTLEMENT UNITED BAPTIST CHURCH", "designationCode": "C", "categoryCode": "31", "address": "521 ROUTE 122", "city": "DOW SETTLEMENT", "province": "NB", "country": "CA", "postalCode": "E6H1C1", "twitter": "None", "instagram": "None", "facebook": "None", "youtube": "None", "website": "None", "summary": "None", "logo": "None", "latitude": 45.94993860501011, "longitude": -67.47851503238692}, "890972474RR0001": {"name": "DOWLING COMMUNITY SERVICE RESIDENCE", "designationCode": "C", "categoryCode": "01", "address": "7-40 WEST WILMOT ST", "city": "RICHMOND HILL", "province": "ON", "country": "CA", "postalCode": "L4B1H8", "twitter": "None", "instagram": "None", "facebook": "None", "youtube": "None", "website": "None", "summary": "None", "logo": "None", "latitude": 43.85260654752639, "longitude": -79.38866851750977}, "871884094RR0001": {"name": "DOWN SYNDROME ASSOCIATION OF BRANTFORD AND DISTRICT", "designationCode": "C", "categoryCode": "11", "address": "P.O. BOX 673", "city": "ST. GEORGE", "province": "ON", "country": "CA", "postalCode": "N0E1N0", "twitter": "None", "instagram": "None", "facebook": "None", "youtube": "None", "website": "None", "summary": "None", "logo": "None", "latitude": 43.10805150000001, "longitude": -80.4166515}, "889686341RR0001": {"name": "DOWN SYNDROME ASSOCIATION OF LAMBTON COUNTY", "designationCode": "C", "categoryCode": "11", "address": "129 KENDALL ST", "city": "PT EDWARD", "province": "ON", "country": "CA", "postalCode": "N7V4G5", "twitter": "None", "instagram": "None", "facebook": "None", "youtube": "None", "website": "None", "summary": "None", "logo": "None", "latitude": 42.99592438650282, "longitude": -82.40171177926175}, "886048792RR0001": {"name": "DOWN SYNDROME ASSOCIATION OF ONTARIO", "designationCode": "C", "categoryCode": "11", "address": "PO BOX 26042 RPO CHURCHILL", "city": "MISSISSAUGA", "province": "ON", "country": "CA", "postalCode": "L5L5W7", "twitter": "None", "instagram": "None", "facebook": "None", "youtube": "None", "website": "None", "summary": "None", "logo": "None", "latitude": 43.70823401009694, "longitude": -79.64423545091155}, "861495547RR0001": {"name": "DOWN SYNDROME ASSOCIATION OF PETERBOROUGH", "designationCode": "C", "categoryCode": "11", "address": "300 SUNSET BLVD", "city": "PETERBOROUGH", "province": "ON", "country": "CA", "postalCode": "K9H5L3", "twitter": "None", "instagram": "None", "facebook": "None", "youtube": "None", "website": "None", "summary": "None", "logo": "None", "latitude": 44.32212880688403, "longitude": -78.33049740166733}, "889565370RR0001": {"name": "DOWN SYNDROME ASSOCIATION OF SUDBURY", "designationCode": "C", "categoryCode": "09", "address": "P.O. BOX 2855 STATION A", "city": "SUDBURY", "province": "ON", "country": "CA", "postalCode": "P3A5J3", "twitter": "None", "instagram": "None", "facebook": "None", "youtube": "None", "website": "None", "summary": "None", "logo": "None", "latitude": 46.48958700000006, "longitude": -80.99011249999994}, "118887942RR0001": {"name": "DOWN SYNDROME ASSOCIATION OF TORONTO", "designationCode": "C", "categoryCode": "11", "address": "P.O. BOX 40039 LIBERTY VILLAGE", "city": "TORONTO", "province": "ON", "country": "CA", "postalCode": "M5V0K7", "twitter": "None", "instagram": "None", "facebook": "None", "youtube": "None", "website": "None", "summary": "None", "logo": "None", "latitude": 43.63778607909817, "longitude": -79.42313332032884}, "133362806RR0001": {"name": "DOWN SYNDROME ASSOCIATON - NATIONAL CAPITAL REGION ASSOCIATION SYNDROME DOWN - REGION DE LA CAPITALE NATIONALE", "designationCode": "C", "categoryCode": "11", "address": "PO BOX 8025 STATION T", "city": "OTTAWA", "province": "ON", "country": "CA", "postalCode": "K1G3H6", "twitter": "None", "instagram": "None", "facebook": "None", "youtube": "None", "website": "None", "summary": "None", "logo": "None", "latitude": 45.4075526747762, "longitude": -75.65114751410245}, "868238361RR0001": {"name": "DOWN SYNDROME FAMILY SUPPORT ASSOCIATION OF CANADA", "designationCode": "C", "categoryCode": "09", "address": "90 DOWSWELL DRIVE", "city": "SCARBOROUGH", "province": "ON", "country": "CA", "postalCode": "M1B1T2", "twitter": "None", "instagram": "None", "facebook": "None", "youtube": "None", "website": "None", "summary": "None", "logo": "None", "latitude": 43.79573574381104, "longitude": -79.22166776227714}, "868497298RR0001": {"name": "DOWNIE LAKE CHARITABLE TRUST", "designationCode": "B", "categoryCode": "39", "address": "50 1ST AVE NE", "city": "SWIFT CURRENT", "province": "SK", "country": "CA", "postalCode": "S9H4W4", "twitter": "None", "instagram": "None", "facebook": "None", "youtube": "None", "website": "None", "summary": "None", "logo": "None", "latitude": 50.282664378132, "longitude": -107.79863205289816}, "812863355RR0001": {"name": "DOWNLOAD THE CURE FOUNDATION", "designationCode": "A", "categoryCode": "03", "address": "1500 WEST GEORGIA STREET      SUITE 1250 BOX 62", "city": "VANCOUVER", "province": "BC", "country": "CA", "postalCode": "V6G2Z6", "twitter": "None", "instagram": "None", "facebook": "None", "youtube": "None", "website": "None", "summary": "None", "logo": "None", "latitude": 49.2900638104334, "longitude": -123.12989899362336}, "888635240RR0001": {"name": "DOWNS CHILDREN'S CENTRE INC", "designationCode": "C", "categoryCode": "20", "address": "3975 PORTAGE AVENUE", "city": "WINNIPEG", "province": "MB", "country": "CA", "postalCode": "R3K2E9", "twitter": "None", "instagram": "None", "facebook": "None", "youtube": "None", "website": "None", "summary": "None", "logo": "None", "latitude": 49.88010068380334, "longitude": -97.33074898922634}, "107034100RR0001": {"name": "DOWNSVIEW BAPTIST CHURCH", "designationCode": "C", "categoryCode": "31", "address": "197 DOWNSVIEW AVE", "city": "DOWNSVIEW", "province": "ON", "country": "CA", "postalCode": "M3M1E7", "twitter": "None", "instagram": "None", "facebook": "None", "youtube": "None", "website": "None", "summary": "None", "logo": "None", "latitude": 43.721378802094854, "longitude": -79.49430659602405}, "118887884RR0001": {"name": "DOWNSVIEW ITALIAN PENTECOSTAL CHURCH", "designationCode": "C", "categoryCode": "36", "address": "95 MILVAN DRIVE", "city": "NORTH YORK", "province": "ON", "country": "CA", "postalCode": "M9L1Z7", "twitter": "None", "instagram": "None", "facebook": "None", "youtube": "None", "website": "None", "summary": "None", "logo": "None", "latitude": 43.755575737491725, "longitude": -79.55865921879543}, "107797383RR0070": {"name": "DOWNSVIEW SEVENTH-DAY ADVENTIST CHURCH", "designationCode": "C", "categoryCode": "41", "address": "37 BAKERSFIELD STREET", "city": "DOWNSVIEW", "province": "ON", "country": "CA", "postalCode": "M3J1Z4", "twitter": "None", "instagram": "None", "facebook": "None", "youtube": "None", "website": "None", "summary": "None", "logo": "None", "latitude": 43.75567117819829, "longitude": -79.48050717404429}, "118887934RR0001": {"name": "DOWNSVIEW UNITED CHURCH", "designationCode": "C", "categoryCode": "44", "address": "2822 KEELE ST", "city": "NORTH YORK", "province": "ON", "country": "CA", "postalCode": "M3M2G4", "twitter": "None", "instagram": "None", "facebook": "None", "youtube": "None", "website": "None", "summary": "None", "logo": "None", "latitude": 43.73013296197131, "longitude": -79.48288747784031}, "107034290RR0001": {"name": "DOWNTOWN CARE-RING HOME SUPPORT SERVICES OF TORONTO", "designationCode": "C", "categoryCode": "59", "address": "106A-375 BLEECKER STREET", "city": "TORONTO", "province": "ON", "country": "CA", "postalCode": "M4X1M3", "twitter": "None", "instagram": "None", "facebook": "None", "youtube": "None", "website": "None", "summary": "None", "logo": "None", "latitude": 43.670533557043065, "longitude": -79.37508791975898}, "107034480RR0001": {"name": "DOWNTOWN JEWISH COMMUNITY SCHOOL OF TORONTO", "designationCode": "C", "categoryCode": "20", "address": "750 SPADINA AVENUE", "city": "TORONTO", "province": "ON", "country": "CA", "postalCode": "M5S2J2", "twitter": "None", "instagram": "None", "facebook": "None", "youtube": "None", "website": "None", "summary": "None", "logo": "None", "latitude": 43.666290388279826, "longitude": -79.40368890899627}, "118887983RR0001": {"name": "DOWNTOWN LIONS RESIDENCE PROJECT INCORPORATED", "designationCode": "C", "categoryCode": "01", "address": "230 STRABANE AVE", "city": "WINDSOR", "province": "ON", "country": "CA", "postalCode": "N8Y4V2", "twitter": "None", "instagram": "None", "facebook": "None", "youtube": "None", "website": "None", "summary": "None", "logo": "None", "latitude": 42.32606831585776, "longitude": -82.99524353548988}, "132132416RR0001": {"name": "DOWNTOWN SOCIETY FOR THE FELLOWSHIP OF RECOVERING ALCOHOLICS", "designationCode": "C", "categoryCode": "57", "address": "2775 SOPHIA ST.", "city": "VANCOUVER", "province": "BC", "country": "CA", "postalCode": "V5T3L1", "twitter": "None", "instagram": "None", "facebook": "None", "youtube": "None", "website": "None", "summary": "None", "logo": "None", "latitude": 49.2604186832369, "longitude": -123.09835828555129}, "892723164RR0001": {"name": "DOWNTOWN SOUTH GATHERING PLACE COMMUNITY CENTRE ASSOCIATION", "designationCode": "C", "categoryCode": "09", "address": "609 HELMCKEN STREET", "city": "VANCOUVER", "province": "BC", "country": "CA", "postalCode": "V6B5R1", "twitter": "None", "instagram": "None", "facebook": "None", "youtube": "None", "website": "None", "summary": "None", "logo": "None", "latitude": 49.27771686984757, "longitude": -123.12372147945177}, "807197934RR0001": {"name": "DPGA MEMBERS' CHARITABLE Foundation", "designationCode": "C", "categoryCode": "21", "address": "#600 - 10 BAY STREET", "city": "TORONTO", "province": "ON", "country": "CA", "postalCode": "M5J2R8", "twitter": "None", "instagram": "None", "facebook": "None", "youtube": "None", "website": "None", "summary": "None", "logo": "None", "latitude": 43.64146334831788, "longitude": -79.37714141952785}, "107014292RR0001": {"name": "DPNS", "designationCode": "C", "categoryCode": "01", "address": "140 DAWES RD", "city": "TORONTO", "province": "ON", "country": "CA", "postalCode": "M4C5C2", "twitter": "None", "instagram": "None", "facebook": "None", "youtube": "None", "website": "None", "summary": "None", "logo": "None", "latitude": 43.69379251234927, "longitude": -79.29726921582298}, "889683769RR0001": {"name": "DR ARTHUR S MCDONALD MEMORIAL FOUNDATION", "designationCode": "B", "categoryCode": "05", "address": "271 PRINCE ALBERT ROAD        UNIT 204", "city": "DARTMOUTH", "province": "NS", "country": "CA", "postalCode": "B2Y1M9", "twitter": "None", "instagram": "None", "facebook": "None", "youtube": "None", "website": "None", "summary": "None", "logo": "None", "latitude": 44.67837766720537, "longitude": -63.55438743282939}, "887335289RR0001": {"name": "DR CHARLES L LEGROW HEALTH CENTRE FOUNDATION INC", "designationCode": "A", "categoryCode": "13", "address": "PO BOX 973", "city": "CHANNEL-PORT AUX BASQUES", "province": "NL", "country": "CA", "postalCode": "A0M1C0", "twitter": "None", "instagram": "None", "facebook": "None", "youtube": "None", "website": "None", "summary": "None", "logo": "None", "latitude": 47.57576100000006, "longitude": -59.14099699999993}, "890751191RR0001": {"name": "DR COOKE EXTENDED CARE AUXILIARY", "designationCode": "C", "categoryCode": "19", "address": "5207 29 STREET", "city": "LLOYDMINSTER", "province": "AB", "country": "CA", "postalCode": "T9V1N2", "twitter": "None", "instagram": "None", "facebook": "None", "youtube": "None", "website": "None", "summary": "None", "logo": "None", "latitude": 53.263926484563676, "longitude": -110.01516244463038}, "132785353RR0001": {"name": "DR D M COCHRANE MEMORIAL MEDICAL CENTRE", "designationCode": "C", "categoryCode": "11", "address": "3615 BARRONSFIELD RD", "city": "RIVER HEBERT", "province": "NS", "country": "CA", "postalCode": "B0L1G0", "twitter": "None", "instagram": "None", "facebook": "None", "youtube": "None", "website": "None", "summary": "None", "logo": "None", "latitude": 45.709937497085804, "longitude": -64.37684035555989}, "888203437RR0001": {"name": "DR ERNEST LUTHI HERITAGE HOME INC.", "designationCode": "C", "categoryCode": "50", "address": "BOX 145", "city": "RAYMORE", "province": "SK", "country": "CA", "postalCode": "S0A3J0", "twitter": "None", "instagram": "None", "facebook": "None", "youtube": "None", "website": "None", "summary": "None", "logo": "None", "latitude": 51.409260000000074, "longitude": -104.52537999999998}, "118888312RR0001": {"name": "DR F.L. EID MEMORIAL FUND", "designationCode": "C", "categoryCode": "19", "address": "BOX 392", "city": "MACKLIN", "province": "SK", "country": "CA", "postalCode": "S0L2C0", "twitter": "None", "instagram": "None", "facebook": "None", "youtube": "None", "website": "None", "summary": "None", "logo": "None", "latitude": 52.33280000000008, "longitude": -109.93590999999998}, "824652887RR0001": {"name": "DR Foundation", "designationCode": "B", "categoryCode": "03", "address": "19 SAGUENAY AVENUE", "city": "TORONTO", "province": "ON", "country": "CA", "postalCode": "M5N2Y5", "twitter": "None", "instagram": "None", "facebook": "None", "youtube": "None", "website": "None", "summary": "None", "logo": "None", "latitude": 43.71845080296025, "longitude": -79.42068702703577}, "135827384RR0001": {"name": "DR FREDERICK WILLIAM CHARLES MOHR SCHOLARSHIP FUND #2", "designationCode": "B", "categoryCode": "25", "address": "THE CANADA TRUST CO.          PO BOX 10085", "city": "VANCOUVER", "province": "BC", "country": "CA", "postalCode": "V7Y1B6", "twitter": "None", "instagram": "None", "facebook": "None", "youtube": "None", "website": "None", "summary": "None", "logo": "None", "latitude": 49.28294993392596, "longitude": -123.11892994113924}, "887415990RR0001": {"name": "DR GIACOMO LUIGI D'AMBROSIO MEMORIAL FOUNDATION", "designationCode": "C", "categoryCode": "21", "address": "17 TANBURN PLACE", "city": "DON MILLS", "province": "ON", "country": "CA", "postalCode": "M3A1X6", "twitter": "None", "instagram": "None", "facebook": "None", "youtube": "None", "website": "None", "summary": "None", "logo": "None", "latitude": 43.757442870102196, "longitude": -79.3255247196608}, "891473845RR0001": {"name": "DR HELMCKEN MEMORIAL HOSPITAL AUXILIARY", "designationCode": "C", "categoryCode": "19", "address": "640 PARK DRIVE", "city": "CLEARWATER", "province": "BC", "country": "CA", "postalCode": "V0E1N1", "twitter": "None", "instagram": "None", "facebook": "None", "youtube": "None", "website": "None", "summary": "None", "logo": "None", "latitude": 51.64713599934797, "longitude": -120.01908300049861}, "881513766RR0001": {"name": "DR HINDA R KOPELMAN ENDOWMENT FUND", "designationCode": "C", "categoryCode": "21", "address": "1502 21 AVE NW", "city": "CALGARY", "province": "AB", "country": "CA", "postalCode": "T2M1L8", "twitter": "None", "instagram": "None", "facebook": "None", "youtube": "None", "website": "None", "summary": "None", "logo": "None", "latitude": 51.071376497114485, "longitude": -114.09511105536961}, "870072303RR0001": {"name": "DR HUGH TWOMEY HEALTH CARE CENTRE AUXILIARY INC", "designationCode": "C", "categoryCode": "19", "address": "PO BOX 250", "city": "BOTWOOD", "province": "NL", "country": "CA", "postalCode": "A0H1E0", "twitter": "None", "instagram": "None", "facebook": "None", "youtube": "None", "website": "None", "summary": "None", "logo": "None", "latitude": 49.12576868009626, "longitude": -55.37020900602628}, "133064717RR0001": {"name": "DR J H GILLIS SCHOOL BAND AUXILIARY", "designationCode": "C", "categoryCode": "21", "address": "53 FATIMA ST", "city": "ANTIGONISH", "province": "NS", "country": "CA", "postalCode": "B2G1L5", "twitter": "None", "instagram": "None", "facebook": "None", "youtube": "None", "website": "None", "summary": "None", "logo": "None", "latitude": 45.61918576158465, "longitude": -62.00456061991449}, "890587041RR0001": {"name": "DR JOCELYN P MANDELSTAM FOUNDATION", "designationCode": "B", "categoryCode": "55", "address": "350 7TH AVENUE SW             7TH FLOOR", "city": "CALGARY", "province": "AB", "country": "CA", "postalCode": "T2P3N9", "twitter": "None", "instagram": "None", "facebook": "None", "youtube": "None", "website": "None", "summary": "None", "logo": "None", "latitude": 51.046676474897474, "longitude": -114.06982963627445}, "890210248RR0001": {"name": "DR MINA MACKENZIE MEMORIAL TRUST FUND", "designationCode": "B", "categoryCode": "01", "address": "6 ESKER DR", "city": "BRAMPTON", "province": "ON", "country": "CA", "postalCode": "L6Z3C5", "twitter": "None", "instagram": "None", "facebook": "None", "youtube": "None", "website": "None", "summary": "None", "logo": "None", "latitude": 43.73311966195392, "longitude": -79.78339699013225}, "888626066RR0001": {"name": "DR OLIVE SADLER FUND OF THE WESTMINSTER MEDICAL ASSOCIATION", "designationCode": "A", "categoryCode": "15", "address": "101 - 1012 BALFOUR AVE", "city": "VANCOUVER", "province": "BC", "country": "CA", "postalCode": "V6H1X1", "twitter": "None", "instagram": "None", "facebook": "None", "youtube": "None", "website": "None", "summary": "None", "logo": "None", "latitude": 49.251752488458806, "longitude": -123.12799322023771}, "890950843RR0001": {"name": "DR PETER H SHALLHORN MEMORIAL SCHOLARSHIP", "designationCode": "C", "categoryCode": "21", "address": "SUITE 4873 HI QE II HSC", "city": "HALIFAX", "province": "NS", "country": "CA", "postalCode": "B3H3A7", "twitter": "None", "instagram": "None", "facebook": "None", "youtube": "None", "website": "None", "summary": "None", "logo": "None", "latitude": 44.64635100000005, "longitude": -63.58607899999993}, "891303992RR0001": {"name": "DR RAYMOND E IVES HORTICULTURAL AWARDS COMMITTEE", "designationCode": "C", "categoryCode": "21", "address": "1997 CRAIG RD", "city": "INNISFIL", "province": "ON", "country": "CA", "postalCode": "L9S1W8", "twitter": "None", "instagram": "None", "facebook": "None", "youtube": "None", "website": "None", "summary": "None", "logo": "None", "latitude": 44.30974138441334, "longitude": -79.55042485120339}, "120660709RR0001": {"name": "DR STEWART HOLMES SCHOLARSHIP FUND INC", "designationCode": "C", "categoryCode": "21", "address": "BOX 285", "city": "ESTON", "province": "SK", "country": "CA", "postalCode": "S0L1A0", "twitter": "None", "instagram": "None", "facebook": "None", "youtube": "None", "website": "None", "summary": "None", "logo": "None", "latitude": 51.15382000000005, "longitude": -108.75371999999999}, "133638734RR0001": {"name": "DR STIRLING MCDOWELL FOUNDATION FOR RESEARCH INTO TEACHING INC", "designationCode": "C", "categoryCode": "21", "address": "2317 ARLINGTON AVE", "city": "SASKATOON", "province": "SK", "country": "CA", "postalCode": "S7J2H8", "twitter": "None", "instagram": "None", "facebook": "None", "youtube": "None", "website": "None", "summary": "None", "logo": "None", "latitude": 52.10100449376759, "longitude": -106.6106699678866}, "886509199RR0001": {"name": "DR V A SNOW FOUNDATION INC", "designationCode": "A", "categoryCode": "03", "address": "54 DEMILLE COURT", "city": "HAMPTON", "province": "NB", "country": "CA", "postalCode": "E5N5S7", "twitter": "None", "instagram": "None", "facebook": "None", "youtube": "None", "website": "None", "summary": "None", "logo": "None", "latitude": 45.51525454951259, "longitude": -65.83295323527095}, "884653718RR0001": {"name": "DR. ALFRED E. DEACON MEDICAL RESEARCH FOUNDATION INC.", "designationCode": "B", "categoryCode": "13", "address": "2200-ONE LOMBARD PLACE", "city": "WINNIPEG", "province": "MB", "country": "CA", "postalCode": "R3B0X7", "twitter": "None", "instagram": "None", "facebook": "None", "youtube": "None", "website": "None", "summary": "None", "logo": "None", "latitude": 49.89608549999999, "longitude": -97.13498849999999}, "118888031RR0001": {"name": "DR. AND MRS. MAX STERN FOUNDATION", "designationCode": "B", "categoryCode": "25", "address": "110 - 5050 RUE DE SOREL", "city": "MONTREAL", "province": "QC", "country": "CA", "postalCode": "H4P1G5", "twitter": "None", "instagram": "None", "facebook": "None", "youtube": "None", "website": "None", "summary": "None", "logo": "None", "latitude": 45.50082767441875, "longitude": -73.65971963030185}, "118888056RR0001": {"name": "DR. ANDY AND BLANCHE MCGEE TRUST FUND", "designationCode": "B", "categoryCode": "25", "address": "1402 - 1 KING ST W", "city": "HAMILTON", "province": "ON", "country": "CA", "postalCode": "L8P1A4", "twitter": "None", "instagram": "None", "facebook": "None", "youtube": "None", "website": "None", "summary": "None", "logo": "None", "latitude": 43.26019321073324, "longitude": -79.88135629363086}, "822961348RR0001": {"name": "DR. ANN WORTH CHARITABLE FOUNDATION", "designationCode": "B", "categoryCode": "03", "address": "CANADA TRUST COMPANY          PACIFIC CENTRE, PO BOX 10085", "city": "VANCOUVER", "province": "BC", "country": "CA", "postalCode": "V7Y1B6", "twitter": "None", "instagram": "None", "facebook": "None", "youtube": "None", "website": "None", "summary": "None", "logo": "None", "latitude": 49.26037200000006, "longitude": -123.11336149999994}, "118888213RR0001": {"name": "DR. CAL WADDELL - WESTERN CANADA DENTAL SOCIETY MEMORIAL SCHOLARSHIP", "designationCode": "C", "categoryCode": "21", "address": "1735 CORYDON AVENUE", "city": "WINNIPEG", "province": "MB", "country": "CA", "postalCode": "R3N0K4", "twitter": "None", "instagram": "None", "facebook": "None", "youtube": "None", "website": "None", "summary": "None", "logo": "None", "latitude": 49.86393944214889, "longitude": -97.1984789686364}, "118864792RR0001": {"name": "DR. CAM COADY FOUNDATION", "designationCode": "C", "categoryCode": "21", "address": "#140, 7455-132 STREET", "city": "SURREY", "province": "BC", "country": "CA", "postalCode": "V3W1J8", "twitter": "None", "instagram": "None", "facebook": "None", "youtube": "None", "website": "None", "summary": "None", "logo": "None", "latitude": 49.13802900000002, "longitude": -122.85679297847456}, "893013763RR0001": {"name": "DR. DAVID STEPHEN MEMORIAL FOUNDATION INC.", "designationCode": "C", "categoryCode": "09", "address": "2 ANOKA LANE", "city": "ROTHESAY", "province": "NB", "country": "CA", "postalCode": "E2E3P5", "twitter": "None", "instagram": "None", "facebook": "None", "youtube": "None", "website": "None", "summary": "None", "logo": "None", "latitude": 45.39882121039862, "longitude": -65.96773363310047}, "816353296RR0001": {"name": "DR. E. Murakami Centre for Lyme Research, Education & Assistance Society", "designationCode": "C", "categoryCode": "11", "address": "679 FORT STREET", "city": "HOPE", "province": "BC", "country": "CA", "postalCode": "V0X1L4", "twitter": "None", "instagram": "None", "facebook": "None", "youtube": "None", "website": "None", "summary": "None", "logo": "None", "latitude": 49.38194059674522, "longitude": -121.43166422941297}, "891333247RR0001": {"name": "DR. EDWARD JOHN BENNETT MEDICAL SCHOLARSHIP FOUNDATION", "designationCode": "B", "categoryCode": "21", "address": "1 - 554 ST MARY'S RD", "city": "WINNIPEG", "province": "MB", "country": "CA", "postalCode": "R2M3L5", "twitter": "None", "instagram": "None", "facebook": "None", "youtube": "None", "website": "None", "summary": "None", "logo": "None", "latitude": 49.86381532860134, "longitude": -97.11123395766641}, "131058414RR0001": {"name": "DR. EVERETT CHALMERS HOSPITAL AUXILIARY INC.", "designationCode": "A", "categoryCode": "15", "address": "P.O. BOX 415 STN A", "city": "FREDERICTON", "province": "NB", "country": "CA", "postalCode": "E3B4Z9", "twitter": "None", "instagram": "None", "facebook": "None", "youtube": "None", "website": "None", "summary": "None", "logo": "None", "latitude": 45.96062100000006, "longitude": -66.63911299999994}, "869321802RR0001": {"name": "DR. EZRA NESBETH SCHOLARSHIP FOUNDATION INC.", "designationCode": "C", "categoryCode": "21", "address": "170 WESTMOUNT BLVD", "city": "THORNHILL", "province": "ON", "country": "CA", "postalCode": "L4J7W2", "twitter": "None", "instagram": "None", "facebook": "None", "youtube": "None", "website": "None", "summary": "None", "logo": "None", "latitude": 43.818835157943205, "longitude": -79.45855712268445}, "898194170RR0001": {"name": "DR. GEOFFREY R. CONWAY MEMORIAL FOUNDATION (CANADA)", "designationCode": "B", "categoryCode": "03", "address": "P.O. BOX 785                  STATION A", "city": "TORONTO", "province": "ON", "country": "CA", "postalCode": "M5W1G3", "twitter": "None", "instagram": "None", "facebook": "None", "youtube": "None", "website": "None", "summary": "None", "logo": "None", "latitude": 43.64868300000006, "longitude": -79.38544399999994}, "862507977RR0001": {"name": "DR. H. BLISS MURPHY CANCER CARE FOUNDATION NEWFOUNDLAND AND LABRADOR INC.", "designationCode": "A", "categoryCode": "13", "address": "300 PRINCE PHILIP DRIVE", "city": "ST JOHN'S", "province": "NL", "country": "CA", "postalCode": "A1B3V6", "twitter": "None", "instagram": "None", "facebook": "None", "youtube": "None", "website": "None", "summary": "None", "logo": "None", "latitude": 47.57084245692611, "longitude": -52.73881194319158}, "824674329RR0001": {"name": "DR. J. C. BOSE INTERNATIONAL HERBARIUM OF CANADA AND INSTITUTE OF APPLIED PHYSIOLOGY", "designationCode": "C", "categoryCode": "50", "address": "9223 DON ROSS DRIVE", "city": "ANGUS", "province": "ON", "country": "CA", "postalCode": "L0M1B0", "twitter": "None", "instagram": "None", "facebook": "None", "youtube": "None", "website": "None", "summary": "None", "logo": "None", "latitude": 44.3508718771685, "longitude": -79.87605193707218}, "842065773RR0001": {"name": "DR. JACK HAND LEGACY FOUNDATION INC.", "designationCode": "C", "categoryCode": "19", "address": "10 DARCY STREET", "city": "ST. JOHN'S", "province": "NL", "country": "CA", "postalCode": "A1A5C1", "twitter": "None", "instagram": "None", "facebook": "None", "youtube": "None", "website": "None", "summary": "None", "logo": "None", "latitude": 47.609883753274765, "longitude": -52.71582255205139}, "134768704RR0001": {"name": "DR. JAMES NAISMITH BASKETBALL FOUNDATION", "designationCode": "C", "categoryCode": "50", "address": "2729 DRAPER AVENUE", "city": "OTTAWA", "province": "ON", "country": "CA", "postalCode": "K2H7A1", "twitter": "None", "instagram": "None", "facebook": "None", "youtube": "None", "website": "None", "summary": "None", "logo": "None", "latitude": 45.340176990305146, "longitude": -75.79461864974888}, "118888403RR0001": {"name": "DR. JOHN M.T. FINNEY MEMORIAL FUND", "designationCode": "C", "categoryCode": "19", "address": "P.O. BOX 280", "city": "CHESTER", "province": "NS", "country": "CA", "postalCode": "B0J1J0", "twitter": "None", "instagram": "None", "facebook": "None", "youtube": "None", "website": "None", "summary": "None", "logo": "None", "latitude": 44.549654888646664, "longitude": -64.2288348174421}, "892564469RR0001": {"name": "DR. KINGSTON MEMORIAL COMMUNITY HEALTH CENTRE", "designationCode": "C", "categoryCode": "11", "address": "40 SCHOOL ROAD                POST OFFICE BOX 40", "city": "L'ARDOISE", "province": "NS", "country": "CA", "postalCode": "B0E1S0", "twitter": "None", "instagram": "None", "facebook": "None", "youtube": "None", "website": "None", "summary": "None", "logo": "None", "latitude": 45.61152622309354, "longitude": -60.77228675876391}, "860858521RR0001": {"name": "DR. LEONARD REEVES FOUNDATION", "designationCode": "B", "categoryCode": "03", "address": "95 YOUNG STREET", "city": "WOODSTOCK", "province": "ON", "country": "CA", "postalCode": "N4S3L6", "twitter": "None", "instagram": "None", "facebook": "None", "youtube": "None", "website": "None", "summary": "None", "logo": "None", "latitude": 43.12836473550117, "longitude": -80.7492568324775}, "108080029RR0001": {"name": "DR. MARGARET SAVAGE CRISIS CENTRE SOCIETY", "designationCode": "C", "categoryCode": "09", "address": "BOX 419", "city": "COLD LAKE", "province": "AB", "country": "CA", "postalCode": "T9M1P1", "twitter": "None", "instagram": "None", "facebook": "None", "youtube": "None", "website": "None", "summary": "None", "logo": "None", "latitude": 54.46502700000005, "longitude": -110.17379149999994}}