{"817816200RR0001": {"name": "Collaborative Justice Program:Restorative Justice Ottawa", "designationCode": "C", "categoryCode": "59", "address": "161 ELGIN STREET", "city": "OTTAWA", "province": "ON", "country": "CA", "postalCode": "K2P2K1", "twitter": "None", "instagram": "None", "facebook": "None", "youtube": "None", "website": "None", "summary": "None", "logo": "None", "latitude": 45.42105542244205, "longitude": -75.69280394970896}, "832027783RR0001": {"name": "Collaborative Radically Integrated Performers Society in Edmonton", "designationCode": "C", "categoryCode": "22", "address": "8749 84 AVE", "city": "EDMONTON", "province": "AB", "country": "CA", "postalCode": "T6C1E1", "twitter": "None", "instagram": "None", "facebook": "None", "youtube": "None", "website": "None", "summary": "None", "logo": "None", "latitude": 53.52001051399404, "longitude": -113.4638415}, "899340343RR0001": {"name": "Collectif Qu\u00e9b\u00e9cois de Conscientisation", "designationCode": "C", "categoryCode": "21", "address": "1000, 3E AVENUE, C.P.52116", "city": "QU\u00c9BEC", "province": "QC", "country": "CA", "postalCode": "G1L5A4", "twitter": "None", "instagram": "None", "facebook": "None", "youtube": "None", "website": "None", "summary": "None", "logo": "None", "latitude": 46.826685931732875, "longitude": -71.22997625740105}, "119288918RR0390": {"name": "College Park Congregation of Jehovah's Witnesses, Saskatoon, Saskatchewan", "designationCode": "C", "categoryCode": "61", "address": "519 PEREHUDOFF CR", "city": "SASKATOON", "province": "SK", "country": "CA", "postalCode": "S7N4J6", "twitter": "None", "instagram": "None", "facebook": "None", "youtube": "None", "website": "None", "summary": "None", "logo": "None", "latitude": 52.14535748124546, "longitude": -106.5712905}, "133165225RR0001": {"name": "Colleges and Institutes Canada/Coll\u00e8ges et Instituts Canada", "designationCode": "C", "categoryCode": "21", "address": "1 RIDEAU STREET", "city": "OTTAWA", "province": "ON", "country": "CA", "postalCode": "K1N8S7", "twitter": "None", "instagram": "None", "facebook": "None", "youtube": "None", "website": "None", "summary": "None", "logo": "None", "latitude": 45.42496097841724, "longitude": -75.69456698646731}, "819144098RR0001": {"name": "Collette Foundation Canada", "designationCode": "B", "categoryCode": "03", "address": "40 QUEEN STREET SOUTH", "city": "MISSISSAUGA", "province": "ON", "country": "CA", "postalCode": "L5M1K3", "twitter": "None", "instagram": "None", "facebook": "None", "youtube": "None", "website": "None", "summary": "None", "logo": "None", "latitude": 43.5862496375152, "longitude": -79.71997808425172}, "108030735RR0002": {"name": "Collieries Parish, in the County of Cape Breton", "designationCode": "C", "categoryCode": "30", "address": "8 MARCONI STREET              POST OFFICE BOX 429", "city": "GLACE BAY", "province": "NS", "country": "CA", "postalCode": "B1A6B4", "twitter": "None", "instagram": "None", "facebook": "None", "youtube": "None", "website": "None", "summary": "None", "logo": "None", "latitude": 46.19525764530551, "longitude": -59.95722793187709}, "118868173RR0001": {"name": "Collina Baptist Church", "designationCode": "C", "categoryCode": "31", "address": "404 ROUTE 880", "city": "LOWER MILLSTREAM", "province": "NB", "country": "CA", "postalCode": "E5P3K4", "twitter": "None", "instagram": "None", "facebook": "None", "youtube": "None", "website": "None", "summary": "None", "logo": "None", "latitude": 45.73403459519513, "longitude": -65.61514869172497}, "831933775RR0001": {"name": "Collings Family Foundation", "designationCode": "B", "categoryCode": "03", "address": "650 WEST GEORGIA STREET       5TH FLOOR PO BOX 11538", "city": "VANCOUVER", "province": "BC", "country": "CA", "postalCode": "V6B4N7", "twitter": "None", "instagram": "None", "facebook": "None", "youtube": "None", "website": "None", "summary": "None", "logo": "None", "latitude": 49.282095217179936, "longitude": -123.11767129779695}, "824903421RR0001": {"name": "Collingwood/South Georgian Bay Rotary Charitable Foundation", "designationCode": "A", "categoryCode": "03", "address": "PO BOX 130 STN MAIN", "city": "COLLINGWOOD", "province": "ON", "country": "CA", "postalCode": "L9Y3Z4", "twitter": "None", "instagram": "None", "facebook": "None", "youtube": "None", "website": "None", "summary": "None", "logo": "None", "latitude": 44.49987600000006, "longitude": -80.21683249999994}, "832560999RR0001": {"name": "Collins Family Foundation", "designationCode": "B", "categoryCode": "03", "address": "3740 73 AVE NW", "city": "EDMONTON", "province": "AB", "country": "CA", "postalCode": "T6B2Z2", "twitter": "None", "instagram": "None", "facebook": "None", "youtube": "None", "website": "None", "summary": "None", "logo": "None", "latitude": 53.50832150605859, "longitude": -113.40031229101501}, "813008067RR0001": {"name": "Colombian Friends", "designationCode": "C", "categoryCode": "09", "address": "137 PANAMOUNT PL NW", "city": "CALGARY", "province": "AB", "country": "CA", "postalCode": "T3K5Y5", "twitter": "None", "instagram": "None", "facebook": "None", "youtube": "None", "website": "None", "summary": "None", "logo": "None", "latitude": 51.15919363670715, "longitude": -114.08248129612224}, "783757925RR0001": {"name": "Colonne et Appui de la V\u00e9rit\u00e9", "designationCode": "C", "categoryCode": "39", "address": "12 - 11379 AV GARON", "city": "MONTREAL-NORD", "province": "QC", "country": "CA", "postalCode": "H1H3T7", "twitter": "None", "instagram": "None", "facebook": "None", "youtube": "None", "website": "None", "summary": "None", "logo": "None", "latitude": 45.596807988631696, "longitude": -73.63958943961006}, "856157664RR0001": {"name": "Color My World Child Care Inc.", "designationCode": "C", "categoryCode": "01", "address": "1860 1ST AVENUE", "city": "WEYBURN", "province": "SK", "country": "CA", "postalCode": "S4H0Y3", "twitter": "None", "instagram": "None", "facebook": "None", "youtube": "None", "website": "None", "summary": "None", "logo": "None", "latitude": 49.66798702640765, "longitude": -103.83006903527533}, "862502432RR0001": {"name": "Columbia Basin Environmental Education Network", "designationCode": "C", "categoryCode": "59", "address": "PO BOX 46", "city": "INVERMERE", "province": "BC", "country": "CA", "postalCode": "V0A1K0", "twitter": "None", "instagram": "None", "facebook": "None", "youtube": "None", "website": "None", "summary": "None", "logo": "None", "latitude": 50.50916700000006, "longitude": -116.03037049999993}, "861688836RR0001": {"name": "Columbia Basin Institute of Regional History", "designationCode": "C", "categoryCode": "50", "address": "3-926 BAKER STREET", "city": "CRANBROOK", "province": "BC", "country": "CA", "postalCode": "V1C1A5", "twitter": "None", "instagram": "None", "facebook": "None", "youtube": "None", "website": "None", "summary": "None", "logo": "None", "latitude": 49.51222760080371, "longitude": -115.76735653755196}, "119288918RR1600": {"name": "Columbia Congregation of Jehovah's Witnesses, Vancouver, British Columbia", "designationCode": "C", "categoryCode": "61", "address": "120-10TH STREET", "city": "NEW WESTMINSTER", "province": "BC", "country": "CA", "postalCode": "V3M3Y8", "twitter": "None", "instagram": "None", "facebook": "None", "youtube": "None", "website": "None", "summary": "None", "logo": "None", "latitude": 49.202987742974315, "longitude": -122.91855185515587}, "716441522RR0001": {"name": "Columbia Forest Products Foundation Canada", "designationCode": "B", "categoryCode": "03", "address": "225 PRINCE STREET", "city": "HEARST", "province": "ON", "country": "CA", "postalCode": "P0L1N0", "twitter": "None", "instagram": "None", "facebook": "None", "youtube": "None", "website": "None", "summary": "None", "logo": "None", "latitude": 49.68534132135266, "longitude": -83.65012332765744}, "815761291RR0001": {"name": "Columbia International Scholarship Endowment Fund", "designationCode": "B", "categoryCode": "21", "address": "8 CHRISTIE STREET             P.O. BOX 261", "city": "GRIMSBY", "province": "ON", "country": "CA", "postalCode": "L3M4G5", "twitter": "None", "instagram": "None", "facebook": "None", "youtube": "None", "website": "None", "summary": "None", "logo": "None", "latitude": 43.19469255675461, "longitude": -79.56217573907918}, "823284054RR0001": {"name": "Columbia Presbyterian Church", "designationCode": "C", "categoryCode": "37", "address": "16593 108 AVE", "city": "SURREY", "province": "BC", "country": "CA", "postalCode": "V4N5E6", "twitter": "None", "instagram": "None", "facebook": "None", "youtube": "None", "website": "None", "summary": "None", "logo": "None", "latitude": 49.19891146378897, "longitude": -122.76194153000728}, "863864666RR0001": {"name": "Columbia Valley Greenways Trail Alliance", "designationCode": "C", "categoryCode": "52", "address": "PO BOX 2377", "city": "INVERMERE", "province": "BC", "country": "CA", "postalCode": "V0A1K0", "twitter": "None", "instagram": "None", "facebook": "None", "youtube": "None", "website": "None", "summary": "None", "logo": "None", "latitude": 50.50916700000006, "longitude": -116.03037049999993}, "825247810RR0001": {"name": "Columbia Wetlands Stewardship Partners", "designationCode": "C", "categoryCode": "52", "address": "PO BOX 2284", "city": "INVERMERE", "province": "BC", "country": "CA", "postalCode": "V0A1K0", "twitter": "None", "instagram": "None", "facebook": "None", "youtube": "None", "website": "None", "summary": "None", "logo": "None", "latitude": 50.50916700000006, "longitude": -116.03037049999993}, "834611162RR0001": {"name": "Columbus Club - Council 485 Charitable Foundation", "designationCode": "A", "categoryCode": "63", "address": "940 REX AVENUE", "city": "OTTAWA", "province": "ON", "country": "CA", "postalCode": "K2A2P7", "twitter": "None", "instagram": "None", "facebook": "None", "youtube": "None", "website": "None", "summary": "None", "logo": "None", "latitude": 45.373269429078654, "longitude": -75.7549451720227}, "817194996RR0001": {"name": "Combattre La Substance Psychoactive Canada Canada Fighting Psychoactive Substance", "designationCode": "C", "categoryCode": "57", "address": "13687 RUE FORSYTH, APP.506", "city": "MONTREAL", "province": "QC", "country": "CA", "postalCode": "H1A3X2", "twitter": "None", "instagram": "None", "facebook": "None", "youtube": "None", "website": "None", "summary": "None", "logo": "None", "latitude": 45.66427738276855, "longitude": -73.50489077052877}, "827254780RR0001": {"name": "Combi Behavioural Communications and Research Inc.", "designationCode": "C", "categoryCode": "11", "address": "2 ADASTRA CRES,", "city": "MARKHAM", "province": "ON", "country": "CA", "postalCode": "L6C3C5", "twitter": "None", "instagram": "None", "facebook": "None", "youtube": "None", "website": "None", "summary": "None", "logo": "None", "latitude": 43.88892417236993, "longitude": -79.36223606869981}, "838583557RR0001": {"name": "Comedy Courage", "designationCode": "C", "categoryCode": "11", "address": "1500 WEST GEORGIA STREET      SUITE 1250 - BOX 62", "city": "VANCOUVER", "province": "BC", "country": "CA", "postalCode": "V6G2Z6", "twitter": "None", "instagram": "None", "facebook": "None", "youtube": "None", "website": "None", "summary": "None", "logo": "None", "latitude": 49.2900638104334, "longitude": -123.12989899362336}, "836202887RR0001": {"name": "Comfort & Smile for Children & Families Affected with Sickle Cell Anemia Disease", "designationCode": "C", "categoryCode": "11", "address": "11 CLARION CRESCENT", "city": "MARKHAM", "province": "ON", "country": "CA", "postalCode": "L3S3M8", "twitter": "None", "instagram": "None", "facebook": "None", "youtube": "None", "website": "None", "summary": "None", "logo": "None", "latitude": 43.84514989312724, "longitude": -79.27515617692889}, "728868498RR0001": {"name": "Comforter Spirit of Truth - Bulgarian Eastern Orthodox Church", "designationCode": "C", "categoryCode": "39", "address": "6288 ARMSTRONG DR,", "city": "NIAGARA FALLS", "province": "ON", "country": "CA", "postalCode": "L2H2G4", "twitter": "None", "instagram": "None", "facebook": "None", "youtube": "None", "website": "None", "summary": "None", "logo": "None", "latitude": 43.08324044160062, "longitude": -79.12454758586784}, "807197751RR0001": {"name": "Comhaltas Ceoltoiri \u00c9ireann Sudbury Irish Arts Association,Inc.", "designationCode": "C", "categoryCode": "22", "address": "481 MONIQUE STREET", "city": "CHELMSFORD", "province": "ON", "country": "CA", "postalCode": "P0M1L0", "twitter": "None", "instagram": "None", "facebook": "None", "youtube": "None", "website": "None", "summary": "None", "logo": "None", "latitude": 46.56673808381905, "longitude": -81.18925993897489}, "749949723RR0001": {"name": "Comit Corp.", "designationCode": "B", "categoryCode": "20", "address": "47 EGLINTON CRESCENT", "city": "WINNIPEG", "province": "MB", "country": "CA", "postalCode": "R3Y1E6", "twitter": "None", "instagram": "None", "facebook": "None", "youtube": "None", "website": "None", "summary": "None", "logo": "None", "latitude": 49.81278642772216, "longitude": -97.20781652677597}, "813864220RR0001": {"name": "Comit\u00e9 b\u00e9n\u00e9voles du CHSLD de l'Assomption", "designationCode": "C", "categoryCode": "19", "address": "16750 BOUL LACROIX", "city": "SAINT-GEORGES BEAUCE", "province": "QC", "country": "CA", "postalCode": "G5Y2G4", "twitter": "None", "instagram": "None", "facebook": "None", "youtube": "None", "website": "None", "summary": "None", "logo": "None", "latitude": 46.09778915843415, "longitude": -70.6498000540133}, "119019602RR0001": {"name": "Comit\u00e9 civil de l'Escadrille 634 de Jonquiere, inc", "designationCode": "C", "categoryCode": "29", "address": "3507, BOUL. ST-FRANCOIS       SUITE 112", "city": "JONQUIERE", "province": "QC", "country": "CA", "postalCode": "G7X2W5", "twitter": "None", "instagram": "None", "facebook": "None", "youtube": "None", "website": "None", "summary": "None", "logo": "None", "latitude": 48.41281958612763, "longitude": -71.226495119222}, "830314449RR0001": {"name": "Comit\u00e9 de bienfaisance des filles d'Isabelle #1150", "designationCode": "C", "categoryCode": "09", "address": "96 DES PEUPLIERS", "city": "LEBEL-SUR-QU\u00c9VILLON", "province": "QC", "country": "CA", "postalCode": "J0Y1X0", "twitter": "None", "instagram": "None", "facebook": "None", "youtube": "None", "website": "None", "summary": "None", "logo": "None", "latitude": 49.05576593923469, "longitude": -76.97205215416362}, "893702894RR0001": {"name": "Comit\u00e9 de pr\u00e9vention du suicide de Senneterre", "designationCode": "C", "categoryCode": "09", "address": "795 10E AV", "city": "SENNETERRE", "province": "QC", "country": "CA", "postalCode": "J0Y2M0", "twitter": "None", "instagram": "None", "facebook": "None", "youtube": "None", "website": "None", "summary": "None", "logo": "None", "latitude": 48.390296023843135, "longitude": -77.2492745343615}, "804865806RR0001": {"name": "Comit\u00e9 de promotion de la vie et de pr\u00e9vention du suicide Madawaska Inc./ Madawaska Life Promotion and Suicide Prevention Committee Inc.", "designationCode": "C", "categoryCode": "09", "address": "55 RUE RIVIERE-A-LA-TRUITE", "city": "SAINT-JACQUES", "province": "NB", "country": "CA", "postalCode": "E7B1N4", "twitter": "None", "instagram": "None", "facebook": "None", "youtube": "None", "website": "None", "summary": "None", "logo": "None", "latitude": 47.42658980792323, "longitude": -68.38859805424444}, "871585386RR0001": {"name": "Comit\u00e9 de Bienfaisance de l'Enfant-J\u00e9sus RHSJ Inc.", "designationCode": "C", "categoryCode": "19", "address": "C.P. 5752", "city": "CARAQUET", "province": "NB", "country": "CA", "postalCode": "E1W1B7", "twitter": "None", "instagram": "None", "facebook": "None", "youtube": "None", "website": "None", "summary": "None", "logo": "None", "latitude": 47.791365000000056, "longitude": -64.95053299999994}, "837928183RR0001": {"name": "Comit\u00e9 de Sauvegarde de l'\u00c9glise de Bas-Caraquet Inc.", "designationCode": "A", "categoryCode": "03", "address": "8147 RUE ST-PAUL", "city": "BAS-CARAQUET", "province": "NB", "country": "CA", "postalCode": "E1W6C4", "twitter": "None", "instagram": "None", "facebook": "None", "youtube": "None", "website": "None", "summary": "None", "logo": "None", "latitude": 47.80108546378896, "longitude": -64.8368406829015}, "829394139RR0001": {"name": "Comit\u00e9 de Solidarit\u00e9 Aquinoise Inc.", "designationCode": "C", "categoryCode": "09", "address": "415 PLACE DEAUVILLE", "city": "LAVAL", "province": "QC", "country": "CA", "postalCode": "H7N3S6", "twitter": "None", "instagram": "None", "facebook": "None", "youtube": "None", "website": "None", "summary": "None", "logo": "None", "latitude": 45.559114365254764, "longitude": -73.71526773007682}, "892555962RR0001": {"name": "Comit\u00e9 des b\u00e9n\u00e9ficiaires du Centre Ste-Anne", "designationCode": "C", "categoryCode": "09", "address": "411, RUE DE LA MADONE", "city": "MONT-LAURIER", "province": "QC", "country": "CA", "postalCode": "J9L1S1", "twitter": "None", "instagram": "None", "facebook": "None", "youtube": "None", "website": "None", "summary": "None", "logo": "None", "latitude": 46.551312772173546, "longitude": -75.50158100585703}, "891367971RR0001": {"name": "Comit\u00e9 des loisirs et de d\u00e9veloppement social de Franquelin", "designationCode": "C", "categoryCode": "09", "address": "14, RUE DES \u00c9RABLE            C.P. 59", "city": "FRANQUELIN", "province": "QC", "country": "CA", "postalCode": "G0H1E0", "twitter": "None", "instagram": "None", "facebook": "None", "youtube": "None", "website": "None", "summary": "None", "logo": "None", "latitude": 49.29311174049283, "longitude": -67.8939363075192}, "889783742RR0001": {"name": "Comit\u00e9 des oeuvres charitables de l'Assembl\u00e9e Chanoine Jules Girard NO: 2128-01", "designationCode": "C", "categoryCode": "65", "address": "250 RUE HUBERT", "city": "BELOEIL", "province": "QC", "country": "CA", "postalCode": "J3G2S9", "twitter": "None", "instagram": "None", "facebook": "None", "youtube": "None", "website": "None", "summary": "None", "logo": "None", "latitude": 45.569597323879165, "longitude": -73.20431777840595}, "125753574RR0001": {"name": "Comit\u00e9 des personnes assist\u00e9es sociales de Pointe-Saint- Charles Montr\u00e9al", "designationCode": "C", "categoryCode": "09", "address": "1945 RUE MULLINS              BUREAU 100", "city": "MONTREAL", "province": "QC", "country": "CA", "postalCode": "H3K1N9", "twitter": "None", "instagram": "None", "facebook": "None", "youtube": "None", "website": "None", "summary": "None", "logo": "None", "latitude": 45.48090306523738, "longitude": -73.56151176897089}, "885027185RR0001": {"name": "Comit\u00e9 des Oeuvres Charitables du Conseil Malartic Qu\u00e9bec No: 2837", "designationCode": "C", "categoryCode": "65", "address": "725 RUE JACQUES CARTIER", "city": "MALARTIC", "province": "QC", "country": "CA", "postalCode": "J0Y1Z0", "twitter": "None", "instagram": "None", "facebook": "None", "youtube": "None", "website": "None", "summary": "None", "logo": "None", "latitude": 48.13559478377299, "longitude": -78.12304606440064}, "890829849RR0002": {"name": "Comit\u00e9 des Oeuvres Charitables du Conseil Nelson No: 5719-76", "designationCode": "C", "categoryCode": "65", "address": "114 RUE ISABELLE", "city": "LYSTER", "province": "QC", "country": "CA", "postalCode": "G0S1V0", "twitter": "None", "instagram": "None", "facebook": "None", "youtube": "None", "website": "None", "summary": "None", "logo": "None", "latitude": 46.373547970309836, "longitude": -71.58821211544243}, "837015213RR0001": {"name": "Comit\u00e9 du patrimoine de Farnham et r\u00e9gion", "designationCode": "C", "categoryCode": "52", "address": "21 CHEMIN JARRY", "city": "FARNHAM", "province": "QC", "country": "CA", "postalCode": "J2N2P9", "twitter": "None", "instagram": "None", "facebook": "None", "youtube": "None", "website": "None", "summary": "None", "logo": "None", "latitude": 45.27218149711446, "longitude": -72.9507409730798}, "814791661RR0001": {"name": "Comit\u00e9 du Papa No\u00ebl de Richibucto Ltd.", "designationCode": "C", "categoryCode": "09", "address": "9447 RUE MAIN                 UNIT\u00c9 2", "city": "RICHIBUCTO", "province": "NB", "country": "CA", "postalCode": "E4W2B9", "twitter": "None", "instagram": "None", "facebook": "None", "youtube": "None", "website": "None", "summary": "None", "logo": "None", "latitude": 46.68753387151583, "longitude": -64.86352644165888}, "881093918RR0001": {"name": "Comit\u00e9 logement d'aide aux locataires", "designationCode": "C", "categoryCode": "59", "address": "112-2120 RUE BOIVIN", "city": "QUEBEC", "province": "QC", "country": "CA", "postalCode": "G1V1N7", "twitter": "None", "instagram": "None", "facebook": "None", "youtube": "None", "website": "None", "summary": "None", "logo": "None", "latitude": 46.790467226787264, "longitude": -71.27086906165934}, "864772751RR0001": {"name": "Comit\u00e9 logement de Montr\u00e9al-Nord", "designationCode": "C", "categoryCode": "09", "address": "1-11379 AV. GARON", "city": "MONTREAL-NORD", "province": "QC", "country": "CA", "postalCode": "H1H3T7", "twitter": "None", "instagram": "None", "facebook": "None", "youtube": "None", "website": "None", "summary": "None", "logo": "None", "latitude": 45.596807988631696, "longitude": -73.63958943961006}, "892240359RR0001": {"name": "Comit\u00e9 logement Rive-Sud", "designationCode": "C", "categoryCode": "09", "address": "311 RUE MC LEOD", "city": "CHATEAUGUAY", "province": "QC", "country": "CA", "postalCode": "J6J2H8", "twitter": "None", "instagram": "None", "facebook": "None", "youtube": "None", "website": "None", "summary": "None", "logo": "None", "latitude": 45.36365100000006, "longitude": -73.72251349999993}, "855870499RR0001": {"name": "Comit\u00e9 logement Saint-Laurent", "designationCode": "C", "categoryCode": "59", "address": "6 - 1775 BOUL EDOUARD-LAURIN", "city": "SAINT-LAURENT", "province": "QC", "country": "CA", "postalCode": "H4L2B9", "twitter": "None", "instagram": "None", "facebook": "None", "youtube": "None", "website": "None", "summary": "None", "logo": "None", "latitude": 45.51044020595523, "longitude": -73.68580951736956}, "813746542RR0001": {"name": "Comit\u00e9 organisateur du concours solistes et petits ensembles de la f\u00e9d\u00e9ration des harmonies et des orchestres symphoniques du Qu\u00e9bec.", "designationCode": "C", "categoryCode": "22", "address": "C.P. 133", "city": "VICTORIAVILLE", "province": "QC", "country": "CA", "postalCode": "G6P6S8", "twitter": "None", "instagram": "None", "facebook": "None", "youtube": "None", "website": "None", "summary": "None", "logo": "None", "latitude": 46.03079397808173, "longitude": -71.94582147071009}, "133476291RR0001": {"name": "Comit\u00e9 organisateur du festival des harmonies du Qu\u00e9bec inc.", "designationCode": "C", "categoryCode": "22", "address": "2500, BOUL. DE L'UNIVERSIT\u00c9,  LOCAL F1-018", "city": "SHERBROOKE", "province": "QC", "country": "CA", "postalCode": "J1K2R1", "twitter": "None", "instagram": "None", "facebook": "None", "youtube": "None", "website": "None", "summary": "None", "logo": "None", "latitude": 45.381356656245536, "longitude": -71.93111333807403}, "851891812RR0001": {"name": "Comit\u00e9 r\u00e9gional pour la protection des falaises", "designationCode": "C", "categoryCode": "59", "address": "C.P. 602", "city": "PR\u00c9VOST", "province": "QC", "country": "CA", "postalCode": "J0R1T0", "twitter": "None", "instagram": "None", "facebook": "None", "youtube": "None", "website": "None", "summary": "None", "logo": "None", "latitude": 45.87449797701895, "longitude": -74.08652043371463}, "876054875RR0001": {"name": "Comit\u00e9 Action Jeunesse de Bergeronnes", "designationCode": "C", "categoryCode": "09", "address": "517, RUE DU BOIS\u00c9", "city": "LES BERGERONNES", "province": "QC", "country": "CA", "postalCode": "G0T1G0", "twitter": "None", "instagram": "None", "facebook": "None", "youtube": "None", "website": "None", "summary": "None", "logo": "None", "latitude": 48.24208643825373, "longitude": -69.54357227800286}, "813746948RR0001": {"name": "Comit\u00e9 Action Jeunesse de Sacr\u00e9-Coeur", "designationCode": "C", "categoryCode": "09", "address": "39, RUE MAYRAND", "city": "SACRE-COEUR", "province": "QC", "country": "CA", "postalCode": "G0T1Y0", "twitter": "None", "instagram": "None", "facebook": "None", "youtube": "None", "website": "None", "summary": "None", "logo": "None", "latitude": 48.23187407725854, "longitude": -69.80224938916254}, "876054271RR0001": {"name": "Comit\u00e9 Action Jeunesse de Tadoussac", "designationCode": "C", "categoryCode": "09", "address": "286, RUE DE LA FALAISE", "city": "TADOUSSAC", "province": "QC", "country": "CA", "postalCode": "G0T2A0", "twitter": "None", "instagram": "None", "facebook": "None", "youtube": "None", "website": "None", "summary": "None", "logo": "None", "latitude": 48.146875224740285, "longitude": -69.713649972783}, "850238411RR0001": {"name": "Comit\u00e9 Aide aux Malades (Baie Ste-Anne) Inc.", "designationCode": "C", "categoryCode": "11", "address": "5361 ROUTE 117", "city": "BAIE-SAINTE-ANNE", "province": "NB", "country": "CA", "postalCode": "E9A1E5", "twitter": "None", "instagram": "None", "facebook": "None", "youtube": "None", "website": "None", "summary": "None", "logo": "None", "latitude": 47.047974470236724, "longitude": -64.96432070004566}, "890308497RR0001": {"name": "Comit\u00e9 Ch\u00f4mage de Montr\u00e9al", "designationCode": "C", "categoryCode": "09", "address": "3734 AVENUE DU PARC", "city": "MONTREAL", "province": "QC", "country": "CA", "postalCode": "H2X2J1", "twitter": "None", "instagram": "None", "facebook": "None", "youtube": "None", "website": "None", "summary": "None", "logo": "None", "latitude": 45.51131789174227, "longitude": -73.57776283640129}, "828162222RR0001": {"name": "Comit\u00e9 Piste Cyclable Beauce", "designationCode": "A", "categoryCode": "53", "address": "785, AVENUE GUY-POULIN", "city": "SAINT-JOSEPH-DE-BEAUCE", "province": "QC", "country": "CA", "postalCode": "G0S2V0", "twitter": "None", "instagram": "None", "facebook": "None", "youtube": "None", "website": "None", "summary": "None", "logo": "None", "latitude": 46.31683624536892, "longitude": -70.86985916440675}, "855784468RR0001": {"name": "Comit\u00e9 Provincial Pair", "designationCode": "C", "categoryCode": "09", "address": "1670 RUE DINA-BELANGER", "city": "QUEBEC", "province": "QC", "country": "CA", "postalCode": "G1S0A5", "twitter": "None", "instagram": "None", "facebook": "None", "youtube": "None", "website": "None", "summary": "None", "logo": "None", "latitude": 46.78610748958399, "longitude": -71.24948905799535}, "132344763RR0001": {"name": "Comit\u00e9 Vas'Y de Saint-Raymond", "designationCode": "C", "categoryCode": "09", "address": "163 RUE SAINT-IGNACE", "city": "SAINT-RAYMOND", "province": "QC", "country": "CA", "postalCode": "G3L1E7", "twitter": "None", "instagram": "None", "facebook": "None", "youtube": "None", "website": "None", "summary": "None", "logo": "None", "latitude": 46.88982567805409, "longitude": -71.83523735527143}, "846638575RR0001": {"name": "Comj\u00e9sus", "designationCode": "C", "categoryCode": "36", "address": "626 RUE DE L'ATLANTIQUE", "city": "MONT-SAINT-HILAIRE", "province": "QC", "country": "CA", "postalCode": "J3H6K2", "twitter": "None", "instagram": "None", "facebook": "None", "youtube": "None", "website": "None", "summary": "None", "logo": "None", "latitude": 45.580213090743946, "longitude": -73.17932590325479}, "800960478RR0001": {"name": "Commercial Real Estate Women Network Foundation Canada", "designationCode": "C", "categoryCode": "21", "address": "200 BAY STREET, SOUTH TWR     SUITE 200, ROYAL BANK PLAZA", "city": "TORONTO", "province": "ON", "country": "CA", "postalCode": "M5J2Z4", "twitter": "None", "instagram": "None", "facebook": "None", "youtube": "None", "website": "None", "summary": "None", "logo": "None", "latitude": 43.64665675816111, "longitude": -79.37941611867521}, "118987817RR0001": {"name": "Commission de biblioth\u00e8que publique de Shippagan", "designationCode": "C", "categoryCode": "50", "address": "128 RUE MGR CHIASSON", "city": "SHIPPAGAN", "province": "NB", "country": "CA", "postalCode": "E8S1X7", "twitter": "None", "instagram": "None", "facebook": "None", "youtube": "None", "website": "None", "summary": "None", "logo": "None", "latitude": 47.74432282015691, "longitude": -64.72517207271052}, "805244456RR0001": {"name": "Commission de la biblioth\u00e8que publique de Cap-Pel\u00e9", "designationCode": "C", "categoryCode": "50", "address": "2638 CHEMIN ACADIE", "city": "CAP-PEL\u00c9", "province": "NB", "country": "CA", "postalCode": "E4N1E3", "twitter": "None", "instagram": "None", "facebook": "None", "youtube": "None", "website": "None", "summary": "None", "logo": "None", "latitude": 46.21549199621638, "longitude": -64.27205507916366}, "118888437RR0001": {"name": "Commission de la biblioth\u00e8que Dre-Marguerite-Michaud", "designationCode": "A", "categoryCode": "50", "address": "715, RUE PRIESTMAN", "city": "FREDERICTON", "province": "NB", "country": "CA", "postalCode": "E3B5W7", "twitter": "None", "instagram": "None", "facebook": "None", "youtube": "None", "website": "None", "summary": "None", "logo": "None", "latitude": 45.93991948349581, "longitude": -66.65361315791455}, "801503459RR0001": {"name": "Commission de la Biblioth\u00e8que publique de Rogersville", "designationCode": "C", "categoryCode": "50", "address": "65-1 RUE DE L'\u00c9COLE", "city": "ROGERSVILLE", "province": "NB", "country": "CA", "postalCode": "E4Y1V4", "twitter": "None", "instagram": "None", "facebook": "None", "youtube": "None", "website": "None", "summary": "None", "logo": "None", "latitude": 46.73159111309678, "longitude": -65.4266156476566}, "118988609RR0001": {"name": "Commission de la Biblioth\u00e8que Publique de Caraquet", "designationCode": "C", "categoryCode": "50", "address": "10 A RUE DU COLISE", "city": "CARAQUET", "province": "NB", "country": "CA", "postalCode": "E1W1A5", "twitter": "None", "instagram": "None", "facebook": "None", "youtube": "None", "website": "None", "summary": "None", "logo": "None", "latitude": 47.789429270875466, "longitude": -64.96253509815884}, "142417831RR0001": {"name": "Commission scolaire de L'OR-et-des-Bois", "designationCode": "C", "categoryCode": "20", "address": "799, BOULEVARD FOREST", "city": "VAL-D'OR", "province": "QC", "country": "CA", "postalCode": "J9P2L4", "twitter": "None", "instagram": "None", "facebook": "None", "youtube": "None", "website": "None", "summary": "None", "logo": "None", "latitude": 48.09763452452561, "longitude": -77.7893805}, "142423862RR0001": {"name": "Commission scolaire Marguerite-Bourgeoys", "designationCode": "C", "categoryCode": "20", "address": "1100, BOULEVARD C\u00d4TE-VERTU", "city": "SAINT-LAURENT", "province": "QC", "country": "CA", "postalCode": "H4L4V1", "twitter": "None", "instagram": "None", "facebook": "None", "youtube": "None", "website": "None", "summary": "None", "logo": "None", "latitude": 45.517789866755294, "longitude": -73.67787409960206}, "888925815RR0001": {"name": "Commission Scolaire Francophone de Division", "designationCode": "C", "categoryCode": "20", "address": "PO BOX 1980 STN MAIN", "city": "YELLOWKNIFE", "province": "NT", "country": "CA", "postalCode": "X1A2P5", "twitter": "None", "instagram": "None", "facebook": "None", "youtube": "None", "website": "None", "summary": "None", "logo": "None", "latitude": 62.45446200000005, "longitude": -114.37092349999993}, "838791515RR0001": {"name": "Committee for Innovative Thinking for Youth Inc.", "designationCode": "C", "categoryCode": "09", "address": "2 WOOLER ROAD", "city": "TRENTON", "province": "ON", "country": "CA", "postalCode": "K8V4J4", "twitter": "None", "instagram": "None", "facebook": "None", "youtube": "None", "website": "None", "summary": "None", "logo": "None", "latitude": 44.06965473026621, "longitude": -77.60181820831404}, "893088633RR0001": {"name": "Commonwealth Jewish Foundation of Canada/Fondation Commonwealth Juive du Canada", "designationCode": "C", "categoryCode": "23", "address": "2205 ATHLONE RD", "city": "MONTREAL", "province": "QC", "country": "CA", "postalCode": "H3R3H3", "twitter": "None", "instagram": "None", "facebook": "None", "youtube": "None", "website": "None", "summary": "None", "logo": "None", "latitude": 45.517576409400284, "longitude": -73.65333793865777}, "128895810RR0001": {"name": "Commun accord organisme de justice alternative", "designationCode": "C", "categoryCode": "59", "address": "948 BOULEVARD SAINT-JOSEPH", "city": "DRUMMONDVILLE", "province": "QC", "country": "CA", "postalCode": "J2C2C5", "twitter": "None", "instagram": "None", "facebook": "None", "youtube": "None", "website": "None", "summary": "None", "logo": "None", "latitude": 45.88951947377228, "longitude": -72.50804725506377}, "890574585RR0001": {"name": "Communaut\u00e9 \u00e9vang\u00e9lique de pentec\u00f4te \"CEP\"", "designationCode": "C", "categoryCode": "39", "address": "9353 BOUL SAINT-MICHEL", "city": "MONTREAL", "province": "QC", "country": "CA", "postalCode": "H1Z4G9", "twitter": "None", "instagram": "None", "facebook": "None", "youtube": "None", "website": "None", "summary": "None", "logo": "None", "latitude": 45.57428910825774, "longitude": -73.63316813806347}, "821169018RR0001": {"name": "Communaut\u00e9 \u00e9vang\u00e9lique de pentec\u00f4te international, Rhema Church of Calgary", "designationCode": "C", "categoryCode": "39", "address": "2536-10 AVENUE S.E.", "city": "CALGARY", "province": "AB", "country": "CA", "postalCode": "T2A0C1", "twitter": "None", "instagram": "None", "facebook": "None", "youtube": "None", "website": "None", "summary": "None", "logo": "None", "latitude": 51.043790482110836, "longitude": -113.99982219317329}, "821741410RR0001": {"name": "Communaut\u00e9 - \u00c9glise de Pentec\u00f4te", "designationCode": "C", "categoryCode": "39", "address": "323A MONTREAL RD", "city": "VANIER", "province": "ON", "country": "CA", "postalCode": "K1L6B6", "twitter": "None", "instagram": "None", "facebook": "None", "youtube": "None", "website": "None", "summary": "None", "logo": "None", "latitude": 45.437627304732985, "longitude": -75.65775244498485}, "808891790RR0001": {"name": "Communaut\u00e9 \u00c9vang\u00e9lique de l'Agneau", "designationCode": "C", "categoryCode": "39", "address": "531 RUE SAINT-CLEMENT", "city": "BEAUHARNOIS", "province": "QC", "country": "CA", "postalCode": "J6N2A8", "twitter": "None", "instagram": "None", "facebook": "None", "youtube": "None", "website": "None", "summary": "None", "logo": "None", "latitude": 45.31051788372085, "longitude": -73.86711673884804}, "857492326RR0001": {"name": "Communaut\u00e9 \u00c9vang\u00e9lique de Pentec\u00f4te (CEP) Internationale", "designationCode": "C", "categoryCode": "49", "address": "9353, BOUL. SAINT-MICHEL", "city": "MONTREAL", "province": "QC", "country": "CA", "postalCode": "H1Z4G9", "twitter": "None", "instagram": "None", "facebook": "None", "youtube": "None", "website": "None", "summary": "None", "logo": "None", "latitude": 45.57428910825774, "longitude": -73.63316813806347}, "119109817RR0164": {"name": "Communaut\u00e9 catholique Ste-Marguerite d'Youville", "designationCode": "C", "categoryCode": "38", "address": "920 HURON STREET", "city": "LONDON", "province": "ON", "country": "CA", "postalCode": "N5Y4K4", "twitter": "None", "instagram": "None", "facebook": "None", "youtube": "None", "website": "None", "summary": "None", "logo": "None", "latitude": 43.01508477996384, "longitude": -81.23230275829508}, "809642697RR0001": {"name": "Communaut\u00e9 chr\u00e9tienne de l'\u00e9toile du matin / The Christian Community of the Morning Star", "designationCode": "C", "categoryCode": "39", "address": "6920 LAVOIE", "city": "MONTR\u00c9AL", "province": "QC", "country": "CA", "postalCode": "H3W3G9", "twitter": "None", "instagram": "None", "facebook": "None", "youtube": "None", "website": "None", "summary": "None", "logo": "None", "latitude": 45.49957757478802, "longitude": -73.6431233931559}, "851066761RR0001": {"name": "Communaut\u00e9 chr\u00e9tienne de Saint-Placide", "designationCode": "C", "categoryCode": "49", "address": "281 MONT\u00c9E SAINT-VINCENT", "city": "SAINT-PLACIDE", "province": "QC", "country": "CA", "postalCode": "J0V2B0", "twitter": "None", "instagram": "None", "facebook": "None", "youtube": "None", "website": "None", "summary": "None", "logo": "None", "latitude": 45.53351657369148, "longitude": -74.20538779381363}, "830551230RR0001": {"name": "Communaut\u00e9 chr\u00e9tienne Silo\u00e9 Canada", "designationCode": "C", "categoryCode": "39", "address": "5603, AV. PALMER", "city": "MONTR\u00c9AL", "province": "QC", "country": "CA", "postalCode": "H3A3L3", "twitter": "None", "instagram": "None", "facebook": "None", "youtube": "None", "website": "None", "summary": "None", "logo": "None", "latitude": 45.45784917236991, "longitude": -73.66800737301637}, "840943450RR0001": {"name": "Communaut\u00e9 de foi d'Ormstown / Ormstown Community of Faith", "designationCode": "C", "categoryCode": "39", "address": "787, ROUTE 201", "city": "ORMSTOWN", "province": "QC", "country": "CA", "postalCode": "J0S1K0", "twitter": "None", "instagram": "None", "facebook": "None", "youtube": "None", "website": "None", "summary": "None", "logo": "None", "latitude": 45.1348193536383, "longitude": -74.00410629746123}, "827816224RR0001": {"name": "Communaut\u00e9 des Fr\u00e8res Chr\u00e9tiens de Montr\u00e9al (CFCM)", "designationCode": "C", "categoryCode": "39", "address": "32 - 8000 AV JOLIOT-CURIE", "city": "MONTREAL", "province": "QC", "country": "CA", "postalCode": "H1E1M1", "twitter": "None", "instagram": "None", "facebook": "None", "youtube": "None", "website": "None", "summary": "None", "logo": "None", "latitude": 45.632814707167334, "longitude": -73.58942813128279}, "706771326RR0001": {"name": "Communaut\u00e9 juive des basses Laurentides Jewish community of the lower Laurentides", "designationCode": "C", "categoryCode": "42", "address": "33 RUE SAINT-VINCENT", "city": "SAINTE-AGATHE-DES-MONTS", "province": "QC", "country": "CA", "postalCode": "J8C2A5", "twitter": "None", "instagram": "None", "facebook": "None", "youtube": "None", "website": "None", "summary": "None", "logo": "None", "latitude": 46.04758730169082, "longitude": -74.28853208808954}, "821664018RR0001": {"name": "Communaut\u00e9 missionnaire chr\u00e9tienne internationale au Canada/CMCI Canada - Christian Missionary Fellowship International in Canada/CMFI Canada", "designationCode": "C", "categoryCode": "39", "address": "3-4500 AVENUE LINTON", "city": "MONTREAL", "province": "QC", "country": "CA", "postalCode": "H3S1T6", "twitter": "None", "instagram": "None", "facebook": "None", "youtube": "None", "website": "None", "summary": "None", "logo": "None", "latitude": 45.496152210369985, "longitude": -73.63456959267717}, "824684641RR0001": {"name": "Communaut\u00e9 musulmane de Laval / Islamic Society of Laval", "designationCode": "C", "categoryCode": "60", "address": "3652, RUE JULIO", "city": "LAVAL", "province": "QC", "country": "CA", "postalCode": "H7P5A1", "twitter": "None", "instagram": "None", "facebook": "None", "youtube": "None", "website": "None", "summary": "None", "logo": "None", "latitude": 45.569398442956945, "longitude": -73.81191276646074}, "751766098RR0001": {"name": "Communaut\u00e9 Chabad de Dollard", "designationCode": "C", "categoryCode": "42", "address": "103 RUE WOODLAWN", "city": "DOLLARD-DES-ORMEAUX", "province": "QC", "country": "CA", "postalCode": "H9A1Z4", "twitter": "None", "instagram": "None", "facebook": "None", "youtube": "None", "website": "None", "summary": "None", "logo": "None", "latitude": 45.493683159208025, "longitude": -73.81750229196598}, "804077774RR0001": {"name": "Communaut\u00e9 Chabad de Mont-Tremblant", "designationCode": "C", "categoryCode": "42", "address": "4670 AVENUE CARLTON", "city": "MONTREAL", "province": "QC", "country": "CA", "postalCode": "H3W1G4", "twitter": "None", "instagram": "None", "facebook": "None", "youtube": "None", "website": "None", "summary": "None", "logo": "None", "latitude": 45.49652235247282, "longitude": -73.63842982289822}, "821443579RR0001": {"name": "Communaut\u00e9 Chabad du Vieux-Montr\u00e9al", "designationCode": "C", "categoryCode": "39", "address": "6687 AV TRANS ISLAND", "city": "MONTREAL", "province": "QC", "country": "CA", "postalCode": "H3W3B8", "twitter": "None", "instagram": "None", "facebook": "None", "youtube": "None", "website": "None", "summary": "None", "logo": "None", "latitude": 45.49235530864439, "longitude": -73.64638943629184}, "829776988RR0001": {"name": "Communaut\u00e9 Chabad Montr\u00e9al Ouest", "designationCode": "C", "categoryCode": "42", "address": "5499 RUE ROBERT-BURNS         SUITE 208", "city": "MONTR\u00c9AL", "province": "QC", "country": "CA", "postalCode": "H4W2B4", "twitter": "None", "instagram": "None", "facebook": "None", "youtube": "None", "website": "None", "summary": "None", "logo": "None", "latitude": 45.46153292812619, "longitude": -73.65719233291018}, "810569129RR0001": {"name": "Communaut\u00e9 Chabad Queen Mary", "designationCode": "C", "categoryCode": "42", "address": "5215 AV DE WESTBURY", "city": "MONTREAL", "province": "QC", "country": "CA", "postalCode": "H3W2W4", "twitter": "None", "instagram": "None", "facebook": "None", "youtube": "None", "website": "None", "summary": "None", "logo": "None", "latitude": 45.48616233417962, "longitude": -73.62980922049752}, "805930310RR0001": {"name": "Communaut\u00e9 Islamique des Afghans du Qu\u00e9bec - Qamare Bani Hashem", "designationCode": "C", "categoryCode": "60", "address": "7533, RUE ST-HUBERT", "city": "MONTR\u00c9AL", "province": "QC", "country": "CA", "postalCode": "H2R2N7", "twitter": "None", "instagram": "None", "facebook": "None", "youtube": "None", "website": "None", "summary": "None", "logo": "None", "latitude": 45.54319605718729, "longitude": -73.61858152149584}, "821202249RR0001": {"name": "Communaut\u00e9 Mada Chabad", "designationCode": "C", "categoryCode": "42", "address": "6875 BOUL DECARIE", "city": "MONTREAL", "province": "QC", "country": "CA", "postalCode": "H3W3E4", "twitter": "None", "instagram": "None", "facebook": "None", "youtube": "None", "website": "None", "summary": "None", "logo": "None", "latitude": 45.492567421605315, "longitude": -73.64839744376499}, "818336174RR0001": {"name": "Communaut\u00e9 Missionnaire Chr\u00e9tienne en Outaouais / Christian Missionary Fellowship in Outaouais", "designationCode": "C", "categoryCode": "39", "address": "59, RUE DU BOIS-JOLI", "city": "GATINEAU", "province": "QC", "country": "CA", "postalCode": "J8R4A6", "twitter": "None", "instagram": "None", "facebook": "None", "youtube": "None", "website": "None", "summary": "None", "logo": "None", "latitude": 45.50843955785113, "longitude": -75.58489301653286}, "833568629RR0001": {"name": "Communaut\u00e9 Musulmane des Balkans / Balkan Muslim Community", "designationCode": "C", "categoryCode": "60", "address": "2836, RUE ALLARD", "city": "MONTREAL", "province": "QC", "country": "CA", "postalCode": "H4E2M2", "twitter": "None", "instagram": "None", "facebook": "None", "youtube": "None", "website": "None", "summary": "None", "logo": "None", "latitude": 45.45024572548918, "longitude": -73.59814554356862}, "106960768RR0001": {"name": "Communaut\u00e9 S\u00e9pharade de C\u00f4te St-Luc Beth Rambam", "designationCode": "C", "categoryCode": "42", "address": "5780, RUE WESTMINSTER", "city": "C\u00d4TE ST-LUC", "province": "QC", "country": "CA", "postalCode": "H4W2J7", "twitter": "None", "instagram": "None", "facebook": "None", "youtube": "None", "website": "None", "summary": "None", "logo": "None", "latitude": 45.46350947264711, "longitude": -73.67304216431984}, "849057237RR0001": {"name": "Communaut\u00e9 Zerah Yakov", "designationCode": "C", "categoryCode": "49", "address": "1000 RUE DE LA GAUCHETIERE O  APP 200", "city": "MONTREAL", "province": "QC", "country": "CA", "postalCode": "H3B4W5", "twitter": "None", "instagram": "None", "facebook": "None", "youtube": "None", "website": "None", "summary": "None", "logo": "None", "latitude": 45.49846698248619, "longitude": -73.56698518102652}, "818127755RR0001": {"name": "Communaut\u00e9s Solidaires", "designationCode": "C", "categoryCode": "09", "address": "5, RUE DU TEMPLE, 3E \u00c9TAGE", "city": "QU\u00c9BEC", "province": "QC", "country": "CA", "postalCode": "G1E4Z8", "twitter": "None", "instagram": "None", "facebook": "None", "youtube": "None", "website": "None", "summary": "None", "logo": "None", "latitude": 46.85945422064176, "longitude": -71.18942280838458}}