{"119108009RR0001": {"name": "COMMUNITY LEARNING ALTERNATIVES (HASTINGS COUNTY AND DISTRICT)", "designationCode": "C", "categoryCode": "20", "address": "P.O. BOX 22047", "city": "BELLEVILLE", "province": "ON", "country": "CA", "postalCode": "K8N5V7", "twitter": "None", "instagram": "None", "facebook": "None", "youtube": "None", "website": "None", "summary": "None", "logo": "None", "latitude": 44.16104400000006, "longitude": -77.38183249999993}, "885249326RR0001": {"name": "COMMUNITY LEARNING ASSOCIATION NORTH OF SMOKEY", "designationCode": "C", "categoryCode": "21", "address": "P.O. BOX 270", "city": "INGONISH", "province": "NS", "country": "CA", "postalCode": "B0C1K0", "twitter": "None", "instagram": "None", "facebook": "None", "youtube": "None", "website": "None", "summary": "None", "logo": "None", "latitude": 46.69308600000005, "longitude": -60.36474499999993}, "889557609RR0001": {"name": "COMMUNITY LEARNING PARTNERSHIP OF GREATER TORONTO AREA", "designationCode": "C", "categoryCode": "21", "address": "APARTMENT 718                 2195 JANE STREET", "city": "NORTH YORK", "province": "ON", "country": "CA", "postalCode": "M3M1A3", "twitter": "None", "instagram": "None", "facebook": "None", "youtube": "None", "website": "None", "summary": "None", "logo": "None", "latitude": 43.72209468249747, "longitude": -79.50886347423457}, "862606563RR0001": {"name": "COMMUNITY LEGAL ASSISTANCE SERVICES FOR SASKATOON INNER CITY INC.", "designationCode": "C", "categoryCode": "59", "address": "123 20TH ST W", "city": "SASKATOON", "province": "SK", "country": "CA", "postalCode": "S7M0W7", "twitter": "None", "instagram": "None", "facebook": "None", "youtube": "None", "website": "None", "summary": "None", "logo": "None", "latitude": 52.12603497210446, "longitude": -106.67068945414653}, "118870732RR0001": {"name": "COMMUNITY LEGAL EDUCATION ASSOCIATION (MANITOBA) INCORPORATED", "designationCode": "C", "categoryCode": "21", "address": "301 - 441 MAIN ST", "city": "WINNIPEG", "province": "MB", "country": "CA", "postalCode": "R3B1B4", "twitter": "None", "instagram": "None", "facebook": "None", "youtube": "None", "website": "None", "summary": "None", "logo": "None", "latitude": 49.898076160424715, "longitude": -97.13897239630123}, "118870740RR0001": {"name": "COMMUNITY LEGAL EDUCATION ONTARIO/\u00c9ducation juridique communautaire Ontario", "designationCode": "C", "categoryCode": "59", "address": "506 - 180 DUNDAS ST W", "city": "TORONTO", "province": "ON", "country": "CA", "postalCode": "M5G1Z8", "twitter": "None", "instagram": "None", "facebook": "None", "youtube": "None", "website": "None", "summary": "None", "logo": "None", "latitude": 43.65505800000001, "longitude": -79.38679049999999}, "118870757RR0001": {"name": "COMMUNITY LEGAL INFORMATION ASSOCIATION OF PRINCE EDWARD ISLAND INC.", "designationCode": "C", "categoryCode": "59", "address": "111 - 40 ENMAN CRES", "city": "CHARLOTTETOWN", "province": "PE", "country": "CA", "postalCode": "C1E1E6", "twitter": "None", "instagram": "None", "facebook": "None", "youtube": "None", "website": "None", "summary": "None", "logo": "None", "latitude": 46.26020892990774, "longitude": -63.147127340887}, "889336442RR0001": {"name": "COMMUNITY LEGAL SERVICES INC LES SERVICES JURIDIQUES COMMUNAUTAIRES INC", "designationCode": "A", "categoryCode": "59", "address": "2533 RUE CENTRE STE 101", "city": "MONTREAL", "province": "QC", "country": "CA", "postalCode": "H3K1J9", "twitter": "None", "instagram": "None", "facebook": "None", "youtube": "None", "website": "None", "summary": "None", "logo": "None", "latitude": 45.478754244532205, "longitude": -73.5689286236654}, "871331948RR0001": {"name": "COMMUNITY LIFE CHURCH", "designationCode": "C", "categoryCode": "36", "address": "7020 GRANVILLE RD", "city": "PORT ALBERNI", "province": "BC", "country": "CA", "postalCode": "V9Y8M1", "twitter": "None", "instagram": "None", "facebook": "None", "youtube": "None", "website": "None", "summary": "None", "logo": "None", "latitude": 49.311462523667096, "longitude": -124.8496441888371}, "133682724RR0001": {"name": "COMMUNITY LINKS ASSOCIATION", "designationCode": "C", "categoryCode": "59", "address": "BOX 29103", "city": "HALIFAX", "province": "NS", "country": "CA", "postalCode": "B3L4T8", "twitter": "None", "instagram": "None", "facebook": "None", "youtube": "None", "website": "None", "summary": "None", "logo": "None", "latitude": 44.65086900000006, "longitude": -63.61343899999993}, "820578649RR0001": {"name": "COMMUNITY LIVING - GRIMSBY, LINCOLN AND WEST LINCOLN FOUNDATION", "designationCode": "A", "categoryCode": "03", "address": "PO BOX 220", "city": "BEAMSVILLE", "province": "ON", "country": "CA", "postalCode": "L0R1B0", "twitter": "None", "instagram": "None", "facebook": "None", "youtube": "None", "website": "None", "summary": "None", "logo": "None", "latitude": 43.16732700000006, "longitude": -79.47640249999994}, "119060267RR0001": {"name": "COMMUNITY LIVING - NORTH FRONTENAC", "designationCode": "C", "categoryCode": "11", "address": "P.O. BOX 76", "city": "SHARBOT LAKE", "province": "ON", "country": "CA", "postalCode": "K0H2P0", "twitter": "None", "instagram": "None", "facebook": "None", "youtube": "None", "website": "None", "summary": "None", "logo": "None", "latitude": 44.77155000000005, "longitude": -76.68740999999994}, "119157741RR0001": {"name": "COMMUNITY LIVING - SOUTH HURON", "designationCode": "C", "categoryCode": "11", "address": "146 MAIN ST                   BOX 29", "city": "DASHWOOD", "province": "ON", "country": "CA", "postalCode": "N0M1N0", "twitter": "None", "instagram": "None", "facebook": "None", "youtube": "None", "website": "None", "summary": "None", "logo": "None"}, "119157980RR0001": {"name": "COMMUNITY LIVING - SOUTH MUSKOKA", "designationCode": "C", "categoryCode": "11", "address": "15 DEPOT DRIVE", "city": "BRACEBRIDGE", "province": "ON", "country": "CA", "postalCode": "P1L0A1", "twitter": "None", "instagram": "None", "facebook": "None", "youtube": "None", "website": "None", "summary": "None", "logo": "None", "latitude": 45.04949866054027, "longitude": -79.29236230927862}, "131809204RR0001": {"name": "COMMUNITY LIVING ACCESS SUPPORT SERVICES", "designationCode": "C", "categoryCode": "11", "address": "89 CULVER ST", "city": "SIMCOE", "province": "ON", "country": "CA", "postalCode": "N3Y2V5", "twitter": "None", "instagram": "None", "facebook": "None", "youtube": "None", "website": "None", "summary": "None", "logo": "None", "latitude": 42.83508681709849, "longitude": -80.3018067599112}, "106690670RR0001": {"name": "COMMUNITY LIVING AJAX-PICKERING AND WHITBY", "designationCode": "C", "categoryCode": "11", "address": "36 EMPEROR STREET", "city": "AJAX", "province": "ON", "country": "CA", "postalCode": "L1S1M7", "twitter": "None", "instagram": "None", "facebook": "None", "youtube": "None", "website": "None", "summary": "None", "logo": "None", "latitude": 43.838834768855335, "longitude": -79.0129492727218}, "106699416RR0001": {"name": "COMMUNITY LIVING ALGOMA", "designationCode": "C", "categoryCode": "11", "address": "99, NORTHERN AVENUE EAST", "city": "SAULT STE-MARIE", "province": "ON", "country": "CA", "postalCode": "P6B4H5", "twitter": "None", "instagram": "None", "facebook": "None", "youtube": "None", "website": "None", "summary": "None", "logo": "None", "latitude": 46.53404154674263, "longitude": -84.33097183236194}, "106962749RR0001": {"name": "COMMUNITY LIVING ALTERNATIVES SOCIETY, CLAS", "designationCode": "C", "categoryCode": "01", "address": "2-46 CHIPMAN DRIVE", "city": "KENTVILLE", "province": "NS", "country": "CA", "postalCode": "B4N3V7", "twitter": "None", "instagram": "None", "facebook": "None", "youtube": "None", "website": "None", "summary": "None", "logo": "None", "latitude": 45.06394009686077, "longitude": -64.54676612236733}, "118870807RR0001": {"name": "COMMUNITY LIVING ASSOCIATION (LANARK COUNTY)", "designationCode": "C", "categoryCode": "11", "address": "178 TOWNLINE ROAD EAST", "city": "CARLETON PLACE", "province": "ON", "country": "CA", "postalCode": "K7C2C2", "twitter": "None", "instagram": "None", "facebook": "None", "youtube": "None", "website": "None", "summary": "None", "logo": "None", "latitude": 45.146609352999356, "longitude": -76.14583287398028}, "106962764RR0001": {"name": "COMMUNITY LIVING ASSOCIATION FOR SOUTH SIMCOE", "designationCode": "C", "categoryCode": "11", "address": "125 DUFFERIN ST S", "city": "ALLISTON", "province": "ON", "country": "CA", "postalCode": "L9R1E9", "twitter": "None", "instagram": "None", "facebook": "None", "youtube": "None", "website": "None", "summary": "None", "logo": "None", "latitude": 44.14932712461771, "longitude": -79.86274494558266}, "107955387RR0002": {"name": "COMMUNITY LIVING ASSOCIATION SASKATOON INC.", "designationCode": "C", "categoryCode": "11", "address": "102 - 135 ROBIN CRESCENT", "city": "SASKATOON", "province": "SK", "country": "CA", "postalCode": "S7L6M3", "twitter": "None", "instagram": "None", "facebook": "None", "youtube": "None", "website": "None", "summary": "None", "logo": "None", "latitude": 52.15717217320666, "longitude": -106.67949130950976}, "106720428RR0001": {"name": "COMMUNITY LIVING ATIKOKAN", "designationCode": "C", "categoryCode": "01", "address": "114 GORRIE STREET             P.O. BOX 2054", "city": "ATIKOKAN", "province": "ON", "country": "CA", "postalCode": "P0T1C0", "twitter": "None", "instagram": "None", "facebook": "None", "youtube": "None", "website": "None", "summary": "None", "logo": "None", "latitude": 48.756330167638055, "longitude": -91.62331269917456}, "106807126RR0001": {"name": "COMMUNITY LIVING BRANT", "designationCode": "C", "categoryCode": "11", "address": "366 DALHOUSIE ST.", "city": "BRANTFORD", "province": "ON", "country": "CA", "postalCode": "N3S3W2", "twitter": "None", "instagram": "None", "facebook": "None", "youtube": "None", "website": "None", "summary": "None", "logo": "None", "latitude": 43.14051146436589, "longitude": -80.24707379254421}, "106818826RR0001": {"name": "COMMUNITY LIVING BURLINGTON", "designationCode": "C", "categoryCode": "11", "address": "3057 MAINWAY DR", "city": "BURLINGTON", "province": "ON", "country": "CA", "postalCode": "L7M1A1", "twitter": "None", "instagram": "None", "facebook": "None", "youtube": "None", "website": "None", "summary": "None", "logo": "None", "latitude": 43.35805945354585, "longitude": -79.80958278746566}, "106834211RR0001": {"name": "COMMUNITY LIVING CAMBRIDGE", "designationCode": "C", "categoryCode": "11", "address": "160 HESPELER ROAD", "city": "CAMBRIDGE", "province": "ON", "country": "CA", "postalCode": "N1R6V7", "twitter": "None", "instagram": "None", "facebook": "None", "youtube": "None", "website": "None", "summary": "None", "logo": "None", "latitude": 43.380944413815044, "longitude": -80.31977787959455}, "106835101RR0001": {"name": "COMMUNITY LIVING CAMPBELLFORD/BRIGHTON", "designationCode": "C", "categoryCode": "11", "address": "P O BOX 1360", "city": "CAMPBELLFORD", "province": "ON", "country": "CA", "postalCode": "K0L1L0", "twitter": "None", "instagram": "None", "facebook": "None", "youtube": "None", "website": "None", "summary": "None", "logo": "None", "latitude": 44.287060000000054, "longitude": -77.80936999999994}, "100931203RR0001": {"name": "COMMUNITY LIVING CHATHAM-KENT", "designationCode": "C", "categoryCode": "11", "address": "P.O BOX 967", "city": "CHATHAM", "province": "ON", "country": "CA", "postalCode": "N7M5L3", "twitter": "None", "instagram": "None", "facebook": "None", "youtube": "None", "website": "None", "summary": "None", "logo": "None", "latitude": 42.404613000000055, "longitude": -82.18960099999994}, "125893586RR0001": {"name": "COMMUNITY LIVING DUFFERIN", "designationCode": "C", "categoryCode": "11", "address": "065371 COUNTY RD 3", "city": "EAST GARAFRAXA", "province": "ON", "country": "CA", "postalCode": "L9W7J8", "twitter": "None", "instagram": "None", "facebook": "None", "youtube": "None", "website": "None", "summary": "None", "logo": "None", "latitude": 43.904697403547885, "longitude": -80.14909040546426}, "106887813RR0001": {"name": "COMMUNITY LIVING DURHAM NORTH", "designationCode": "C", "categoryCode": "11", "address": "P.O. BOX 964", "city": "PORT PERRY", "province": "ON", "country": "CA", "postalCode": "L9L1A8", "twitter": "None", "instagram": "None", "facebook": "None", "youtube": "None", "website": "None", "summary": "None", "logo": "None", "latitude": 44.10681900000006, "longitude": -78.94273399999993}, "108099482RR0001": {"name": "COMMUNITY LIVING ELGIN", "designationCode": "C", "categoryCode": "11", "address": "400 TALBOT ST", "city": "ST THOMAS", "province": "ON", "country": "CA", "postalCode": "N5P1B8", "twitter": "None", "instagram": "None", "facebook": "None", "youtube": "None", "website": "None", "summary": "None", "logo": "None"}, "118901974RR0001": {"name": "COMMUNITY LIVING ESSEX COUNTY", "designationCode": "C", "categoryCode": "11", "address": "372 TALBOT ST N", "city": "ESSEX", "province": "ON", "country": "CA", "postalCode": "N8M2W4", "twitter": "None", "instagram": "None", "facebook": "None", "youtube": "None", "website": "None", "summary": "None", "logo": "None", "latitude": 42.18143074292586, "longitude": -82.83028488126872}, "108055716RR0001": {"name": "COMMUNITY LIVING GEORGINA", "designationCode": "C", "categoryCode": "11", "address": "BOX 68", "city": "SUTTON WEST", "province": "ON", "country": "CA", "postalCode": "L0E1R0", "twitter": "None", "instagram": "None", "facebook": "None", "youtube": "None", "website": "None", "summary": "None", "logo": "None", "latitude": 44.33123400000005, "longitude": -79.33264549999993}, "107436313RR0001": {"name": "COMMUNITY LIVING GLENGARRY INC. - INTEGRATION COMMUNAUTAIRE GLENGARRY INC.", "designationCode": "C", "categoryCode": "11", "address": "332 MACDONALD BLVD.", "city": "ALEXANDRIA", "province": "ON", "country": "CA", "postalCode": "K0C1A0", "twitter": "None", "instagram": "None", "facebook": "None", "youtube": "None", "website": "None", "summary": "None", "logo": "None", "latitude": 45.316635305016575, "longitude": -74.64760624155264}, "125499244RR0001": {"name": "COMMUNITY LIVING GREATER SUDBURY/INTEGRATION COMMUNAUTAIRE GRAND SUDBURY", "designationCode": "C", "categoryCode": "11", "address": "303 YORK STREET               UNIT 241", "city": "SUDBURY", "province": "ON", "country": "CA", "postalCode": "P3E2A5", "twitter": "None", "instagram": "None", "facebook": "None", "youtube": "None", "website": "None", "summary": "None", "logo": "None", "latitude": 46.475423264589104, "longitude": -81.00614550421503}, "107457061RR0001": {"name": "COMMUNITY LIVING GUELPH WELLINGTON", "designationCode": "C", "categoryCode": "11", "address": "8 ROYAL ROAD", "city": "GUELPH", "province": "ON", "country": "CA", "postalCode": "N1H1G3", "twitter": "None", "instagram": "None", "facebook": "None", "youtube": "None", "website": "None", "summary": "None", "logo": "None", "latitude": 43.54033551647553, "longitude": -80.2947697134857}, "125213520RR0001": {"name": "COMMUNITY LIVING HALDIMAND", "designationCode": "C", "categoryCode": "11", "address": "P.O. BOX 396                  2256 RIVER ROAD", "city": "CAYUGA", "province": "ON", "country": "CA", "postalCode": "N0A1E0", "twitter": "None", "instagram": "None", "facebook": "None", "youtube": "None", "website": "None", "summary": "None", "logo": "None", "latitude": 42.945761074932236, "longitude": -79.86688055343639}, "108083791RR0001": {"name": "COMMUNITY LIVING HAMILTON", "designationCode": "C", "categoryCode": "11", "address": "191 YORK STREET", "city": "HAMILTON", "province": "ON", "country": "CA", "postalCode": "L8R1Y6", "twitter": "None", "instagram": "None", "facebook": "None", "youtube": "None", "website": "None", "summary": "None", "logo": "None", "latitude": 43.26121415624111, "longitude": -79.87486761215287}, "106962822RR0001": {"name": "COMMUNITY LIVING HUNTSVILLE", "designationCode": "C", "categoryCode": "11", "address": "99 WEST ROAD", "city": "HUNTSVILLE", "province": "ON", "country": "CA", "postalCode": "P1H1M1", "twitter": "None", "instagram": "None", "facebook": "None", "youtube": "None", "website": "None", "summary": "None", "logo": "None", "latitude": 45.332479238934944, "longitude": -79.22622228224378}, "107498644RR0001": {"name": "COMMUNITY LIVING HURONIA", "designationCode": "C", "categoryCode": "11", "address": "339 OLIVE ST.", "city": "MIDLAND", "province": "ON", "country": "CA", "postalCode": "L4R2R4", "twitter": "None", "instagram": "None", "facebook": "None", "youtube": "None", "website": "None", "summary": "None", "logo": "None", "latitude": 44.75378263375774, "longitude": -79.86980674573978}, "868370099RR0001": {"name": "COMMUNITY LIVING HURONIA FOUNDATION", "designationCode": "A", "categoryCode": "03", "address": "339 OLIVE ST", "city": "MIDLAND", "province": "ON", "country": "CA", "postalCode": "L4R2R4", "twitter": "None", "instagram": "None", "facebook": "None", "youtube": "None", "website": "None", "summary": "None", "logo": "None", "latitude": 44.75378263375774, "longitude": -79.86980674573978}, "106720493RR0001": {"name": "COMMUNITY LIVING IROQUOIS FALLS L'INTERGRATION COMMUNAUTAIRE D'IROQUOIS FALLS", "designationCode": "C", "categoryCode": "11", "address": "9 VETERAN'S DRIVE             P.O. BOX 310", "city": "IROQUOIS FALLS", "province": "ON", "country": "CA", "postalCode": "P0K1E0", "twitter": "None", "instagram": "None", "facebook": "None", "youtube": "None", "website": "None", "summary": "None", "logo": "None", "latitude": 48.37231500000006, "longitude": -80.16525799999994}, "889487849RR0001": {"name": "COMMUNITY LIVING KINCARDINE AND DISTRICT", "designationCode": "C", "categoryCode": "11", "address": "PO BOX 9000", "city": "KINCARDINE", "province": "ON", "country": "CA", "postalCode": "N2Z2Z3", "twitter": "None", "instagram": "None", "facebook": "None", "youtube": "None", "website": "None", "summary": "None", "logo": "None", "latitude": 44.18160900000005, "longitude": -81.63174049999994}, "119240596RR0001": {"name": "COMMUNITY LIVING KINGSTON AND DISTRICT", "designationCode": "C", "categoryCode": "11", "address": "1412 PRINCESS ST", "city": "KINGSTON", "province": "ON", "country": "CA", "postalCode": "K7M3E5", "twitter": "None", "instagram": "None", "facebook": "None", "youtube": "None", "website": "None", "summary": "None", "logo": "None", "latitude": 44.25024106933499, "longitude": -76.53116371106246}, "129298907RR0001": {"name": "COMMUNITY LIVING KIRKLAND LAKE", "designationCode": "C", "categoryCode": "11", "address": "P.O. BOX 274", "city": "KIRKLAND LAKE", "province": "ON", "country": "CA", "postalCode": "P2N3H7", "twitter": "None", "instagram": "None", "facebook": "None", "youtube": "None", "website": "None", "summary": "None", "logo": "None", "latitude": 48.15028500000005, "longitude": -80.03540149999994}, "108087222RR0001": {"name": "COMMUNITY LIVING LONDON", "designationCode": "C", "categoryCode": "11", "address": "190 ADELAIDE ST S", "city": "LONDON", "province": "ON", "country": "CA", "postalCode": "N5Z3L1", "twitter": "None", "instagram": "None", "facebook": "None", "youtube": "None", "website": "None", "summary": "None", "logo": "None", "latitude": 42.96395797336825, "longitude": -81.22063340100443}, "107661050RR0001": {"name": "COMMUNITY LIVING MANITOULIN", "designationCode": "C", "categoryCode": "11", "address": "PO BOX 152", "city": "MINDEMOYA", "province": "ON", "country": "CA", "postalCode": "P0P1S0", "twitter": "None", "instagram": "None", "facebook": "None", "youtube": "None", "website": "None", "summary": "None", "logo": "None", "latitude": 45.741940000000056, "longitude": -82.14143999999999}, "107678377RR0001": {"name": "COMMUNITY LIVING MATTAWA/INTEGRATION COMMUNAUTAIRE DE MATTAWA", "designationCode": "C", "categoryCode": "09", "address": "P.O. BOX 550", "city": "MATTAWA", "province": "ON", "country": "CA", "postalCode": "P0H1V0", "twitter": "None", "instagram": "None", "facebook": "None", "youtube": "None", "website": "None", "summary": "None", "logo": "None", "latitude": 46.352402765527096, "longitude": -78.81283329813716}, "122960248RR0001": {"name": "COMMUNITY LIVING MEAFORD", "designationCode": "C", "categoryCode": "10", "address": "76 SYKES ST N", "city": "MEAFORD", "province": "ON", "country": "CA", "postalCode": "N4L1R2", "twitter": "None", "instagram": "None", "facebook": "None", "youtube": "None", "website": "None", "summary": "None", "logo": "None", "latitude": 44.60845866392852, "longitude": -80.59241969002811}, "106962830RR0002": {"name": "COMMUNITY LIVING MISSISSAUGA", "designationCode": "C", "categoryCode": "11", "address": "6695 MILLCREEK DR UNIT 1", "city": "MISSISSAUGA", "province": "ON", "country": "CA", "postalCode": "L5N5R8", "twitter": "None", "instagram": "None", "facebook": "None", "youtube": "None", "website": "None", "summary": "None", "logo": "None", "latitude": 43.594285551525665, "longitude": -79.74954363811632}, "871161121RR0001": {"name": "COMMUNITY LIVING MISSISSAUGA FOUNDATION", "designationCode": "C", "categoryCode": "13", "address": "6695 MILLCREEK DRIVE          UNIT #1", "city": "MISSISSAUGA", "province": "ON", "country": "CA", "postalCode": "L5N5R8", "twitter": "None", "instagram": "None", "facebook": "None", "youtube": "None", "website": "None", "summary": "None", "logo": "None", "latitude": 43.594285551525665, "longitude": -79.74954363811632}, "119056307RR0001": {"name": "COMMUNITY LIVING NEWMARKET / AURORA DISTRICT", "designationCode": "C", "categoryCode": "11", "address": "757 BOGART AVE", "city": "NEWMARKET", "province": "ON", "country": "CA", "postalCode": "L3Y2A7", "twitter": "None", "instagram": "None", "facebook": "None", "youtube": "None", "website": "None", "summary": "None", "logo": "None", "latitude": 44.05767518737356, "longitude": -79.44526005718728}, "103918389RR0001": {"name": "COMMUNITY LIVING NORTH BAY", "designationCode": "C", "categoryCode": "11", "address": "161 MAIN STREET EAST", "city": "NORTH BAY", "province": "ON", "country": "CA", "postalCode": "P1B1A9", "twitter": "None", "instagram": "None", "facebook": "None", "youtube": "None", "website": "None", "summary": "None", "logo": "None", "latitude": 46.30948079516995, "longitude": -79.46324758979164}, "107782559RR0001": {"name": "COMMUNITY LIVING NORTH GRENVILLE", "designationCode": "C", "categoryCode": "11", "address": "P.O. BOX 1430", "city": "KEMPTVILLE", "province": "ON", "country": "CA", "postalCode": "K0G1J0", "twitter": "None", "instagram": "None", "facebook": "None", "youtube": "None", "website": "None", "summary": "None", "logo": "None"}, "107782575RR0001": {"name": "COMMUNITY LIVING NORTH HALTON", "designationCode": "C", "categoryCode": "11", "address": "B-917 NIPISSING RD", "city": "MILTON", "province": "ON", "country": "CA", "postalCode": "L9T5E3", "twitter": "None", "instagram": "None", "facebook": "None", "youtube": "None", "website": "None", "summary": "None", "logo": "None", "latitude": 43.52415429617957, "longitude": -79.86273783712245}, "867393167RR0001": {"name": "COMMUNITY LIVING NORTH HALTON HOUSING CORPORATION", "designationCode": "C", "categoryCode": "11", "address": "917 NIPISSING ROAD, SUITE 'B'", "city": "MILTON", "province": "ON", "country": "CA", "postalCode": "L9T5E3", "twitter": "None", "instagram": "None", "facebook": "None", "youtube": "None", "website": "None", "summary": "None", "logo": "None", "latitude": 43.52415429617957, "longitude": -79.86273783712245}, "107629008RR0001": {"name": "COMMUNITY LIVING NORTH PERTH", "designationCode": "C", "categoryCode": "11", "address": "PO BOX 220  820 MAIN ST", "city": "LISTOWEL", "province": "ON", "country": "CA", "postalCode": "N4W3H4", "twitter": "None", "instagram": "None", "facebook": "None", "youtube": "None", "website": "None", "summary": "None", "logo": "None"}, "107790552RR0001": {"name": "COMMUNITY LIVING OAKVILLE", "designationCode": "C", "categoryCode": "11", "address": "301 WYECROFT ROAD", "city": "OAKVILLE", "province": "ON", "country": "CA", "postalCode": "L6K2H2", "twitter": "None", "instagram": "None", "facebook": "None", "youtube": "None", "website": "None", "summary": "None", "logo": "None", "latitude": 43.44291113073453, "longitude": -79.69996404345305}, "119248524RR0001": {"name": "COMMUNITY LIVING ONTARIO/INTEGRATION COMMUNAUTAIRE ONTARIO", "designationCode": "C", "categoryCode": "11", "address": "201 - 1 VALLEYBROOK DR", "city": "NORTH YORK", "province": "ON", "country": "CA", "postalCode": "M3B2S7", "twitter": "None", "instagram": "None", "facebook": "None", "youtube": "None", "website": "None", "summary": "None", "logo": "None", "latitude": 43.75865213959268, "longitude": -79.3541575124075}, "108091307RR0001": {"name": "COMMUNITY LIVING OSHAWA/CLARINGTON", "designationCode": "C", "categoryCode": "11", "address": "39 WELLINGTON AVE E", "city": "OSHAWA", "province": "ON", "country": "CA", "postalCode": "L1H3Y1", "twitter": "None", "instagram": "None", "facebook": "None", "youtube": "None", "website": "None", "summary": "None", "logo": "None", "latitude": 43.87161802412158, "longitude": -78.83690274381104}, "118870856RR0001": {"name": "COMMUNITY LIVING OWEN SOUND AND DISTRICT", "designationCode": "C", "categoryCode": "11", "address": "769 4TH AVE E", "city": "OWEN SOUND", "province": "ON", "country": "CA", "postalCode": "N4K2N5", "twitter": "None", "instagram": "None", "facebook": "None", "youtube": "None", "website": "None", "summary": "None", "logo": "None", "latitude": 44.56376297974491, "longitude": -80.93856753367221}, "119262319RR0001": {"name": "COMMUNITY LIVING PARRY SOUND", "designationCode": "C", "categoryCode": "11", "address": "38 JOSEPH STREET", "city": "PARRY SOUND", "province": "ON", "country": "CA", "postalCode": "P2A2G5", "twitter": "None", "instagram": "None", "facebook": "None", "youtube": "None", "website": "None", "summary": "None", "logo": "None", "latitude": 45.357469230625085, "longitude": -80.03910671916985}, "107837262RR0001": {"name": "COMMUNITY LIVING PETERBOROUGH", "designationCode": "C", "categoryCode": "11", "address": "200 - 205 MCLAUGHLIN RD", "city": "LINDSAY", "province": "ON", "country": "CA", "postalCode": "K9V0K7", "twitter": "None", "instagram": "None", "facebook": "None", "youtube": "None", "website": "None", "summary": "None", "logo": "None", "latitude": 44.33947304012306, "longitude": -78.75968331831855}, "107852881RR0001": {"name": "COMMUNITY LIVING PORT COLBORNE - WAINFLEET", "designationCode": "C", "categoryCode": "11", "address": "100 MCRAE AVE", "city": "PORT COLBORNE", "province": "ON", "country": "CA", "postalCode": "L3K2A8", "twitter": "None", "instagram": "None", "facebook": "None", "youtube": "None", "website": "None", "summary": "None", "logo": "None", "latitude": 42.89060700000002, "longitude": -79.23916048052335}, "107858524RR0001": {"name": "COMMUNITY LIVING PRINCE EDWARD", "designationCode": "C", "categoryCode": "11", "address": "#1-67 KING ST", "city": "PICTON", "province": "ON", "country": "CA", "postalCode": "K0K2T0", "twitter": "None", "instagram": "None", "facebook": "None", "youtube": "None", "website": "None", "summary": "None", "logo": "None", "latitude": 44.00859779909376, "longitude": -77.14241381005802}, "119268829RR0001": {"name": "COMMUNITY LIVING QUINTE WEST", "designationCode": "C", "categoryCode": "11", "address": "11 CANAL ST", "city": "TRENTON", "province": "ON", "country": "CA", "postalCode": "K8V4K3", "twitter": "None", "instagram": "None", "facebook": "None", "youtube": "None", "website": "None", "summary": "None", "logo": "None", "latitude": 44.11351505775777, "longitude": -77.5946756307879}, "106962889RR0001": {"name": "COMMUNITY LIVING RENFREW COUNTY SOUTH", "designationCode": "C", "categoryCode": "11", "address": "P.O. BOX 683", "city": "RENFREW", "province": "ON", "country": "CA", "postalCode": "K7V4E7", "twitter": "None", "instagram": "None", "facebook": "None", "youtube": "None", "website": "None", "summary": "None", "logo": "None", "latitude": 45.47460300000006, "longitude": -76.68749149999994}, "106962897RR0001": {"name": "COMMUNITY LIVING SOCIETY", "designationCode": "C", "categoryCode": "59", "address": "7FLR - 713 COLUMBIA ST", "city": "NEW WESTMINSTER", "province": "BC", "country": "CA", "postalCode": "V3M1B2", "twitter": "None", "instagram": "None", "facebook": "None", "youtube": "None", "website": "None", "summary": "None", "logo": "None", "latitude": 49.20196895894155, "longitude": -122.91024440010945}, "108010844RR0001": {"name": "COMMUNITY LIVING ST. CATHARINES", "designationCode": "C", "categoryCode": "11", "address": "79 WELLAND AVE.", "city": "ST. CATHARINES", "province": "ON", "country": "CA", "postalCode": "L2R2N8", "twitter": "None", "instagram": "None", "facebook": "None", "youtube": "None", "website": "None", "summary": "None", "logo": "None"}, "108029752RR0001": {"name": "COMMUNITY LIVING ST. MARYS AND AREA", "designationCode": "C", "categoryCode": "11", "address": "PO BOX 1618                   300 ELGIN STR", "city": "ST MARYS", "province": "ON", "country": "CA", "postalCode": "N4X1B9", "twitter": "None", "instagram": "None", "facebook": "None", "youtube": "None", "website": "None", "summary": "None", "logo": "None", "latitude": 43.257978608921555, "longitude": -81.13597721273591}, "108040270RR0001": {"name": "COMMUNITY LIVING STRATFORD AND AREA", "designationCode": "C", "categoryCode": "11", "address": "112 FREDERICK STREET", "city": "STRATFORD", "province": "ON", "country": "CA", "postalCode": "N5A3V7", "twitter": "None", "instagram": "None", "facebook": "None", "youtube": "None", "website": "None", "summary": "None", "logo": "None", "latitude": 43.36532449711446, "longitude": -80.96211063918865}, "108101908RR0001": {"name": "COMMUNITY LIVING TEMISKAMING SOUTH", "designationCode": "C", "categoryCode": "11", "address": "BOX 1149", "city": "HAILEYBURY", "province": "ON", "country": "CA", "postalCode": "P0J1K0", "twitter": "None", "instagram": "None", "facebook": "None", "youtube": "None", "website": "None", "summary": "None", "logo": "None", "latitude": 47.449380000000076, "longitude": -79.63766999999996}, "107590713RR0001": {"name": "COMMUNITY LIVING THUNDER BAY", "designationCode": "C", "categoryCode": "11", "address": "1501 DEASE ST", "city": "THUNDER BAY", "province": "ON", "country": "CA", "postalCode": "P7C5H3", "twitter": "None", "instagram": "None", "facebook": "None", "youtube": "None", "website": "None", "summary": "None", "logo": "None", "latitude": 48.3900374787926, "longitude": -89.25890069455826}, "123180549RR0001": {"name": "COMMUNITY LIVING TILLSONBURG", "designationCode": "C", "categoryCode": "11", "address": "96 TILLSON AVE", "city": "TILLSONBURG", "province": "ON", "country": "CA", "postalCode": "N4G3A1", "twitter": "None", "instagram": "None", "facebook": "None", "youtube": "None", "website": "None", "summary": "None", "logo": "None", "latitude": 42.865992646774245, "longitude": -80.72350308179514}, "106962921RR0001": {"name": "COMMUNITY LIVING TIMMINS INTEGRATION COMMUNAUTAIRE", "designationCode": "C", "categoryCode": "11", "address": "166 BROUSSEAU AVE", "city": "TIMMINS", "province": "ON", "country": "CA", "postalCode": "P4N5Y4", "twitter": "None", "instagram": "None", "facebook": "None", "youtube": "None", "website": "None", "summary": "None", "logo": "None", "latitude": 48.488242573224944, "longitude": -81.33073520430041}, "107694143RR0001": {"name": "COMMUNITY LIVING TORONTO", "designationCode": "C", "categoryCode": "11", "address": "20 SPADINA ROAD", "city": "TORONTO", "province": "ON", "country": "CA", "postalCode": "M5R2S7", "twitter": "None", "instagram": "None", "facebook": "None", "youtube": "None", "website": "None", "summary": "None", "logo": "None", "latitude": 43.66860591312256, "longitude": -79.40465540830377}, "129899209RR0001": {"name": "COMMUNITY LIVING UPPER OTTAWA VALLEY", "designationCode": "C", "categoryCode": "11", "address": "PO BOX 1030 STN MAIN", "city": "PEMBROKE", "province": "ON", "country": "CA", "postalCode": "K8A6Y6", "twitter": "None", "instagram": "None", "facebook": "None", "youtube": "None", "website": "None", "summary": "None", "logo": "None", "latitude": 45.826494000000054, "longitude": -77.11217449999994}, "108188426RR0001": {"name": "COMMUNITY LIVING WALKERTON AND DISTRICT", "designationCode": "C", "categoryCode": "11", "address": "BOX 999                       19 DURHAM ST EAST", "city": "WALKERTON", "province": "ON", "country": "CA", "postalCode": "N0G2V0", "twitter": "None", "instagram": "None", "facebook": "None", "youtube": "None", "website": "None", "summary": "None", "logo": "None", "latitude": 44.13380847766289, "longitude": -81.15320366646043}, "106728496RR0001": {"name": "COMMUNITY LIVING WALLACEBURG", "designationCode": "C", "categoryCode": "11", "address": "1100 DUFFERIN AVENUE", "city": "WALLACEBURG", "province": "ON", "country": "CA", "postalCode": "N8A2W1", "twitter": "None", "instagram": "None", "facebook": "None", "youtube": "None", "website": "None", "summary": "None", "logo": "None", "latitude": 42.592949453257376, "longitude": -82.39446047155059}, "108103839RR0001": {"name": "COMMUNITY LIVING WELLAND PELHAM", "designationCode": "C", "categoryCode": "11", "address": "535 SUTHERLAND AVENUE", "city": "WELLAND", "province": "ON", "country": "CA", "postalCode": "L3B5A4", "twitter": "None", "instagram": "None", "facebook": "None", "youtube": "None", "website": "None", "summary": "None", "logo": "None", "latitude": 42.97854350158652, "longitude": -79.23153086081135}, "108202870RR0001": {"name": "COMMUNITY LIVING WEST NIPISSING INTEGRATION COMMUNAUTAIRE DE NIPISSING QUEST", "designationCode": "C", "categoryCode": "11", "address": "90 CHOLETTE ST", "city": "STURGEON FALLS", "province": "ON", "country": "CA", "postalCode": "P2B3C1", "twitter": "None", "instagram": "None", "facebook": "None", "youtube": "None", "website": "None", "summary": "None", "logo": "None", "latitude": 46.35922498972821, "longitude": -79.91771146064455}, "122716707RR0001": {"name": "COMMUNITY LIVING WINDSOR", "designationCode": "C", "categoryCode": "11", "address": "7025 ENTERPRISE WAY", "city": "WINDSOR", "province": "ON", "country": "CA", "postalCode": "N8T3N6", "twitter": "None", "instagram": "None", "facebook": "None", "youtube": "None", "website": "None", "summary": "None", "logo": "None", "latitude": 42.309112181228066, "longitude": -82.93937650121116}, "108226556RR0001": {"name": "COMMUNITY LIVING YORK SOUTH", "designationCode": "C", "categoryCode": "11", "address": "101 EDWARD AVE", "city": "RICHMOND HILL", "province": "ON", "country": "CA", "postalCode": "L4C5E5", "twitter": "None", "instagram": "None", "facebook": "None", "youtube": "None", "website": "None", "summary": "None", "logo": "None", "latitude": 43.894849535402976, "longitude": -79.4279288092509}, "106962772RR0001": {"name": "COMMUNITY LIVING-CENTRAL HURON", "designationCode": "C", "categoryCode": "11", "address": "267 SUNCOAST DR E, PO BOX 527", "city": "GODERICH", "province": "ON", "country": "CA", "postalCode": "N7A4C7", "twitter": "None", "instagram": "None", "facebook": "None", "youtube": "None", "website": "None", "summary": "None", "logo": "None", "latitude": 43.73165649379625, "longitude": -81.69676055398465}, "118870815RR0001": {"name": "COMMUNITY LIVING-FORT ERIE", "designationCode": "C", "categoryCode": "11", "address": "615 INDUSTRIAL DR", "city": "FORT ERIE", "province": "ON", "country": "CA", "postalCode": "L2A5M4", "twitter": "None", "instagram": "None", "facebook": "None", "youtube": "None", "website": "None", "summary": "None", "logo": "None", "latitude": 42.922699557274214, "longitude": -78.93901164057364}, "107452963RR0001": {"name": "COMMUNITY LIVING-GRIMSBY, LINCOLN AND WEST LINCOLN", "designationCode": "C", "categoryCode": "11", "address": "P.O. BOX 220", "city": "BEAMSVILLE", "province": "ON", "country": "CA", "postalCode": "L0R1B0", "twitter": "None", "instagram": "None", "facebook": "None", "youtube": "None", "website": "None", "summary": "None", "logo": "None", "latitude": 43.16732700000006, "longitude": -79.47640249999994}, "118870872RR0001": {"name": "COMMUNITY LIVING-STORMONT COUNTY INTEGRATION COMMUNAUTAIRE COMTE DE STORMONT", "designationCode": "C", "categoryCode": "11", "address": "280 NINTH ST W", "city": "CORNWALL", "province": "ON", "country": "CA", "postalCode": "K6J3A6", "twitter": "None", "instagram": "None", "facebook": "None", "youtube": "None", "website": "None", "summary": "None", "logo": "None", "latitude": 45.027010028016726, "longitude": -74.74053501067581}, "119096881RR0001": {"name": "COMMUNITY LIVING-WEST NORTHUMBERLAND", "designationCode": "C", "categoryCode": "11", "address": "275 COTTESMORE AVE", "city": "COBOURG", "province": "ON", "country": "CA", "postalCode": "K9A4E3", "twitter": "None", "instagram": "None", "facebook": "None", "youtube": "None", "website": "None", "summary": "None", "logo": "None", "latitude": 43.96389336773626, "longitude": -78.15244481201992}, "118870880RR0001": {"name": "COMMUNITY LODGE INC.", "designationCode": "C", "categoryCode": "01", "address": "320 ALEXANDRA ST", "city": "SYDNEY", "province": "NS", "country": "CA", "postalCode": "B1S2G1", "twitter": "None", "instagram": "None", "facebook": "None", "youtube": "None", "website": "None", "summary": "None", "logo": "None", "latitude": 46.12107467704339, "longitude": -60.19768136987371}, "876066705RR0001": {"name": "COMMUNITY LOW INCOME CENTRE INC.", "designationCode": "C", "categoryCode": "09", "address": "404 ASHFORD STREET", "city": "WEYBURN", "province": "SK", "country": "CA", "postalCode": "S4H1K1", "twitter": "None", "instagram": "None", "facebook": "None", "youtube": "None", "website": "None", "summary": "None", "logo": "None", "latitude": 49.66512658614038, "longitude": -103.84206421847952}, "118870898RR0001": {"name": "COMMUNITY MEALS ON WHEELS SAINT JOHN INC.", "designationCode": "C", "categoryCode": "09", "address": "33 BEAVERBROOK AVENUE", "city": "SAINT JOHN", "province": "NB", "country": "CA", "postalCode": "E2K2W2", "twitter": "None", "instagram": "None", "facebook": "None", "youtube": "None", "website": "None", "summary": "None", "logo": "None", "latitude": 45.27919766417561, "longitude": -66.07509142065302}, "889267043RR0001": {"name": "COMMUNITY MEDIATION CALGARY SOCIETY", "designationCode": "C", "categoryCode": "59", "address": "1811-4 ST SW, SUITE 103", "city": "CALGARY", "province": "AB", "country": "CA", "postalCode": "T2S1W2", "twitter": "None", "instagram": "None", "facebook": "None", "youtube": "None", "website": "None", "summary": "None", "logo": "None", "latitude": 51.036415742714524, "longitude": -114.07157510090015}, "865935050RR0001": {"name": "COMMUNITY MENNONITE CHURCH OF STOUFFVILLE", "designationCode": "C", "categoryCode": "34", "address": "BOX 95028                     5892 MAIN ST.", "city": "STOUFFVILLE", "province": "ON", "country": "CA", "postalCode": "L4A1J1", "twitter": "None", "instagram": "None", "facebook": "None", "youtube": "None", "website": "None", "summary": "None", "logo": "None", "latitude": 43.96856618463228, "longitude": -79.25940835348241}, "118803535RR0001": {"name": "COMMUNITY MENNONITE FELLOWSHIP", "designationCode": "C", "categoryCode": "34", "address": "P.O. BOX 413", "city": "DRAYTON", "province": "ON", "country": "CA", "postalCode": "N0G1P0", "twitter": "None", "instagram": "None", "facebook": "None", "youtube": "None", "website": "None", "summary": "None", "logo": "None", "latitude": 43.77309915143594, "longitude": -80.9225621280716}, "895008746RR0001": {"name": "COMMUNITY MENTAL HEALTH INITIATIVE INC.", "designationCode": "C", "categoryCode": "11", "address": "PO BOX 2006                   NORTON BUILDING 1ST FLOOR", "city": "CORNER BROOK", "province": "NL", "country": "CA", "postalCode": "A2H6J8", "twitter": "None", "instagram": "None", "facebook": "None", "youtube": "None", "website": "None", "summary": "None", "logo": "None", "latitude": 48.95097900000006, "longitude": -57.950103499999926}, "119118222RR0001": {"name": "COMMUNITY MICROSKILLS DEVELOPMENT CENTRE", "designationCode": "C", "categoryCode": "20", "address": "1600 - 150 YORK ST", "city": "TORONTO", "province": "ON", "country": "CA", "postalCode": "M5H3S5", "twitter": "None", "instagram": "None", "facebook": "None", "youtube": "None", "website": "None", "summary": "None", "logo": "None", "latitude": 43.649604000000004, "longitude": -79.38425925}, "848484747RR0001": {"name": "COMMUNITY MIRACLE & VISION INC.", "designationCode": "C", "categoryCode": "39", "address": "38 RUSHBROOK DR", "city": "BRAMPTON", "province": "ON", "country": "CA", "postalCode": "L6P1E4", "twitter": "None", "instagram": "None", "facebook": "None", "youtube": "None", "website": "None", "summary": "None", "logo": "None", "latitude": 43.782209862629024, "longitude": -79.74102846670314}, "106963010RR0001": {"name": "COMMUNITY MUSEUMS ASSOCIATION OF PRINCE EDWARD ISLAND INC.", "designationCode": "C", "categoryCode": "29", "address": "PO BOX 22002                  RPO CH'TWN PARKDALE", "city": "CHARLOTTETOWN", "province": "PE", "country": "CA", "postalCode": "C1A9J2", "twitter": "None", "instagram": "None", "facebook": "None", "youtube": "None", "website": "None", "summary": "None", "logo": "None", "latitude": 46.252386000000016, "longitude": -63.116469}, "101072106RR0001": {"name": "COMMUNITY NURSING REGISTRY OF OTTAWA", "designationCode": "C", "categoryCode": "11", "address": "100-1701 WOODWARD DRIVE", "city": "OTTAWA", "province": "ON", "country": "CA", "postalCode": "K2C0R4", "twitter": "None", "instagram": "None", "facebook": "None", "youtube": "None", "website": "None", "summary": "None", "logo": "None", "latitude": 45.372945498211, "longitude": -75.74948684863499}, "106422421RR0001": {"name": "COMMUNITY NURSING SERVICES OF SOUTH WESTERN ONTARIO", "designationCode": "C", "categoryCode": "11", "address": "139 WASHBURN DR", "city": "KITCHENER", "province": "ON", "country": "CA", "postalCode": "N2R1S1", "twitter": "None", "instagram": "None", "facebook": "None", "youtube": "None", "website": "None", "summary": "None", "logo": "None", "latitude": 43.400501764297296, "longitude": -80.49151894549576}, "129892659RR0001": {"name": "COMMUNITY OF CHRIST", "designationCode": "C", "categoryCode": "39", "address": "129 - 355 ELMIRA RD N", "city": "GUELPH", "province": "ON", "country": "CA", "postalCode": "N1K1S5", "twitter": "None", "instagram": "None", "facebook": "None", "youtube": "None", "website": "None", "summary": "None", "logo": "None", "latitude": 43.5333297891584, "longitude": -80.30727746752473}}