{"108199233RR0001": {"name": "CITY WEST CHILDCARE & COMMUNITY SUPPORT SOCIETY", "designationCode": "C", "categoryCode": "01", "address": "9915 148 ST NW", "city": "EDMONTON", "province": "AB", "country": "CA", "postalCode": "T5N3G1", "twitter": "None", "instagram": "None", "facebook": "None", "youtube": "None", "website": "None", "summary": "None", "logo": "None", "latitude": 53.538093, "longitude": -113.57621774401352}, "119054575RR0001": {"name": "CITYCHURCH, INC.", "designationCode": "C", "categoryCode": "39", "address": "PO BOX 4248", "city": "QUESNEL", "province": "BC", "country": "CA", "postalCode": "V2J3J3", "twitter": "None", "instagram": "None", "facebook": "None", "youtube": "None", "website": "None", "summary": "None", "logo": "None", "latitude": 52.978128000000055, "longitude": -122.49828349999993}, "868370206RR0001": {"name": "CITYREACH CARE SOCIETY", "designationCode": "C", "categoryCode": "09", "address": "2650 SLOCAN STREET", "city": "VANCOUVER", "province": "BC", "country": "CA", "postalCode": "V5M4E9", "twitter": "None", "instagram": "None", "facebook": "None", "youtube": "None", "website": "None", "summary": "None", "logo": "None", "latitude": 49.2603712988568, "longitude": -123.04948375891365}, "107434334RR0001": {"name": "CITYVIEW BAPTIST CHURCH", "designationCode": "C", "categoryCode": "31", "address": "4370 SOPHIA STREET", "city": "VANCOUVER", "province": "BC", "country": "CA", "postalCode": "V5V3V7", "twitter": "None", "instagram": "None", "facebook": "None", "youtube": "None", "website": "None", "summary": "None", "logo": "None", "latitude": 49.24591032361937, "longitude": -123.09913196612624}, "839404886RR0001": {"name": "CITYWIDE PRAISE AND WORSHIP BAPTIST CHURCH", "designationCode": "B", "categoryCode": "31", "address": "1816 FINKLE DR", "city": "OSHAWA", "province": "ON", "country": "CA", "postalCode": "L1K0R4", "twitter": "None", "instagram": "None", "facebook": "None", "youtube": "None", "website": "None", "summary": "None", "logo": "None", "latitude": 43.95479029259552, "longitude": -78.83703683920113}, "819470147RR0001": {"name": "CIVIC ORCHESTRA SOCIETY OF VICTORIA", "designationCode": "C", "categoryCode": "22", "address": "BOX 39067 RPO JAMES BAY", "city": "VICTORIA", "province": "BC", "country": "CA", "postalCode": "V8V4X8", "twitter": "None", "instagram": "None", "facebook": "None", "youtube": "None", "website": "None", "summary": "None", "logo": "None", "latitude": 48.41956000000005, "longitude": -123.37854999999996}, "118864727RR0001": {"name": "CIVIL AIR RESCUE EMERGENCY SERVICE (NIAGARA)", "designationCode": "C", "categoryCode": "59", "address": "RR 4 HWY 55", "city": "NIAGARA-ON-THE-LAKE", "province": "ON", "country": "CA", "postalCode": "L0S1J0", "twitter": "None", "instagram": "None", "facebook": "None", "youtube": "None", "website": "None", "summary": "None", "logo": "None", "latitude": 42.95062929438287, "longitude": -79.48114863305689}, "118864750RR0001": {"name": "CIVIL AIR SEARCH AND RESCUE ASSOCIATION OF MANITOBA INC.", "designationCode": "C", "categoryCode": "59", "address": "PO BOX 1546  STN MAIN", "city": "WINNIPEG", "province": "MB", "country": "CA", "postalCode": "R3C2Z4", "twitter": "None", "instagram": "None", "facebook": "None", "youtube": "None", "website": "None", "summary": "None", "logo": "None", "latitude": 49.886161958421624, "longitude": -97.13345310241456}, "118864776RR0001": {"name": "CIVITAN INTERNATIONAL FOUNDATION OF CANADA", "designationCode": "C", "categoryCode": "63", "address": "52 BOULLEE STREET", "city": "LONDON", "province": "ON", "country": "CA", "postalCode": "N5Y1T6", "twitter": "None", "instagram": "None", "facebook": "None", "youtube": "None", "website": "None", "summary": "None", "logo": "None", "latitude": 43.00654418235324, "longitude": -81.22374013278335}, "873006829RR0001": {"name": "CIVIX", "designationCode": "C", "categoryCode": "21", "address": "504-639 QUEEN ST WEST", "city": "TORONTO", "province": "ON", "country": "CA", "postalCode": "M5V2B7", "twitter": "None", "instagram": "None", "facebook": "None", "youtube": "None", "website": "None", "summary": "None", "logo": "None", "latitude": 43.64885281508059, "longitude": -79.3958086990381}, "821117504RR0001": {"name": "C\u00f4t\u00e9 sc\u00e8ne", "designationCode": "C", "categoryCode": "22", "address": "250, RUE DU D\u00c9P\u00d4T             BUREAU 224", "city": "SHERBROOKE", "province": "QC", "country": "CA", "postalCode": "J1H5G1", "twitter": "None", "instagram": "None", "facebook": "None", "youtube": "None", "website": "None", "summary": "None", "logo": "None", "latitude": 45.39807494806416, "longitude": -71.88814775238072}, "808864664RR0001": {"name": "CJ Foundation", "designationCode": "B", "categoryCode": "05", "address": "34 KING STREET EAST           SUITE 500", "city": "TORONTO", "province": "ON", "country": "CA", "postalCode": "M5C2X8", "twitter": "None", "instagram": "None", "facebook": "None", "youtube": "None", "website": "None", "summary": "None", "logo": "None", "latitude": 43.64945304137559, "longitude": -79.37651086984238}, "896361961RR0001": {"name": "CJCA COMMUNITY AND SENIORS FOUNDATION", "designationCode": "C", "categoryCode": "09", "address": "2236-29TH STREET SW", "city": "CALGARY", "province": "AB", "country": "CA", "postalCode": "T3E2K2", "twitter": "None", "instagram": "None", "facebook": "None", "youtube": "None", "website": "None", "summary": "None", "logo": "None", "latitude": 51.033483754371275, "longitude": -114.12953882249418}, "886631704RR0001": {"name": "CJF MINISTRIES CANADA", "designationCode": "C", "categoryCode": "47", "address": "21 CRISPIN CRES", "city": "NORTH YORK", "province": "ON", "country": "CA", "postalCode": "M2R2V6", "twitter": "None", "instagram": "None", "facebook": "None", "youtube": "None", "website": "None", "summary": "None", "logo": "None", "latitude": 43.79138713933288, "longitude": -79.43818583011158}, "894383512RR0001": {"name": "CJL FOUNDATION", "designationCode": "C", "categoryCode": "23", "address": "501-309 COOPER ST", "city": "OTTAWA", "province": "ON", "country": "CA", "postalCode": "K2P0G5", "twitter": "None", "instagram": "None", "facebook": "None", "youtube": "None", "website": "None", "summary": "None", "logo": "None", "latitude": 45.417332283109175, "longitude": -75.6938818960701}, "822333571RR0001": {"name": "CJM International", "designationCode": "C", "categoryCode": "49", "address": "6125, 1RE AVENUE", "city": "QU\u00c9BEC", "province": "QC", "country": "CA", "postalCode": "G1H2V9", "twitter": "None", "instagram": "None", "facebook": "None", "youtube": "None", "website": "None", "summary": "None", "logo": "None", "latitude": 46.85131037466116, "longitude": -71.25738216550234}, "887613156RR0001": {"name": "CJMF Foundation", "designationCode": "B", "categoryCode": "23", "address": "615 - 220 DUNCAN MILL RD", "city": "NORTH YORK", "province": "ON", "country": "CA", "postalCode": "M3B3J5", "twitter": "None", "instagram": "None", "facebook": "None", "youtube": "None", "website": "None", "summary": "None", "logo": "None", "latitude": 43.76198319862531, "longitude": -79.35361230904856}, "841493539RR0001": {"name": "CJPME Foundation", "designationCode": "C", "categoryCode": "21", "address": "201-10090 SAINT-LAURENT", "city": "MONTR\u00c9AL", "province": "QC", "country": "CA", "postalCode": "H3L2N7", "twitter": "None", "instagram": "None", "facebook": "None", "youtube": "None", "website": "None", "summary": "None", "logo": "None", "latitude": 45.54755213347585, "longitude": -73.661871838623}, "867234247RR0001": {"name": "CJWW DENNY CARR SECRET SANTA FOUNDATION INC.", "designationCode": "C", "categoryCode": "09", "address": "366 3RD AVE S", "city": "SASKATOON", "province": "SK", "country": "CA", "postalCode": "S7K1M5", "twitter": "None", "instagram": "None", "facebook": "None", "youtube": "None", "website": "None", "summary": "None", "logo": "None", "latitude": 52.12434619954992, "longitude": -106.66396601786052}, "807475553RR0001": {"name": "CKLAS Foundation", "designationCode": "B", "categoryCode": "03", "address": "80 WOODHAVEN CRESCENT S W", "city": "CALGARY", "province": "AB", "country": "CA", "postalCode": "T2W5R5", "twitter": "None", "instagram": "None", "facebook": "None", "youtube": "None", "website": "None", "summary": "None", "logo": "None", "latitude": 50.933180074383976, "longitude": -114.13172554884875}, "118864842RR0001": {"name": "CKNW Kids' Fund", "designationCode": "C", "categoryCode": "09", "address": "2000 700 WEST GEORGIA ST", "city": "VANCOUVER", "province": "BC", "country": "CA", "postalCode": "V7Y1K9", "twitter": "None", "instagram": "None", "facebook": "None", "youtube": "None", "website": "None", "summary": "None", "logo": "None", "latitude": 49.28277258451152, "longitude": -123.11866899500833}, "118864859RR0001": {"name": "CKRM GOOD NEIGHBOR FUND INC.", "designationCode": "C", "categoryCode": "03", "address": "1900 ROSE STREET", "city": "REGINA", "province": "SK", "country": "CA", "postalCode": "S4P0A9", "twitter": "None", "instagram": "None", "facebook": "None", "youtube": "None", "website": "None", "summary": "None", "logo": "None", "latitude": 50.4487947262479, "longitude": -104.60802927375211}, "129532396RR0001": {"name": "CKSS BOOSTER CLUB", "designationCode": "C", "categoryCode": "25", "address": "285 MCNAUGHTON AVE EAST", "city": "CHATHAM", "province": "ON", "country": "CA", "postalCode": "N7L2G7", "twitter": "None", "instagram": "None", "facebook": "None", "youtube": "None", "website": "None", "summary": "None", "logo": "None", "latitude": 42.421158666166185, "longitude": -82.19097899965328}, "118776830RR0001": {"name": "CKUA RADIO FOUNDATION", "designationCode": "C", "categoryCode": "21", "address": "9804 JASPER AVE", "city": "EDMONTON", "province": "AB", "country": "CA", "postalCode": "T5J0C5", "twitter": "None", "instagram": "None", "facebook": "None", "youtube": "None", "website": "None", "summary": "None", "logo": "None", "latitude": 53.541799045211306, "longitude": -113.48679945267959}, "118865252RR0001": {"name": "CL COPLAND FAMILY FOUNDATION INC.", "designationCode": "B", "categoryCode": "03", "address": "499 MAPLE LAWN DRIVE", "city": "GLENBURNIE", "province": "ON", "country": "CA", "postalCode": "K0H1S0", "twitter": "None", "instagram": "None", "facebook": "None", "youtube": "None", "website": "None", "summary": "None", "logo": "None", "latitude": 44.30184171287949, "longitude": -76.45900663729591}, "896829934RR0001": {"name": "CLACK FAMILY HERITAGE MUSEUM FOUNDATION INC.", "designationCode": "C", "categoryCode": "50", "address": "BOX 151", "city": "OAK RIVER", "province": "MB", "country": "CA", "postalCode": "R0K1T0", "twitter": "None", "instagram": "None", "facebook": "None", "youtube": "None", "website": "None", "summary": "None", "logo": "None", "latitude": 49.635229499999994, "longitude": -99.60807824999999}, "882341381RR0001": {"name": "CLAIREVILLE CHRISTIAN EDUCATION TRUST", "designationCode": "C", "categoryCode": "20", "address": "890 HARRINGTON CRT", "city": "BURLINGTON", "province": "ON", "country": "CA", "postalCode": "L7N3N4", "twitter": "None", "instagram": "None", "facebook": "None", "youtube": "None", "website": "None", "summary": "None", "logo": "None", "latitude": 43.35888181178973, "longitude": -79.78774153335416}, "106931546RR0001": {"name": "CLAIRLEA PARK PRESBYTERIAN CHURCH", "designationCode": "C", "categoryCode": "37", "address": "3236 ST CLAIR AVE E", "city": "SCARBOROUGH", "province": "ON", "country": "CA", "postalCode": "M1L1V7", "twitter": "None", "instagram": "None", "facebook": "None", "youtube": "None", "website": "None", "summary": "None", "logo": "None", "latitude": 43.71027311408613, "longitude": -79.28921982307111}, "890608797RR0001": {"name": "CLAIRMONT AND AREA SENIOR CITIZENS CLUB", "designationCode": "C", "categoryCode": "56", "address": "P.O BOX 73", "city": "CLAIRMONT", "province": "AB", "country": "CA", "postalCode": "T0H0W0", "twitter": "None", "instagram": "None", "facebook": "None", "youtube": "None", "website": "None", "summary": "None", "logo": "None", "latitude": 55.24281600000006, "longitude": -118.80011149999993}, "118864875RR0001": {"name": "CLAIRMONT AND DISTRICT AGRICULTURAL SOCIETY", "designationCode": "C", "categoryCode": "56", "address": "9813 100 AVE", "city": "CLAIRMONT", "province": "AB", "country": "CA", "postalCode": "T0H0W1", "twitter": "None", "instagram": "None", "facebook": "None", "youtube": "None", "website": "None", "summary": "None", "logo": "None", "latitude": 55.257816513417104, "longitude": -118.79041050000001}, "864851852RR0001": {"name": "CLAIRMONT COMMUNITY CHURCH", "designationCode": "C", "categoryCode": "39", "address": "9905-100 AVENUE", "city": "CLAIRMONT", "province": "AB", "country": "CA", "postalCode": "T0H0W1", "twitter": "None", "instagram": "None", "facebook": "None", "youtube": "None", "website": "None", "summary": "None", "logo": "None", "latitude": 56.037259542847494, "longitude": -117.13190319317329}, "132395880RR0001": {"name": "CLAIRMONT UNITED CHURCH,", "designationCode": "C", "categoryCode": "44", "address": "9915-100 AVE", "city": "CLAIRMONT", "province": "AB", "country": "CA", "postalCode": "T0H0W0", "twitter": "None", "instagram": "None", "facebook": "None", "youtube": "None", "website": "None", "summary": "None", "logo": "None", "latitude": 55.25783851673534, "longitude": -118.79354080252754}, "886982990RR0001": {"name": "CLAIRVILLE GOSPEL HALL INC", "designationCode": "C", "categoryCode": "47", "address": "54 KILMUIR GATE", "city": "VAUGHAN", "province": "ON", "country": "CA", "postalCode": "L4L3L9", "twitter": "None", "instagram": "None", "facebook": "None", "youtube": "None", "website": "None", "summary": "None", "logo": "None", "latitude": 43.803718849270155, "longitude": -79.59930565139366}, "106877343RR0001": {"name": "CLAM (CARREFOUR DE LIAISON ET D'AIDE MULTI-ETHNIQUE)", "designationCode": "C", "categoryCode": "09", "address": "7290 HUTCHINSON, BUREAU 200", "city": "MONTREAL", "province": "QC", "country": "CA", "postalCode": "H3N1Z1", "twitter": "None", "instagram": "None", "facebook": "None", "youtube": "None", "website": "None", "summary": "None", "logo": "None", "latitude": 45.53005293698433, "longitude": -73.62421918679665}, "137824389RR0001": {"name": "CLAN MACKENZIE SOCIETY OF CANADA", "designationCode": "C", "categoryCode": "21", "address": "580 REBECCA ST.", "city": "OAKVILLE", "province": "ON", "country": "CA", "postalCode": "L6K3N9", "twitter": "None", "instagram": "None", "facebook": "None", "youtube": "None", "website": "None", "summary": "None", "logo": "None", "latitude": 43.42652329447748, "longitude": -79.690264430175}, "875527822RR0001": {"name": "CLANDEBOYE COMMUNITY CLUB", "designationCode": "C", "categoryCode": "56", "address": "PO BOX 90", "city": "CLANDEBOYE", "province": "MB", "country": "CA", "postalCode": "R0C0P0", "twitter": "None", "instagram": "None", "facebook": "None", "youtube": "None", "website": "None", "summary": "None", "logo": "None", "latitude": 50.24056236956417, "longitude": -96.97296586585428}, "131598914RR0001": {"name": "CLANDEBOYE/WINNIPEG BEACH PASTORAL CHARGE", "designationCode": "C", "categoryCode": "44", "address": "PO BOX 382", "city": "WINNIPEG BEACH", "province": "MB", "country": "CA", "postalCode": "R0C3G0", "twitter": "None", "instagram": "None", "facebook": "None", "youtube": "None", "website": "None", "summary": "None", "logo": "None", "latitude": 50.49416000000008, "longitude": -96.96995999999996}, "133593855RR0001": {"name": "CLANDONALD AND DISTRICT RECREATION ASSOCIATION", "designationCode": "C", "categoryCode": "56", "address": "BOX 525", "city": "CLANDONALD", "province": "AB", "country": "CA", "postalCode": "T0B0X0", "twitter": "None", "instagram": "None", "facebook": "None", "youtube": "None", "website": "None", "summary": "None", "logo": "None", "latitude": 53.56978000000004, "longitude": -110.72491999999994}, "106931579RR0001": {"name": "CLANDONALD EARLY CHILDHOOD SERVICES ASSOCIATION", "designationCode": "B", "categoryCode": "20", "address": "BOX 587", "city": "CLANDONALD", "province": "AB", "country": "CA", "postalCode": "T0B0X0", "twitter": "None", "instagram": "None", "facebook": "None", "youtube": "None", "website": "None", "summary": "None", "logo": "None", "latitude": 53.56978000000004, "longitude": -110.72491999999994}, "118864891RR0001": {"name": "CLANSMEN ATHLETIC ALUMNI MEMORIAL SOCIETY", "designationCode": "A", "categoryCode": "23", "address": "19351 121B AVE", "city": "PITT MEADOWS", "province": "BC", "country": "CA", "postalCode": "V3Y1J5", "twitter": "None", "instagram": "None", "facebook": "None", "youtube": "None", "website": "None", "summary": "None", "logo": "None", "latitude": 49.2239415004327, "longitude": -122.68518277990651}, "818170078RR0001": {"name": "CLANSMEN PIPE BAND", "designationCode": "C", "categoryCode": "22", "address": "#8-4020 SATURNA AVE", "city": "POWELL RIVER", "province": "BC", "country": "CA", "postalCode": "V8A5T4", "twitter": "None", "instagram": "None", "facebook": "None", "youtube": "None", "website": "None", "summary": "None", "logo": "None", "latitude": 49.82415652329452, "longitude": -124.51215126010462}, "842849077RR0001": {"name": "CLARE FOOD BANK SOCIETY", "designationCode": "B", "categoryCode": "09", "address": "554 PETER DUGAS ROAD          PO BOX 113", "city": "METEGHAN", "province": "NS", "country": "CA", "postalCode": "B0W2J0", "twitter": "None", "instagram": "None", "facebook": "None", "youtube": "None", "website": "None", "summary": "None", "logo": "None", "latitude": 44.1742762786371, "longitude": -66.14363191052547}, "132153511RR0001": {"name": "CLARE PARKER HOMES INC.", "designationCode": "C", "categoryCode": "09", "address": "108 - 845 BROAD ST", "city": "REGINA", "province": "SK", "country": "CA", "postalCode": "S4R8G9", "twitter": "None", "instagram": "None", "facebook": "None", "youtube": "None", "website": "None", "summary": "None", "logo": "None", "latitude": 50.46508800000001, "longitude": -104.6062778786432}, "106931751RR0001": {"name": "CLAREMONT-BROUGHAM PASTORAL CHARGE", "designationCode": "C", "categoryCode": "44", "address": "5052 OLD BROCK RD", "city": "CLAREMONT", "province": "ON", "country": "CA", "postalCode": "L1Y1B3", "twitter": "None", "instagram": "None", "facebook": "None", "youtube": "None", "website": "None", "summary": "None", "logo": "None", "latitude": 43.974059867332215, "longitude": -79.13138427713655}, "891325847RR0001": {"name": "CLARENCE ATCHISON PRESIDENT'S AWARD FOUNDATION", "designationCode": "B", "categoryCode": "25", "address": "447 PORTAGE AVENUE            INVESTORS GROUP TRUST CO. LTD.", "city": "WINNIPEG", "province": "MB", "country": "CA", "postalCode": "R3C3B6", "twitter": "None", "instagram": "None", "facebook": "None", "youtube": "None", "website": "None", "summary": "None", "logo": "None", "latitude": 49.899525000000054, "longitude": -97.14112999999993}, "121127104RR0001": {"name": "CLARENCE COMMUNITY CLUB", "designationCode": "C", "categoryCode": "99", "address": "RR. #1", "city": "BRIDGETOWN", "province": "NS", "country": "CA", "postalCode": "B0S1C0", "twitter": "None", "instagram": "None", "facebook": "None", "youtube": "None", "website": "None", "summary": "None", "logo": "None", "latitude": 44.81087000000008, "longitude": -65.38092999999998}, "108151440RR0001": {"name": "CLARENCE UNITED BAPTIST CHURCH", "designationCode": "C", "categoryCode": "31", "address": "2903 CLARENCE RD  RR#1", "city": "BRIDGETOWN", "province": "NS", "country": "CA", "postalCode": "B0S1C0", "twitter": "None", "instagram": "None", "facebook": "None", "youtube": "None", "website": "None", "summary": "None", "logo": "None", "latitude": 44.91215046462568, "longitude": -65.20106079574687}, "106931926RR0001": {"name": "CLARENCEVILLE FREE METHODIST CHURCH", "designationCode": "C", "categoryCode": "39", "address": "1076 FRONT ST", "city": "CLARENCEVILLE", "province": "QC", "country": "CA", "postalCode": "J0J1B0", "twitter": "None", "instagram": "None", "facebook": "None", "youtube": "None", "website": "None", "summary": "None", "logo": "None", "latitude": 45.071053367190366, "longitude": -73.24331128670714}, "106931942RR0001": {"name": "CLARENDON FOUNDATION (CHESHIRE HOMES) INC.", "designationCode": "C", "categoryCode": "01", "address": "10 OVERLEA BLVD", "city": "EAST YORK", "province": "ON", "country": "CA", "postalCode": "M4H1A4", "twitter": "None", "instagram": "None", "facebook": "None", "youtube": "None", "website": "None", "summary": "None", "logo": "None", "latitude": 43.703301361936546, "longitude": -79.35180606719926}, "135536779RR0001": {"name": "CLARENVILLE AREA S P C A", "designationCode": "C", "categoryCode": "54", "address": "125 HUNTLEY DR", "city": "CLARENVILLE", "province": "NL", "country": "CA", "postalCode": "A5A4L1", "twitter": "None", "instagram": "None", "facebook": "None", "youtube": "None", "website": "None", "summary": "None", "logo": "None", "latitude": 48.18357541113272, "longitude": -53.98805412205554}, "890739949RR0001": {"name": "CLARENVILLE HIGH SCHOOL SCHOLARSHIP TRUST FOUNDATION INC", "designationCode": "C", "categoryCode": "21", "address": "263 MEMORIAL DRIVE            SUITE 202", "city": "CLARENVILLE", "province": "NL", "country": "CA", "postalCode": "A5A4P1", "twitter": "None", "instagram": "None", "facebook": "None", "youtube": "None", "website": "None", "summary": "None", "logo": "None", "latitude": 48.162348020884394, "longitude": -53.96872620347433}, "118864966RR0001": {"name": "CLARENVILLE-DEEP BIGHT PASTORAL CHARGE", "designationCode": "C", "categoryCode": "44", "address": "100 - 12 COISH PLACE", "city": "CLARENVILLE", "province": "NL", "country": "CA", "postalCode": "A5A0C3", "twitter": "None", "instagram": "None", "facebook": "None", "youtube": "None", "website": "None", "summary": "None", "logo": "None", "latitude": 48.16980727623924, "longitude": -53.98656077276022}, "865086482RR0001": {"name": "CLARESHOLM & DISTRICT TRANSPORTATION SOCIETY", "designationCode": "C", "categoryCode": "09", "address": "BOX 2076", "city": "CLARESHOLM", "province": "AB", "country": "CA", "postalCode": "T0L0T0", "twitter": "None", "instagram": "None", "facebook": "None", "youtube": "None", "website": "None", "summary": "None", "logo": "None", "latitude": 50.026080000000036, "longitude": -113.58213999999998}, "866372873RR0001": {"name": "CLARESHOLM AND DISTRICT HEALTH FOUNDATION", "designationCode": "A", "categoryCode": "03", "address": "BOX 2638", "city": "CLARESHOLM", "province": "AB", "country": "CA", "postalCode": "T0L0T0", "twitter": "None", "instagram": "None", "facebook": "None", "youtube": "None", "website": "None", "summary": "None", "logo": "None", "latitude": 50.026080000000036, "longitude": -113.58213999999998}, "118864974RR0001": {"name": "CLARESHOLM COMMUNITY CENTRE ASSOCIATION", "designationCode": "C", "categoryCode": "56", "address": "BOX 183", "city": "CLARESHOLM", "province": "AB", "country": "CA", "postalCode": "T0L0T0", "twitter": "None", "instagram": "None", "facebook": "None", "youtube": "None", "website": "None", "summary": "None", "logo": "None", "latitude": 50.026080000000036, "longitude": -113.58213999999998}, "891248999RR0001": {"name": "CLARESHOLM CONGREGATION OF JEHOVAHS WITNESSES", "designationCode": "C", "categoryCode": "61", "address": "BOX 1985", "city": "CLARESHOLM", "province": "AB", "country": "CA", "postalCode": "T0L0T0", "twitter": "None", "instagram": "None", "facebook": "None", "youtube": "None", "website": "None", "summary": "None", "logo": "None"}, "890615347RR0001": {"name": "CLARESHOLM FOOD BANK & COMMUNITY OUTREACH SOCIETY", "designationCode": "C", "categoryCode": "09", "address": "BOX 687", "city": "CLARESHOLM", "province": "AB", "country": "CA", "postalCode": "T0L0T0", "twitter": "None", "instagram": "None", "facebook": "None", "youtube": "None", "website": "None", "summary": "None", "logo": "None", "latitude": 50.026080000000036, "longitude": -113.58213999999998}, "129420006RR0001": {"name": "CLARESHOLM PASTORAL CHARGE,", "designationCode": "C", "categoryCode": "44", "address": "PO BOX 638", "city": "CLARESHOLM", "province": "AB", "country": "CA", "postalCode": "T0L0T0", "twitter": "None", "instagram": "None", "facebook": "None", "youtube": "None", "website": "None", "summary": "None", "logo": "None", "latitude": 50.026080000000036, "longitude": -113.58213999999998}, "118865021RR0001": {"name": "CLARESHOLM SENIOR CITIZENS DROP-IN CENTRE", "designationCode": "C", "categoryCode": "56", "address": "TREASURER                     BOX 1518", "city": "CLARESHOLM", "province": "AB", "country": "CA", "postalCode": "T0L0T0", "twitter": "None", "instagram": "None", "facebook": "None", "youtube": "None", "website": "None", "summary": "None", "logo": "None", "latitude": 50.026080000000036, "longitude": -113.58213999999998}, "132174236RR0001": {"name": "CLAREVIEW BIBLE CHURCH", "designationCode": "C", "categoryCode": "39", "address": "16119 61ST NW", "city": "EDMONTON", "province": "AB", "country": "CA", "postalCode": "T5Y2R1", "twitter": "None", "instagram": "None", "facebook": "None", "youtube": "None", "website": "None", "summary": "None", "logo": "None", "latitude": 53.62326907299899, "longitude": -113.43335324891828}, "119288918RR1181": {"name": "CLAREVIEW CONGREGATION OF JEHOVAH'S WITNESSES", "designationCode": "C", "categoryCode": "61", "address": "419-3670 139 AVE", "city": "EDMONTON", "province": "AB", "country": "CA", "postalCode": "T5Y3N5", "twitter": "None", "instagram": "None", "facebook": "None", "youtube": "None", "website": "None", "summary": "None", "logo": "None"}, "891867848RR0001": {"name": "CLARINGTON CONCERT BAND", "designationCode": "C", "categoryCode": "22", "address": "P.O. BOX 366", "city": "BOWMANVILLE", "province": "ON", "country": "CA", "postalCode": "L1C3L1", "twitter": "None", "instagram": "None", "facebook": "None", "youtube": "None", "website": "None", "summary": "None", "logo": "None", "latitude": 43.91376900000006, "longitude": -78.68855149999993}, "894127448RR0001": {"name": "CLARINGTON EAST ECONOMIC SUPPORT", "designationCode": "C", "categoryCode": "01", "address": "1 - 123 KING AVE W", "city": "NEWCASTLE", "province": "ON", "country": "CA", "postalCode": "L1B1H1", "twitter": "None", "instagram": "None", "facebook": "None", "youtube": "None", "website": "None", "summary": "None", "logo": "None", "latitude": 43.916879893127245, "longitude": -78.5911749837556}, "878694900RR0001": {"name": "CLARINGTON LUTHERAN CHURCH", "designationCode": "C", "categoryCode": "32", "address": "P.O. BOX 133", "city": "BOWMANVILLE", "province": "ON", "country": "CA", "postalCode": "L1C3K9", "twitter": "None", "instagram": "None", "facebook": "None", "youtube": "None", "website": "None", "summary": "None", "logo": "None", "latitude": 43.91376900000006, "longitude": -78.68855149999993}, "119288918RR0590": {"name": "CLARK CONGREGATION OF JEHOVAH'S WITNESSES", "designationCode": "C", "categoryCode": "61", "address": "2462 SOUTH GRANDVIEW HIGHWAY", "city": "VANCOUVER", "province": "BC", "country": "CA", "postalCode": "V5M2C7", "twitter": "None", "instagram": "None", "facebook": "None", "youtube": "None", "website": "None", "summary": "None", "logo": "None", "latitude": 49.257504446362226, "longitude": -123.05554401906922}, "132541681RR0001": {"name": "CLARK'S HARBOUR UNITED BAPTIST \"STONE\" CHURCH", "designationCode": "C", "categoryCode": "31", "address": "P. O. BOX 53", "city": "CLARK'S HARBOUR", "province": "NS", "country": "CA", "postalCode": "B0W1P0", "twitter": "None", "instagram": "None", "facebook": "None", "youtube": "None", "website": "None", "summary": "None", "logo": "None", "latitude": 43.44708000000003, "longitude": -65.63532999999995}, "884423021RR0001": {"name": "CLARKE'S BEACH PASTORAL CHARGE,", "designationCode": "C", "categoryCode": "44", "address": "PO BOX 406", "city": "CLARKE'S BEACH", "province": "NL", "country": "CA", "postalCode": "A0A1W0", "twitter": "None", "instagram": "None", "facebook": "None", "youtube": "None", "website": "None", "summary": "None", "logo": "None", "latitude": 47.532965954148196, "longitude": -53.28622853174667}, "108077926RR0001": {"name": "CLARKSON CO-OPERATIVE NURSERY SCHOOL INC.", "designationCode": "C", "categoryCode": "20", "address": "1700 MAZO CRES", "city": "MISSISSAUGA", "province": "ON", "country": "CA", "postalCode": "L5J1Y8", "twitter": "None", "instagram": "None", "facebook": "None", "youtube": "None", "website": "None", "summary": "None", "logo": "None", "latitude": 43.52642757144111, "longitude": -79.63310352452561}, "890713548RR0001": {"name": "CLARKSON MUSIC THEATRE INC", "designationCode": "C", "categoryCode": "22", "address": "1362 HAZEL MCCLEARY DR", "city": "OAKVILLE", "province": "ON", "country": "CA", "postalCode": "L6J7B2", "twitter": "None", "instagram": "None", "facebook": "None", "youtube": "None", "website": "None", "summary": "None", "logo": "None", "latitude": 43.49851167609219, "longitude": -79.66623004775224}, "118865153RR0001": {"name": "CLARKSON ROAD PRESBYTERIAN CHURCH", "designationCode": "C", "categoryCode": "37", "address": "1338 CLARKSON RD N", "city": "MISSISSAUGA", "province": "ON", "country": "CA", "postalCode": "L5J2W5", "twitter": "None", "instagram": "None", "facebook": "None", "youtube": "None", "website": "None", "summary": "None", "logo": "None", "latitude": 43.52354342212493, "longitude": -79.6325198704193}, "118870724RR0001": {"name": "CLAS Foundation", "designationCode": "C", "categoryCode": "59", "address": "300-1140 PENDER ST W", "city": "VANCOUVER", "province": "BC", "country": "CA", "postalCode": "V6E4G1", "twitter": "None", "instagram": "None", "facebook": "None", "youtube": "None", "website": "None", "summary": "None", "logo": "None", "latitude": 49.28790194751592, "longitude": -123.12183137235255}, "798263315RR0001": {"name": "CLAS FOUNDATION", "designationCode": "A", "categoryCode": "05", "address": "300 - 1140 PENDER ST W", "city": "VANCOUVER", "province": "BC", "country": "CA", "postalCode": "V6E4G1", "twitter": "None", "instagram": "None", "facebook": "None", "youtube": "None", "website": "None", "summary": "None", "logo": "None", "latitude": 49.28790194751592, "longitude": -123.12183137235255}, "874352107RR0001": {"name": "CLASSIC THEATRE COBALT", "designationCode": "C", "categoryCode": "22", "address": "BOX 29", "city": "COBALT", "province": "ON", "country": "CA", "postalCode": "P0J1C0", "twitter": "None", "instagram": "None", "facebook": "None", "youtube": "None", "website": "None", "summary": "None", "logo": "None", "latitude": 47.395081709725446, "longitude": -79.68712898233666}, "876389727RR0001": {"name": "CLASSICAL PIANO TEACHERS SOCIETY OF BRITISH COLUMBIA", "designationCode": "C", "categoryCode": "29", "address": "#207-2250 WEST 43RD AVE.", "city": "VANCOUVER", "province": "BC", "country": "CA", "postalCode": "V6M2E3", "twitter": "None", "instagram": "None", "facebook": "None", "youtube": "None", "website": "None", "summary": "None", "logo": "None", "latitude": 49.23271448124546, "longitude": -123.15950397016562}, "859707630RR0001": {"name": "CLASSIS ALBERTA SOUTH AND SASKATCHEWAN", "designationCode": "C", "categoryCode": "47", "address": "97 DOUGLASVIEW RISE SE", "city": "CALGARY", "province": "AB", "country": "CA", "postalCode": "T2Z2P5", "twitter": "None", "instagram": "None", "facebook": "None", "youtube": "None", "website": "None", "summary": "None", "logo": "None", "latitude": 50.93753801304175, "longitude": -113.98755092518334}, "893412189RR0001": {"name": "CLASSIS OF BRITISH COLUMBIA, REFORMED CHURCH IN AMERICA", "designationCode": "C", "categoryCode": "49", "address": "#23-3902 LATIMER STREET", "city": "ABBOTSFORD", "province": "BC", "country": "CA", "postalCode": "V2S7L5", "twitter": "None", "instagram": "None", "facebook": "None", "youtube": "None", "website": "None", "summary": "None", "logo": "None", "latitude": 49.07326002385178, "longitude": -122.26095243303067}, "106932676RR0001": {"name": "CLASSIS OF ONTARIO INC., THE REFORMED CHURCH IN AMERICA", "designationCode": "C", "categoryCode": "49", "address": "17 CLEMENT DR", "city": "BRANTFORD", "province": "ON", "country": "CA", "postalCode": "N3T6H9", "twitter": "None", "instagram": "None", "facebook": "None", "youtube": "None", "website": "None", "summary": "None", "logo": "None", "latitude": 43.11980845934558, "longitude": -80.28094134038336}, "893162768RR0001": {"name": "CLASSROOM CONNECTIONS LEARNING FOUNDATION", "designationCode": "C", "categoryCode": "21", "address": "3555 DON MILLS ROAD           UNIT 18-123", "city": "TORONTO", "province": "ON", "country": "CA", "postalCode": "M2H3N3", "twitter": "None", "instagram": "None", "facebook": "None", "youtube": "None", "website": "None", "summary": "None", "logo": "None", "latitude": 43.794065355011625, "longitude": -79.3550458426633}, "130069776RR0001": {"name": "CLAUDE PRESBYTERIAN CHURCH", "designationCode": "C", "categoryCode": "37", "address": "15175 HURONTARIO ST", "city": "CALEDON", "province": "ON", "country": "CA", "postalCode": "L7C2E3", "twitter": "None", "instagram": "None", "facebook": "None", "youtube": "None", "website": "None", "summary": "None", "logo": "None", "latitude": 43.796501275347545, "longitude": -79.90964573310657}, "891285926RR0001": {"name": "CLAUDINE AND STEPHEN BRONFMAN FAMILY FOUNDATION - FONDATION DE LA FAMILLE CLAUDINE ET STEPHEN BRONFMAN", "designationCode": "B", "categoryCode": "03", "address": "1170 PEEL STREET              8TH FLOOR", "city": "MONTREAL", "province": "QC", "country": "CA", "postalCode": "H3B4P2", "twitter": "None", "instagram": "None", "facebook": "None", "youtube": "None", "website": "None", "summary": "None", "logo": "None", "latitude": 45.49919599330624, "longitude": -73.57126662118391}, "891943102RR0001": {"name": "CLAVECIN EN CONCERT", "designationCode": "C", "categoryCode": "22", "address": "339 RUE GRATTON", "city": "SAINT-LAURENT", "province": "QC", "country": "CA", "postalCode": "H4M2C8", "twitter": "None", "instagram": "None", "facebook": "None", "youtube": "None", "website": "None", "summary": "None", "logo": "None", "latitude": 45.50096000028847, "longitude": -73.67918464028517}, "129703567RR0001": {"name": "CLAVET COMMUNITY ARENA ASSOCIATION INC", "designationCode": "C", "categoryCode": "56", "address": "BOX 28", "city": "CLAVET", "province": "SK", "country": "CA", "postalCode": "S0K0Y0", "twitter": "None", "instagram": "None", "facebook": "None", "youtube": "None", "website": "None", "summary": "None", "logo": "None", "latitude": 52.00008000000008, "longitude": -106.38449999999995}, "118865211RR0001": {"name": "CLAVET UNITED CHURCH", "designationCode": "C", "categoryCode": "44", "address": "PO BOX 84", "city": "CLAVET", "province": "SK", "country": "CA", "postalCode": "S0K0Y0", "twitter": "None", "instagram": "None", "facebook": "None", "youtube": "None", "website": "None", "summary": "None", "logo": "None", "latitude": 52.00008000000008, "longitude": -106.38449999999995}, "899324263RR0001": {"name": "CLAY AND PAPER THEATRE", "designationCode": "C", "categoryCode": "22", "address": "163 CONCORD AVENUE", "city": "TORONTO", "province": "ON", "country": "CA", "postalCode": "M6H2P2", "twitter": "None", "instagram": "None", "facebook": "None", "youtube": "None", "website": "None", "summary": "None", "logo": "None", "latitude": 43.65834106134223, "longitude": -79.425527088378}, "107758864RR0001": {"name": "CLAY TREE SOCIETY FOR PEOPLE WITH DEVELOPMENTAL DISABILITIES", "designationCode": "C", "categoryCode": "11", "address": "838 OLD VICTORIA ROAD", "city": "NANAIMO", "province": "BC", "country": "CA", "postalCode": "V9R6A1", "twitter": "None", "instagram": "None", "facebook": "None", "youtube": "None", "website": "None", "summary": "None", "logo": "None", "latitude": 49.14549588007798, "longitude": -123.93632613155275}, "898578190RR0001": {"name": "CLAYBANK BRICK PLANT HISTORICAL SOCIETY INC.", "designationCode": "C", "categoryCode": "52", "address": "BOX 2-5", "city": "CLAYBANK", "province": "SK", "country": "CA", "postalCode": "S0H0W0", "twitter": "None", "instagram": "None", "facebook": "None", "youtube": "None", "website": "None", "summary": "None", "logo": "None", "latitude": 50.04496929484176, "longitude": -105.23517378980341}, "119288918RR0714": {"name": "CLAYBURN CONGREGATION OF JEHOVAH'S WITNESSES", "designationCode": "C", "categoryCode": "61", "address": "3750 SANDY HILL CRES", "city": "ABBOTSFORD", "province": "BC", "country": "CA", "postalCode": "V3G1H9", "twitter": "None", "instagram": "None", "facebook": "None", "youtube": "None", "website": "None", "summary": "None", "logo": "None", "latitude": 49.070124492642414, "longitude": -122.24660614498838}, "889838140RR0001": {"name": "CLAYBURN VILLAGE COMMUNITY SOCIETY", "designationCode": "C", "categoryCode": "52", "address": "4304 WRIGHT ST.", "city": "ABBOTSFORD", "province": "BC", "country": "CA", "postalCode": "V2S7Y9", "twitter": "None", "instagram": "None", "facebook": "None", "youtube": "None", "website": "None", "summary": "None", "logo": "None", "latitude": 49.080285, "longitude": -122.2609585676902}, "870641727RR0001": {"name": "CLAYOQUOT BIOSPHERE TRUST SOCIETY", "designationCode": "C", "categoryCode": "21", "address": "PO BOX 67", "city": "TOFINO", "province": "BC", "country": "CA", "postalCode": "V0R2Z0", "twitter": "None", "instagram": "None", "facebook": "None", "youtube": "None", "website": "None", "summary": "None", "logo": "None", "latitude": 49.15262000000007, "longitude": -125.90403999999995}, "118865245RR0001": {"name": "CLAYTON MCLAIN MEMORIAL MUSUEM INC.", "designationCode": "C", "categoryCode": "50", "address": "BOX 8", "city": "CUT KNIFE", "province": "SK", "country": "CA", "postalCode": "S0M0N0", "twitter": "None", "instagram": "None", "facebook": "None", "youtube": "None", "website": "None", "summary": "None", "logo": "None", "latitude": 52.740921789497094, "longitude": -109.02330639630397}, "132788522RR0001": {"name": "CLAYTON SENIORS HOUSING CORPORATION", "designationCode": "C", "categoryCode": "09", "address": "134 LINN BOWER LANE           RR#2", "city": "CLAYTON", "province": "ON", "country": "CA", "postalCode": "K0A1P0", "twitter": "None", "instagram": "None", "facebook": "None", "youtube": "None", "website": "None", "summary": "None", "logo": "None", "latitude": 45.19056374003054, "longitude": -76.32310995928731}, "890469562RR0001": {"name": "CLEAN AIR PARTNERSHIP", "designationCode": "A", "categoryCode": "53", "address": "75 ELIZABETH ST", "city": "TORONTO", "province": "ON", "country": "CA", "postalCode": "M5G1P4", "twitter": "None", "instagram": "None", "facebook": "None", "youtube": "None", "website": "None", "summary": "None", "logo": "None", "latitude": 43.654130873997325, "longitude": -79.38461869343308}, "133712638RR0001": {"name": "CLEAN ANNAPOLIS RIVER PROJECT SOCIETY", "designationCode": "C", "categoryCode": "59", "address": "PO BOX 395", "city": "ANNAPOLIS ROYAL", "province": "NS", "country": "CA", "postalCode": "B0S1A0", "twitter": "None", "instagram": "None", "facebook": "None", "youtube": "None", "website": "None", "summary": "None", "logo": "None", "latitude": 44.74294007660574, "longitude": -65.518980048906}, "130567456RR0001": {"name": "CLEAN NORTH, THE SAULT AND DISTRICT RECYCLING ASSOCIATION", "designationCode": "C", "categoryCode": "59", "address": "736 A QUEEN ST E", "city": "SAULT STE MARIE", "province": "ON", "country": "CA", "postalCode": "P6A2A9", "twitter": "None", "instagram": "None", "facebook": "None", "youtube": "None", "website": "None", "summary": "None", "logo": "None", "latitude": 46.5074069175946, "longitude": -84.32692308047216}, "867879843RR0001": {"name": "CLEANSING STREAM MINISTRIES CANADA, INC", "designationCode": "C", "categoryCode": "49", "address": "37 CRAMSTON CRESCENT", "city": "LONDON", "province": "ON", "country": "CA", "postalCode": "N6H3A3", "twitter": "None", "instagram": "None", "facebook": "None", "youtube": "None", "website": "None", "summary": "None", "logo": "None", "latitude": 42.974450821541915, "longitude": -81.3030923413643}, "887444396RR0001": {"name": "CLEAR CREEK CEMETERY FUND", "designationCode": "C", "categoryCode": "59", "address": "841 1ST CONCESSION RD", "city": "PORT ROWAN", "province": "ON", "country": "CA", "postalCode": "N0E1M0", "twitter": "None", "instagram": "None", "facebook": "None", "youtube": "None", "website": "None", "summary": "None", "logo": "None", "latitude": 42.62092923925208, "longitude": -80.48982476839397}, "141049718RR0001": {"name": "CLEAR LAKE CHARITABLE TRUST", "designationCode": "B", "categoryCode": "39", "address": "3425 2ND AVE S", "city": "LETHBRIDGE", "province": "AB", "country": "CA", "postalCode": "T1J4V1", "twitter": "None", "instagram": "None", "facebook": "None", "youtube": "None", "website": "None", "summary": "None", "logo": "None", "latitude": 49.696839530439966, "longitude": -112.78914308381903}, "847406071RR0001": {"name": "CLEAR SKY MEDITATION AND STUDY FOUNDATION", "designationCode": "C", "categoryCode": "35", "address": "PO BOX 19", "city": "FORT STEELE", "province": "BC", "country": "CA", "postalCode": "V0B1N0", "twitter": "None", "instagram": "None", "facebook": "None", "youtube": "None", "website": "None", "summary": "None", "logo": "None", "latitude": 49.609665213438795, "longitude": -115.6271788911248}, "881948418RR0001": {"name": "CLEAR SPRINGS CEMETERY", "designationCode": "B", "categoryCode": "59", "address": "18 BAYTREE CRT", "city": "WINNIPEG", "province": "MB", "country": "CA", "postalCode": "R3P2L2", "twitter": "None", "instagram": "None", "facebook": "None", "youtube": "None", "website": "None", "summary": "None", "logo": "None", "latitude": 49.83346149402739, "longitude": -97.19850285980174}, "892970476RR0001": {"name": "CLEAR SPRINGS CHARITABLE TRUST", "designationCode": "B", "categoryCode": "39", "address": "PO BOX 130", "city": "KENASTON", "province": "SK", "country": "CA", "postalCode": "S0G2N0", "twitter": "None", "instagram": "None", "facebook": "None", "youtube": "None", "website": "None", "summary": "None", "logo": "None", "latitude": 51.50007000000005, "longitude": -106.28451999999999}}