{"108187766RR0001": {"name": "WAINWRIGHT ASSOCIATION FOR COMMUNITY LIVING", "designationCode": "C", "categoryCode": "01", "address": "205 10 ST", "city": "WAINWRIGHT", "province": "AB", "country": "CA", "postalCode": "T9W1N7", "twitter": "None", "instagram": "None", "facebook": "None", "youtube": "None", "website": "None", "summary": "None", "logo": "None", "latitude": 52.83372581236662, "longitude": -110.86074176807686}, "824716153RR0001": {"name": "WAINWRIGHT BATTLE RIVER FOOD BANK ASSOCIATION", "designationCode": "C", "categoryCode": "09", "address": "1014 3 AVE", "city": "WAINWRIGHT", "province": "AB", "country": "CA", "postalCode": "T9W1T7", "twitter": "None", "instagram": "None", "facebook": "None", "youtube": "None", "website": "None", "summary": "None", "logo": "None", "latitude": 52.834050731634676, "longitude": -110.85928228501375}, "862407210RR0001": {"name": "WAINWRIGHT BUFFALO NATIONAL PARK INTERPRETIVE CENTRE FOUNDATION", "designationCode": "C", "categoryCode": "52", "address": "1300 - 10235 101 ST NW", "city": "EDMONTON", "province": "AB", "country": "CA", "postalCode": "T5J3G1", "twitter": "None", "instagram": "None", "facebook": "None", "youtube": "None", "website": "None", "summary": "None", "logo": "None", "latitude": 53.545050450458774, "longitude": -113.49362480070987}, "119287571RR0001": {"name": "WAINWRIGHT CEMETERY ASSOCIATION,", "designationCode": "C", "categoryCode": "59", "address": "2202-14 AVE", "city": "WAINWRIGHT", "province": "AB", "country": "CA", "postalCode": "T9W1L2", "twitter": "None", "instagram": "None", "facebook": "None", "youtube": "None", "website": "None", "summary": "None", "logo": "None", "latitude": 52.84350455345507, "longitude": -110.83864955345506}, "108187774RR0001": {"name": "WAINWRIGHT CHILDREN'S CENTRE", "designationCode": "C", "categoryCode": "01", "address": "905 10 ST", "city": "WAINWRIGHT", "province": "AB", "country": "CA", "postalCode": "T9W2R6", "twitter": "None", "instagram": "None", "facebook": "None", "youtube": "None", "website": "None", "summary": "None", "logo": "None", "latitude": 52.83933385175167, "longitude": -110.85453865699183}, "119287589RR0001": {"name": "WAINWRIGHT CHURCH OF THE NAZARENE", "designationCode": "C", "categoryCode": "39", "address": "1002 18 ST", "city": "WAINWRIGHT", "province": "AB", "country": "CA", "postalCode": "T9W1L4", "twitter": "None", "instagram": "None", "facebook": "None", "youtube": "None", "website": "None", "summary": "None", "logo": "None", "latitude": 52.838391250307964, "longitude": -110.84475025030795}, "135360295RR0001": {"name": "WAINWRIGHT HEALTH-CARE AUXILIARY", "designationCode": "C", "categoryCode": "19", "address": "1015-4 AVE", "city": "WAINWRIGHT", "province": "AB", "country": "CA", "postalCode": "T9W1H2", "twitter": "None", "instagram": "None", "facebook": "None", "youtube": "None", "website": "None", "summary": "None", "logo": "None", "latitude": 52.83483931943578, "longitude": -110.85838497365671}, "898279682RR0001": {"name": "WAINWRIGHT MILITARY FAMILY RESOURCE CENTRE", "designationCode": "C", "categoryCode": "09", "address": "BUILDING 400 HILLSIDE ROAD    POST OFFICE BOX 29", "city": "DENWOOD", "province": "AB", "country": "CA", "postalCode": "T0B1B0", "twitter": "None", "instagram": "None", "facebook": "None", "youtube": "None", "website": "None", "summary": "None", "logo": "None", "latitude": 52.828511944525, "longitude": -110.88532084191813}, "893350520RR0001": {"name": "WAINWRIGHT PENTECOSTAL ASSEMBLY", "designationCode": "C", "categoryCode": "36", "address": "1101 - 5 AVE", "city": "WAINWRIGHT", "province": "AB", "country": "CA", "postalCode": "T9W1L6", "twitter": "None", "instagram": "None", "facebook": "None", "youtube": "None", "website": "None", "summary": "None", "logo": "None", "latitude": 52.83503626115196, "longitude": -110.85590161284536}, "890962376RR0001": {"name": "WAINWRIGHT PRAIRIE ROSE SENIORS ASSOCIATION", "designationCode": "C", "categoryCode": "56", "address": "731 2 AVE", "city": "WAINWRIGHT", "province": "AB", "country": "CA", "postalCode": "T9W1C4", "twitter": "None", "instagram": "None", "facebook": "None", "youtube": "None", "website": "None", "summary": "None", "logo": "None", "latitude": 52.83555353786087, "longitude": -110.86628010335336}, "123225161RR0001": {"name": "WAINWRIGHT PUBLIC LIBRARY", "designationCode": "C", "categoryCode": "50", "address": "921 3RD AVENUE", "city": "WAINWRIGHT", "province": "AB", "country": "CA", "postalCode": "T9W1C5", "twitter": "None", "instagram": "None", "facebook": "None", "youtube": "None", "website": "None", "summary": "None", "logo": "None", "latitude": 52.834792286687176, "longitude": -110.86126136430246}, "899756456RR0001": {"name": "WAINWRIGHT RAILWAY PRESERVATION SOCIETY", "designationCode": "C", "categoryCode": "50", "address": "PO BOX 2972 STN MAIN", "city": "WAINWRIGHT", "province": "AB", "country": "CA", "postalCode": "T9W1S8", "twitter": "None", "instagram": "None", "facebook": "None", "youtube": "None", "website": "None", "summary": "None", "logo": "None", "latitude": 52.84339800000005, "longitude": -110.85204049999993}, "119287662RR0001": {"name": "WAKAMOW VALLEY AUTHORITY", "designationCode": "C", "categoryCode": "52", "address": "P.O. BOX 1266", "city": "MOOSE JAW", "province": "SK", "country": "CA", "postalCode": "S6H4P9", "twitter": "None", "instagram": "None", "facebook": "None", "youtube": "None", "website": "None", "summary": "None", "logo": "None", "latitude": 50.39688300000006, "longitude": -105.53701399999993}, "119287712RR0001": {"name": "WAKAW PASTORAL CHARGE,", "designationCode": "C", "categoryCode": "44", "address": "PO BOX 387", "city": "WAKAW", "province": "SK", "country": "CA", "postalCode": "S0K4P0", "twitter": "None", "instagram": "None", "facebook": "None", "youtube": "None", "website": "None", "summary": "None", "logo": "None", "latitude": 52.65295000000003, "longitude": -105.74270999999999}, "132947680RR0001": {"name": "WAKEFIELD UNITED CHURCH", "designationCode": "C", "categoryCode": "44", "address": "92 MACLAREN ROAD", "city": "WAKEFIELD", "province": "QC", "country": "CA", "postalCode": "J0X3G0", "twitter": "None", "instagram": "None", "facebook": "None", "youtube": "None", "website": "None", "summary": "None", "logo": "None", "latitude": 45.65308488166568, "longitude": -75.93300917750148}, "119287746RR0001": {"name": "WAKESIAH GOSPEL CHAPEL", "designationCode": "C", "categoryCode": "39", "address": "170 WAKESIAH AVE", "city": "NANAIMO", "province": "BC", "country": "CA", "postalCode": "V9R3J9", "twitter": "None", "instagram": "None", "facebook": "None", "youtube": "None", "website": "None", "summary": "None", "logo": "None", "latitude": 49.167557580904855, "longitude": -123.96097901719668}, "893003053RR0001": {"name": "WALADI CHILD EDUCATION FUND OF TORONTO", "designationCode": "C", "categoryCode": "09", "address": "66 ROXBOROUGH STREET WEST", "city": "TORONTO", "province": "ON", "country": "CA", "postalCode": "M5R1T8", "twitter": "None", "instagram": "None", "facebook": "None", "youtube": "None", "website": "None", "summary": "None", "logo": "None", "latitude": 43.67759620901365, "longitude": -79.3930457035893}, "862261542RR0001": {"name": "WALBRIDGE CONSERVATION AREA FOUNDATION / FONDATION DE TERRITOIRE DE CONSERVATION WALBRIDGE", "designationCode": "B", "categoryCode": "52", "address": "60, RUE PRINCIPALE", "city": "BEDFORD", "province": "QC", "country": "CA", "postalCode": "J0J1A0", "twitter": "None", "instagram": "None", "facebook": "None", "youtube": "None", "website": "None", "summary": "None", "logo": "None", "latitude": 45.12114246047074, "longitude": -72.98921180835592}, "871851697RR0001": {"name": "WALDECK CHARITABLE TRUST", "designationCode": "B", "categoryCode": "39", "address": "50 1ST AVE NE", "city": "SWIFT CURRENT", "province": "SK", "country": "CA", "postalCode": "S9H4W4", "twitter": "None", "instagram": "None", "facebook": "None", "youtube": "None", "website": "None", "summary": "None", "logo": "None", "latitude": 50.282664378132, "longitude": -107.79863205289816}, "133494013RR0001": {"name": "WALDEN DAY CARE CENTRE", "designationCode": "C", "categoryCode": "01", "address": "500 NIEMI ROAD", "city": "LIVELY", "province": "ON", "country": "CA", "postalCode": "P3Y1M4", "twitter": "None", "instagram": "None", "facebook": "None", "youtube": "None", "website": "None", "summary": "None", "logo": "None", "latitude": 46.42811288685446, "longitude": -81.14978061314554}, "888052644RR0001": {"name": "WALDEN SENIOR CITIZENS AND PENSIONERS INCORPORATED", "designationCode": "C", "categoryCode": "01", "address": "B-15 KIN DRIVE", "city": "LIVELY", "province": "ON", "country": "CA", "postalCode": "P3Y1M9", "twitter": "None", "instagram": "None", "facebook": "None", "youtube": "None", "website": "None", "summary": "None", "logo": "None", "latitude": 46.43768603892598, "longitude": -81.14624773284476}, "888488467RR0001": {"name": "WALDEN VOLUNTEER FIRE DEPARTMENT", "designationCode": "C", "categoryCode": "59", "address": "RR 3", "city": "MAHONE BAY", "province": "NS", "country": "CA", "postalCode": "B0J2E0", "twitter": "None", "instagram": "None", "facebook": "None", "youtube": "None", "website": "None", "summary": "None", "logo": "None", "latitude": 44.5107664683721, "longitude": -64.5603343504879}, "867552713RR0001": {"name": "WALDENSTROM'S MACROGLOBULINEMIA FOUNDATION OF CANADA", "designationCode": "C", "categoryCode": "11", "address": "260 DALEWOOD DR", "city": "OAKVILLE", "province": "ON", "country": "CA", "postalCode": "L6J4P3", "twitter": "None", "instagram": "None", "facebook": "None", "youtube": "None", "website": "None", "summary": "None", "logo": "None", "latitude": 43.467391404379995, "longitude": -79.65483985152052}, "891252942RR0001": {"name": "WALDHAUS FOUNDATION", "designationCode": "B", "categoryCode": "03", "address": "1500 GEORGIA STREET WEST      BOX 62  SUITE 1250", "city": "VANCOUVER", "province": "BC", "country": "CA", "postalCode": "V6G2Z6", "twitter": "None", "instagram": "None", "facebook": "None", "youtube": "None", "website": "None", "summary": "None", "logo": "None", "latitude": 49.29013479542975, "longitude": -123.1300069287031}, "119287811RR0001": {"name": "WALDHEIM AND DISTRICT NEW HORIZONS GROUP INC", "designationCode": "C", "categoryCode": "56", "address": "PO BOX 49", "city": "WALDHEIM", "province": "SK", "country": "CA", "postalCode": "S0K4R0", "twitter": "None", "instagram": "None", "facebook": "None", "youtube": "None", "website": "None", "summary": "None", "logo": "None", "latitude": 52.620700000000056, "longitude": -106.65605}, "864562939RR0001": {"name": "WALDHEIM CHARITABLE TRUST", "designationCode": "B", "categoryCode": "39", "address": "2500 - 201 PORTAGE AVENUE", "city": "WINNIPEG", "province": "MB", "country": "CA", "postalCode": "R3B3K6", "twitter": "None", "instagram": "None", "facebook": "None", "youtube": "None", "website": "None", "summary": "None", "logo": "None", "latitude": 49.895359615067065, "longitude": -97.13919299627776}, "889706446RR0001": {"name": "WALDHEIM MENNONITE BRETHREN CHURCH", "designationCode": "C", "categoryCode": "34", "address": "BOX 245", "city": "WALDHEIM", "province": "SK", "country": "CA", "postalCode": "S0K4R0", "twitter": "None", "instagram": "None", "facebook": "None", "youtube": "None", "website": "None", "summary": "None", "logo": "None", "latitude": 52.620700000000056, "longitude": -106.65605}, "119287837RR0001": {"name": "WALDHEIM MISSIONS CONFERENCE", "designationCode": "C", "categoryCode": "47", "address": "BOX 142", "city": "WALDHEIM", "province": "SK", "country": "CA", "postalCode": "S0K4R0", "twitter": "None", "instagram": "None", "facebook": "None", "youtube": "None", "website": "None", "summary": "None", "logo": "None", "latitude": 52.620700000000056, "longitude": -106.65605}, "807733944RR0001": {"name": "WALDHEIM RECREATION CENTRE INC.", "designationCode": "C", "categoryCode": "56", "address": "BOX 567", "city": "WALDHEIM", "province": "SK", "country": "CA", "postalCode": "S0K4R0", "twitter": "None", "instagram": "None", "facebook": "None", "youtube": "None", "website": "None", "summary": "None", "logo": "None", "latitude": 52.620700000000056, "longitude": -106.65605}, "119211498RR0001": {"name": "WALDORF ACADEMY INCORPORATED", "designationCode": "C", "categoryCode": "20", "address": "250 MADISON AVE", "city": "TORONTO", "province": "ON", "country": "CA", "postalCode": "M4V2W6", "twitter": "None", "instagram": "None", "facebook": "None", "youtube": "None", "website": "None", "summary": "None", "logo": "None", "latitude": 43.677261377459764, "longitude": -79.40682455081065}, "108188277RR0001": {"name": "WALDORF SCHOOL ASSOCIATION OF KELOWNA", "designationCode": "C", "categoryCode": "20", "address": "429 COLLETT RD", "city": "KELOWNA", "province": "BC", "country": "CA", "postalCode": "V1W1K6", "twitter": "None", "instagram": "None", "facebook": "None", "youtube": "None", "website": "None", "summary": "None", "logo": "None", "latitude": 49.81745246624181, "longitude": -119.49888077699232}, "893355867RR0001": {"name": "WALKATHON FOR KIDS WITH CANCER SOCIETY", "designationCode": "A", "categoryCode": "05", "address": "12435 ALLIANCE DR", "city": "RICHMOND", "province": "BC", "country": "CA", "postalCode": "V7E6J2", "twitter": "None", "instagram": "None", "facebook": "None", "youtube": "None", "website": "None", "summary": "None", "logo": "None", "latitude": 49.12276429753588, "longitude": -123.16729682018558}, "119287878RR0001": {"name": "WALKER MINERALOGICAL CLUB", "designationCode": "C", "categoryCode": "21", "address": "DEPT. NH-ES                   100 QUEEN'S PARK", "city": "TORONTO", "province": "ON", "country": "CA", "postalCode": "M5S2C6", "twitter": "None", "instagram": "None", "facebook": "None", "youtube": "None", "website": "None", "summary": "None", "logo": "None", "latitude": 43.66786635192456, "longitude": -79.39380648531348}, "123572463RR0001": {"name": "WALKER THEATRE PERFORMING ARTS GROUP INC", "designationCode": "C", "categoryCode": "22", "address": "345 GRAHAM AVE", "city": "WINNIPEG", "province": "MB", "country": "CA", "postalCode": "R3C5S6", "twitter": "None", "instagram": "None", "facebook": "None", "youtube": "None", "website": "None", "summary": "None", "logo": "None", "latitude": 49.89172024176222, "longitude": -97.14465758993587}, "832849947RR0001": {"name": "WALKER WOOD FOUNDATION", "designationCode": "B", "categoryCode": "23", "address": "300 - 269 RICHMOND ST W", "city": "TORONTO", "province": "ON", "country": "CA", "postalCode": "M5V1X1", "twitter": "None", "instagram": "None", "facebook": "None", "youtube": "None", "website": "None", "summary": "None", "logo": "None", "latitude": 43.64792255983254, "longitude": -79.39538964100468}, "890309248RR0001": {"name": "WALKERTON & DISTRICT HOSPITAL FOUNDATION", "designationCode": "A", "categoryCode": "13", "address": "21 MCGIVERN STREET EAST       BOX 1300", "city": "WALKERTON", "province": "ON", "country": "CA", "postalCode": "N0G2V0", "twitter": "None", "instagram": "None", "facebook": "None", "youtube": "None", "website": "None", "summary": "None", "logo": "None", "latitude": 44.12484805058364, "longitude": -81.14991627479334}, "119287902RR0001": {"name": "WALKERTON BAPTIST CHURCH", "designationCode": "C", "categoryCode": "31", "address": "PO BOX 83", "city": "WALKERTON", "province": "ON", "country": "CA", "postalCode": "N0G2V0", "twitter": "None", "instagram": "None", "facebook": "None", "youtube": "None", "website": "None", "summary": "None", "logo": "None", "latitude": 44.12817000000007, "longitude": -81.15211999999997}, "108188434RR0001": {"name": "WALKERTON PENTECOSTAL CHURCH", "designationCode": "C", "categoryCode": "36", "address": "PO BOX 1268", "city": "WALKERTON", "province": "ON", "country": "CA", "postalCode": "N0G2V0", "twitter": "None", "instagram": "None", "facebook": "None", "youtube": "None", "website": "None", "summary": "None", "logo": "None", "latitude": 44.12817000000007, "longitude": -81.15211999999997}, "130373129RR0001": {"name": "WALKERVILLE EVANGELICAL BAPTIST CHURCH", "designationCode": "C", "categoryCode": "31", "address": "815 WINDERMERE ROAD", "city": "WINDSOR", "province": "ON", "country": "CA", "postalCode": "N8Y3E3", "twitter": "None", "instagram": "None", "facebook": "None", "youtube": "None", "website": "None", "summary": "None", "logo": "None", "latitude": 42.31994180016163, "longitude": -83.01368185403068}, "864651385RR0001": {"name": "WALKING IN LOVE MINISTRY", "designationCode": "C", "categoryCode": "39", "address": "26 KIRKHAM DRIVE", "city": "AJAX", "province": "ON", "country": "CA", "postalCode": "L1S5K5", "twitter": "None", "instagram": "None", "facebook": "None", "youtube": "None", "website": "None", "summary": "None", "logo": "None", "latitude": 43.85188993865778, "longitude": -79.04174604651148}, "858981806RR0001": {"name": "WALKING IN WHOLENESS MINISTRIES", "designationCode": "C", "categoryCode": "49", "address": "6 PETERSON CRT.", "city": "BRAMPTON", "province": "ON", "country": "CA", "postalCode": "L6Z1K6", "twitter": "None", "instagram": "None", "facebook": "None", "youtube": "None", "website": "None", "summary": "None", "logo": "None", "latitude": 43.73055339604143, "longitude": -79.78676229629514}, "844495564RR0001": {"name": "WALKING ON THE WATER MINISTRIES", "designationCode": "C", "categoryCode": "36", "address": "160 MAIN ST.                  P.O. BOX 92607", "city": "BRAMPTON", "province": "ON", "country": "CA", "postalCode": "L6W4R1", "twitter": "None", "instagram": "None", "facebook": "None", "youtube": "None", "website": "None", "summary": "None", "logo": "None", "latitude": 43.67739209775482, "longitude": -79.74845264132438}, "895568525RR0001": {"name": "WALKING THROUGH GRIEF SOCIETY", "designationCode": "C", "categoryCode": "11", "address": "PO BOX 284", "city": "KITSCOTY", "province": "AB", "country": "CA", "postalCode": "T0B2P0", "twitter": "None", "instagram": "None", "facebook": "None", "youtube": "None", "website": "None", "summary": "None", "logo": "None", "latitude": 53.33346000000006, "longitude": -110.33489999999995}, "119288082RR0001": {"name": "WALL STREET UNITED CHURCH", "designationCode": "C", "categoryCode": "44", "address": "5 WALL ST", "city": "BROCKVILLE", "province": "ON", "country": "CA", "postalCode": "K6V4R8", "twitter": "None", "instagram": "None", "facebook": "None", "youtube": "None", "website": "None", "summary": "None", "logo": "None", "latitude": 44.59087585525576, "longitude": -75.68495456120118}, "852585173RR0001": {"name": "WALLABY ET COMPAGNIE", "designationCode": "C", "categoryCode": "09", "address": "300 AVENUE LAFLEUR", "city": "LASALLE", "province": "QC", "country": "CA", "postalCode": "H8R3H5", "twitter": "None", "instagram": "None", "facebook": "None", "youtube": "None", "website": "None", "summary": "None", "logo": "None", "latitude": 45.42986997475325, "longitude": -73.64762486210941}, "119287951RR0001": {"name": "WALLACE AND AREA MUSEUM SOCIETY", "designationCode": "C", "categoryCode": "50", "address": "PO BOX 179", "city": "WALLACE", "province": "NS", "country": "CA", "postalCode": "B0K1Y0", "twitter": "None", "instagram": "None", "facebook": "None", "youtube": "None", "website": "None", "summary": "None", "logo": "None", "latitude": 45.52877866223628, "longitude": -62.73566833776373}, "119287969RR0001": {"name": "WALLACE AREA DEVELOPMENT ASSOCIATION", "designationCode": "C", "categoryCode": "52", "address": "P.O. BOX 143                  13440 HIGHWAY 6", "city": "WALLACE", "province": "NS", "country": "CA", "postalCode": "B0K1Y0", "twitter": "None", "instagram": "None", "facebook": "None", "youtube": "None", "website": "None", "summary": "None", "logo": "None", "latitude": 45.81140544536875, "longitude": -63.50299505912224}, "119288009RR0001": {"name": "WALLACE DISTRICT VOLUNTEER FIRE DEPT", "designationCode": "C", "categoryCode": "59", "address": "PO BOX 159", "city": "WALLACE", "province": "NS", "country": "CA", "postalCode": "B0K1Y0", "twitter": "None", "instagram": "None", "facebook": "None", "youtube": "None", "website": "None", "summary": "None", "logo": "None", "latitude": 45.52877866223628, "longitude": -62.73566833776373}, "119288025RR0001": {"name": "WALLACE RIVER UNITED BAPTIST CHURCH,", "designationCode": "C", "categoryCode": "31", "address": "PO BOX 261", "city": "WALLACE", "province": "NS", "country": "CA", "postalCode": "B0K1Y0", "twitter": "None", "instagram": "None", "facebook": "None", "youtube": "None", "website": "None", "summary": "None", "logo": "None", "latitude": 45.52877866223628, "longitude": -62.73566833776373}, "119288058RR0001": {"name": "WALLACE UNITED CHURCH", "designationCode": "C", "categoryCode": "44", "address": "BOX 2056", "city": "VIRDEN", "province": "MB", "country": "CA", "postalCode": "R0M2C0", "twitter": "None", "instagram": "None", "facebook": "None", "youtube": "None", "website": "None", "summary": "None", "logo": "None", "latitude": 49.85688000000005, "longitude": -100.92262999999997}, "119288041RR0001": {"name": "WALLACE UNITED CHURCH,", "designationCode": "C", "categoryCode": "44", "address": "550 HAVELOCK AVE S", "city": "LISTOWEL", "province": "ON", "country": "CA", "postalCode": "N4W3T6", "twitter": "None", "instagram": "None", "facebook": "None", "youtube": "None", "website": "None", "summary": "None", "logo": "None", "latitude": 43.73017160154294, "longitude": -80.96502061836807}, "119287985RR0001": {"name": "WALLACEBURG & DISTRICT HISTORICAL SOCIETY", "designationCode": "C", "categoryCode": "50", "address": "505 KING STREET", "city": "WALLACEBURG", "province": "ON", "country": "CA", "postalCode": "N8A1J1", "twitter": "None", "instagram": "None", "facebook": "None", "youtube": "None", "website": "None", "summary": "None", "logo": "None", "latitude": 42.5926544995673, "longitude": -82.38267402844942}, "119287977RR0001": {"name": "WALLACEBURG AND DISTRICT COUNCIL FOR THE ARTS", "designationCode": "C", "categoryCode": "22", "address": "330 SELKIRK ST", "city": "WALLACEBURG", "province": "ON", "country": "CA", "postalCode": "N8A3X7", "twitter": "None", "instagram": "None", "facebook": "None", "youtube": "None", "website": "None", "summary": "None", "logo": "None", "latitude": 42.59368883819033, "longitude": -82.39247134390313}, "890539869RR0001": {"name": "WALLACEBURG DISTRICT SECONDARY SCHOOL TARTAN BOOSTER CLUB", "designationCode": "C", "categoryCode": "21", "address": "920 ELGIN STREET,", "city": "WALLACEBURG", "province": "ON", "country": "CA", "postalCode": "N8A3E1", "twitter": "None", "instagram": "None", "facebook": "None", "youtube": "None", "website": "None", "summary": "None", "logo": "None", "latitude": 42.59540250937682, "longitude": -82.39145200429917}, "872768890RR0001": {"name": "WALLACEBURG GOSPEL HALL", "designationCode": "C", "categoryCode": "39", "address": "121 GILLARD STREET", "city": "WALLACEBURG", "province": "ON", "country": "CA", "postalCode": "N8A1N1", "twitter": "None", "instagram": "None", "facebook": "None", "youtube": "None", "website": "None", "summary": "None", "logo": "None", "latitude": 42.59074085178033, "longitude": -82.38555840354326}, "859694036RR0001": {"name": "WALLACEBURG TRAILS ASSOCIATION", "designationCode": "C", "categoryCode": "56", "address": "505 KING ST.,", "city": "WALLACEBURG", "province": "ON", "country": "CA", "postalCode": "N8A1J1", "twitter": "None", "instagram": "None", "facebook": "None", "youtube": "None", "website": "None", "summary": "None", "logo": "None", "latitude": 42.5926544995673, "longitude": -82.38267402844942}, "119288918RR0026": {"name": "WALLACEBURG, ONTARIO CONGREGATION OF JEHOVAH'S WITNESSES", "designationCode": "C", "categoryCode": "61", "address": "168 DAVIES ST. WEST", "city": "DRESDEN", "province": "ON", "country": "CA", "postalCode": "N0P1M0", "twitter": "None", "instagram": "None", "facebook": "None", "youtube": "None", "website": "None", "summary": "None", "logo": "None", "latitude": 42.59729145657562, "longitude": -82.18024230391252}, "119288033RR0001": {"name": "WALLACETOWN AGRICULTURAL SOCIETY", "designationCode": "C", "categoryCode": "56", "address": "P O BOX 1", "city": "WALLACETOWN", "province": "ON", "country": "CA", "postalCode": "N0L2M0", "twitter": "None", "instagram": "None", "facebook": "None", "youtube": "None", "website": "None", "summary": "None", "logo": "None", "latitude": 42.63405000000006, "longitude": -81.46612999999996}, "119288066RR0001": {"name": "WALLBROOK UNITED BAPTIST CHURCH,", "designationCode": "C", "categoryCode": "31", "address": "1525 GASPEREAU RIVER ROAD", "city": "WALLBROOK", "province": "NS", "country": "CA", "postalCode": "B4P2R3", "twitter": "None", "instagram": "None", "facebook": "None", "youtube": "None", "website": "None", "summary": "None", "logo": "None", "latitude": 45.08385528310916, "longitude": -64.29645553095958}, "896190477RR0002": {"name": "WALLENSTEIN BIBLE CHAPEL", "designationCode": "C", "categoryCode": "39", "address": "BOX 51", "city": "WALLENSTEIN", "province": "ON", "country": "CA", "postalCode": "N0B2S0", "twitter": "None", "instagram": "None", "facebook": "None", "youtube": "None", "website": "None", "summary": "None", "logo": "None", "latitude": 43.59964000000008, "longitude": -80.63424999999995}, "893250068RR0001": {"name": "WALLENSTEIN BIBLE CHAPEL FOUNDATION", "designationCode": "A", "categoryCode": "45", "address": "P.O. BOX 51", "city": "WALLENSTEIN", "province": "ON", "country": "CA", "postalCode": "N0B2S0", "twitter": "None", "instagram": "None", "facebook": "None", "youtube": "None", "website": "None", "summary": "None", "logo": "None", "latitude": 43.59964000000008, "longitude": -80.63424999999995}, "892345422RR0001": {"name": "WALLENSTEIN FEED CHARITABLE FOUNDATION", "designationCode": "B", "categoryCode": "03", "address": "16 NUTHATCH PLACE", "city": "ELMIRA", "province": "ON", "country": "CA", "postalCode": "N3B3G5", "twitter": "None", "instagram": "None", "facebook": "None", "youtube": "None", "website": "None", "summary": "None", "logo": "None", "latitude": 43.58404577906979, "longitude": -80.5658879725602}, "108188889RR0001": {"name": "WALMER ROAD BAPTIST CHURCH", "designationCode": "C", "categoryCode": "31", "address": "DIRECTOR OF ADMINISTRATION    188 LOWTHER AVE.", "city": "TORONTO", "province": "ON", "country": "CA", "postalCode": "M5R1E8", "twitter": "None", "instagram": "None", "facebook": "None", "youtube": "None", "website": "None", "summary": "None", "logo": "None", "latitude": 43.66825715404807, "longitude": -79.4071798529055}, "127700508RR0001": {"name": "WALNUT GROVE LUTHERAN CHURCH OF LANGLEY, B C", "designationCode": "C", "categoryCode": "32", "address": "20530 88TH AVE", "city": "LANGLEY", "province": "BC", "country": "CA", "postalCode": "V1M2Y6", "twitter": "None", "instagram": "None", "facebook": "None", "youtube": "None", "website": "None", "summary": "None", "logo": "None", "latitude": 49.16265564597055, "longitude": -122.65393288199017}, "119288124RR0001": {"name": "WALSH BAPTIST CHURCH,", "designationCode": "C", "categoryCode": "31", "address": "RR 2", "city": "SIMCOE", "province": "ON", "country": "CA", "postalCode": "N3Y4K1", "twitter": "None", "instagram": "None", "facebook": "None", "youtube": "None", "website": "None", "summary": "None", "logo": "None", "latitude": 42.74929500000006, "longitude": -80.38947049999993}, "108189093RR0001": {"name": "WALTER A \"SLIM\" THORPE RECOVERY CENTRE SOCIETY", "designationCode": "C", "categoryCode": "57", "address": "PO BOX 291", "city": "BLACKFOOT", "province": "AB", "country": "CA", "postalCode": "T0B0L0", "twitter": "None", "instagram": "None", "facebook": "None", "youtube": "None", "website": "None", "summary": "None", "logo": "None", "latitude": 53.28890337040446, "longitude": -110.22951732215061}, "119288140RR0001": {"name": "WALTER AND DUNCAN GORDON CHARITABLE FOUNDATION", "designationCode": "B", "categoryCode": "03", "address": "11 CHURCH STREET              SUITE 400", "city": "TORONTO", "province": "ON", "country": "CA", "postalCode": "M5E1W1", "twitter": "None", "instagram": "None", "facebook": "None", "youtube": "None", "website": "None", "summary": "None", "logo": "None", "latitude": 43.6478392872641, "longitude": -79.37349023048084}, "887460194RR0001": {"name": "WALTER C SUMNER FOUNDATION", "designationCode": "B", "categoryCode": "03", "address": "PO. BOX : 457 HALIFAX CENTRAL", "city": "HALIFAX", "province": "NS", "country": "CA", "postalCode": "B3J2P8", "twitter": "None", "instagram": "None", "facebook": "None", "youtube": "None", "website": "None", "summary": "None", "logo": "None", "latitude": 44.643410000000074, "longitude": -63.57542999999998}, "118897834RR0001": {"name": "WALTER THOMAS ELLIOTT CHARITABLE FOUNDATION", "designationCode": "B", "categoryCode": "03", "address": "54 VICTORIA AVE.              PO BOX 1537", "city": "BELLEVILLE", "province": "ON", "country": "CA", "postalCode": "K8N1Z7", "twitter": "None", "instagram": "None", "facebook": "None", "youtube": "None", "website": "None", "summary": "None", "logo": "None", "latitude": 44.167014070805955, "longitude": -77.38308003026708}, "867615163RR0001": {"name": "WALTER WHYTE SCHOOL PARENT ADVISORY COUNCIL", "designationCode": "C", "categoryCode": "21", "address": "P.O. BOX 189", "city": "GRAND MARAIS", "province": "MB", "country": "CA", "postalCode": "R0E0T0", "twitter": "None", "instagram": "None", "facebook": "None", "youtube": "None", "website": "None", "summary": "None", "logo": "None", "latitude": 50.55020476890258, "longitude": -96.63362244326943}, "119288207RR0001": {"name": "WALTER'S FALLS PASTORAL CHARGE,", "designationCode": "C", "categoryCode": "44", "address": "R.R.# 2                       136216 9TH LINE", "city": "MARKDALE", "province": "ON", "country": "CA", "postalCode": "N0C1H0", "twitter": "None", "instagram": "None", "facebook": "None", "youtube": "None", "website": "None", "summary": "None", "logo": "None", "latitude": 44.26602900000006, "longitude": -80.64003049999994}, "108189879RR0001": {"name": "WALTON MEMORIAL UNITED CHURCH", "designationCode": "C", "categoryCode": "44", "address": "2489 LAKESHORE RD W", "city": "OAKVILLE", "province": "ON", "country": "CA", "postalCode": "L6L1H9", "twitter": "None", "instagram": "None", "facebook": "None", "youtube": "None", "website": "None", "summary": "None", "logo": "None", "latitude": 43.39355475491955, "longitude": -79.71266155415752}, "124091679RR0001": {"name": "WALTON PLACE (SCARBOROUGH) INC", "designationCode": "C", "categoryCode": "01", "address": "WALTON PLACE                  835 BIRCHMOUNT ROAD", "city": "SCARBOROUGH", "province": "ON", "country": "CA", "postalCode": "M1K5K1", "twitter": "None", "instagram": "None", "facebook": "None", "youtube": "None", "website": "None", "summary": "None", "logo": "None", "latitude": 43.72926866778231, "longitude": -79.27767927474196}, "890743586RR0001": {"name": "WALTON SHORE FIRE DEPARTMENT ASSOCIATION", "designationCode": "C", "categoryCode": "59", "address": "4281 WALTON WOODS ROAD        PO BOX 9", "city": "WALTON", "province": "NS", "country": "CA", "postalCode": "B0N2R0", "twitter": "None", "instagram": "None", "facebook": "None", "youtube": "None", "website": "None", "summary": "None", "logo": "None", "latitude": 45.22832530832728, "longitude": -64.00278994659229}, "131702177RR0001": {"name": "WALTON-BLUEVALE PASTORAL CHARGE", "designationCode": "C", "categoryCode": "44", "address": "BOX 552", "city": "BRUSSELS", "province": "ON", "country": "CA", "postalCode": "N0G1H0", "twitter": "None", "instagram": "None", "facebook": "None", "youtube": "None", "website": "None", "summary": "None", "logo": "None", "latitude": 43.714084384656786, "longitude": -81.27334948961246}, "105583116RR0001": {"name": "WANDERING WILLOWS LIVELIER RETIREMENT ASSOCIATION", "designationCode": "C", "categoryCode": "56", "address": "P.O. BOX 700", "city": "CLARESHOLM", "province": "AB", "country": "CA", "postalCode": "T0L0T0", "twitter": "None", "instagram": "None", "facebook": "None", "youtube": "None", "website": "None", "summary": "None", "logo": "None", "latitude": 50.026080000000036, "longitude": -113.58213999999998}, "132200387RR0001": {"name": "WANNER MENNONITE CHURCH", "designationCode": "C", "categoryCode": "34", "address": "1725 BEAVERDALE RD.           RR 21", "city": "CAMBRIDGE", "province": "ON", "country": "CA", "postalCode": "N3C2V3", "twitter": "None", "instagram": "None", "facebook": "None", "youtube": "None", "website": "None", "summary": "None", "logo": "None", "latitude": 43.43208686649551, "longitude": -80.33580661841394}, "130874902RR0001": {"name": "WANUSKEWIN HERITAGE PARK AUTHORITY", "designationCode": "C", "categoryCode": "52", "address": "RR 4  STN MAIN", "city": "SASKATOON", "province": "SK", "country": "CA", "postalCode": "S7K3J7", "twitter": "None", "instagram": "None", "facebook": "None", "youtube": "None", "website": "None", "summary": "None", "logo": "None", "latitude": 52.13049000000005, "longitude": -106.65926449999994}, "119288314RR0001": {"name": "WAPELLA CHURCH OF THE NAZARENE", "designationCode": "C", "categoryCode": "39", "address": "BOX 395", "city": "WAPELLA", "province": "SK", "country": "CA", "postalCode": "S0G4Z0", "twitter": "None", "instagram": "None", "facebook": "None", "youtube": "None", "website": "None", "summary": "None", "logo": "None", "latitude": 50.260980000000075, "longitude": -101.96996999999999}, "134654953RR0001": {"name": "WAPELLA UNITED CHURCH,", "designationCode": "C", "categoryCode": "44", "address": "BOX 411", "city": "WAPELLA", "province": "SK", "country": "CA", "postalCode": "S0G4Z0", "twitter": "None", "instagram": "None", "facebook": "None", "youtube": "None", "website": "None", "summary": "None", "logo": "None", "latitude": 50.260980000000075, "longitude": -101.96996999999999}, "870479433RR0001": {"name": "WAPITI COMMUNITY DORM SOCIETY", "designationCode": "C", "categoryCode": "01", "address": "10101 97A ST", "city": "GRANDE PRAIRIE", "province": "AB", "country": "CA", "postalCode": "T8V0X3", "twitter": "None", "instagram": "None", "facebook": "None", "youtube": "None", "website": "None", "summary": "None", "logo": "None", "latitude": 55.17174499417163, "longitude": -118.78664196779967}, "108190182RR0001": {"name": "WAPITI REGIONAL LIBRARY", "designationCode": "C", "categoryCode": "50", "address": "145 12TH ST E", "city": "PRINCE ALBERT", "province": "SK", "country": "CA", "postalCode": "S6V1B7", "twitter": "None", "instagram": "None", "facebook": "None", "youtube": "None", "website": "None", "summary": "None", "logo": "None", "latitude": 53.202118506780685, "longitude": -105.7499505}, "872374426RR0001": {"name": "WAR CHILD CANADA", "designationCode": "C", "categoryCode": "02", "address": "500-489 COLLEGE ST WEST", "city": "TORONTO", "province": "ON", "country": "CA", "postalCode": "M6G1A5", "twitter": "None", "instagram": "None", "facebook": "None", "youtube": "None", "website": "None", "summary": "None", "logo": "None", "latitude": 43.65494306938662, "longitude": -79.41524616736073}, "119288538RR0001": {"name": "WAR MEMORIAL LIBRARY, HUDSON HEIGHTS", "designationCode": "C", "categoryCode": "50", "address": "60 ELM", "city": "HUDSON HEIGHTS", "province": "QC", "country": "CA", "postalCode": "J0P1J0", "twitter": "None", "instagram": "None", "facebook": "None", "youtube": "None", "website": "None", "summary": "None", "logo": "None", "latitude": 45.46130954068309, "longitude": -74.14700586640859}, "105101059RR0001": {"name": "WAR VETERANS COMMUNITY HALL INC.", "designationCode": "C", "categoryCode": "56", "address": "PO BOX 1881", "city": "SWAN RIVER", "province": "MB", "country": "CA", "postalCode": "R0L1Z0", "twitter": "None", "instagram": "None", "facebook": "None", "youtube": "None", "website": "None", "summary": "None", "logo": "None", "latitude": 52.11672730414978, "longitude": -101.25989472758229}, "873498679RR0001": {"name": "WARBURG & DISTRICT HISTORICAL SOCIETY 1994", "designationCode": "C", "categoryCode": "50", "address": "BOX 293", "city": "WARBURG", "province": "AB", "country": "CA", "postalCode": "T0C2T0", "twitter": "None", "instagram": "None", "facebook": "None", "youtube": "None", "website": "None", "summary": "None", "logo": "None", "latitude": 53.18105000000003, "longitude": -114.31863999999996}, "119288355RR0001": {"name": "WARBURG ALLIANCE CHURCH", "designationCode": "C", "categoryCode": "39", "address": "BOX 249", "city": "WARBURG", "province": "AB", "country": "CA", "postalCode": "T0C2T0", "twitter": "None", "instagram": "None", "facebook": "None", "youtube": "None", "website": "None", "summary": "None", "logo": "None", "latitude": 53.18105000000003, "longitude": -114.31863999999996}, "888487493RR0001": {"name": "WARBURG CHARITABLE TRUST", "designationCode": "B", "categoryCode": "39", "address": "3425 2 AVE S", "city": "LETHBRIDGE", "province": "AB", "country": "CA", "postalCode": "T1J4V1", "twitter": "None", "instagram": "None", "facebook": "None", "youtube": "None", "website": "None", "summary": "None", "logo": "None", "latitude": 49.696839530439966, "longitude": -112.78914308381903}, "119288371RR0001": {"name": "WARBURG S D A CHURCH", "designationCode": "C", "categoryCode": "41", "address": "5816 HIGHWAY 2A", "city": "LACOMBE", "province": "AB", "country": "CA", "postalCode": "T4L2G5", "twitter": "None", "instagram": "None", "facebook": "None", "youtube": "None", "website": "None", "summary": "None", "logo": "None", "latitude": 52.474063600197404, "longitude": -113.71692568401835}, "119288439RR0001": {"name": "WARD MEMORIAL BAPTIST CHURCH,", "designationCode": "C", "categoryCode": "31", "address": "465 KAMLOOPS ST", "city": "VANCOUVER", "province": "BC", "country": "CA", "postalCode": "V5K3V2", "twitter": "None", "instagram": "None", "facebook": "None", "youtube": "None", "website": "None", "summary": "None", "logo": "None", "latitude": 49.280508, "longitude": -123.0545731510183}, "119288470RR0001": {"name": "WARD 5 NEIGHBORHOOD CENTRE", "designationCode": "C", "categoryCode": "56", "address": "5540 RUSSELL ST", "city": "HALIFAX", "province": "NS", "country": "CA", "postalCode": "B3K1X2", "twitter": "None", "instagram": "None", "facebook": "None", "youtube": "None", "website": "None", "summary": "None", "logo": "None", "latitude": 44.66091458644476, "longitude": -63.59794316429118}, "866742331RR0001": {"name": "WARDEN FULL GOSPEL ASSEMBLY", "designationCode": "C", "categoryCode": "36", "address": "2210 WARDEN AVE", "city": "SCARBOROUGH", "province": "ON", "country": "CA", "postalCode": "M1T1V6", "twitter": "None", "instagram": "None", "facebook": "None", "youtube": "None", "website": "None", "summary": "None", "logo": "None", "latitude": 43.779973243955276, "longitude": -79.30859468376688}, "119288405RR0001": {"name": "WARDEN UNITED CHURCH", "designationCode": "C", "categoryCode": "39", "address": "P.O.BOX 401", "city": "GLACE BAY", "province": "NS", "country": "CA", "postalCode": "B1A6B4", "twitter": "None", "instagram": "None", "facebook": "None", "youtube": "None", "website": "None", "summary": "None", "logo": "None", "latitude": 46.19686200000005, "longitude": -59.95771099999993}, "108190315RR0001": {"name": "WARDEN WOODS CHURCH AND COMMUNITY CENTRE", "designationCode": "C", "categoryCode": "49", "address": "74 FIRVALLEY COURT", "city": "SCARBOROUGH", "province": "ON", "country": "CA", "postalCode": "M1L1N9", "twitter": "None", "instagram": "None", "facebook": "None", "youtube": "None", "website": "None", "summary": "None", "logo": "None", "latitude": 43.703604070805945, "longitude": -79.2779107460614}, "119288462RR0001": {"name": "WARDSVILLE UNITED CHURCH,", "designationCode": "C", "categoryCode": "44", "address": "BOX 2, 233 AMY ST.", "city": "WARDSVILLE", "province": "ON", "country": "CA", "postalCode": "N0L2N0", "twitter": "None", "instagram": "None", "facebook": "None", "youtube": "None", "website": "None", "summary": "None", "logo": "None", "latitude": 42.652764302815996, "longitude": -81.75447757397994}, "860705086RR0001": {"name": "WARKENTIN FOUNDATION", "designationCode": "B", "categoryCode": "43", "address": "49989 CASTLEMAN RD", "city": "CHILLIWACK", "province": "BC", "country": "CA", "postalCode": "V2P6H4", "twitter": "None", "instagram": "None", "facebook": "None", "youtube": "None", "website": "None", "summary": "None", "logo": "None", "latitude": 49.190865715006254, "longitude": -121.84112006098314}, "864411038RR0001": {"name": "WARKWORTH COMMUNITY FOUNDATION", "designationCode": "A", "categoryCode": "03", "address": "35 CHURCH STREET              PO BOX 91", "city": "WARKWORTH", "province": "ON", "country": "CA", "postalCode": "K0K3K0", "twitter": "None", "instagram": "None", "facebook": "None", "youtube": "None", "website": "None", "summary": "None", "logo": "None", "latitude": 44.20207966138841, "longitude": -77.88689386504909}, "821295342RR0001": {"name": "WARM AN' LOVING MINISTRIES", "designationCode": "C", "categoryCode": "47", "address": "1500 WEST GEORGIA STREET      SUITE 1250, BOX 62", "city": "VANCOUVER", "province": "BC", "country": "CA", "postalCode": "V6G2Z6", "twitter": "None", "instagram": "None", "facebook": "None", "youtube": "None", "website": "None", "summary": "None", "logo": "None", "latitude": 49.2900638104334, "longitude": -123.12989899362336}, "888337847RR0001": {"name": "WARM HEARTS CHARITABLE FOUNDATION", "designationCode": "A", "categoryCode": "03", "address": "16705 FRASER HIGHWAY", "city": "SURREY", "province": "BC", "country": "CA", "postalCode": "V4N0E8", "twitter": "None", "instagram": "None", "facebook": "None", "youtube": "None", "website": "None", "summary": "None", "logo": "None", "latitude": 49.149342908448, "longitude": -122.75887798995936}, "894016377RR0001": {"name": "WARMAN MENNONITE CHURCH INC.", "designationCode": "C", "categoryCode": "34", "address": "PO BOX 519", "city": "WARMAN", "province": "SK", "country": "CA", "postalCode": "S0K4S0", "twitter": "None", "instagram": "None", "facebook": "None", "youtube": "None", "website": "None", "summary": "None", "logo": "None", "latitude": 52.31985000000006, "longitude": -106.58322349999993}}