{"863058574RR0001": {"name": "YARMOUTH LIONS BURSARY TRUST FUND", "designationCode": "C", "categoryCode": "21", "address": "87 PARADE ST", "city": "YARMOUTH", "province": "NS", "country": "CA", "postalCode": "B5A3B3", "twitter": "None", "instagram": "None", "facebook": "None", "youtube": "None", "website": "None", "summary": "None", "logo": "None", "latitude": 43.83645958280943, "longitude": -66.10766674438797}, "889050241RR0001": {"name": "YARMOUTH MONTHLY MEETING", "designationCode": "C", "categoryCode": "39", "address": "PO BOX 105", "city": "SPARTA", "province": "ON", "country": "CA", "postalCode": "N0L2H0", "twitter": "None", "instagram": "None", "facebook": "None", "youtube": "None", "website": "None", "summary": "None", "logo": "None", "latitude": 42.69778863868988, "longitude": -81.21932872536189}, "879322022RR0001": {"name": "YARMOUTH MUSIC SOCIETY", "designationCode": "C", "categoryCode": "22", "address": "PO BOX 297                    328 MAIN STREET", "city": "YARMOUTH", "province": "NS", "country": "CA", "postalCode": "B5A4B2", "twitter": "None", "instagram": "None", "facebook": "None", "youtube": "None", "website": "None", "summary": "None", "logo": "None", "latitude": 43.835862688037395, "longitude": -66.1200697080327}, "108224403RR0001": {"name": "YARMOUTH NORTH BAPTIST CHURCH", "designationCode": "C", "categoryCode": "31", "address": "35 HIBERNIA ST", "city": "YARMOUTH", "province": "NS", "country": "CA", "postalCode": "B5A2M7", "twitter": "None", "instagram": "None", "facebook": "None", "youtube": "None", "website": "None", "summary": "None", "logo": "None", "latitude": 43.85410260892156, "longitude": -66.10950621746775}, "888720661RR0001": {"name": "YARMOUTH ORCHESTRA SOCIETY", "designationCode": "C", "categoryCode": "22", "address": "12 BAKER ST", "city": "YARMOUTH", "province": "NS", "country": "CA", "postalCode": "B5A2W9", "twitter": "None", "instagram": "None", "facebook": "None", "youtube": "None", "website": "None", "summary": "None", "logo": "None"}, "136515806RR0001": {"name": "YARMOUTH PUBLIC LIBRARY AND MUSEUM", "designationCode": "C", "categoryCode": "50", "address": "PO BOX 727", "city": "YARMOUTH", "province": "NS", "country": "CA", "postalCode": "B5A4K3", "twitter": "None", "instagram": "None", "facebook": "None", "youtube": "None", "website": "None", "summary": "None", "logo": "None", "latitude": 43.841274000000055, "longitude": -66.11887249999994}, "107669848RR0012": {"name": "YARMOUTH SEVENTH-DAY ADVENTIST CHURCH", "designationCode": "C", "categoryCode": "41", "address": "121 SALISBURY RD", "city": "MONCTON", "province": "NB", "country": "CA", "postalCode": "E1E1A6", "twitter": "None", "instagram": "None", "facebook": "None", "youtube": "None", "website": "None", "summary": "None", "logo": "None", "latitude": 46.0711640413756, "longitude": -64.82144086984238}, "108067935RR0001": {"name": "YARMOUTH TEMPLE UNITED BAPTIST CHURCH", "designationCode": "C", "categoryCode": "31", "address": "PO BOX 65", "city": "YARMOUTH", "province": "NS", "country": "CA", "postalCode": "B5A4B1", "twitter": "None", "instagram": "None", "facebook": "None", "youtube": "None", "website": "None", "summary": "None", "logo": "None", "latitude": 43.841274000000055, "longitude": -66.11887249999994}, "870848769RR0001": {"name": "YARMOUTH TOWN AND COUNTY SPORTS HERITAGE ASSOCIATION", "designationCode": "C", "categoryCode": "50", "address": "435 MAIN ST", "city": "YARMOUTH", "province": "NS", "country": "CA", "postalCode": "B5A1G6", "twitter": "None", "instagram": "None", "facebook": "None", "youtube": "None", "website": "None", "summary": "None", "logo": "None", "latitude": 43.83979372883607, "longitude": -66.11921409212891}, "887550796RR0001": {"name": "YARMOUTH WEST UNITED BAPTIST CHURCH,", "designationCode": "C", "categoryCode": "31", "address": "107 DAYTON ROAD", "city": "YARMOUTH", "province": "NS", "country": "CA", "postalCode": "B5A5K5", "twitter": "None", "instagram": "None", "facebook": "None", "youtube": "None", "website": "None", "summary": "None", "logo": "None", "latitude": 43.87589091727748, "longitude": -66.11039622704705}, "865713390RR0001": {"name": "YARROW MENNONITE BRETHREN CHURCH", "designationCode": "C", "categoryCode": "34", "address": "41995 YARROW CENTRAL RD", "city": "YARROW", "province": "BC", "country": "CA", "postalCode": "V2R5E7", "twitter": "None", "instagram": "None", "facebook": "None", "youtube": "None", "website": "None", "summary": "None", "logo": "None", "latitude": 49.082116471579255, "longitude": -122.0624325}, "889307047RR0001": {"name": "YARROW RATEPAYER'S ASSOCIATION", "designationCode": "C", "categoryCode": "56", "address": "4670 COMMUNITY ST", "city": "YARROW", "province": "BC", "country": "CA", "postalCode": "V2R5E1", "twitter": "None", "instagram": "None", "facebook": "None", "youtube": "None", "website": "None", "summary": "None", "logo": "None", "latitude": 49.08660332011218, "longitude": -122.05235608012087}, "119305654RR0001": {"name": "YASODHARA ASHRAM SOCIETY", "designationCode": "C", "categoryCode": "01", "address": "BOX 9", "city": "KOOTENAY BAY", "province": "BC", "country": "CA", "postalCode": "V0B1X0", "twitter": "None", "instagram": "None", "facebook": "None", "youtube": "None", "website": "None", "summary": "None", "logo": "None", "latitude": 50.46515035341905, "longitude": -115.99013915021254}, "119305662RR0001": {"name": "YAVNEH ZION CONGREGATION", "designationCode": "C", "categoryCode": "42", "address": "788 MARLEE AVENUE", "city": "NORTH YORK", "province": "ON", "country": "CA", "postalCode": "M6B3K1", "twitter": "None", "instagram": "None", "facebook": "None", "youtube": "None", "website": "None", "summary": "None", "logo": "None", "latitude": 43.71502855231121, "longitude": -79.44629568959527}, "124461054RR0001": {"name": "YDESSA HENDELES ART FOUNDATION", "designationCode": "B", "categoryCode": "53", "address": "PO BOX 757, STATION F", "city": "TORONTO", "province": "ON", "country": "CA", "postalCode": "M4Y2N6", "twitter": "None", "instagram": "None", "facebook": "None", "youtube": "None", "website": "None", "summary": "None", "logo": "None", "latitude": 43.666332000000054, "longitude": -79.38025549999993}, "130698707RR0001": {"name": "YEAH YOUTH EMPLOYMENT ASSISTANCE HEADQUARTERS INC", "designationCode": "C", "categoryCode": "59", "address": "105 STROWGER BLVD             BOX 191", "city": "BROCKVILLE", "province": "ON", "country": "CA", "postalCode": "K6V5V2", "twitter": "None", "instagram": "None", "facebook": "None", "youtube": "None", "website": "None", "summary": "None", "logo": "None", "latitude": 44.59382076579692, "longitude": -75.70239255557209}, "108224718RR0001": {"name": "YECHIEL EPHRAIM AND ESTHER ERSTER CHARITABLE FOUNDATION", "designationCode": "B", "categoryCode": "03", "address": "83 BANNOCKBURN AVENUE", "city": "TORONTO", "province": "ON", "country": "CA", "postalCode": "M5M2M9", "twitter": "None", "instagram": "None", "facebook": "None", "youtube": "None", "website": "None", "summary": "None", "logo": "None", "latitude": 43.732482853165294, "longitude": -79.42684587010218}, "837354844RR0001": {"name": "YEDIDIM", "designationCode": "C", "categoryCode": "42", "address": "208 CARMICHAEL AVENUE", "city": "TORONTO", "province": "ON", "country": "CA", "postalCode": "M5M2X3", "twitter": "None", "instagram": "None", "facebook": "None", "youtube": "None", "website": "None", "summary": "None", "logo": "None", "latitude": 43.73544213240798, "longitude": -79.43015762268445}, "138110168RR0001": {"name": "YEE HONG CENTRE FOR GERIATRIC CARE", "designationCode": "C", "categoryCode": "10", "address": "2311 MCNICOLL AVE", "city": "SCARBOROUGH", "province": "ON", "country": "CA", "postalCode": "M1V5L3", "twitter": "None", "instagram": "None", "facebook": "None", "youtube": "None", "website": "None", "summary": "None", "logo": "None", "latitude": 43.81466108961875, "longitude": -79.29025805441732}, "131433666RR0001": {"name": "YEE HONG COMMUNITY WELLNESS FOUNDATION", "designationCode": "A", "categoryCode": "03", "address": "60 SCOTTFIELD DRIVE", "city": "TORONTO SCARBOROUGH", "province": "ON", "country": "CA", "postalCode": "M1S5T7", "twitter": "None", "instagram": "None", "facebook": "None", "youtube": "None", "website": "None", "summary": "None", "logo": "None", "latitude": 43.80877192065302, "longitude": -79.25326780316178}, "832529911RR0001": {"name": "YEEPI Education Foundation of Calgary Inc.", "designationCode": "C", "categoryCode": "09", "address": "12 EVERBROOK LINK SW", "city": "CALGARY", "province": "AB", "country": "CA", "postalCode": "T2Y0C9", "twitter": "None", "instagram": "None", "facebook": "None", "youtube": "None", "website": "None", "summary": "None", "logo": "None", "latitude": 50.92045200000001, "longitude": -114.11210642463507}, "819665860RR0001": {"name": "YEF Youth Education Farms Society", "designationCode": "C", "categoryCode": "20", "address": "4329 3RD AVE W", "city": "VANCOUVER", "province": "BC", "country": "CA", "postalCode": "V6R1M6", "twitter": "None", "instagram": "None", "facebook": "None", "youtube": "None", "website": "None", "summary": "None", "logo": "None", "latitude": 49.27015647879261, "longitude": -123.20401008090484}, "119305712RR0001": {"name": "YELLOW CREEK PARKS AND RECREATION BOARD INCORPORATED", "designationCode": "C", "categoryCode": "56", "address": "BOX 37", "city": "YELLOW CREEK", "province": "SK", "country": "CA", "postalCode": "S0K4X0", "twitter": "None", "instagram": "None", "facebook": "None", "youtube": "None", "website": "None", "summary": "None", "logo": "None", "latitude": 52.74949200000006, "longitude": -105.24830299999994}, "853627941RR0001": {"name": "YELLOW CREEK SAINTS PETER AND PAUL UKRAINIAN ORTHODOX CEMETERY FUND", "designationCode": "C", "categoryCode": "59", "address": "P. O. BOX 84", "city": "YELLOW CREEK", "province": "SK", "country": "CA", "postalCode": "S0K4X0", "twitter": "None", "instagram": "None", "facebook": "None", "youtube": "None", "website": "None", "summary": "None", "logo": "None", "latitude": 52.74950000000007, "longitude": -105.24829999999997}, "827671876RR0001": {"name": "YELLOW DOOR CHOIR", "designationCode": "C", "categoryCode": "22", "address": "3227 FENDALL", "city": "MONTREAL", "province": "QC", "country": "CA", "postalCode": "H3T1N3", "twitter": "None", "instagram": "None", "facebook": "None", "youtube": "None", "website": "None", "summary": "None", "logo": "None", "latitude": 45.49913396448145, "longitude": -73.62012663754388}, "119305720RR0001": {"name": "YELLOW GRASS GOLDEN HARVEST CLUB INCORPORATED", "designationCode": "C", "categoryCode": "56", "address": "BOX 386", "city": "YELLOWGRASS", "province": "SK", "country": "CA", "postalCode": "S0G5J0", "twitter": "None", "instagram": "None", "facebook": "None", "youtube": "None", "website": "None", "summary": "None", "logo": "None", "latitude": 49.80730200000005, "longitude": -104.15832199999993}, "108224817RR0001": {"name": "YELLOW GRASS PASTORAL CHARGE", "designationCode": "C", "categoryCode": "44", "address": "P.O. BOX 159", "city": "YELLOW GRASS", "province": "SK", "country": "CA", "postalCode": "S0G5J0", "twitter": "None", "instagram": "None", "facebook": "None", "youtube": "None", "website": "None", "summary": "None", "logo": "None", "latitude": 49.80731000000003, "longitude": -104.15831999999995}, "891651846RR0001": {"name": "YELLOWHEAD CENTRAL SANTAS ANONYMOUS ASSOCIATION", "designationCode": "C", "categoryCode": "09", "address": "BOX 894", "city": "EVANSBURG", "province": "AB", "country": "CA", "postalCode": "T0E0T0", "twitter": "None", "instagram": "None", "facebook": "None", "youtube": "None", "website": "None", "summary": "None", "logo": "None", "latitude": 53.59391000000005, "longitude": -115.02120999999994}, "133327460RR0001": {"name": "YELLOWHEAD COMMUNITY SERVICES SOCIETY", "designationCode": "C", "categoryCode": "09", "address": "612 PARK DR", "city": "CLEARWATER", "province": "BC", "country": "CA", "postalCode": "V0E1N1", "twitter": "None", "instagram": "None", "facebook": "None", "youtube": "None", "website": "None", "summary": "None", "logo": "None", "latitude": 51.64691306148232, "longitude": -120.02057725741675}, "122413412RR0001": {"name": "YELLOWHEAD DEVELOPMENT SOCIETY INC", "designationCode": "C", "categoryCode": "56", "address": "BOX 1035", "city": "NEEPAWA", "province": "MB", "country": "CA", "postalCode": "R0J1H0", "twitter": "None", "instagram": "None", "facebook": "None", "youtube": "None", "website": "None", "summary": "None", "logo": "None", "latitude": 50.22581100000005, "longitude": -99.48963949999994}, "130358211RR0001": {"name": "YELLOWHEAD EMERGENCY SHELTER FOR WOMEN SOCIETY", "designationCode": "C", "categoryCode": "01", "address": "BOX 6401", "city": "HINTON", "province": "AB", "country": "CA", "postalCode": "T7V1X7", "twitter": "None", "instagram": "None", "facebook": "None", "youtube": "None", "website": "None", "summary": "None", "logo": "None", "latitude": 53.40093900000005, "longitude": -117.57696199999994}, "880574504RR0001": {"name": "YELLOWHEAD FLYWAY BIRDING TRAIL ASSOCIATION INC.", "designationCode": "C", "categoryCode": "56", "address": "PO BOX 252", "city": "SALTCOATS", "province": "SK", "country": "CA", "postalCode": "S0A3R0", "twitter": "None", "instagram": "None", "facebook": "None", "youtube": "None", "website": "None", "summary": "None", "logo": "None", "latitude": 51.033300000000054, "longitude": -102.16763999999995}, "871065314RR0001": {"name": "YELLOWHEAD KOINONIA CHRISTIAN SCHOOL SOCIETY", "designationCode": "C", "categoryCode": "20", "address": "430-72ND STREET", "city": "EDSON", "province": "AB", "country": "CA", "postalCode": "T7E1N3", "twitter": "None", "instagram": "None", "facebook": "None", "youtube": "None", "website": "None", "summary": "None", "logo": "None", "latitude": 53.57346117283957, "longitude": -116.47614380354285}, "119305753RR0001": {"name": "YELLOWHEAD PIONEER RESIDENCE SOCIETY", "designationCode": "B", "categoryCode": "01", "address": "PO BOX 890", "city": "BARRIERE", "province": "BC", "country": "CA", "postalCode": "V0E1E0", "twitter": "None", "instagram": "None", "facebook": "None", "youtube": "None", "website": "None", "summary": "None", "logo": "None", "latitude": 51.29213204437867, "longitude": -119.92919375050194}, "106919525RR0001": {"name": "YELLOWKNIFE ALLIANCE CHURCH", "designationCode": "C", "categoryCode": "39", "address": "BOX 2066", "city": "YELLOWKNIFE", "province": "NT", "country": "CA", "postalCode": "X1A2P5", "twitter": "None", "instagram": "None", "facebook": "None", "youtube": "None", "website": "None", "summary": "None", "logo": "None", "latitude": 62.45446200000005, "longitude": -114.37092349999993}, "119305795RR0001": {"name": "YELLOWKNIFE ASSOCIATION FOR COMMUNITY LIVING", "designationCode": "C", "categoryCode": "11", "address": "PO BOX 981 STN MAIN", "city": "YELLOWKNIFE", "province": "NT", "country": "CA", "postalCode": "X1A2N7", "twitter": "None", "instagram": "None", "facebook": "None", "youtube": "None", "website": "None", "summary": "None", "logo": "None", "latitude": 62.45446200000005, "longitude": -114.37092349999993}, "108225012RR0001": {"name": "YELLOWKNIFE CHURCH OF CHRIST", "designationCode": "C", "categoryCode": "39", "address": "516 RANGE LAKE RD", "city": "YELLOWKNIFE", "province": "NT", "country": "CA", "postalCode": "X1A3A8", "twitter": "None", "instagram": "None", "facebook": "None", "youtube": "None", "website": "None", "summary": "None", "logo": "None", "latitude": 62.44066899203848, "longitude": -114.4169344124232}, "108225020RR0001": {"name": "YELLOWKNIFE DAY CARE ASSOCIATION", "designationCode": "C", "categoryCode": "01", "address": "P.O. BOX 2405", "city": "YELLOWKNIFE", "province": "NT", "country": "CA", "postalCode": "X1A2P8", "twitter": "None", "instagram": "None", "facebook": "None", "youtube": "None", "website": "None", "summary": "None", "logo": "None", "latitude": 62.45446200000005, "longitude": -114.37092349999993}, "108225038RR0001": {"name": "YELLOWKNIFE EDUCATION DISTRICT # 1", "designationCode": "C", "categoryCode": "20", "address": "PO BOX 788  STN MAIN", "city": "YELLOWKNIFE", "province": "NT", "country": "CA", "postalCode": "X1A2N6", "twitter": "None", "instagram": "None", "facebook": "None", "youtube": "None", "website": "None", "summary": "None", "logo": "None", "latitude": 62.45446200000005, "longitude": -114.37092349999993}, "125571364RR0001": {"name": "YELLOWKNIFE GUILD OF ARTS AND CRAFTS", "designationCode": "C", "categoryCode": "22", "address": "BOX 1946", "city": "YELLOWKNIFE", "province": "NT", "country": "CA", "postalCode": "X1A2P4", "twitter": "None", "instagram": "None", "facebook": "None", "youtube": "None", "website": "None", "summary": "None", "logo": "None", "latitude": 62.45446200000005, "longitude": -114.37092349999993}, "119288918RR0414": {"name": "YELLOWKNIFE N W T CONGREGATION OF JEHOVAH'S WITNESSES", "designationCode": "C", "categoryCode": "61", "address": "100 NIVEN GATE", "city": "YELLOWKNIFE", "province": "NT", "country": "CA", "postalCode": "X1A0A1", "twitter": "None", "instagram": "None", "facebook": "None", "youtube": "None", "website": "None", "summary": "None", "logo": "None", "latitude": 62.462736202870964, "longitude": -114.3755752882382}, "122351497RR0001": {"name": "YELLOWKNIFE PLAYSCHOOL ASSOCIATION", "designationCode": "C", "categoryCode": "20", "address": "5208 56TH ST.", "city": "YELLOWKNIFE", "province": "NT", "country": "CA", "postalCode": "X1A1Y2", "twitter": "None", "instagram": "None", "facebook": "None", "youtube": "None", "website": "None", "summary": "None", "logo": "None", "latitude": 62.447597832910205, "longitude": -114.37230820278123}, "108225087RR0001": {"name": "YELLOWKNIFE PUBLIC DENOMINATIONAL DISTRICT EDUCATION AUTHORITY", "designationCode": "C", "categoryCode": "20", "address": "PO BOX 1830  STN MAIN", "city": "YELLOWKNIFE", "province": "NT", "country": "CA", "postalCode": "X1A2P4", "twitter": "None", "instagram": "None", "facebook": "None", "youtube": "None", "website": "None", "summary": "None", "logo": "None", "latitude": 62.45446200000005, "longitude": -114.37092349999993}, "108225103RR0001": {"name": "YELLOWKNIFE UNITED CHURCH", "designationCode": "C", "categoryCode": "44", "address": "5403-50TH AVE                 BOX 565", "city": "YELLOWKNIFE", "province": "NT", "country": "CA", "postalCode": "X1A2N4", "twitter": "None", "instagram": "None", "facebook": "None", "youtube": "None", "website": "None", "summary": "None", "logo": "None", "latitude": 62.451609130157635, "longitude": -114.37689014568086}, "882759624RR0001": {"name": "YELLOWKNIFE VINEYARD CHRISTIAN FELLOWSHIP", "designationCode": "C", "categoryCode": "39", "address": "PO BOX 132", "city": "YELLOWKNIFE", "province": "NT", "country": "CA", "postalCode": "X1A2N3", "twitter": "None", "instagram": "None", "facebook": "None", "youtube": "None", "website": "None", "summary": "None", "logo": "None", "latitude": 62.45446200000005, "longitude": -114.37092349999993}, "884729765RR0001": {"name": "YELLOWQUILL COLLEGE INCORPORATED", "designationCode": "C", "categoryCode": "20", "address": "480 MADISON ST", "city": "WINNIPEG", "province": "MB", "country": "CA", "postalCode": "R3J1J1", "twitter": "None", "instagram": "None", "facebook": "None", "youtube": "None", "website": "None", "summary": "None", "logo": "None", "latitude": 49.889477744936244, "longitude": -97.2035654905936}, "864301841RR0001": {"name": "YELLOWSTONE TO YUKON CONSERVATION INITIATIVE FOUNDATION", "designationCode": "C", "categoryCode": "53", "address": "1240 RAILWAY AVENUE           UNIT 200", "city": "CANMORE", "province": "AB", "country": "CA", "postalCode": "T1W1P4", "twitter": "None", "instagram": "None", "facebook": "None", "youtube": "None", "website": "None", "summary": "None", "logo": "None", "latitude": 51.09306955842804, "longitude": -115.3584559624909}, "868744137RR0001": {"name": "YEMEL PHILHARMONIC SOCIETY", "designationCode": "C", "categoryCode": "22", "address": "7 JAGUAR GATE", "city": "RICHMOND HILL", "province": "ON", "country": "CA", "postalCode": "L4S1T7", "twitter": "None", "instagram": "None", "facebook": "None", "youtube": "None", "website": "None", "summary": "None", "logo": "None", "latitude": 43.88672453733621, "longitude": -79.41045761584647}, "107796476RR0001": {"name": "YES CHURCH", "designationCode": "C", "categoryCode": "39", "address": "305 WEST ST", "city": "BRANTFORD", "province": "ON", "country": "CA", "postalCode": "N3R3V6", "twitter": "None", "instagram": "None", "facebook": "None", "youtube": "None", "website": "None", "summary": "None", "logo": "None", "latitude": 43.15247532167787, "longitude": -80.26012585738252}, "108108655RR0001": {"name": "YES EMPLOYMENT SERVICES (THUNDER BAY)", "designationCode": "C", "categoryCode": "20", "address": "1116 WATERFORD STREET", "city": "THUNDER BAY", "province": "ON", "country": "CA", "postalCode": "P7B5R1", "twitter": "None", "instagram": "None", "facebook": "None", "youtube": "None", "website": "None", "summary": "None", "logo": "None", "latitude": 48.40355461088347, "longitude": -89.24633966362735}, "119058162RR0001": {"name": "YES EMPLOYMENT SERVICES INC. (NIPISSING)", "designationCode": "C", "categoryCode": "59", "address": "149 MAIN ST. E.", "city": "NORTH BAY", "province": "ON", "country": "CA", "postalCode": "P1B1A9", "twitter": "None", "instagram": "None", "facebook": "None", "youtube": "None", "website": "None", "summary": "None", "logo": "None", "latitude": 46.30966079516995, "longitude": -79.46341753150783}, "888632650RR0001": {"name": "YES I CAN NURSERY SCHOOL OF TORONTO", "designationCode": "C", "categoryCode": "20", "address": "3335 YONGE ST", "city": "TORONTO", "province": "ON", "country": "CA", "postalCode": "M4N2M1", "twitter": "None", "instagram": "None", "facebook": "None", "youtube": "None", "website": "None", "summary": "None", "logo": "None", "latitude": 43.73101156647813, "longitude": -79.40371681026049}, "880231956RR0001": {"name": "YESHE KHORLO SOCIETY", "designationCode": "C", "categoryCode": "35", "address": "217 MONTREAL ST", "city": "VICTORIA", "province": "BC", "country": "CA", "postalCode": "V8V1Z1", "twitter": "None", "instagram": "None", "facebook": "None", "youtube": "None", "website": "None", "summary": "None", "logo": "None", "latitude": 48.41929339050152, "longitude": -123.38111988799135}, "891357162RR0001": {"name": "YESHIVA ATERES YISROEL", "designationCode": "C", "categoryCode": "20", "address": "28 STORMONT AVE", "city": "NORTH YORK", "province": "ON", "country": "CA", "postalCode": "M5N2B9", "twitter": "None", "instagram": "None", "facebook": "None", "youtube": "None", "website": "None", "summary": "None", "logo": "None", "latitude": 43.7195851906918, "longitude": -79.42423987122736}, "131738692RR0001": {"name": "YESHIVA B'NEI ZION OF TORONTO", "designationCode": "C", "categoryCode": "20", "address": "44 CHAMPLAIN BLVD.", "city": "TORONTO", "province": "ON", "country": "CA", "postalCode": "M3H2Z1", "twitter": "None", "instagram": "None", "facebook": "None", "youtube": "None", "website": "None", "summary": "None", "logo": "None", "latitude": 43.73275813321605, "longitude": -79.44366488706773}, "108225178RR0001": {"name": "YESHIVA GEDOLAH L'ECOLE D'ETUDES SUPERIEURES DE MONTREAL/YESSHIVA GEDOLAH THE SCHOOL OF HIGHER LEARNING OF MONTREAL", "designationCode": "C", "categoryCode": "20", "address": "6155 DEACON", "city": "MONTREAL", "province": "QC", "country": "CA", "postalCode": "H3S2P4", "twitter": "None", "instagram": "None", "facebook": "None", "youtube": "None", "website": "None", "summary": "None", "logo": "None", "latitude": 45.51243223261563, "longitude": -73.62056003494162}, "129135885RR0001": {"name": "YESHIVA GEDOLAH ZICHRON SHMAYAHU", "designationCode": "C", "categoryCode": "20", "address": "567 LAWRENCE AVENUE WEST", "city": "TORONTO", "province": "ON", "country": "CA", "postalCode": "M6A1A5", "twitter": "None", "instagram": "None", "facebook": "None", "youtube": "None", "website": "None", "summary": "None", "logo": "None", "latitude": 43.71789484927015, "longitude": -79.43567732194592}, "119305977RR0001": {"name": "YESHIVA MERKAZ TORAH B'MONTREAL-CENTRAL RABBINICAL SEMINARY OF MONTREAL INC", "designationCode": "C", "categoryCode": "20", "address": "6155 DEACON RD.", "city": "MONTREAL", "province": "QC", "country": "CA", "postalCode": "H3S2P4", "twitter": "None", "instagram": "None", "facebook": "None", "youtube": "None", "website": "None", "summary": "None", "logo": "None", "latitude": 45.51243223261563, "longitude": -73.62056003494162}, "137209425RR0001": {"name": "YESHIVA OF HAMILTON", "designationCode": "C", "categoryCode": "20", "address": "125 CLINE AVENUE SOUTH", "city": "HAMILTON", "province": "ON", "country": "CA", "postalCode": "L8S1X2", "twitter": "None", "instagram": "None", "facebook": "None", "youtube": "None", "website": "None", "summary": "None", "logo": "None", "latitude": 43.25674722147847, "longitude": -79.9109174250391}, "823923073RR0001": {"name": "YESHIVA OHR ISRAEL", "designationCode": "C", "categoryCode": "42", "address": "5750 PARK HAVEN STREET", "city": "MONTREAL", "province": "QC", "country": "CA", "postalCode": "H4W1X5", "twitter": "None", "instagram": "None", "facebook": "None", "youtube": "None", "website": "None", "summary": "None", "logo": "None", "latitude": 45.46815000000005, "longitude": -73.66484599999993}, "119071926RR0001": {"name": "YESHIVA SISTERHOOD OF OTTAWA", "designationCode": "C", "categoryCode": "23", "address": "1400 COLDREY AVE.", "city": "OTTAWA", "province": "ON", "country": "CA", "postalCode": "K1Z7P9", "twitter": "None", "instagram": "None", "facebook": "None", "youtube": "None", "website": "None", "summary": "None", "logo": "None", "latitude": 45.38125917949732, "longitude": -75.73954371518873}, "889447041RR0001": {"name": "YESHIVAH MAOR HAGOLA (LIGHT OF EXILE) RABBINICAL COLLEGE OF CANADA,", "designationCode": "C", "categoryCode": "20", "address": "C.P./P.O. BOX 48654           1495 VAN HORNE", "city": "OUTREMONT", "province": "QC", "country": "CA", "postalCode": "H2V4T9", "twitter": "None", "instagram": "None", "facebook": "None", "youtube": "None", "website": "None", "summary": "None", "logo": "None", "latitude": 45.5193374871025, "longitude": -73.61598641745037}, "892249640RR0001": {"name": "YESHIVAH TORAS CHAIM", "designationCode": "C", "categoryCode": "21", "address": "6041 DUROCHER", "city": "MONTREAL", "province": "QC", "country": "CA", "postalCode": "H2V3Y2", "twitter": "None", "instagram": "None", "facebook": "None", "youtube": "None", "website": "None", "summary": "None", "logo": "None", "latitude": 45.523360308644385, "longitude": -73.60902249457564}, "108225186RR0001": {"name": "YESHIVAH TORATH CHAIM", "designationCode": "C", "categoryCode": "42", "address": "666 WILSON AVE", "city": "TORONTO", "province": "ON", "country": "CA", "postalCode": "M3K1E1", "twitter": "None", "instagram": "None", "facebook": "None", "youtube": "None", "website": "None", "summary": "None", "logo": "None", "latitude": 43.73188920032467, "longitude": -79.46150452526174}, "891007015RR0001": {"name": "YESHIVAS KESER TORAH", "designationCode": "C", "categoryCode": "20", "address": "201 BRIDGELAND AVENUE", "city": "TORONTO", "province": "ON", "country": "CA", "postalCode": "M6A1Y7", "twitter": "None", "instagram": "None", "facebook": "None", "youtube": "None", "website": "None", "summary": "None", "logo": "None", "latitude": 43.724679896445465, "longitude": -79.46720435899367}, "892835737RR0001": {"name": "YESHIVAS LIMUDEI HASHEM SOCIETY", "designationCode": "C", "categoryCode": "20", "address": "34 DELL PARK AVENUE", "city": "TORONTO", "province": "ON", "country": "CA", "postalCode": "M6B2T4", "twitter": "None", "instagram": "None", "facebook": "None", "youtube": "None", "website": "None", "summary": "None", "logo": "None", "latitude": 43.71712406301566, "longitude": -79.43210768388246}, "132743824RR0001": {"name": "YESHIVAS NACHALAS ZVI", "designationCode": "C", "categoryCode": "20", "address": "475 LAWRENCE AVE WEST", "city": "TORONTO", "province": "ON", "country": "CA", "postalCode": "M5M1C6", "twitter": "None", "instagram": "None", "facebook": "None", "youtube": "None", "website": "None", "summary": "None", "logo": "None", "latitude": 43.71963979098634, "longitude": -79.42792823812688}, "885172411RR0001": {"name": "YESHIVAS NEFESH DOVID", "designationCode": "C", "categoryCode": "20", "address": "77 STORMONT AVENUE", "city": "TORONTO", "province": "ON", "country": "CA", "postalCode": "M5N2C3", "twitter": "None", "instagram": "None", "facebook": "None", "youtube": "None", "website": "None", "summary": "None", "logo": "None", "latitude": 43.71876782763008, "longitude": -79.42770553774024}, "108225194RR0001": {"name": "YESHIVAT YESODEI HATORA", "designationCode": "C", "categoryCode": "42", "address": "77 GLEN RUSH BLVD.", "city": "TORONTO", "province": "ON", "country": "CA", "postalCode": "M5N2T8", "twitter": "None", "instagram": "None", "facebook": "None", "youtube": "None", "website": "None", "summary": "None", "logo": "None", "latitude": 43.71787829254421, "longitude": -79.42640947885086}, "891980849RR0001": {"name": "YETEV-LEV FREE LOAN AND AID SOCIETY", "designationCode": "C", "categoryCode": "09", "address": "482 WISEMAN AVENUE", "city": "OUTREMONT", "province": "QC", "country": "CA", "postalCode": "H2V3J8", "twitter": "None", "instagram": "None", "facebook": "None", "youtube": "None", "website": "None", "summary": "None", "logo": "None", "latitude": 45.51735989895563, "longitude": -73.60846252236124}, "119306066RR0001": {"name": "YEVSHAN UKRAINIAN FOLK BALLET ENSEMBLE,", "designationCode": "C", "categoryCode": "22", "address": "PO BOX 1905  STN MAIN", "city": "SASKATOON", "province": "SK", "country": "CA", "postalCode": "S7K3S5", "twitter": "None", "instagram": "None", "facebook": "None", "youtube": "None", "website": "None", "summary": "None", "logo": "None", "latitude": 52.13049000000005, "longitude": -106.65926449999994}, "864836499RR0001": {"name": "YI-GUAN DAO FA-YI CHONG-DE ASSOCIATION", "designationCode": "C", "categoryCode": "39", "address": "218 - 2680 SHELL RD", "city": "RICHMOND", "province": "BC", "country": "CA", "postalCode": "V6X4C9", "twitter": "None", "instagram": "None", "facebook": "None", "youtube": "None", "website": "None", "summary": "None", "logo": "None", "latitude": 49.194510885684295, "longitude": -123.10264608708579}, "881342919RR0001": {"name": "YISMAH MOSHE HEVRAJ PINTO CHARITABLE SOCIETY OF ONTARIO", "designationCode": "C", "categoryCode": "42", "address": "2 YEOMANS RD", "city": "NORTH YORK", "province": "ON", "country": "CA", "postalCode": "M3H3J4", "twitter": "None", "instagram": "None", "facebook": "None", "youtube": "None", "website": "None", "summary": "None", "logo": "None"}, "868860495RR0001": {"name": "YITUNG BUDDHIST TEMPLE", "designationCode": "C", "categoryCode": "35", "address": "18653 53A AVE", "city": "SURREY", "province": "BC", "country": "CA", "postalCode": "V3S9H3", "twitter": "None", "instagram": "None", "facebook": "None", "youtube": "None", "website": "None", "summary": "None", "logo": "None", "latitude": 49.09940136554322, "longitude": -122.70580709755326}, "728428723RR0001": {"name": "YJ CHARITABLE FOUNDATION", "designationCode": "B", "categoryCode": "03", "address": "702-2695 GRANVILLE ST         ETHOS LAW GROUP LLP", "city": "VANCOUVER", "province": "BC", "country": "CA", "postalCode": "V6H3H4", "twitter": "None", "instagram": "None", "facebook": "None", "youtube": "None", "website": "None", "summary": "None", "logo": "None"}, "866522618RR0001": {"name": "YL MALIBU CLUB MINISTRY AFFILIATES", "designationCode": "C", "categoryCode": "49", "address": "6545 MAPLE RD", "city": "EGMONT", "province": "BC", "country": "CA", "postalCode": "V0N1N0", "twitter": "None", "instagram": "None", "facebook": "None", "youtube": "None", "website": "None", "summary": "None", "logo": "None", "latitude": 49.7566313378436, "longitude": -123.9445399577877}, "846850030RR0001": {"name": "YMCA of Cambridge Foundation", "designationCode": "A", "categoryCode": "03", "address": "250 HESPELER ROAD,", "city": "CAMBRIDGE", "province": "ON", "country": "CA", "postalCode": "N1R3H3", "twitter": "None", "instagram": "None", "facebook": "None", "youtube": "None", "website": "None", "summary": "None", "logo": "None", "latitude": 43.386075409371635, "longitude": -80.32113637044796}, "107434201RR0001": {"name": "YMCA of Cape Breton", "designationCode": "C", "categoryCode": "49", "address": "399 CHARLOTTE ST", "city": "SYDNEY", "province": "NS", "country": "CA", "postalCode": "B1P1E3", "twitter": "None", "instagram": "None", "facebook": "None", "youtube": "None", "website": "None", "summary": "None", "logo": "None", "latitude": 46.136640823763585, "longitude": -60.19418504867586}, "890269731RR0001": {"name": "YMCA of Greater Saint John Endowment Fund Inc.", "designationCode": "A", "categoryCode": "43", "address": "191 CHURCHILL BLVD", "city": "SAINT JOHN", "province": "NB", "country": "CA", "postalCode": "E2K3E2", "twitter": "None", "instagram": "None", "facebook": "None", "youtube": "None", "website": "None", "summary": "None", "logo": "None", "latitude": 45.28502430966093, "longitude": -66.07853070323654}, "119253086RR0001": {"name": "YMCA of Greater Saint John Inc.", "designationCode": "C", "categoryCode": "49", "address": "191 CHURCHILL BLVD", "city": "SAINT JOHN", "province": "NB", "country": "CA", "postalCode": "E2K3E2", "twitter": "None", "instagram": "None", "facebook": "None", "youtube": "None", "website": "None", "summary": "None", "logo": "None", "latitude": 45.28502430966093, "longitude": -66.07853070323654}, "119240224RR0001": {"name": "YMCA of Okanagan Association", "designationCode": "C", "categoryCode": "49", "address": "375 HARTMAN RD", "city": "KELOWNA", "province": "BC", "country": "CA", "postalCode": "V1X2M9", "twitter": "None", "instagram": "None", "facebook": "None", "youtube": "None", "website": "None", "summary": "None", "logo": "None", "latitude": 49.8998342307696, "longitude": -119.38095567227516}, "123648594RR0001": {"name": "YMCA of Southwest Nova Scotia Association", "designationCode": "C", "categoryCode": "49", "address": "75 HIGH STREET", "city": "BRIDGEWATER", "province": "NS", "country": "CA", "postalCode": "B4V1V8", "twitter": "None", "instagram": "None", "facebook": "None", "youtube": "None", "website": "None", "summary": "None", "logo": "None", "latitude": 44.371116736020774, "longitude": -64.52797239742549}, "107497323RR0001": {"name": "YMCA of Western NL Inc.", "designationCode": "C", "categoryCode": "49", "address": "PO BOX 20054", "city": "CORNER BROOK", "province": "NL", "country": "CA", "postalCode": "A2H7J5", "twitter": "None", "instagram": "None", "facebook": "None", "youtube": "None", "website": "None", "summary": "None", "logo": "None", "latitude": 48.95097900000006, "longitude": -57.950103499999926}, "729746123RR0001": {"name": "YMCA Academy", "designationCode": "C", "categoryCode": "20", "address": "15 BREADALBANE STREET         THIRD FLOOR", "city": "TORONTO", "province": "ON", "country": "CA", "postalCode": "M4Y1C2", "twitter": "None", "instagram": "None", "facebook": "None", "youtube": "None", "website": "None", "summary": "None", "logo": "None"}, "119307171RR0001": {"name": "YMCA NORTHUMBERLAND", "designationCode": "C", "categoryCode": "49", "address": "339 ELGIN ST WEST", "city": "COBOURG", "province": "ON", "country": "CA", "postalCode": "K9A4X5", "twitter": "None", "instagram": "None", "facebook": "None", "youtube": "None", "website": "None", "summary": "None", "logo": "None", "latitude": 43.97413729736328, "longitude": -78.18674798814088}, "119091882RR0001": {"name": "YMCA OF CENTRAL EAST ONTARIO", "designationCode": "C", "categoryCode": "49", "address": "123 AYLMER STREET SOUTH", "city": "PETERBOROUGH", "province": "ON", "country": "CA", "postalCode": "K9J3H8", "twitter": "None", "instagram": "None", "facebook": "None", "youtube": "None", "website": "None", "summary": "None", "logo": "None", "latitude": 44.29002745899208, "longitude": -78.32094080458187}, "119307080RR0001": {"name": "YMCA OF GREATER TORONTO", "designationCode": "C", "categoryCode": "49", "address": "2200 YONGE ST                 UNIT 300", "city": "TORONTO", "province": "ON", "country": "CA", "postalCode": "M4S2C6", "twitter": "None", "instagram": "None", "facebook": "None", "youtube": "None", "website": "None", "summary": "None", "logo": "None", "latitude": 43.7060606230885, "longitude": -79.3982105809335}, "108083825RR0001": {"name": "YMCA OF HAMILTON/BURLINGTON/BRANTFORD", "designationCode": "C", "categoryCode": "49", "address": "79 JAMES ST S", "city": "HAMILTON", "province": "ON", "country": "CA", "postalCode": "L8P2Z1", "twitter": "None", "instagram": "None", "facebook": "None", "youtube": "None", "website": "None", "summary": "None", "logo": "None", "latitude": 43.254226351924544, "longitude": -79.87011718232458}, "889019048RR0003": {"name": "YMCA OF LONDON FOUNDATION", "designationCode": "A", "categoryCode": "43", "address": "165 ELMWOOD AVE E", "city": "LONDON", "province": "ON", "country": "CA", "postalCode": "N6C0A8", "twitter": "None", "instagram": "None", "facebook": "None", "youtube": "None", "website": "None", "summary": "None", "logo": "None", "latitude": 42.97095204576166, "longitude": -81.25119361613493}, "119045698RR0001": {"name": "YMCA OF MOOSE JAW INC.", "designationCode": "C", "categoryCode": "49", "address": "220 FAIRFORD ST EAST", "city": "MOOSE JAW", "province": "SK", "country": "CA", "postalCode": "S6H6H2", "twitter": "None", "instagram": "None", "facebook": "None", "youtube": "None", "website": "None", "summary": "None", "logo": "None", "latitude": 50.39249343557312, "longitude": -105.52947890436499}, "119307064RR0001": {"name": "YMCA OF NIAGARA", "designationCode": "C", "categoryCode": "49", "address": "310 WOODLAWN RD", "city": "WELLAND", "province": "ON", "country": "CA", "postalCode": "L3C7N4", "twitter": "None", "instagram": "None", "facebook": "None", "youtube": "None", "website": "None", "summary": "None", "logo": "None", "latitude": 43.01308514899049, "longitude": -79.26538335100953}, "108225533RR0001": {"name": "YMCA OF NORTHEAST AVALON INC.", "designationCode": "C", "categoryCode": "49", "address": "35 RIDGE ROAD                 PO BOX 21291", "city": "ST JOHN'S", "province": "NL", "country": "CA", "postalCode": "A1A5G6", "twitter": "None", "instagram": "None", "facebook": "None", "youtube": "None", "website": "None", "summary": "None", "logo": "None", "latitude": 47.60730616152122, "longitude": -52.71361905271522}, "119215119RR0001": {"name": "YMCA OF SIMCOE/MUSKOKA", "designationCode": "C", "categoryCode": "49", "address": "22 GROVE ST W", "city": "BARRIE", "province": "ON", "country": "CA", "postalCode": "L4N1M7", "twitter": "None", "instagram": "None", "facebook": "None", "youtube": "None", "website": "None", "summary": "None", "logo": "None", "latitude": 44.39580625483262, "longitude": -79.69864499157454}, "107641649RR0002": {"name": "YMCA OF WESTERN ONTARIO", "designationCode": "C", "categoryCode": "49", "address": "165 ELMWOOD AVE E", "city": "LONDON", "province": "ON", "country": "CA", "postalCode": "N6C0A8", "twitter": "None", "instagram": "None", "facebook": "None", "youtube": "None", "website": "None", "summary": "None", "logo": "None", "latitude": 42.97095204576166, "longitude": -81.25119361613493}, "108225566RR0001": {"name": "YMCA-YWCA OF VANCOUVER ISLAND", "designationCode": "C", "categoryCode": "49", "address": "202 - 1314 LAKEPOINT WAY", "city": "VICTORIA", "province": "BC", "country": "CA", "postalCode": "V9B0S2", "twitter": "None", "instagram": "None", "facebook": "None", "youtube": "None", "website": "None", "summary": "None", "logo": "None", "latitude": 48.44567438355096, "longitude": -123.53398533102704}, "119139400RR0001": {"name": "YMCAS ACROSS SOUTHWESTERN ONTARIO", "designationCode": "C", "categoryCode": "49", "address": "1015 FINCH DR", "city": "SARNIA", "province": "ON", "country": "CA", "postalCode": "N7S6G5", "twitter": "None", "instagram": "None", "facebook": "None", "youtube": "None", "website": "None", "summary": "None", "logo": "None", "latitude": 42.971757785668885, "longitude": -82.35454384876975}, "873442669RR0001": {"name": "YOG VEDANT SEVA SAMITI CENTRE OF CANADA", "designationCode": "C", "categoryCode": "48", "address": "171 ADVANCE BLVD              UNIT 8 & 9", "city": "BRAMPTON", "province": "ON", "country": "CA", "postalCode": "L6T4Z6", "twitter": "None", "instagram": "None", "facebook": "None", "youtube": "None", "website": "None", "summary": "None", "logo": "None", "latitude": 43.693487782099545, "longitude": -79.69283782563951}, "123272023RR0001": {"name": "YOGA CENTRE TORONTO", "designationCode": "C", "categoryCode": "39", "address": "2428 YONGE STREET, 2ND FLOOR", "city": "TORONTO", "province": "ON", "country": "CA", "postalCode": "M4P2H4", "twitter": "None", "instagram": "None", "facebook": "None", "youtube": "None", "website": "None", "summary": "None", "logo": "None", "latitude": 43.710287605603334, "longitude": -79.39914910064034}, "864096565RR0001": {"name": "YOGAR SIVATHONDAN NILAYAM", "designationCode": "C", "categoryCode": "48", "address": "407 - 2466 EGLINTON AVE EAST", "city": "SCARBOROUGH", "province": "ON", "country": "CA", "postalCode": "M1K5J8", "twitter": "None", "instagram": "None", "facebook": "None", "youtube": "None", "website": "None", "summary": "None", "logo": "None", "latitude": 43.73428600197719, "longitude": -79.25924656499372}, "893409961RR0001": {"name": "YOGI DIVINE SOCIETY CANADA", "designationCode": "C", "categoryCode": "48", "address": "6875 PROFESSIONAL COURT", "city": "MISSISSAUGA", "province": "ON", "country": "CA", "postalCode": "L4V1Y3", "twitter": "None", "instagram": "None", "facebook": "None", "youtube": "None", "website": "None", "summary": "None", "logo": "None", "latitude": 43.70848211134483, "longitude": -79.63219368414225}}