{"119282267RR0001": {"name": "THEATRE UNDER THE STARS MUSICAL SOCIETY", "designationCode": "C", "categoryCode": "22", "address": "2099 BEACH AVE", "city": "VANCOUVER", "province": "BC", "country": "CA", "postalCode": "V6G1Z4", "twitter": "None", "instagram": "None", "facebook": "None", "youtube": "None", "website": "None", "summary": "None", "logo": "None", "latitude": 49.290375228473394, "longitude": -123.14554539073765}, "842372872RR0001": {"name": "THEATRE UNLIMITED PERFORMING ARTS", "designationCode": "C", "categoryCode": "22", "address": "6124 WABUKAYNE CRT", "city": "MISSISSAUGA", "province": "ON", "country": "CA", "postalCode": "L5N2B2", "twitter": "None", "instagram": "None", "facebook": "None", "youtube": "None", "website": "None", "summary": "None", "logo": "None", "latitude": 43.579949804605015, "longitude": -79.73774797587842}, "119214476RR0001": {"name": "THEATRE WINDSOR \"A THEATRE FOR EVERYONE\"", "designationCode": "C", "categoryCode": "22", "address": "492 JANETTE AVE", "city": "WINDSOR", "province": "ON", "country": "CA", "postalCode": "N9A4Z5", "twitter": "None", "instagram": "None", "facebook": "None", "youtube": "None", "website": "None", "summary": "None", "logo": "None", "latitude": 42.3132910505222, "longitude": -83.04438446722276}, "119213932RR0001": {"name": "THEATRE-ACTION", "designationCode": "C", "categoryCode": "22", "address": "203-255 CHEMIN MONTREAL", "city": "VANIER", "province": "ON", "country": "CA", "postalCode": "K1L6C4", "twitter": "None", "instagram": "None", "facebook": "None", "youtube": "None", "website": "None", "summary": "None", "logo": "None", "latitude": 45.43636355288813, "longitude": -75.66096110603604}, "888183217RR0001": {"name": "THEATREFRONT INC.", "designationCode": "C", "categoryCode": "22", "address": "310 - 15 CASE GOODS LANE", "city": "TORONTO", "province": "ON", "country": "CA", "postalCode": "M5A3C4", "twitter": "None", "instagram": "None", "facebook": "None", "youtube": "None", "website": "None", "summary": "None", "logo": "None", "latitude": 43.649968882595665, "longitude": -79.3585262463212}, "138852116RR0001": {"name": "THEATREWORKS PRODUCTIONS OF TORONTO", "designationCode": "C", "categoryCode": "22", "address": "203 - 700 KING ST W", "city": "TORONTO", "province": "ON", "country": "CA", "postalCode": "M5V2Y6", "twitter": "None", "instagram": "None", "facebook": "None", "youtube": "None", "website": "None", "summary": "None", "logo": "None", "latitude": 43.644540437856286, "longitude": -79.3996018765831}, "892834185RR0001": {"name": "THEATRIX YOUTHEATRE SOCIETY", "designationCode": "C", "categoryCode": "22", "address": "1942 COMO LAKE AVE            BOX 64553", "city": "COQUITLAM", "province": "BC", "country": "CA", "postalCode": "V3J7V7", "twitter": "None", "instagram": "None", "facebook": "None", "youtube": "None", "website": "None", "summary": "None", "logo": "None", "latitude": 49.26327976598134, "longitude": -122.83931081679681}, "889728846RR0001": {"name": "THEDFORD PASTORAL CHARGE", "designationCode": "C", "categoryCode": "44", "address": "8544 LAKESHORE RD             RR 1", "city": "THEDFORD", "province": "ON", "country": "CA", "postalCode": "N0M2N0", "twitter": "None", "instagram": "None", "facebook": "None", "youtube": "None", "website": "None", "summary": "None", "logo": "None", "latitude": 43.21449246047076, "longitude": -81.88687670053088}, "119244796RR0001": {"name": "THEM DAYS", "designationCode": "C", "categoryCode": "29", "address": "P O BOX 939    STN B", "city": "HAPPY VALLEY GOOSE BAY", "province": "NL", "country": "CA", "postalCode": "A0P1E0", "twitter": "None", "instagram": "None", "facebook": "None", "youtube": "None", "website": "None", "summary": "None", "logo": "None", "latitude": 53.29581900000005, "longitude": -60.29593999999993}, "869509554RR0001": {"name": "THEMUSEUM of Ideas Transcending Objects", "designationCode": "C", "categoryCode": "50", "address": "10 KING ST W", "city": "KITCHENER", "province": "ON", "country": "CA", "postalCode": "N2G1A3", "twitter": "None", "instagram": "None", "facebook": "None", "youtube": "None", "website": "None", "summary": "None", "logo": "None", "latitude": 43.44999835250148, "longitude": -80.48954311405745}, "119139053RR0001": {"name": "THEN INDIA SANMARGA IKYA SANGAM EDUCATIONAL AND CULTURAL SOCIETY", "designationCode": "C", "categoryCode": "56", "address": "9316 116TH STREET", "city": "DELTA", "province": "BC", "country": "CA", "postalCode": "V6X1W1", "twitter": "None", "instagram": "None", "facebook": "None", "youtube": "None", "website": "None", "summary": "None", "logo": "None", "latitude": 49.17239081874075, "longitude": -122.9011542908528}, "119248201RR0001": {"name": "THEODORE UNITED CHURCH,", "designationCode": "C", "categoryCode": "44", "address": "BOX 415", "city": "THEODORE", "province": "SK", "country": "CA", "postalCode": "S0A4C0", "twitter": "None", "instagram": "None", "facebook": "None", "youtube": "None", "website": "None", "summary": "None", "logo": "None", "latitude": 51.42383692488636, "longitude": -102.91737413770832}, "119248458RR0001": {"name": "THEOLOGICAL COLLEGE OF THE CANADIAN REFORMED CHURCHES", "designationCode": "C", "categoryCode": "20", "address": "110 WEST 27TH ST", "city": "HAMILTON", "province": "ON", "country": "CA", "postalCode": "L9C5A1", "twitter": "None", "instagram": "None", "facebook": "None", "youtube": "None", "website": "None", "summary": "None", "logo": "None", "latitude": 43.23868069722532, "longitude": -79.90684098610238}, "895619419RR0001": {"name": "THEOS INTERNATIONAL MINISTRIES", "designationCode": "C", "categoryCode": "39", "address": "103 DARIUS HARNS DRIDE", "city": "BROOKLIN", "province": "ON", "country": "CA", "postalCode": "L1M2G2", "twitter": "None", "instagram": "None", "facebook": "None", "youtube": "None", "website": "None", "summary": "None", "logo": "None", "latitude": 43.961476850683816, "longitude": -78.97455628862042}, "119249175RR0001": {"name": "THEOSOPHICAL ASSOCIATES OF LONDON", "designationCode": "C", "categoryCode": "49", "address": "799 ADELAIDE STREET", "city": "LONDON", "province": "ON", "country": "CA", "postalCode": "N5Y2L8", "twitter": "None", "instagram": "None", "facebook": "None", "youtube": "None", "website": "None", "summary": "None", "logo": "None", "latitude": 43.00147159893824, "longitude": -81.23784516683}, "865359350RR0001": {"name": "THERAPEUTIC PAWS OF CANADA", "designationCode": "C", "categoryCode": "56", "address": "2886 FRONT ROAD", "city": "HAWKESBURY", "province": "ON", "country": "CA", "postalCode": "K6A2R2", "twitter": "None", "instagram": "None", "facebook": "None", "youtube": "None", "website": "None", "summary": "None", "logo": "None", "latitude": 45.584480517312244, "longitude": -74.52236178267647}, "866749674RR0001": {"name": "THERAPEUTIC RIDE ALGOMA", "designationCode": "C", "categoryCode": "56", "address": "2627 SECOND LINE WEST", "city": "PRINCE TWP", "province": "ON", "country": "CA", "postalCode": "P6A6K4", "twitter": "None", "instagram": "None", "facebook": "None", "youtube": "None", "website": "None", "summary": "None", "logo": "None", "latitude": 46.53485250230862, "longitude": -84.48102360935425}, "119473262RR0001": {"name": "THERAPEUTIC RIDING ASSOCIATION OF OTTAWA-CARLETON INC.", "designationCode": "C", "categoryCode": "11", "address": "6362-1 BANK ST", "city": "GREELY", "province": "ON", "country": "CA", "postalCode": "K4P1J4", "twitter": "None", "instagram": "None", "facebook": "None", "youtube": "None", "website": "None", "summary": "None", "logo": "None", "latitude": 45.254036241082225, "longitude": -75.53829135418889}, "893242768RR0001": {"name": "THERAVADA BUDDHIST COMMUNITY", "designationCode": "C", "categoryCode": "35", "address": "1402 - 21 VAUGHAN RD", "city": "TORONTO", "province": "ON", "country": "CA", "postalCode": "M6G2N2", "twitter": "None", "instagram": "None", "facebook": "None", "youtube": "None", "website": "None", "summary": "None", "logo": "None", "latitude": 43.68209561200864, "longitude": -79.41870303508585}, "887601862RR0001": {"name": "THERMOPYLAE CLUB", "designationCode": "C", "categoryCode": "52", "address": "634 HUMBOLDT ST", "city": "VICTORIA", "province": "BC", "country": "CA", "postalCode": "V8W1A4", "twitter": "None", "instagram": "None", "facebook": "None", "youtube": "None", "website": "None", "summary": "None", "logo": "None", "latitude": 48.42251693649338, "longitude": -123.36686560251626}, "834048522RR0001": {"name": "THESSALON BIBLE CHAPEL", "designationCode": "C", "categoryCode": "39", "address": "P.O. BOX 84", "city": "THESSALON", "province": "ON", "country": "CA", "postalCode": "P0R1L0", "twitter": "None", "instagram": "None", "facebook": "None", "youtube": "None", "website": "None", "summary": "None", "logo": "None", "latitude": 46.261050000000054, "longitude": -83.55382099999993}, "119257251RR0001": {"name": "THESSALON CHURCH OF CHRIST", "designationCode": "C", "categoryCode": "39", "address": "P.O.BOX 708                   8 ALBERT STREET", "city": "THESSALON", "province": "ON", "country": "CA", "postalCode": "P0R1L0", "twitter": "None", "instagram": "None", "facebook": "None", "youtube": "None", "website": "None", "summary": "None", "logo": "None", "latitude": 46.2639565524149, "longitude": -83.55451459848388}, "119257269RR0001": {"name": "THESSALON PASTORAL CHARGE,", "designationCode": "C", "categoryCode": "44", "address": "BOX 340", "city": "THESSALON", "province": "ON", "country": "CA", "postalCode": "P0R1L0", "twitter": "None", "instagram": "None", "facebook": "None", "youtube": "None", "website": "None", "summary": "None", "logo": "None", "latitude": 46.261050000000054, "longitude": -83.55382099999993}, "119257277RR0001": {"name": "THESSALON TOWNSHIP HERITAGE ASSOCIATION", "designationCode": "C", "categoryCode": "52", "address": "BOX 425", "city": "THESSALON", "province": "ON", "country": "CA", "postalCode": "P0R1L0", "twitter": "None", "instagram": "None", "facebook": "None", "youtube": "None", "website": "None", "summary": "None", "logo": "None", "latitude": 46.261050000000054, "longitude": -83.55382099999993}, "119259182RR0001": {"name": "THETIS ISLAND COMMUNITY ASSOCIATION", "designationCode": "C", "categoryCode": "56", "address": "PO BOX 14-0, GENERAL DELIVERY", "city": "THETIS ISLAND", "province": "BC", "country": "CA", "postalCode": "V0R2Y0", "twitter": "None", "instagram": "None", "facebook": "None", "youtube": "None", "website": "None", "summary": "None", "logo": "None", "latitude": 49.00035300000006, "longitude": -123.68890249999993}, "812850873RR0001": {"name": "THETIS ISLAND COMMUNITY FUND", "designationCode": "C", "categoryCode": "09", "address": "292 NORTH COVE RD             BOX 12-14", "city": "THETIS ISLAND", "province": "BC", "country": "CA", "postalCode": "V0R2Y0", "twitter": "None", "instagram": "None", "facebook": "None", "youtube": "None", "website": "None", "summary": "None", "logo": "None", "latitude": 48.98759938854848, "longitude": -123.68231282728065}, "888779667RR0001": {"name": "THETIS PARK NATURE SANCTUARY ASSOCIATION", "designationCode": "C", "categoryCode": "52", "address": "666 JONES TERRACE", "city": "VICTORIA", "province": "BC", "country": "CA", "postalCode": "V8Z2L7", "twitter": "None", "instagram": "None", "facebook": "None", "youtube": "None", "website": "None", "summary": "None", "logo": "None", "latitude": 48.4619219224222, "longitude": -123.40025398407256}, "119263176RR0001": {"name": "THICKSON'S WOODS HERITAGE FOUNDATION", "designationCode": "C", "categoryCode": "52", "address": "36 CENTRE STEELE", "city": "BROOKLIN", "province": "ON", "country": "CA", "postalCode": "L1M1C1", "twitter": "None", "instagram": "None", "facebook": "None", "youtube": "None", "website": "None", "summary": "None", "logo": "None", "latitude": 43.96237207080595, "longitude": -78.96010902735289}, "119263192RR0001": {"name": "THIEN TON BUDDHIST SOCIETY & CULTURAL CENTRE", "designationCode": "C", "categoryCode": "49", "address": "875 RENFREW ST", "city": "VANCOUVER", "province": "BC", "country": "CA", "postalCode": "V5K4B7", "twitter": "None", "instagram": "None", "facebook": "None", "youtube": "None", "website": "None", "summary": "None", "logo": "None", "latitude": 49.276846341104516, "longitude": -123.04414553055554}, "886942085RR0001": {"name": "THIRD ACADEMY INTERNATIONAL LTD.", "designationCode": "C", "categoryCode": "20", "address": "3-510 77 AVE SE", "city": "CALGARY", "province": "AB", "country": "CA", "postalCode": "T2H1C3", "twitter": "None", "instagram": "None", "facebook": "None", "youtube": "None", "website": "None", "summary": "None", "logo": "None", "latitude": 50.984413500432694, "longitude": -114.05091158381903}, "897920385RR0001": {"name": "THIRD AGE CENTRE", "designationCode": "C", "categoryCode": "09", "address": "ST. THOMAS UNIVERSITY", "city": "FREDERICTON", "province": "NB", "country": "CA", "postalCode": "E3B5G3", "twitter": "None", "instagram": "None", "facebook": "None", "youtube": "None", "website": "None", "summary": "None", "logo": "None", "latitude": 45.945129970569695, "longitude": -66.64504004948296}, "108104985RR0001": {"name": "THIRD AVENUE UNITED CHURCH", "designationCode": "C", "categoryCode": "44", "address": "304 3RD AVENUE NORTH", "city": "SASKATOON", "province": "SK", "country": "CA", "postalCode": "S7K2J1", "twitter": "None", "instagram": "None", "facebook": "None", "youtube": "None", "website": "None", "summary": "None", "logo": "None", "latitude": 52.13191672938432, "longitude": -106.66042670283949}, "119263242RR0001": {"name": "THIRD CROSSING AGRICULTURAL MUSEUM INC", "designationCode": "C", "categoryCode": "50", "address": "BOX 524", "city": "GLADSTONE", "province": "MB", "country": "CA", "postalCode": "R0J0T0", "twitter": "None", "instagram": "None", "facebook": "None", "youtube": "None", "website": "None", "summary": "None", "logo": "None", "latitude": 50.22542000000004, "longitude": -98.95074999999997}, "887369486RR0001": {"name": "THIRD DAY WORSHIP CENTRE", "designationCode": "C", "categoryCode": "38", "address": "999 SYDENHAM RD", "city": "KINGSTON", "province": "ON", "country": "CA", "postalCode": "K7M3L8", "twitter": "None", "instagram": "None", "facebook": "None", "youtube": "None", "website": "None", "summary": "None", "logo": "None", "latitude": 44.264138403312124, "longitude": -76.54414839863757}, "119263275RR0001": {"name": "THIRD HORTON BAPTIST CHURCH,", "designationCode": "C", "categoryCode": "31", "address": "767 CANAAN MOUNTAIN RD", "city": "CANAAN.", "province": "NS", "country": "CA", "postalCode": "B4N4K1", "twitter": "None", "instagram": "None", "facebook": "None", "youtube": "None", "website": "None", "summary": "None", "logo": "None", "latitude": 45.03265465194193, "longitude": -64.48846864934487}, "865216758RR0001": {"name": "THIRD WALL THEATRE COMPANY", "designationCode": "C", "categoryCode": "22", "address": "2 DALY AVENUE                 SUITE 200", "city": "OTTAWA", "province": "ON", "country": "CA", "postalCode": "K1N6E2", "twitter": "None", "instagram": "None", "facebook": "None", "youtube": "None", "website": "None", "summary": "None", "logo": "None", "latitude": 45.42564301552326, "longitude": -75.68902925893026}, "862550886RR0001": {"name": "THIRD WORLD AWARENESS", "designationCode": "C", "categoryCode": "01", "address": "71 CHERRYWOOD AVE", "city": "TORONTO", "province": "ON", "country": "CA", "postalCode": "M6C2X4", "twitter": "None", "instagram": "None", "facebook": "None", "youtube": "None", "website": "None", "summary": "None", "logo": "None", "latitude": 43.68815814516127, "longitude": -79.42922812112658}, "890792773RR0001": {"name": "THIRD WORLD EYE CARE SOCIETY", "designationCode": "C", "categoryCode": "19", "address": "2453 COMMERCIAL DR", "city": "VANCOUVER", "province": "BC", "country": "CA", "postalCode": "V5N4B8", "twitter": "None", "instagram": "None", "facebook": "None", "youtube": "None", "website": "None", "summary": "None", "logo": "None", "latitude": 49.262685142965296, "longitude": -123.06983728552977}, "838362218RR0001": {"name": "THIRD WORLD MINISTRIES", "designationCode": "C", "categoryCode": "47", "address": "2 HETT CREEK", "city": "PORT MOODY", "province": "BC", "country": "CA", "postalCode": "V3H4Z6", "twitter": "None", "instagram": "None", "facebook": "None", "youtube": "None", "website": "None", "summary": "None", "logo": "None", "latitude": 49.29693755759132, "longitude": -122.84496278711987}, "131634248RR0001": {"name": "THIRD YARMOUTH UNITED BAPTIST CHURCH", "designationCode": "C", "categoryCode": "31", "address": "1080 HWY 340", "city": "SOUTH OHIO", "province": "NS", "country": "CA", "postalCode": "B5A5N2", "twitter": "None", "instagram": "None", "facebook": "None", "youtube": "None", "website": "None", "summary": "None", "logo": "None", "latitude": 43.92196856585652, "longitude": -66.05118106867025}, "119263309RR0001": {"name": "THIRTEEN STRINGS CHAMBER ORCHESTRA INC.", "designationCode": "C", "categoryCode": "22", "address": "PO BOX 74051 RPO BEECHWOOD    BEECHWOOD POSTAL OUTLET", "city": "OTTAWA", "province": "ON", "country": "CA", "postalCode": "K1M2H9", "twitter": "None", "instagram": "None", "facebook": "None", "youtube": "None", "website": "None", "summary": "None", "logo": "None", "latitude": 42.796970000000044, "longitude": -86.12587999999994}, "874599400RR0001": {"name": "THIRTEENTH (XIII) REGIMENT FOUNDATION", "designationCode": "C", "categoryCode": "52", "address": "2 CHARLES ST.", "city": "STONEY CREEK", "province": "ON", "country": "CA", "postalCode": "L8G1V4", "twitter": "None", "instagram": "None", "facebook": "None", "youtube": "None", "website": "None", "summary": "None", "logo": "None", "latitude": 43.219505209013654, "longitude": -79.75772448958398}, "119263317RR0001": {"name": "THISTLETOWN BAPTIST CHURCH,", "designationCode": "C", "categoryCode": "31", "address": "2534 KIPLING AVE.", "city": "ETOBICOKE", "province": "ON", "country": "CA", "postalCode": "M9V3A9", "twitter": "None", "instagram": "None", "facebook": "None", "youtube": "None", "website": "None", "summary": "None", "logo": "None", "latitude": 43.744832141814385, "longitude": -79.58286460052477}, "867056467RR0001": {"name": "THOMAS A STEWART SECONDARY SCHOOL SCHOLARSHIP FOUNDATION INC", "designationCode": "C", "categoryCode": "21", "address": "P.O. BOX 562", "city": "PETERBOROUGH", "province": "ON", "country": "CA", "postalCode": "K9J6Z6", "twitter": "None", "instagram": "None", "facebook": "None", "youtube": "None", "website": "None", "summary": "None", "logo": "None", "latitude": 44.30591700000005, "longitude": -78.31950199999993}, "888156668RR0001": {"name": "THOMAS FOUNDATION", "designationCode": "A", "categoryCode": "03", "address": "109-2303 LECKIE RD", "city": "KELOWNA", "province": "BC", "country": "CA", "postalCode": "V1X6Y5", "twitter": "None", "instagram": "None", "facebook": "None", "youtube": "None", "website": "None", "summary": "None", "logo": "None", "latitude": 49.88526172491227, "longitude": -119.43419720457025}, "889743993RR0001": {"name": "THOMAS HAYES MEMORIAL SCHOLARSHIP FOUNDATION", "designationCode": "B", "categoryCode": "21", "address": "ANGLOPHONE NORTH SCHOOL DIST. 78 HENDERSON STREET", "city": "MIRAMICHI", "province": "NB", "country": "CA", "postalCode": "E1N2R7", "twitter": "None", "instagram": "None", "facebook": "None", "youtube": "None", "website": "None", "summary": "None", "logo": "None", "latitude": 47.027869241445124, "longitude": -65.46307551667708}, "899911457RR0001": {"name": "THOMAS HOWE FOREST FOUNDATION INC", "designationCode": "C", "categoryCode": "53", "address": "PO BOX 279", "city": "GANDER", "province": "NL", "country": "CA", "postalCode": "A1V1W6", "twitter": "None", "instagram": "None", "facebook": "None", "youtube": "None", "website": "None", "summary": "None", "logo": "None"}, "108106014RR0001": {"name": "THOMAS J. RANAGHAN FOUNDATION", "designationCode": "B", "categoryCode": "03", "address": "312-400 CROWFOOT CRES NW", "city": "CALGARY", "province": "AB", "country": "CA", "postalCode": "T3G5H6", "twitter": "None", "instagram": "None", "facebook": "None", "youtube": "None", "website": "None", "summary": "None", "logo": "None", "latitude": 51.129115544685035, "longitude": -114.20072169149168}, "866009194RR0001": {"name": "THOMAS MERTON SOCIETY OF CANADA", "designationCode": "C", "categoryCode": "49", "address": "1044 ST.GEORGE'S AVENUE", "city": "NORTH VANCOUVER", "province": "BC", "country": "CA", "postalCode": "V7L3H6", "twitter": "None", "instagram": "None", "facebook": "None", "youtube": "None", "website": "None", "summary": "None", "logo": "None", "latitude": 49.31730476372047, "longitude": -123.06932767310667}, "119263408RR0001": {"name": "THOMAS SILL FOUNDATION INC", "designationCode": "B", "categoryCode": "53", "address": "1350 B ONE LOMBARD PLACE", "city": "WINNIPEG", "province": "MB", "country": "CA", "postalCode": "R3B0X3", "twitter": "None", "instagram": "None", "facebook": "None", "youtube": "None", "website": "None", "summary": "None", "logo": "None", "latitude": 49.89565500000006, "longitude": -97.13721499999994}, "119263382RR0001": {"name": "THOMASBURG UNITED CHURCH", "designationCode": "C", "categoryCode": "44", "address": "R.R. #1, 663 ESKER RD.", "city": "THOMASBURG", "province": "ON", "country": "CA", "postalCode": "K0K3H0", "twitter": "None", "instagram": "None", "facebook": "None", "youtube": "None", "website": "None", "summary": "None", "logo": "None", "latitude": 44.40896335720466, "longitude": -77.31178954994526}, "119263424RR0001": {"name": "THOMPSON CHILDREN'S WORLD INC", "designationCode": "C", "categoryCode": "20", "address": "5 - 436 THOMPSON DR", "city": "THOMPSON", "province": "MB", "country": "CA", "postalCode": "R8N0C6", "twitter": "None", "instagram": "None", "facebook": "None", "youtube": "None", "website": "None", "summary": "None", "logo": "None", "latitude": 55.74504300000005, "longitude": -97.85087899999994}, "119263432RR0001": {"name": "THOMPSON CRISIS CENTRE INC", "designationCode": "C", "categoryCode": "09", "address": "P.O. BOX 1226", "city": "THOMPSON", "province": "MB", "country": "CA", "postalCode": "R8N1P1", "twitter": "None", "instagram": "None", "facebook": "None", "youtube": "None", "website": "None", "summary": "None", "logo": "None", "latitude": 55.74417900000006, "longitude": -97.85067199999993}, "855073680RR0001": {"name": "THOMPSON HOMELESS SHELTER INC.", "designationCode": "C", "categoryCode": "01", "address": "43 FOX BAY", "city": "THOMPSON", "province": "MB", "country": "CA", "postalCode": "R8N1E9", "twitter": "None", "instagram": "None", "facebook": "None", "youtube": "None", "website": "None", "summary": "None", "logo": "None", "latitude": 55.7400652862225, "longitude": -97.86443971506115}, "881793608RR0001": {"name": "THOMPSON HUMANE SOCIETY INC.", "designationCode": "C", "categoryCode": "54", "address": "27 NELSON RD", "city": "THOMPSON", "province": "MB", "country": "CA", "postalCode": "R8N0B3", "twitter": "None", "instagram": "None", "facebook": "None", "youtube": "None", "website": "None", "summary": "None", "logo": "None", "latitude": 55.74104066102891, "longitude": -97.84497641959845}, "119278257RR0001": {"name": "THOMPSON NICOLA CARIBOO UNITED WAY", "designationCode": "A", "categoryCode": "03", "address": "177 VICTORIA ST", "city": "KAMLOOPS", "province": "BC", "country": "CA", "postalCode": "V2C1Z4", "twitter": "None", "instagram": "None", "facebook": "None", "youtube": "None", "website": "None", "summary": "None", "logo": "None", "latitude": 50.67591271827582, "longitude": -120.33690859423506}, "131209801RR0001": {"name": "THOMPSON NICOLA FAMILY RESOURCE SOCIETY", "designationCode": "C", "categoryCode": "11", "address": "801 MCGILL RD", "city": "KAMLOOPS", "province": "BC", "country": "CA", "postalCode": "V2C6R1", "twitter": "None", "instagram": "None", "facebook": "None", "youtube": "None", "website": "None", "summary": "None", "logo": "None", "latitude": 50.66814281652159, "longitude": -120.36128524242606}, "108107038RR0001": {"name": "THOMPSON PENTECOSTAL ASSEMBLY", "designationCode": "C", "categoryCode": "36", "address": "126 GOLDEYE CRES", "city": "THOMPSON", "province": "MB", "country": "CA", "postalCode": "R8N1L5", "twitter": "None", "instagram": "None", "facebook": "None", "youtube": "None", "website": "None", "summary": "None", "logo": "None", "latitude": 55.74313831515425, "longitude": -97.87504056815543}, "794340299RR0001": {"name": "THOMPSON PUBLIC LIBRARY", "designationCode": "C", "categoryCode": "50", "address": "81 THOMPSON DRIVE N", "city": "THOMPSON", "province": "MB", "country": "CA", "postalCode": "R8N0C3", "twitter": "None", "instagram": "None", "facebook": "None", "youtube": "None", "website": "None", "summary": "None", "logo": "None", "latitude": 55.744732330604684, "longitude": -97.85542641978955}, "118838531RR0001": {"name": "THOMPSON RIVERS UNIVERSITY", "designationCode": "C", "categoryCode": "20", "address": "900 MCGILL ROAD", "city": "KAMLOOPS", "province": "BC", "country": "CA", "postalCode": "V2C0C8", "twitter": "None", "instagram": "None", "facebook": "None", "youtube": "None", "website": "None", "summary": "None", "logo": "None", "latitude": 50.66765443493552, "longitude": -120.36412517069648}, "131135691RR0001": {"name": "THOMPSON RIVERS UNIVERSITY FOUNDATION", "designationCode": "A", "categoryCode": "23", "address": "900 MCGILL RD", "city": "KAMLOOPS", "province": "BC", "country": "CA", "postalCode": "V2C0C8", "twitter": "None", "instagram": "None", "facebook": "None", "youtube": "None", "website": "None", "summary": "None", "logo": "None", "latitude": 50.66765443493552, "longitude": -120.36412517069648}, "119263531RR0001": {"name": "THOMPSON SCIENCE FAIR COMMITTEE", "designationCode": "C", "categoryCode": "21", "address": "119 RIVERSIDE DR", "city": "THOMPSON", "province": "MB", "country": "CA", "postalCode": "R8N0X1", "twitter": "None", "instagram": "None", "facebook": "None", "youtube": "None", "website": "None", "summary": "None", "logo": "None", "latitude": 55.74991084652818, "longitude": -97.8555251977528}, "896438546RR0001": {"name": "THOMPSON SENIORS COMMUNITY RESOURCE COUNCIL INC.", "designationCode": "C", "categoryCode": "09", "address": "131 CENTENNIAL DR W", "city": "THOMPSON", "province": "MB", "country": "CA", "postalCode": "R8N1K7", "twitter": "None", "instagram": "None", "facebook": "None", "youtube": "None", "website": "None", "summary": "None", "logo": "None", "latitude": 55.735881529653255, "longitude": -97.86844124094337}, "846203149RR0001": {"name": "THOMPSON VALLEY COMMUNITY ORCHESTRAL SOCIETY", "designationCode": "C", "categoryCode": "22", "address": "PO BOX 555", "city": "KAMLOOPS", "province": "BC", "country": "CA", "postalCode": "V2C5L2", "twitter": "None", "instagram": "None", "facebook": "None", "youtube": "None", "website": "None", "summary": "None", "logo": "None", "latitude": 50.675883000000056, "longitude": -120.33898099999993}, "867283186RR0001": {"name": "THOMPSON VIEW MANOR SOCIETY", "designationCode": "C", "categoryCode": "09", "address": "PO BOX 318                    710 ELM STREET", "city": "ASHCROFT", "province": "BC", "country": "CA", "postalCode": "V0K1A0", "twitter": "None", "instagram": "None", "facebook": "None", "youtube": "None", "website": "None", "summary": "None", "logo": "None", "latitude": 50.73487273424493, "longitude": -121.2777645637334}, "119263549RR0001": {"name": "THOMPSON Y W C A RESIDENCE INC", "designationCode": "C", "categoryCode": "01", "address": "39 NICKEL RD", "city": "THOMPSON", "province": "MB", "country": "CA", "postalCode": "R8N0Y5", "twitter": "None", "instagram": "None", "facebook": "None", "youtube": "None", "website": "None", "summary": "None", "logo": "None", "latitude": 55.746323006266216, "longitude": -97.8576589956934}, "119263556RR0001": {"name": "THOMPSON ZOOLOGICAL SOCIETY INC", "designationCode": "C", "categoryCode": "50", "address": "POST OFFICE BOX 52", "city": "THOMPSON", "province": "MB", "country": "CA", "postalCode": "R8N1M9", "twitter": "None", "instagram": "None", "facebook": "None", "youtube": "None", "website": "None", "summary": "None", "logo": "None", "latitude": 55.74417900000006, "longitude": -97.85067199999993}, "129810636RR0001": {"name": "THOMPSON-NICOLA REGIONAL DISTRICT LIBRARY SYSTEM", "designationCode": "C", "categoryCode": "50", "address": "300-465 VICTORIA ST", "city": "KAMLOOPS", "province": "BC", "country": "CA", "postalCode": "V2C2A9", "twitter": "None", "instagram": "None", "facebook": "None", "youtube": "None", "website": "None", "summary": "None", "logo": "None", "latitude": 50.675806499567315, "longitude": -120.33024219317329}, "119263499RR0001": {"name": "THOMPSON, MANITOBA, CONGREGATION OF JEHOVAH'S WITNESSES", "designationCode": "C", "categoryCode": "61", "address": "35 DUKE PL", "city": "THOMPSON", "province": "MB", "country": "CA", "postalCode": "R8N0H5", "twitter": "None", "instagram": "None", "facebook": "None", "youtube": "None", "website": "None", "summary": "None", "logo": "None", "latitude": 55.7365342452074, "longitude": -97.84568456797653}, "119263580RR0001": {"name": "THOMSON LAKE REGIONAL PARK AUTHORITY", "designationCode": "C", "categoryCode": "56", "address": "BOX 520", "city": "LAFLECHE", "province": "SK", "country": "CA", "postalCode": "S0H2K0", "twitter": "None", "instagram": "None", "facebook": "None", "youtube": "None", "website": "None", "summary": "None", "logo": "None", "latitude": 49.71676000000008, "longitude": -106.58451999999994}, "854055241RR0001": {"name": "THOPAGA FOUNDATION", "designationCode": "C", "categoryCode": "35", "address": "PO BOX 51041 RPO MILTON       75 NIPISSING ROAD", "city": "MILTON", "province": "ON", "country": "CA", "postalCode": "L9T2P2", "twitter": "None", "instagram": "None", "facebook": "None", "youtube": "None", "website": "None", "summary": "None", "logo": "None", "latitude": 43.51961441023701, "longitude": -79.87343428706161}, "119144251RR0001": {"name": "THORBURN AND DISTRICT FIRE DEPARTMENT", "designationCode": "C", "categoryCode": "59", "address": "BOX 136", "city": "THORBURN", "province": "NS", "country": "CA", "postalCode": "B0K1W0", "twitter": "None", "instagram": "None", "facebook": "None", "youtube": "None", "website": "None", "summary": "None", "logo": "None", "latitude": 45.56894299795978, "longitude": -62.53528136563699}, "119263614RR0001": {"name": "THORBURN AND DISTRICT WAR VETERANS' ASSOCIATION", "designationCode": "C", "categoryCode": "52", "address": "RR4 NEW GLASGOW               103 REEVES RD", "city": "COALBURN", "province": "NS", "country": "CA", "postalCode": "B2H5C7", "twitter": "None", "instagram": "None", "facebook": "None", "youtube": "None", "website": "None", "summary": "None", "logo": "None", "latitude": 45.555443096341186, "longitude": -62.58804057842333}, "108107244RR0001": {"name": "THORHILD & DISTRICT AGRICULTURAL SOCIETY", "designationCode": "C", "categoryCode": "56", "address": "BOX 496", "city": "THORHILD", "province": "AB", "country": "CA", "postalCode": "T0A3J0", "twitter": "None", "instagram": "None", "facebook": "None", "youtube": "None", "website": "None", "summary": "None", "logo": "None", "latitude": 54.15764000000007, "longitude": -113.12560999999994}, "140975327RR0001": {"name": "THORHILD CONGREGATION OF JEHOVAH'S WITNESSES", "designationCode": "C", "categoryCode": "61", "address": "BOX 237", "city": "THORHILD", "province": "AB", "country": "CA", "postalCode": "T0A3J0", "twitter": "None", "instagram": "None", "facebook": "None", "youtube": "None", "website": "None", "summary": "None", "logo": "None", "latitude": 54.15764000000007, "longitude": -113.12560999999994}, "120555693RR0001": {"name": "THORHILD DISTRICT HISTORICAL SOCIETY & MUSEUM", "designationCode": "C", "categoryCode": "52", "address": "PO BOX 371", "city": "THORHILD", "province": "AB", "country": "CA", "postalCode": "T0A3J0", "twitter": "None", "instagram": "None", "facebook": "None", "youtube": "None", "website": "None", "summary": "None", "logo": "None", "latitude": 54.15764000000007, "longitude": -113.12560999999994}, "892035577RR0001": {"name": "THORHILD LIVING GOSPEL FELLOWSHIP", "designationCode": "C", "categoryCode": "49", "address": "BOX 394", "city": "THORHILD", "province": "AB", "country": "CA", "postalCode": "T0A3J0", "twitter": "None", "instagram": "None", "facebook": "None", "youtube": "None", "website": "None", "summary": "None", "logo": "None", "latitude": 54.15764000000007, "longitude": -113.12560999999994}, "863943494RR0001": {"name": "THORNCLIFFE CONGREGATION OF JEHOVAH'S WITNESSES, EDMONTON, Alberta", "designationCode": "C", "categoryCode": "61", "address": "435 WILLOW COURT", "city": "EDMONTON", "province": "AB", "country": "CA", "postalCode": "T5T2K7", "twitter": "None", "instagram": "None", "facebook": "None", "youtube": "None", "website": "None", "summary": "None", "logo": "None", "latitude": 53.503586066960374, "longitude": -113.636607038642}, "108107343RR0001": {"name": "THORNCLIFFE NEIGHBOURHOOD OFFICE", "designationCode": "C", "categoryCode": "59", "address": "18 THORNCLIFFE PARK DR", "city": "TORONTO", "province": "ON", "country": "CA", "postalCode": "M4H1N7", "twitter": "None", "instagram": "None", "facebook": "None", "youtube": "None", "website": "None", "summary": "None", "logo": "None", "latitude": 43.7037325626403, "longitude": -79.3475380626699}, "863411260RR0001": {"name": "THORNCLIFFE PARK CHRISTIAN CHURCH", "designationCode": "C", "categoryCode": "39", "address": "52 CEDARHURST DR", "city": "RICHMOND HILL", "province": "ON", "country": "CA", "postalCode": "L4S1B5", "twitter": "None", "instagram": "None", "facebook": "None", "youtube": "None", "website": "None", "summary": "None", "logo": "None", "latitude": 43.90081375855488, "longitude": -79.42956825601607}, "131882607RR0001": {"name": "THORNCLIFFE PARK UNITED CHURCH", "designationCode": "C", "categoryCode": "44", "address": "16 THORNCLIFFE PARK DRIVE", "city": "TORONTO", "province": "ON", "country": "CA", "postalCode": "M4H1H4", "twitter": "None", "instagram": "None", "facebook": "None", "youtube": "None", "website": "None", "summary": "None", "logo": "None", "latitude": 43.70377974412818, "longitude": -79.34763721215897}, "875818874RR0001": {"name": "THORNCLIFFE USER GROUP SOCIETY", "designationCode": "C", "categoryCode": "09", "address": "8215 175 ST NW", "city": "EDMONTON", "province": "AB", "country": "CA", "postalCode": "T5T0G9", "twitter": "None", "instagram": "None", "facebook": "None", "youtube": "None", "website": "None", "summary": "None", "logo": "None", "latitude": 53.51638592911442, "longitude": -113.62341215213335}, "119263671RR0001": {"name": "THORNDALE LIONS MEDICAL CENTRE TRUST", "designationCode": "C", "categoryCode": "15", "address": "BOX 67", "city": "THORNDALE", "province": "ON", "country": "CA", "postalCode": "N0M2P0", "twitter": "None", "instagram": "None", "facebook": "None", "youtube": "None", "website": "None", "summary": "None", "logo": "None", "latitude": 43.1222698048712, "longitude": -81.0852536165536}, "130374549RR0001": {"name": "THORNDALE PASTORAL CHARGE", "designationCode": "C", "categoryCode": "44", "address": "PO BOX 126", "city": "THORNDALE", "province": "ON", "country": "CA", "postalCode": "N0M2P0", "twitter": "None", "instagram": "None", "facebook": "None", "youtube": "None", "website": "None", "summary": "None", "logo": "None", "latitude": 43.1222698048712, "longitude": -81.0852536165536}, "122955370RR0001": {"name": "THORNELOE UNIVERSITY", "designationCode": "C", "categoryCode": "20", "address": "935 RAMSEY LAKE ROAD", "city": "SUDBURY", "province": "ON", "country": "CA", "postalCode": "P3E2C6", "twitter": "None", "instagram": "None", "facebook": "None", "youtube": "None", "website": "None", "summary": "None", "logo": "None", "latitude": 46.47081945295088, "longitude": -80.97225123728919}, "108107574RR0001": {"name": "THORNHILL BAPTIST CHURCH", "designationCode": "C", "categoryCode": "31", "address": "8018 YONGE ST", "city": "THORNHILL", "province": "ON", "country": "CA", "postalCode": "L4J1W3", "twitter": "None", "instagram": "None", "facebook": "None", "youtube": "None", "website": "None", "summary": "None", "logo": "None", "latitude": 43.82276049042071, "longitude": -79.42601973651077}, "108107582RR0001": {"name": "THORNHILL BAPTIST CHURCH", "designationCode": "C", "categoryCode": "31", "address": "128 TACHE AVE NW", "city": "CALGARY", "province": "AB", "country": "CA", "postalCode": "T2K3R5", "twitter": "None", "instagram": "None", "facebook": "None", "youtube": "None", "website": "None", "summary": "None", "logo": "None", "latitude": 51.10809353318128, "longitude": -114.064551}, "119263739RR0001": {"name": "THORNHILL CHILD CARE SOCIETY", "designationCode": "C", "categoryCode": "01", "address": "6617 CENTRE ST NW", "city": "CALGARY", "province": "AB", "country": "CA", "postalCode": "T2K4Y5", "twitter": "None", "instagram": "None", "facebook": "None", "youtube": "None", "website": "None", "summary": "None", "logo": "None", "latitude": 51.11217087065043, "longitude": -114.06315146644334}, "888465069RR0001": {"name": "THORNHILL COMMUNITY BAND", "designationCode": "C", "categoryCode": "22", "address": "15 CYPRESS POINT COURT", "city": "THORNHILL", "province": "ON", "country": "CA", "postalCode": "L3T1V6", "twitter": "None", "instagram": "None", "facebook": "None", "youtube": "None", "website": "None", "summary": "None", "logo": "None", "latitude": 43.818361513994034, "longitude": -79.38514336940969}, "897486791RR0001": {"name": "THORNHILL COMMUNITY CHURCH", "designationCode": "C", "categoryCode": "31", "address": "3681 KRUMM RD", "city": "TERRACE", "province": "BC", "country": "CA", "postalCode": "V8G4Y2", "twitter": "None", "instagram": "None", "facebook": "None", "youtube": "None", "website": "None", "summary": "None", "logo": "None", "latitude": 54.49906452726692, "longitude": -128.52795332806278}, "140800897RR0001": {"name": "THORNHILL DISTRICT LIONS CLUB CHARITABLE TRUST", "designationCode": "A", "categoryCode": "65", "address": "PO BOX 53045 RPO ROYAL ORCHARD", "city": "THORNHILL", "province": "ON", "country": "CA", "postalCode": "L3T7R9", "twitter": "None", "instagram": "None", "facebook": "None", "youtube": "None", "website": "None", "summary": "None", "logo": "None", "latitude": 43.82435584784899, "longitude": -79.41199011752603}, "873961965RR0001": {"name": "THORNHILL HEBREW SCHOOL", "designationCode": "C", "categoryCode": "20", "address": "814-2 NEPTUNE DRIVE", "city": "TORONTO", "province": "ON", "country": "CA", "postalCode": "M6A3E6", "twitter": "None", "instagram": "None", "facebook": "None", "youtube": "None", "website": "None", "summary": "None", "logo": "None", "latitude": 43.731494223440386, "longitude": -79.43281823342369}, "119288918RR0369": {"name": "THORNHILL ONTARIO CONGREGATION OF JEHOVAH'S WITNESSES", "designationCode": "C", "categoryCode": "61", "address": "335 16TH AVENUE", "city": "RICHMOND HILL", "province": "ON", "country": "CA", "postalCode": "L4C7A6", "twitter": "None", "instagram": "None", "facebook": "None", "youtube": "None", "website": "None", "summary": "None", "logo": "None", "latitude": 43.85511183758474, "longitude": -79.42313532526416}, "818934291RR0001": {"name": "THORNHILL OUTDOOR EDUCATION CAMPUS", "designationCode": "C", "categoryCode": "20", "address": "7015 LESLIE ST", "city": "THORNHILL", "province": "ON", "country": "CA", "postalCode": "L3T6L6", "twitter": "None", "instagram": "None", "facebook": "None", "youtube": "None", "website": "None", "summary": "None", "logo": "None", "latitude": 43.81094649179736, "longitude": -79.3736499498712}, "898312731RR0001": {"name": "THORNHILL UNITED CHURCH", "designationCode": "C", "categoryCode": "44", "address": "25 ELGIN ST", "city": "THORNHILL", "province": "ON", "country": "CA", "postalCode": "L3T1W5", "twitter": "None", "instagram": "None", "facebook": "None", "youtube": "None", "website": "None", "summary": "None", "logo": "None", "latitude": 43.81175985532968, "longitude": -79.42080417926617}, "108107699RR0001": {"name": "THORNLOE CROSSROADS BAPTIST CHURCH", "designationCode": "C", "categoryCode": "31", "address": "BOX 48", "city": "THORNLOE", "province": "ON", "country": "CA", "postalCode": "P0J1S0", "twitter": "None", "instagram": "None", "facebook": "None", "youtube": "None", "website": "None", "summary": "None", "logo": "None", "latitude": 47.66770000000008, "longitude": -79.76073999999994}, "105272967RR0001": {"name": "THORNTON CREEK ENHANCEMENT SOCIETY", "designationCode": "C", "categoryCode": "52", "address": "5155 ARGYLE STREET", "city": "PORT ALBERNI", "province": "BC", "country": "CA", "postalCode": "V9Y1V3", "twitter": "None", "instagram": "None", "facebook": "None", "youtube": "None", "website": "None", "summary": "None", "logo": "None", "latitude": 49.23482700688655, "longitude": -124.80997700298829}, "108107814RR0001": {"name": "THOROLD CO-OPERATIVE NURSERY SCHOOL INC.", "designationCode": "C", "categoryCode": "20", "address": "36 ST. CHARLES AVENUE", "city": "THOROLD", "province": "ON", "country": "CA", "postalCode": "L2V2W4", "twitter": "None", "instagram": "None", "facebook": "None", "youtube": "None", "website": "None", "summary": "None", "logo": "None", "latitude": 43.12672548131879, "longitude": -79.21230061534347}, "108107780RR0001": {"name": "THOROLD COMMUNITY ACTIVITIES GROUP", "designationCode": "C", "categoryCode": "56", "address": "131 RICHMOND ST", "city": "THOROLD", "province": "ON", "country": "CA", "postalCode": "L2V3H3", "twitter": "None", "instagram": "None", "facebook": "None", "youtube": "None", "website": "None", "summary": "None", "logo": "None", "latitude": 43.11724453173899, "longitude": -79.21171927837729}, "119263838RR0001": {"name": "THOROLD PUBLIC LIBRARY BOARD", "designationCode": "C", "categoryCode": "50", "address": "14 ORMOND ST N", "city": "THOROLD", "province": "ON", "country": "CA", "postalCode": "L2V1Y8", "twitter": "None", "instagram": "None", "facebook": "None", "youtube": "None", "website": "None", "summary": "None", "logo": "None", "latitude": 43.12620039800333, "longitude": -79.19905444791995}}