{"886206796RR0001": {"name": "COMITE DES OEUVRES CHARITABLES DU CONSEIL ST-PAUL ABBOTSFORD NO 3105", "designationCode": "C", "categoryCode": "65", "address": "225 PAPINEAU", "city": "ST.PAUL ABBOTSFORD", "province": "QC", "country": "CA", "postalCode": "J0E1A0", "twitter": "None", "instagram": "None", "facebook": "None", "youtube": "None", "website": "None", "summary": "None", "logo": "None", "latitude": 45.409464216803926, "longitude": -72.91356642740504}, "889645172RR0001": {"name": "COMITE DES OEUVRES CHARITABLES DU CONSEIL ST-PIE NO 2958", "designationCode": "C", "categoryCode": "65", "address": "24 SALABERRY                  C.P. 767", "city": "ST-PIE-DE-BAGOT", "province": "QC", "country": "CA", "postalCode": "J0H1W0", "twitter": "None", "instagram": "None", "facebook": "None", "youtube": "None", "website": "None", "summary": "None", "logo": "None", "latitude": 45.502778137659455, "longitude": -72.90747817317798}, "890738792RR0001": {"name": "COMITE DES OEUVRES CHARITABLES DU CONSEIL ST-RAYMOND NO 2985", "designationCode": "C", "categoryCode": "65", "address": "204 - 8 RUE PERRIN", "city": "ST-RAYMOND", "province": "QC", "country": "CA", "postalCode": "G3L1C7", "twitter": "None", "instagram": "None", "facebook": "None", "youtube": "None", "website": "None", "summary": "None", "logo": "None", "latitude": 46.89193587605707, "longitude": -71.8306937637799}, "891500340RR0001": {"name": "COMITE DES OEUVRES CHARITABLES DU CONSEIL ST-ROBERT DE BELLARMIN 10028", "designationCode": "C", "categoryCode": "65", "address": "392 PRINCIPALE", "city": "ST-ROBERT BELLARMIN", "province": "QC", "country": "CA", "postalCode": "G0M2E0", "twitter": "None", "instagram": "None", "facebook": "None", "youtube": "None", "website": "None", "summary": "None", "logo": "None", "latitude": 45.7529454639187, "longitude": -70.58887598275865}, "886308196RR0001": {"name": "COMITE DES OEUVRES CHARITABLES DU CONSEIL ST-ROMUALD 2981", "designationCode": "C", "categoryCode": "65", "address": "234 RUE DE LA GRANDE-HERMINE", "city": "LEVIS", "province": "QC", "country": "CA", "postalCode": "G6W3A9", "twitter": "None", "instagram": "None", "facebook": "None", "youtube": "None", "website": "None", "summary": "None", "logo": "None", "latitude": 46.757397437128574, "longitude": -71.23160009437927}, "891575748RR0001": {"name": "COMITE DES OEUVRES CHARITABLES DU CONSEIL ST-SIMEON 9035", "designationCode": "C", "categoryCode": "65", "address": "C.P. 103, SAINT-SIMEON", "city": "CHARLEVOIX", "province": "QC", "country": "CA", "postalCode": "G0T1X0", "twitter": "None", "instagram": "None", "facebook": "None", "youtube": "None", "website": "None", "summary": "None", "logo": "None", "latitude": 47.842449970569675, "longitude": -69.87975993003074}, "890799042RR0001": {"name": "COMITE DES OEUVRES CHARITABLES DU CONSEIL ST-STANISLAS 2903", "designationCode": "C", "categoryCode": "65", "address": "154, ROUTE 159", "city": "SAINT-STANISLAS", "province": "QC", "country": "CA", "postalCode": "G0X3E0", "twitter": "None", "instagram": "None", "facebook": "None", "youtube": "None", "website": "None", "summary": "None", "logo": "None", "latitude": 46.609033259928815, "longitude": -72.37373339545996}, "891566549RR0001": {"name": "COMITE DES OEUVRES CHARITABLES DU CONSEIL ST-THEOPHILE 7691-38", "designationCode": "C", "categoryCode": "65", "address": "434 RANG ST-L\u00c9ON C.P. 11", "city": "ST-TH\u00c9OPHILE", "province": "QC", "country": "CA", "postalCode": "G0M2A0", "twitter": "None", "instagram": "None", "facebook": "None", "youtube": "None", "website": "None", "summary": "None", "logo": "None", "latitude": 45.93760569940571, "longitude": -70.48589920431044}, "890051592RR0001": {"name": "COMITE DES OEUVRES CHARITABLES DU CONSEIL ST-THOMAS DIDYME NO 8884", "designationCode": "C", "categoryCode": "65", "address": "ANDRE DESGAGNE                248 PRINCIPAL", "city": "ST-THOMAS DIDYME", "province": "QC", "country": "CA", "postalCode": "G0W1P0", "twitter": "None", "instagram": "None", "facebook": "None", "youtube": "None", "website": "None", "summary": "None", "logo": "None", "latitude": 48.949348255080146, "longitude": -72.60080565816399}, "887565869RR0001": {"name": "COMITE DES OEUVRES CHARITABLES DU CONSEIL ST-URBAIN NO 7712", "designationCode": "C", "categoryCode": "65", "address": "5 RANG ST-FRANCOIS", "city": "ST-URBAIN", "province": "QC", "country": "CA", "postalCode": "G0A4K0", "twitter": "None", "instagram": "None", "facebook": "None", "youtube": "None", "website": "None", "summary": "None", "logo": "None", "latitude": 47.56593704691551, "longitude": -70.55066412372366}, "892500240RR0001": {"name": "COMITE DES OEUVRES CHARITABLES DU CONSEIL ST-VICTOR 6356", "designationCode": "C", "categoryCode": "65", "address": "311 RUE AMBROISE", "city": "SAINT-VICTOR", "province": "QC", "country": "CA", "postalCode": "G0M2B0", "twitter": "None", "instagram": "None", "facebook": "None", "youtube": "None", "website": "None", "summary": "None", "logo": "None", "latitude": 46.1470832117836, "longitude": -70.90068580962533}, "887408599RR0001": {"name": "COMITE DES OEUVRES CHARITABLES DU CONSEIL ST-WENSCESLAS NO 2897", "designationCode": "C", "categoryCode": "65", "address": "1200 RG ST-JOSEPH", "city": "ST-CELESTIN", "province": "QC", "country": "CA", "postalCode": "J0C1G0", "twitter": "None", "instagram": "None", "facebook": "None", "youtube": "None", "website": "None", "summary": "None", "logo": "None", "latitude": 46.184039893992626, "longitude": -72.40775980899109}, "890624398RR0001": {"name": "COMITE DES OEUVRES CHARITABLES DU CONSEIL STE-AGATHE DE LOTBINIERE 9290", "designationCode": "C", "categoryCode": "65", "address": "389 RUE GOSFORD", "city": "STE-AGATHE LOTBINIERE", "province": "QC", "country": "CA", "postalCode": "G0S2A0", "twitter": "None", "instagram": "None", "facebook": "None", "youtube": "None", "website": "None", "summary": "None", "logo": "None", "latitude": 46.38503093311785, "longitude": -71.40873881683869}, "888778396RR0001": {"name": "COMITE DES OEUVRES CHARITABLES DU CONSEIL STE-AGATHE 2802", "designationCode": "C", "categoryCode": "65", "address": "252 ROUTE 329 SUD             C.P. 115", "city": "SAINTE-AGATHE DES MONTS", "province": "QC", "country": "CA", "postalCode": "J8C3A1", "twitter": "None", "instagram": "None", "facebook": "None", "youtube": "None", "website": "None", "summary": "None", "logo": "None", "latitude": 46.04560015565178, "longitude": -74.27905128041921}, "889190997RR0001": {"name": "COMITE DES OEUVRES CHARITABLES DU CONSEIL STE-ANNE-DE-PORTNEUF 9858-80", "designationCode": "C", "categoryCode": "65", "address": "173, ROUTE PRINCIPALE         C.P. 114", "city": "PORTNEUF-SUR-MER", "province": "QC", "country": "CA", "postalCode": "G0T1P0", "twitter": "None", "instagram": "None", "facebook": "None", "youtube": "None", "website": "None", "summary": "None", "logo": "None", "latitude": 48.618726276155606, "longitude": -69.1007380002598}, "893412361RR0001": {"name": "COMITE DES OEUVRES CHARITABLES DU CONSEIL STE-CROIX 3178", "designationCode": "C", "categoryCode": "65", "address": "6650 MARIE-VICTORIN", "city": "STE-CROIX", "province": "QC", "country": "CA", "postalCode": "G0S2H0", "twitter": "None", "instagram": "None", "facebook": "None", "youtube": "None", "website": "None", "summary": "None", "logo": "None", "latitude": 46.62618222344039, "longitude": -71.76423482194592}, "889109435RR0001": {"name": "COMITE DES OEUVRES CHARITABLES DU CONSEIL STE-FOY NO: 5685", "designationCode": "C", "categoryCode": "65", "address": "3155 CH DES QUATRE-BOURGEOIS", "city": "QUEBEC", "province": "QC", "country": "CA", "postalCode": "G1W4X7", "twitter": "None", "instagram": "None", "facebook": "None", "youtube": "None", "website": "None", "summary": "None", "logo": "None", "latitude": 46.76808495527755, "longitude": -71.30891448981512}, "891736175RR0001": {"name": "COMITE DES OEUVRES CHARITABLES DU CONSEIL STE-GERMAINE NO 2988", "designationCode": "C", "categoryCode": "65", "address": "P.O BOX 5027", "city": "LAC ETCHEMIN", "province": "QC", "country": "CA", "postalCode": "G0R1S0", "twitter": "None", "instagram": "None", "facebook": "None", "youtube": "None", "website": "None", "summary": "None", "logo": "None", "latitude": 46.39327800000005, "longitude": -70.48105999999993}, "886050590RR0001": {"name": "COMITE DES OEUVRES CHARITABLES DU CONSEIL STE-JUSTINE 3236-29", "designationCode": "C", "categoryCode": "65", "address": "238-D, RUE PRINCIPALE", "city": "STE-JUSTINE", "province": "QC", "country": "CA", "postalCode": "G0R1Y0", "twitter": "None", "instagram": "None", "facebook": "None", "youtube": "None", "website": "None", "summary": "None", "logo": "None", "latitude": 46.410183796006685, "longitude": -70.3481581357262}, "890061849RR0001": {"name": "COMITE DES OEUVRES CHARITABLES DU CONSEIL STE-JUSTINE-DE-NEWTON 7174", "designationCode": "C", "categoryCode": "65", "address": "2309 MONTEE DELA STATION", "city": "STE-JUSTINE DE NEWTON", "province": "QC", "country": "CA", "postalCode": "J0P1T0", "twitter": "None", "instagram": "None", "facebook": "None", "youtube": "None", "website": "None", "summary": "None", "logo": "None", "latitude": 45.38091300000005, "longitude": -74.40934399999993}, "873850119RR0001": {"name": "COMITE DES OEUVRES CHARITABLES DU CONSEIL STE-MADELEINE NO. 4301", "designationCode": "C", "categoryCode": "09", "address": "1025 RUE SAINT-SIMON", "city": "SAINTE-MADELEINE", "province": "QC", "country": "CA", "postalCode": "J0H1S0", "twitter": "None", "instagram": "None", "facebook": "None", "youtube": "None", "website": "None", "summary": "None", "logo": "None", "latitude": 45.5939920669108, "longitude": -73.09031588161471}, "885022186RR0001": {"name": "COMITE DES OEUVRES CHARITABLES DU CONSEIL STE-ROSALIE 9803", "designationCode": "C", "categoryCode": "65", "address": "13510 AVE. DE L'EGLISE", "city": "SAINT-HYACINTHE", "province": "QC", "country": "CA", "postalCode": "J2R1W9", "twitter": "None", "instagram": "None", "facebook": "None", "youtube": "None", "website": "None", "summary": "None", "logo": "None", "latitude": 45.6471832825609, "longitude": -72.90084352980573}, "890574247RR0001": {"name": "COMITE DES OEUVRES CHARITABLES DU CONSEIL STE-ROSE DE LIMA 10114", "designationCode": "C", "categoryCode": "65", "address": "115 RUE JOSEPH GOSSELIN", "city": "GATINEAU", "province": "QC", "country": "CA", "postalCode": "J8M1B1", "twitter": "None", "instagram": "None", "facebook": "None", "youtube": "None", "website": "None", "summary": "None", "logo": "None", "latitude": 45.54733911740433, "longitude": -75.41869610211222}, "888197043RR0001": {"name": "COMITE DES OEUVRES CHARITABLES DU CONSEIL STE-THECLE NO 2817", "designationCode": "C", "categoryCode": "65", "address": "271 RUE MASSON", "city": "ST-THECLE", "province": "QC", "country": "CA", "postalCode": "G0X3G0", "twitter": "None", "instagram": "None", "facebook": "None", "youtube": "None", "website": "None", "summary": "None", "logo": "None", "latitude": 46.81834292310587, "longitude": -72.50787056399662}, "138992243RR0001": {"name": "COMITE DES OEUVRES CHARITABLES DU CONSEIL STOKE-7287", "designationCode": "C", "categoryCode": "65", "address": "114 MONT DUFRESNE", "city": "STOKE", "province": "QC", "country": "CA", "postalCode": "J0B3G0", "twitter": "None", "instagram": "None", "facebook": "None", "youtube": "None", "website": "None", "summary": "None", "logo": "None", "latitude": 45.47771356538161, "longitude": -71.83244853147917}, "893392969RR0001": {"name": "COMITE DES OEUVRES CHARITABLES DU CONSEIL THETFORD MINES 2088", "designationCode": "A", "categoryCode": "63", "address": "95E RUE NORD", "city": "THETFORD MINES", "province": "QC", "country": "CA", "postalCode": "G6G5J1", "twitter": "None", "instagram": "None", "facebook": "None", "youtube": "None", "website": "None", "summary": "None", "logo": "None", "latitude": 46.10539500000006, "longitude": -71.28353149999994}, "891414245RR0001": {"name": "COMITE DES OEUVRES CHARITABLES DU CONSEIL TROIS-MONTAGNES-8880-85", "designationCode": "C", "categoryCode": "65", "address": "C.P. 129", "city": "ST-RENE DE MATANE", "province": "QC", "country": "CA", "postalCode": "G0J3E0", "twitter": "None", "instagram": "None", "facebook": "None", "youtube": "None", "website": "None", "summary": "None", "logo": "None", "latitude": 48.704717613240035, "longitude": -67.3840633343001}, "893362566RR0001": {"name": "COMITE DES OEUVRES CHARITABLES DU CONSEIL TROIS-PISTOLES 3917", "designationCode": "C", "categoryCode": "65", "address": "220 JEAN-RIOUX", "city": "TROIS-PISTOLES", "province": "QC", "country": "CA", "postalCode": "G0L4K0", "twitter": "None", "instagram": "None", "facebook": "None", "youtube": "None", "website": "None", "summary": "None", "logo": "None", "latitude": 48.12609440908317, "longitude": -69.17667512464635}, "890216849RR0001": {"name": "COMITE DES OEUVRES CHARITABLES DU CONSEIL VAL-DES-BOIS 6045", "designationCode": "C", "categoryCode": "65", "address": "121 CHEMIN DU PONT DE BOIS", "city": "VAL DES BOIS", "province": "QC", "country": "CA", "postalCode": "J0X3C0", "twitter": "None", "instagram": "None", "facebook": "None", "youtube": "None", "website": "None", "summary": "None", "logo": "None", "latitude": 45.89711360590807, "longitude": -75.61042784622677}, "889922647RR0001": {"name": "COMITE DES OEUVRES CHARITABLES DU CONSEIL VARENNES NO: 3808", "designationCode": "C", "categoryCode": "65", "address": "C.P. 11", "city": "VARENNES", "province": "QC", "country": "CA", "postalCode": "J3X1P9", "twitter": "None", "instagram": "None", "facebook": "None", "youtube": "None", "website": "None", "summary": "None", "logo": "None", "latitude": 45.68208900000006, "longitude": -73.44121399999993}, "890995145RR0001": {"name": "COMITE DES OEUVRES CHARITABLES DU CONSEIL VICTORIA 1254", "designationCode": "C", "categoryCode": "65", "address": "45-A, BOUL. JUTRAS EST", "city": "VICTORIAVILLE", "province": "QC", "country": "CA", "postalCode": "G6P4K6", "twitter": "None", "instagram": "None", "facebook": "None", "youtube": "None", "website": "None", "summary": "None", "logo": "None", "latitude": 46.05251892587582, "longitude": -71.95536532333091}, "886200195RR0001": {"name": "COMITE DES OEUVRES CHARITABLES DU CONSEIL VILLE LASALLE NO 3147", "designationCode": "C", "categoryCode": "65", "address": "7710 BOUL. LASALLE", "city": "LASALLE", "province": "QC", "country": "CA", "postalCode": "H8P1X6", "twitter": "None", "instagram": "None", "facebook": "None", "youtube": "None", "website": "None", "summary": "None", "logo": "None", "latitude": 45.42892468330553, "longitude": -73.59382123394329}, "891697849RR0001": {"name": "COMITE DES OEUVRES CHARITABLES DU CONSEIL VILLE STE-CATHERINE NO 7427", "designationCode": "C", "categoryCode": "65", "address": "5860, BOUL ST-LAURENT         CASE POSTALE 400", "city": "VILLE STE-CATHERINE", "province": "QC", "country": "CA", "postalCode": "J5C1A1", "twitter": "None", "instagram": "None", "facebook": "None", "youtube": "None", "website": "None", "summary": "None", "logo": "None", "latitude": 45.4010232875689, "longitude": -73.58105059313836}, "887328391RR0001": {"name": "COMITE DES OEUVRES CHARITABLES DU CONSEIL VILLE-MARIE 6635-45", "designationCode": "C", "categoryCode": "65", "address": "18-A NOTRE DAME NORD", "city": "VILLE-MARIE", "province": "QC", "country": "CA", "postalCode": "J9V1W7", "twitter": "None", "instagram": "None", "facebook": "None", "youtube": "None", "website": "None", "summary": "None", "logo": "None", "latitude": 47.33196242299031, "longitude": -79.44423336369688}, "889241196RR0001": {"name": "COMITE DES OEUVRES CHARITABLES DU CONSEIL VILLE-ST-PIERRE 3567", "designationCode": "C", "categoryCode": "65", "address": "237 SAINT-JACQUES", "city": "LACHINE", "province": "QC", "country": "CA", "postalCode": "H8R1E4", "twitter": "None", "instagram": "None", "facebook": "None", "youtube": "None", "website": "None", "summary": "None", "logo": "None", "latitude": 45.44443027728079, "longitude": -73.64692537942166}, "891655573RR0001": {"name": "COMITE DES OEUVRES CHARITABLES DU CONSEIL WARWICK 2868-86", "designationCode": "C", "categoryCode": "65", "address": "169A ST-LOUIS", "city": "WARWICK", "province": "QC", "country": "CA", "postalCode": "J0A1M0", "twitter": "None", "instagram": "None", "facebook": "None", "youtube": "None", "website": "None", "summary": "None", "logo": "None", "latitude": 45.944665903150394, "longitude": -71.98824064918362}, "891397598RR0001": {"name": "COMITE DES OEUVRES CHARITABLES DU CONSEIL WATERLOO 2077", "designationCode": "C", "categoryCode": "65", "address": "C.P. 2134", "city": "WATERLOO", "province": "QC", "country": "CA", "postalCode": "J0E2N0", "twitter": "None", "instagram": "None", "facebook": "None", "youtube": "None", "website": "None", "summary": "None", "logo": "None", "latitude": 46.36379069564779, "longitude": -73.05046143375384}, "892443763RR0001": {"name": "COMITE DES OEUVRES CHARITABLES DU CONSEIL WEST ISLAND 6096", "designationCode": "C", "categoryCode": "65", "address": "5007 DELRAY", "city": "PIERREFONDS", "province": "QC", "country": "CA", "postalCode": "H8Z1Y4", "twitter": "None", "instagram": "None", "facebook": "None", "youtube": "None", "website": "None", "summary": "None", "logo": "None", "latitude": 45.50029369856899, "longitude": -73.84545002732422}, "893399964RR0001": {"name": "COMITE DES OEUVRES CHARITABLES DU CONSEL MASHAM 6853", "designationCode": "C", "categoryCode": "65", "address": "6 RUE GUERTIN", "city": "LAPECHE", "province": "QC", "country": "CA", "postalCode": "J0X2W0", "twitter": "None", "instagram": "None", "facebook": "None", "youtube": "None", "website": "None", "summary": "None", "logo": "None", "latitude": 45.644733355819696, "longitude": -76.0270937584689}, "123613523RR0011": {"name": "COMITE DES REPONDANTS - ESCADRON 716 LAURENTIEN", "designationCode": "C", "categoryCode": "29", "address": "CASIER POSTAL 4786", "city": "MONT-TREMBLANT", "province": "QC", "country": "CA", "postalCode": "J8E1A1", "twitter": "None", "instagram": "None", "facebook": "None", "youtube": "None", "website": "None", "summary": "None", "logo": "None", "latitude": 46.11832800000006, "longitude": -74.60168299999994}, "889038592RR0001": {"name": "COMITE DES USAGERS STE-MARTINE, ST-PAUL-DE-CHATEAUGUAY, ST-URBAIN PREMIER", "designationCode": "C", "categoryCode": "09", "address": "13 BEAULIEU", "city": "ST-URBAIN", "province": "QC", "country": "CA", "postalCode": "J0S1Y0", "twitter": "None", "instagram": "None", "facebook": "None", "youtube": "None", "website": "None", "summary": "None", "logo": "None", "latitude": 45.22067963226377, "longitude": -73.73574874176224}, "118869338RR0001": {"name": "COMITE DU CENTRE DIEU DE PLACE LAURIER", "designationCode": "C", "categoryCode": "38", "address": "2740 BOUL LAURIER", "city": "STE-FOY", "province": "QC", "country": "CA", "postalCode": "G1V4P7", "twitter": "None", "instagram": "None", "facebook": "None", "youtube": "None", "website": "None", "summary": "None", "logo": "None", "latitude": 46.76919090397594, "longitude": -71.28478594047543}, "893344861RR0001": {"name": "COMITE DU LOGEMENT DU PLATEAU MONT-ROYAL INC.", "designationCode": "C", "categoryCode": "59", "address": "4450 RUE ST-HUBERT            BUREAU 328", "city": "MONTREAL", "province": "QC", "country": "CA", "postalCode": "H2J2W9", "twitter": "None", "instagram": "None", "facebook": "None", "youtube": "None", "website": "None", "summary": "None", "logo": "None", "latitude": 45.52513365803011, "longitude": -73.58025329450612}, "861531754RR0001": {"name": "COMITE DU TRAVAIL DE RUE D'ALMA", "designationCode": "C", "categoryCode": "09", "address": "453 SACRE-COEUR OUEST", "city": "ALMA", "province": "QC", "country": "CA", "postalCode": "G8B1M4", "twitter": "None", "instagram": "None", "facebook": "None", "youtube": "None", "website": "None", "summary": "None", "logo": "None", "latitude": 48.54901933694956, "longitude": -71.64825363001339}, "846223329RR0001": {"name": "COMITE ENFAIM", "designationCode": "C", "categoryCode": "11", "address": "150 RUE RACINE, C.P. 8432", "city": "CHICOUTIMI", "province": "QC", "country": "CA", "postalCode": "G7H5C2", "twitter": "None", "instagram": "None", "facebook": "None", "youtube": "None", "website": "None", "summary": "None", "logo": "None", "latitude": 48.427765513994046, "longitude": -71.06374561088346}, "131856973RR0001": {"name": "COMITE ENTRAIDE - SECTEURS PUBLIC ET PARAPUBLIC", "designationCode": "A", "categoryCode": "75", "address": "425, RUE SAINT-AMABLE,        1ER \u00c9TAGE", "city": "QU\u00c9BEC", "province": "QC", "country": "CA", "postalCode": "G1R4Z1", "twitter": "None", "instagram": "None", "facebook": "None", "youtube": "None", "website": "None", "summary": "None", "logo": "None", "latitude": 46.8062591650706, "longitude": -71.22015551480209}, "106956709RR0001": {"name": "COMITE GENDRON: PROJET D'ANIMATION HABITAT FAMILLE 72", "designationCode": "C", "categoryCode": "09", "address": "1780 BOUL. JOLIET", "city": "BAIE COMEAU", "province": "QC", "country": "CA", "postalCode": "G5C1R4", "twitter": "None", "instagram": "None", "facebook": "None", "youtube": "None", "website": "None", "summary": "None", "logo": "None", "latitude": 49.189419343903126, "longitude": -68.27668861197999}, "863148326RR0001": {"name": "COMITE JEUNESSE LA PRESQU'ILE", "designationCode": "C", "categoryCode": "09", "address": "375 BOUL CARDINAL-LEGER", "city": "PINCOURT", "province": "QC", "country": "CA", "postalCode": "J7W9H6", "twitter": "None", "instagram": "None", "facebook": "None", "youtube": "None", "website": "None", "summary": "None", "logo": "None", "latitude": 45.37284487593057, "longitude": -73.9876236683592}, "895227379RR0001": {"name": "COMITE LIAISON ADOLESCENTS-PARENTS", "designationCode": "C", "categoryCode": "09", "address": "2 - 5225 RUE DE COURCELETTE", "city": "TROIS-RIVIERES", "province": "QC", "country": "CA", "postalCode": "G8Y4L4", "twitter": "None", "instagram": "None", "facebook": "None", "youtube": "None", "website": "None", "summary": "None", "logo": "None", "latitude": 46.34103224923538, "longitude": -72.59041592561603}, "888789872RR0001": {"name": "COMITE LOGEMENT AHUNTSIC-CARTIERVILLE", "designationCode": "C", "categoryCode": "59", "address": "10780 RUE LAVERDURE           BUREAU 208", "city": "MONTREAL", "province": "QC", "country": "CA", "postalCode": "H3L2L9", "twitter": "None", "instagram": "None", "facebook": "None", "youtube": "None", "website": "None", "summary": "None", "logo": "None", "latitude": 45.55253309351391, "longitude": -73.67173931738695}, "892530643RR0001": {"name": "COMITE LOGEMENT BEAUHARNOIS", "designationCode": "C", "categoryCode": "09", "address": "105 - 600 RUE ELLICE", "city": "BEAUHARNOIS", "province": "QC", "country": "CA", "postalCode": "J6N3P7", "twitter": "None", "instagram": "None", "facebook": "None", "youtube": "None", "website": "None", "summary": "None", "logo": "None", "latitude": 45.31367296641469, "longitude": -73.87731407576895}, "890742596RR0001": {"name": "COMITE LOGEMENT DE VALLEYFIELD", "designationCode": "C", "categoryCode": "59", "address": "107 RUE JACQUES-CARTIER       BUREAU 1O", "city": "SALABERRY-DE-VALLEYFIELD", "province": "QC", "country": "CA", "postalCode": "J6T4R8", "twitter": "None", "instagram": "None", "facebook": "None", "youtube": "None", "website": "None", "summary": "None", "logo": "None", "latitude": 45.252046958653075, "longitude": -74.12720618607548}, "853809879RR0001": {"name": "COMITE LOGEMENT LACHINE-LASALLE", "designationCode": "C", "categoryCode": "59", "address": "426 RUE SAINT-JACQUES", "city": "LACHINE", "province": "QC", "country": "CA", "postalCode": "H8R1E8", "twitter": "None", "instagram": "None", "facebook": "None", "youtube": "None", "website": "None", "summary": "None", "logo": "None", "latitude": 45.44289845696773, "longitude": -73.64923217325648}, "886749696RR0002": {"name": "COMITE LOGEMENT TROIS-RIVIERES INC.", "designationCode": "C", "categoryCode": "59", "address": "743 BOUL DU SAINT-MAURICE", "city": "TROIS-RIVIERES", "province": "QC", "country": "CA", "postalCode": "G9A3P5", "twitter": "None", "instagram": "None", "facebook": "None", "youtube": "None", "website": "None", "summary": "None", "logo": "None", "latitude": 46.35226655508117, "longitude": -72.54575476268117}, "141179077RR0001": {"name": "COMITE MIEUX VIEILLIR A STE-MARTINE", "designationCode": "C", "categoryCode": "09", "address": "139 ST.JOSEPH", "city": "STE-MARTINE", "province": "QC", "country": "CA", "postalCode": "J0S1V0", "twitter": "None", "instagram": "None", "facebook": "None", "youtube": "None", "website": "None", "summary": "None", "logo": "None", "latitude": 45.24591531917597, "longitude": -73.80448007271053}, "877013474RR0001": {"name": "COMITE MUSIQUE MAISONNEUVE INC.", "designationCode": "C", "categoryCode": "22", "address": "4200 RUE ONTARIO EST", "city": "MONTREAL", "province": "QC", "country": "CA", "postalCode": "H1V1K1", "twitter": "None", "instagram": "None", "facebook": "None", "youtube": "None", "website": "None", "summary": "None", "logo": "None", "latitude": 45.551277136822726, "longitude": -73.54057288048953}, "120817309RR0001": {"name": "COMITE NEUVILLE SE SOUVIENT", "designationCode": "C", "categoryCode": "09", "address": "456 ROUTE 138", "city": "NEUVILLE", "province": "QC", "country": "CA", "postalCode": "G0A2R0", "twitter": "None", "instagram": "None", "facebook": "None", "youtube": "None", "website": "None", "summary": "None", "logo": "None", "latitude": 46.70180525606779, "longitude": -71.56745002682517}, "106957228RR0001": {"name": "COMITE POPULAIRE ST-JEAN-BAPTISTE", "designationCode": "C", "categoryCode": "09", "address": "780 RUE SAINTE-CLAIRE", "city": "QUEBEC", "province": "QC", "country": "CA", "postalCode": "G1R5B9", "twitter": "None", "instagram": "None", "facebook": "None", "youtube": "None", "website": "None", "summary": "None", "logo": "None", "latitude": 46.80966145322874, "longitude": -71.2213177460614}, "888353166RR0001": {"name": "COMITE POUR LA DEFENSE DES DROITS SOCIAUX LA TUQUE", "designationCode": "C", "categoryCode": "09", "address": "288 RUE SAINT-JOSEPH          C.P. 172 SUCC. BUREAU-CHEF", "city": "LA TUQUE", "province": "QC", "country": "CA", "postalCode": "G9X3P2", "twitter": "None", "instagram": "None", "facebook": "None", "youtube": "None", "website": "None", "summary": "None", "logo": "None", "latitude": 47.43777300000005, "longitude": -72.78446149999994}, "118869395RR0001": {"name": "COMITE POUR LA REHABILITATION DE LA RIVIERE CHATEAUGUAY", "designationCode": "C", "categoryCode": "59", "address": "765 RIVIERE CHATEAUGUAY NORD", "city": "HOWICK", "province": "QC", "country": "CA", "postalCode": "J0S1G0", "twitter": "None", "instagram": "None", "facebook": "None", "youtube": "None", "website": "None", "summary": "None", "logo": "None", "latitude": 45.20757038576965, "longitude": -73.85260465883817}, "118869429RR0001": {"name": "COMITE PRIX ET BOURSES ECOLE CLEMENT-CORMIER INC.", "designationCode": "C", "categoryCode": "21", "address": "37 AVENUE RICHARD", "city": "BOUCTOUCHE", "province": "NB", "country": "CA", "postalCode": "E4S3T5", "twitter": "None", "instagram": "None", "facebook": "None", "youtube": "None", "website": "None", "summary": "None", "logo": "None", "latitude": 46.47480536466734, "longitude": -64.72300661008973}, "868684424RR0001": {"name": "COMITE QUEBECOIS POUR LES JEUNES EN DIFFICULTE DE COMPORTEMENT/QUEBEC COUNCIL FOR CHILDREN WITH BEHAVIOUR DISORDERS", "designationCode": "C", "categoryCode": "21", "address": "262 RUE RACINE", "city": "QUEBEC", "province": "QC", "country": "CA", "postalCode": "G2B1E6", "twitter": "None", "instagram": "None", "facebook": "None", "youtube": "None", "website": "None", "summary": "None", "logo": "None", "latitude": 46.85190800750181, "longitude": -71.35935922773955}, "118869452RR0001": {"name": "COMITE REGIONAL D'EDUCATION POUR LE DEVELOPPEMENT INTERNATIONAL LANAUDIERE", "designationCode": "C", "categoryCode": "09", "address": "101 RUE DUGAS", "city": "JOLIETTE", "province": "QC", "country": "CA", "postalCode": "J6E4G7", "twitter": "None", "instagram": "None", "facebook": "None", "youtube": "None", "website": "None", "summary": "None", "logo": "None", "latitude": 46.016526930319245, "longitude": -73.43365574574429}, "101065639RR0001": {"name": "COMITE SOCIO-CULTUREL DU PHARE INC.", "designationCode": "C", "categoryCode": "50", "address": "10 AVENUE DU PHARE", "city": "LA MARTRE", "province": "QC", "country": "CA", "postalCode": "G0E2H0", "twitter": "None", "instagram": "None", "facebook": "None", "youtube": "None", "website": "None", "summary": "None", "logo": "None", "latitude": 49.20572442956543, "longitude": -66.16934357043456}, "893150870RR0001": {"name": "COMITE SOLIDARITE GATINEAU-OUEST", "designationCode": "C", "categoryCode": "09", "address": "1096 RUE ST-LOUIS", "city": "GATINEAU", "province": "QC", "country": "CA", "postalCode": "J8T2R7", "twitter": "None", "instagram": "None", "facebook": "None", "youtube": "None", "website": "None", "summary": "None", "logo": "None", "latitude": 45.46248300109654, "longitude": -75.69690732832257}, "892627845RR0001": {"name": "COMITE VISITE ET ENTRAIDE D'ESTCOURT", "designationCode": "C", "categoryCode": "09", "address": "523 RTE ALPHONSE-LEVESQUE", "city": "POHENEGAMOOK", "province": "QC", "country": "CA", "postalCode": "G0L1J0", "twitter": "None", "instagram": "None", "facebook": "None", "youtube": "None", "website": "None", "summary": "None", "logo": "None", "latitude": 47.46637911238403, "longitude": -69.23101530151793}, "890666720RR0001": {"name": "COMITE ZIP DES ILES-DE-LA-MADELEINE", "designationCode": "C", "categoryCode": "59", "address": "330 CH. PRINCIPAL BUREAU 209", "city": "CAP-AUX-MEULES", "province": "QC", "country": "CA", "postalCode": "G4T1C9", "twitter": "None", "instagram": "None", "facebook": "None", "youtube": "None", "website": "None", "summary": "None", "logo": "None", "latitude": 47.37806428195531, "longitude": -61.865380513676904}, "861952927RR0001": {"name": "COMITE ZONE D'INTERVENTION PRIORITAIRE (ZIP) DES SEIGNEURIES", "designationCode": "C", "categoryCode": "59", "address": "1095, RUE NOTRE-DAME          C.P. 353, SUCC. MAIN", "city": "ST-SULPICE", "province": "QC", "country": "CA", "postalCode": "J5W4L9", "twitter": "None", "instagram": "None", "facebook": "None", "youtube": "None", "website": "None", "summary": "None", "logo": "None", "latitude": 45.826386659501075, "longitude": -73.35591301266636}, "897757373RR0001": {"name": "COMITE ZONE D'INTERVENTION PRIORITAIRE (ZIP) DU HAUT SAINT-LAURENT", "designationCode": "C", "categoryCode": "59", "address": "222 RUE ALPHONSE-DESJARDINS   BUREAU 202", "city": "SALABERRY-DE-VALLEYFIELD", "province": "QC", "country": "CA", "postalCode": "J6S2N9", "twitter": "None", "instagram": "None", "facebook": "None", "youtube": "None", "website": "None", "summary": "None", "logo": "None", "latitude": 45.26010219175965, "longitude": -74.12101330056564}, "894678580RR0001": {"name": "COMITE-CHOMAGE DE L'EST DE MONTREAL", "designationCode": "C", "categoryCode": "29", "address": "1691 BOUL PIE-IX              LOCAL 302", "city": "MONTREAL", "province": "QC", "country": "CA", "postalCode": "H1V2C3", "twitter": "None", "instagram": "None", "facebook": "None", "youtube": "None", "website": "None", "summary": "None", "logo": "None", "latitude": 45.549584819348844, "longitude": -73.53872267288952}, "131359572RR0001": {"name": "COMITE-LOGEMENT MONTEREGIE INC.", "designationCode": "C", "categoryCode": "59", "address": "445 BOUL. STE. FOY            BUREAU 201", "city": "LONGUEUIL", "province": "QC", "country": "CA", "postalCode": "J4J1X9", "twitter": "None", "instagram": "None", "facebook": "None", "youtube": "None", "website": "None", "summary": "None", "logo": "None", "latitude": 45.52712921316859, "longitude": -73.4908921011886}, "832738744RR0001": {"name": "COMMFFEST COMMUNITY FILM FESTIVAL", "designationCode": "C", "categoryCode": "22", "address": "110 THE ESPLANADE             SUITE 323", "city": "TORONTO", "province": "ON", "country": "CA", "postalCode": "M5E1X9", "twitter": "None", "instagram": "None", "facebook": "None", "youtube": "None", "website": "None", "summary": "None", "logo": "None", "latitude": 43.64783487512251, "longitude": -79.37220341592116}, "107608101RR0001": {"name": "COMMISSARIAT DE TERRE SAINTE AU CANADA/COMMISSARIAT OF THE HOLY LAND IN CANADA", "designationCode": "C", "categoryCode": "49", "address": "1247 PLACE KILBORN", "city": "OTTAWA", "province": "ON", "country": "CA", "postalCode": "K1H6K9", "twitter": "None", "instagram": "None", "facebook": "None", "youtube": "None", "website": "None", "summary": "None", "logo": "None", "latitude": 45.38617910467131, "longitude": -75.67189246282967}, "866322035RR0001": {"name": "COMMISSION DE LA BIBLIOTHEQUE PUBLIQUE D'ATHOLVILLE", "designationCode": "C", "categoryCode": "50", "address": "275 RUE NOTRE-DAME", "city": "ATHOLVILLE", "province": "NB", "country": "CA", "postalCode": "E3N4T1", "twitter": "None", "instagram": "None", "facebook": "None", "youtube": "None", "website": "None", "summary": "None", "logo": "None", "latitude": 47.98746867335089, "longitude": -66.72466028186841}, "874235948RR0001": {"name": "COMMISSION DE LA BIBLIOTHEQUE PUBLIQUE DE BAS-CARAQUET", "designationCode": "C", "categoryCode": "50", "address": "8185-2 RUE SAINT-PAUL", "city": "BAS-CARAQUET", "province": "NB", "country": "CA", "postalCode": "E1W6C4", "twitter": "None", "instagram": "None", "facebook": "None", "youtube": "None", "website": "None", "summary": "None", "logo": "None", "latitude": 47.800884513271946, "longitude": -64.83391237800804}, "133811273RR0001": {"name": "COMMISSION DE LA BIBLIOTHEQUE PUBLIQUE DE KEDGWICK", "designationCode": "C", "categoryCode": "50", "address": "116, RUE NOTRE-DAME UNIT\u00c9 P", "city": "KEDGWICK", "province": "NB", "country": "CA", "postalCode": "E8B1H8", "twitter": "None", "instagram": "None", "facebook": "None", "youtube": "None", "website": "None", "summary": "None", "logo": "None", "latitude": 47.64538952654483, "longitude": -67.35222352553522}, "866345036RR0001": {"name": "COMMISSION DE LA BIBLIOTHEQUE PUBLIQUE DE LAMEQUE", "designationCode": "C", "categoryCode": "50", "address": "46 RUE DU PECHEUR NORD", "city": "LAMEQUE", "province": "NB", "country": "CA", "postalCode": "E8T1J3", "twitter": "None", "instagram": "None", "facebook": "None", "youtube": "None", "website": "None", "summary": "None", "logo": "None", "latitude": 47.794452275059086, "longitude": -64.64718019571211}, "870379328RR0001": {"name": "COMMISSION DE LA BIBLIOTHEQUE PUBLIQUE DE MEMRAMCOOK", "designationCode": "C", "categoryCode": "50", "address": "540 RUE CENTRALE", "city": "MEMRAMCOOK", "province": "NB", "country": "CA", "postalCode": "E4K3S6", "twitter": "None", "instagram": "None", "facebook": "None", "youtube": "None", "website": "None", "summary": "None", "logo": "None", "latitude": 45.97692237108313, "longitude": -64.56528276568133}, "866258437RR0001": {"name": "COMMISSION DE LA BIBLIOTHEQUE PUBLIQUE DE RICHIBOUCTOU", "designationCode": "C", "categoryCode": "50", "address": "9376 RUE MAIN", "city": "RICHIBOUCTOU", "province": "NB", "country": "CA", "postalCode": "E4W4C9", "twitter": "None", "instagram": "None", "facebook": "None", "youtube": "None", "website": "None", "summary": "None", "logo": "None", "latitude": 46.68132536135657, "longitude": -64.8624424508691}, "118869577RR0001": {"name": "COMMISSION DE LA BIBLIOTHEQUE PUBLIQUE DE SAINT-ANTOINE", "designationCode": "C", "categoryCode": "50", "address": "100 - 4556 RUE PRINCIPALE", "city": "SAINT-ANTOINE", "province": "NB", "country": "CA", "postalCode": "E4V1R3", "twitter": "None", "instagram": "None", "facebook": "None", "youtube": "None", "website": "None", "summary": "None", "logo": "None", "latitude": 46.36394183819434, "longitude": -64.75362636724388}, "870299724RR0001": {"name": "COMMISSION DE LA BIBLIOTHEQUE PUBLIQUE DE SAINT-LEONARD", "designationCode": "C", "categoryCode": "50", "address": "180 RUE ST-JEAN", "city": "SAINT-LEONARD", "province": "NB", "country": "CA", "postalCode": "E7E2B9", "twitter": "None", "instagram": "None", "facebook": "None", "youtube": "None", "website": "None", "summary": "None", "logo": "None", "latitude": 47.16414616717258, "longitude": -67.92349224182776}, "866337637RR0001": {"name": "COMMISSION DE LA BIBLIOTHEQUE PUBLIQUE DE TRACADIE-SHEILA", "designationCode": "C", "categoryCode": "50", "address": "CP 3654                       BUREAU CHEF", "city": "TRACADIE SHEILA", "province": "NB", "country": "CA", "postalCode": "E1X1G5", "twitter": "None", "instagram": "None", "facebook": "None", "youtube": "None", "website": "None", "summary": "None", "logo": "None", "latitude": 47.52130200000006, "longitude": -64.91063149999994}, "891483943RR0001": {"name": "COMMISSION DE LA BIBLIOTHEQUE PUBLIQUE GERALD-LEBLANC", "designationCode": "C", "categoryCode": "50", "address": "84, BOUL. IRVING UNIT 100", "city": "BOUCTOUCHE", "province": "NB", "country": "CA", "postalCode": "E4S3L4", "twitter": "None", "instagram": "None", "facebook": "None", "youtube": "None", "website": "None", "summary": "None", "logo": "None", "latitude": 46.47046743130018, "longitude": -64.72341619288483}, "866353436RR0001": {"name": "COMMISSION DE LA BIBLIOTHEQUE PUBLIQUE MGR PLOURDE DE SAINT-FRANCOIS", "designationCode": "C", "categoryCode": "50", "address": "15 RUE BELLEVUE", "city": "SAINT-FRANCOIS", "province": "NB", "country": "CA", "postalCode": "E7A1A4", "twitter": "None", "instagram": "None", "facebook": "None", "youtube": "None", "website": "None", "summary": "None", "logo": "None", "latitude": 47.24249795141107, "longitude": -68.70379026340231}, "889211975RR0001": {"name": "COMMISSION DE LA BIBLIOTHEQUE PUBLIQUE MGR W J CONWAY D'EDMUNDSTON", "designationCode": "C", "categoryCode": "50", "address": "33 RUE IRENE", "city": "EDMUNDSTON", "province": "NB", "country": "CA", "postalCode": "E3V1B7", "twitter": "None", "instagram": "None", "facebook": "None", "youtube": "None", "website": "None", "summary": "None", "logo": "None", "latitude": 47.36336526865378, "longitude": -68.31802807574029}, "866283237RR0001": {"name": "COMMISSION DE LA BIBLIOTHEQUE PUBLIQUE SMURFIT-STONE", "designationCode": "C", "categoryCode": "50", "address": "150, RUE ST-GEORGE BUREAU #1", "city": "BATHURST", "province": "NB", "country": "CA", "postalCode": "E2A1B5", "twitter": "None", "instagram": "None", "facebook": "None", "youtube": "None", "website": "None", "summary": "None", "logo": "None", "latitude": 47.61897769605882, "longitude": -65.65498908353057}, "118869593RR0001": {"name": "COMMISSION DE RECREATION DE LA REGION EVANGELINE INC.-EVANGELINE RECREATION COMMISSION INC.", "designationCode": "C", "categoryCode": "56", "address": "P.O. BOX 8", "city": "WELLINGTON", "province": "PE", "country": "CA", "postalCode": "C0B2E0", "twitter": "None", "instagram": "None", "facebook": "None", "youtube": "None", "website": "None", "summary": "None", "logo": "None", "latitude": 46.451227719875675, "longitude": -63.99615305664649}, "142414317RR0001": {"name": "COMMISSION SCOLAIRE DE L'ESTUAIRE", "designationCode": "C", "categoryCode": "20", "address": "771 BOUL. JOLIET", "city": "BAIE-COMEAU", "province": "QC", "country": "CA", "postalCode": "G5C1P3", "twitter": "None", "instagram": "None", "facebook": "None", "youtube": "None", "website": "None", "summary": "None", "logo": "None", "latitude": 49.19090160444952, "longitude": -68.25531770884075}, "142424209RR0001": {"name": "COMMISSION SCOLAIRE DE LA POINTE-DE-L'ILE", "designationCode": "C", "categoryCode": "20", "address": "550, 53E AVENUE", "city": "MONTREAL", "province": "QC", "country": "CA", "postalCode": "H1A2T7", "twitter": "None", "instagram": "None", "facebook": "None", "youtube": "None", "website": "None", "summary": "None", "logo": "None", "latitude": 45.670557786514294, "longitude": -73.4947467258063}, "142412964RR0001": {"name": "COMMISSION SCOLAIRE DE LA REGION-DE-SHERBROOKE", "designationCode": "C", "categoryCode": "20", "address": "2955 BOUL. DE L'UNIVERSIT\u00c9", "city": "SHERBROOKE", "province": "QC", "country": "CA", "postalCode": "J1K2Y3", "twitter": "None", "instagram": "None", "facebook": "None", "youtube": "None", "website": "None", "summary": "None", "logo": "None", "latitude": 45.37969036246552, "longitude": -71.9451167385164}, "142423979RR0001": {"name": "COMMISSION SCOLAIRE DE LA RIVIERE-DU-NORD", "designationCode": "C", "categoryCode": "20", "address": "995, RUE LABELLE", "city": "SAINT-JEROME", "province": "QC", "country": "CA", "postalCode": "J7Z5N7", "twitter": "None", "instagram": "None", "facebook": "None", "youtube": "None", "website": "None", "summary": "None", "logo": "None", "latitude": 45.79365269914591, "longitude": -74.00840783732494}, "142446434RR0003": {"name": "COMMISSION SCOLAIRE DE LA SEIGNEURIE-DES-MILLE-ILES", "designationCode": "C", "categoryCode": "20", "address": "430, BOUL. ARTHUR-SAUVE", "city": "SAINT-EUSTACHE", "province": "QC", "country": "CA", "postalCode": "J7R6V6", "twitter": "None", "instagram": "None", "facebook": "None", "youtube": "None", "website": "None", "summary": "None", "logo": "None", "latitude": 45.5655864559987, "longitude": -73.90610450793451}, "142416817RR0001": {"name": "COMMISSION SCOLAIRE DE LA VALLEE-DES-TISSERANDS", "designationCode": "C", "categoryCode": "20", "address": "630 RUE ELLICE", "city": "BEAUHARNOIS", "province": "QC", "country": "CA", "postalCode": "J6N3S1", "twitter": "None", "instagram": "None", "facebook": "None", "youtube": "None", "website": "None", "summary": "None", "logo": "None", "latitude": 45.31352980001332, "longitude": -73.87761918254226}, "142446244RR0003": {"name": "COMMISSION SCOLAIRE DE LAVAL", "designationCode": "C", "categoryCode": "20", "address": "955 BOUL. SAINT-MARTIN O", "city": "LAVAL", "province": "QC", "country": "CA", "postalCode": "H7S1M5", "twitter": "None", "instagram": "None", "facebook": "None", "youtube": "None", "website": "None", "summary": "None", "logo": "None", "latitude": 45.572855507674724, "longitude": -73.71923512230907}, "142416411RR0001": {"name": "COMMISSION SCOLAIRE DE ROUYN-NORANDA", "designationCode": "C", "categoryCode": "20", "address": "70, RUE DES OBLATS EST        C.P. 908", "city": "ROUYN-NORANDA", "province": "QC", "country": "CA", "postalCode": "J9X5C9", "twitter": "None", "instagram": "None", "facebook": "None", "youtube": "None", "website": "None", "summary": "None", "logo": "None", "latitude": 48.230417495672164, "longitude": -79.0173405}, "142424712RR0001": {"name": "COMMISSION SCOLAIRE DE SAINT-HYACINTHE", "designationCode": "C", "categoryCode": "20", "address": "2255, AV. SAINTE-ANNE", "city": "SAINT-HYACINTHE", "province": "QC", "country": "CA", "postalCode": "J2S5H7", "twitter": "None", "instagram": "None", "facebook": "None", "youtube": "None", "website": "None", "summary": "None", "logo": "None", "latitude": 45.62952135662777, "longitude": -72.95411854818492}, "142413855RR0001": {"name": "COMMISSION SCOLAIRE DE SOREL-TRACY", "designationCode": "C", "categoryCode": "20", "address": "41 AV. DE L'HOTEL-DIEU", "city": "SOREL-TRACY", "province": "QC", "country": "CA", "postalCode": "J3P1L1", "twitter": "None", "instagram": "None", "facebook": "None", "youtube": "None", "website": "None", "summary": "None", "logo": "None", "latitude": 46.042079405505156, "longitude": -73.11443375881468}, "142424043RR0002": {"name": "COMMISSION SCOLAIRE DES AFFLUENTS", "designationCode": "C", "categoryCode": "20", "address": "80 RUE JEAN-BAPTISTE-MEILLEUR", "city": "REPENTIGNY", "province": "QC", "country": "CA", "postalCode": "J6A6C5", "twitter": "None", "instagram": "None", "facebook": "None", "youtube": "None", "website": "None", "summary": "None", "logo": "None", "latitude": 45.76142320650349, "longitude": -73.43864087509384}, "142415728RR0001": {"name": "COMMISSION SCOLAIRE DES CHENES", "designationCode": "C", "categoryCode": "20", "address": "457 RUE DES \u00c9COLES CP 846", "city": "DRUMMONDVILLE", "province": "QC", "country": "CA", "postalCode": "J2B6X1", "twitter": "None", "instagram": "None", "facebook": "None", "youtube": "None", "website": "None", "summary": "None", "logo": "None", "latitude": 45.879483386866184, "longitude": -72.4838454763111}, "142424910RR0001": {"name": "COMMISSION SCOLAIRE DES GRANDES-SEIGNEURIES", "designationCode": "C", "categoryCode": "20", "address": "1250 BOULEVARD TASCHEREAU", "city": "LA PRAIRIE", "province": "QC", "country": "CA", "postalCode": "J5R1X2", "twitter": "None", "instagram": "None", "facebook": "None", "youtube": "None", "website": "None", "summary": "None", "logo": "None", "latitude": 45.40309979352518, "longitude": -73.50006479133212}}