{"860220318RR0001": {"name": "PRESSE CHARITABLE FOUNDATION", "designationCode": "B", "categoryCode": "43", "address": "478 HIDDEN TRAIL CIRCLE", "city": "OAKVILLE", "province": "ON", "country": "CA", "postalCode": "L6M0N4", "twitter": "None", "instagram": "None", "facebook": "None", "youtube": "None", "website": "None", "summary": "None", "logo": "None", "latitude": 43.47163901610016, "longitude": -79.75339262782035}, "893469585RR0001": {"name": "PRESSE MISSIONNAIRE M.I.C./M.I.C. MISSIONARY PRESS", "designationCode": "C", "categoryCode": "47", "address": "120, PLACE JUGE-DESNOYERS", "city": "LAVAL", "province": "QC", "country": "CA", "postalCode": "H7G1A4", "twitter": "None", "instagram": "None", "facebook": "None", "youtube": "None", "website": "None", "summary": "None", "logo": "None", "latitude": 45.56029740856359, "longitude": -73.67585028758123}, "821544988RR0001": {"name": "PREST", "designationCode": "C", "categoryCode": "21", "address": "1925 118E RUE", "city": "SAINT-GEORGES", "province": "QC", "country": "CA", "postalCode": "G5Y7R7", "twitter": "None", "instagram": "None", "facebook": "None", "youtube": "None", "website": "None", "summary": "None", "logo": "None", "latitude": 46.127539727191284, "longitude": -70.66356077119259}, "119102499RR0001": {"name": "PRESTEIGN-WOODBINE UNITED CHURCH", "designationCode": "C", "categoryCode": "44", "address": "16 PRESTEIGN AVE", "city": "TORONTO", "province": "ON", "country": "CA", "postalCode": "M4B3A8", "twitter": "None", "instagram": "None", "facebook": "None", "youtube": "None", "website": "None", "summary": "None", "logo": "None", "latitude": 43.70514556757464, "longitude": -79.31988311616358}, "867478000RR0001": {"name": "PRESTON AVENUE COMMUNITY CHURCH INC.", "designationCode": "C", "categoryCode": "39", "address": "2216 PRESTON AVENUE", "city": "SASKATOON", "province": "SK", "country": "CA", "postalCode": "S7J2E8", "twitter": "None", "instagram": "None", "facebook": "None", "youtube": "None", "website": "None", "summary": "None", "logo": "None", "latitude": 52.10307, "longitude": -106.62285874219492}, "119288918RR0093": {"name": "PRESTON CONGREGATION OF JEHOVAH'S WITNESSES", "designationCode": "C", "categoryCode": "61", "address": "646 NORTH ST., UPPER SUITE", "city": "CAMBRIDGE", "province": "ON", "country": "CA", "postalCode": "N3H1G7", "twitter": "None", "instagram": "None", "facebook": "None", "youtube": "None", "website": "None", "summary": "None", "logo": "None", "latitude": 43.40134228893754, "longitude": -80.35375801180099}, "889845038RR0001": {"name": "PRESTON HEIGHTS COMMUNITY GROUP", "designationCode": "C", "categoryCode": "56", "address": "350 LINDEN DRIVE", "city": "CAMBRIDGE", "province": "ON", "country": "CA", "postalCode": "N3H5N7", "twitter": "None", "instagram": "None", "facebook": "None", "youtube": "None", "website": "None", "summary": "None", "logo": "None", "latitude": 43.39820246609664, "longitude": -80.37883952983438}, "861622025RR0001": {"name": "PRESTON MENNONITE CHURCH", "designationCode": "C", "categoryCode": "34", "address": "622 GARDEN ST", "city": "CAMBRIDGE", "province": "ON", "country": "CA", "postalCode": "N3H4E5", "twitter": "None", "instagram": "None", "facebook": "None", "youtube": "None", "website": "None", "summary": "None", "logo": "None", "latitude": 43.4014220754805, "longitude": -80.34854712404078}, "888774791RR0001": {"name": "PRESTON SCOUT HOUSE BAND INC", "designationCode": "C", "categoryCode": "22", "address": "363 FOUNTAIN STREET SOUTH", "city": "CAMBRIDGE", "province": "ON", "country": "CA", "postalCode": "N3H1J2", "twitter": "None", "instagram": "None", "facebook": "None", "youtube": "None", "website": "None", "summary": "None", "logo": "None", "latitude": 43.396479514282504, "longitude": -80.37247815540438}, "119102556RR0001": {"name": "PRET D'HONNEUR DE L'EST DU QUEBEC INC.", "designationCode": "C", "categoryCode": "21", "address": "75 BOULEVARD ARTHUR-BUIES", "city": "RIMOUSKI", "province": "QC", "country": "CA", "postalCode": "G5L5C2", "twitter": "None", "instagram": "None", "facebook": "None", "youtube": "None", "website": "None", "summary": "None", "logo": "None", "latitude": 48.43868592893427, "longitude": -68.51288998831458}, "119102549RR0001": {"name": "PRET D'HONNEUR DE LA SOCIETE ST-JEAN-BAPTISTE DU DIOCESE DE VALLEYFIELD", "designationCode": "C", "categoryCode": "21", "address": "111 RUE ELLICE", "city": "SALABERRY-DE-VALLEYFIELD", "province": "QC", "country": "CA", "postalCode": "J6T1E7", "twitter": "None", "instagram": "None", "facebook": "None", "youtube": "None", "website": "None", "summary": "None", "logo": "None", "latitude": 45.25416909683212, "longitude": -74.14181500386647}, "892495052RR0001": {"name": "PRETRES DU 21E SIECLE/PRIESTS FOR THE 21ST CENTURY", "designationCode": "C", "categoryCode": "21", "address": "630 SHERBROOKE OUEST          SUITE 400", "city": "MONTREAL", "province": "QC", "country": "CA", "postalCode": "H3A1E4", "twitter": "None", "instagram": "None", "facebook": "None", "youtube": "None", "website": "None", "summary": "None", "logo": "None", "latitude": 45.505404, "longitude": -73.5724035}, "119102572RR0001": {"name": "PRETS ETUDIANTS RICHELIEU-YAMASKA INC.", "designationCode": "C", "categoryCode": "21", "address": "CASE POSTALE 624", "city": "SAINT-HYACINTHE", "province": "QC", "country": "CA", "postalCode": "J2S7C2", "twitter": "None", "instagram": "None", "facebook": "None", "youtube": "None", "website": "None", "summary": "None", "logo": "None", "latitude": 45.62664000000005, "longitude": -72.94719049999993}, "871442398RR0001": {"name": "PRETTY RIVER ACADEMY", "designationCode": "C", "categoryCode": "20", "address": "11521 HIGHWAY 26 WEST", "city": "COLLINGWOOD", "province": "ON", "country": "CA", "postalCode": "L9Y5E7", "twitter": "None", "instagram": "None", "facebook": "None", "youtube": "None", "website": "None", "summary": "None", "logo": "None", "latitude": 44.517540501808, "longitude": -80.25593882057082}, "119102580RR0001": {"name": "PRETTY VALLEY BIBLE CAMP INC.", "designationCode": "C", "categoryCode": "39", "address": "BOX 1088", "city": "SWAN RIVER", "province": "MB", "country": "CA", "postalCode": "R0L1Z0", "twitter": "None", "instagram": "None", "facebook": "None", "youtube": "None", "website": "None", "summary": "None", "logo": "None", "latitude": 52.11672730414978, "longitude": -101.25989472758229}, "888941663RR0001": {"name": "PREVENT A LITTER SUDBURY", "designationCode": "C", "categoryCode": "54", "address": "1 BALSAM STREET BOX 977", "city": "COPPER CLIFF", "province": "ON", "country": "CA", "postalCode": "P0M1N0", "twitter": "None", "instagram": "None", "facebook": "None", "youtube": "None", "website": "None", "summary": "None", "logo": "None", "latitude": 46.4752448057302, "longitude": -81.06874973867515}, "107803322RR0001": {"name": "PREVENTION DU CRIME AHUNTSIC/CARTIERVILLE", "designationCode": "C", "categoryCode": "59", "address": "1405 BOUL HENRI BOURASSA OUESTBUREAU 004", "city": "MONTREAL", "province": "QC", "country": "CA", "postalCode": "H3M3B2", "twitter": "None", "instagram": "None", "facebook": "None", "youtube": "None", "website": "None", "summary": "None", "logo": "None", "latitude": 45.539125050522195, "longitude": -73.6783205526283}, "137470019RR0001": {"name": "PREVENTION NOTRE-DAME-DE-GRACE", "designationCode": "C", "categoryCode": "59", "address": "598-6767 CH COTE-DES-NEIGES", "city": "MONTREAL", "province": "QC", "country": "CA", "postalCode": "H3S2T6", "twitter": "None", "instagram": "None", "facebook": "None", "youtube": "None", "website": "None", "summary": "None", "logo": "None", "latitude": 45.50313226868245, "longitude": -73.63713869926147}, "107857476RR0001": {"name": "PREVENTION SUD-OUEST", "designationCode": "C", "categoryCode": "59", "address": "6000 RUE NOTRE-DAME OUEST", "city": "MONTREAL", "province": "QC", "country": "CA", "postalCode": "H4C3K5", "twitter": "None", "instagram": "None", "facebook": "None", "youtube": "None", "website": "None", "summary": "None", "logo": "None", "latitude": 45.461523262508294, "longitude": -73.6094181209537}, "858345754RR0001": {"name": "PREVNet Inc.", "designationCode": "C", "categoryCode": "21", "address": "98 BARRIE STREET", "city": "KINGSTON", "province": "ON", "country": "CA", "postalCode": "K7L3J9", "twitter": "None", "instagram": "None", "facebook": "None", "youtube": "None", "website": "None", "summary": "None", "logo": "None", "latitude": 44.22585180904841, "longitude": -76.49072937567075}, "894104173RR0001": {"name": "PREVOST FOUNDATION INC.", "designationCode": "A", "categoryCode": "13", "address": "BOX 60", "city": "STE ROSE DU LAC", "province": "MB", "country": "CA", "postalCode": "R0L1S0", "twitter": "None", "instagram": "None", "facebook": "None", "youtube": "None", "website": "None", "summary": "None", "logo": "None", "latitude": 51.06107000000003, "longitude": -99.52398999999997}, "891275174RR0001": {"name": "PREVOYANCE ENVERS LES AINES DES LAURENTIDES INC", "designationCode": "C", "categoryCode": "09", "address": "C.P. 4359", "city": "MONT-TREMBLANT", "province": "QC", "country": "CA", "postalCode": "J8E1A1", "twitter": "None", "instagram": "None", "facebook": "None", "youtube": "None", "website": "None", "summary": "None", "logo": "None", "latitude": 46.11832800000006, "longitude": -74.60168299999994}, "131125502RR0001": {"name": "PRIDDIS COMMUNITY ASSOCIATION", "designationCode": "C", "categoryCode": "56", "address": "BOX 77", "city": "PRIDDIS", "province": "AB", "country": "CA", "postalCode": "T0L1W0", "twitter": "None", "instagram": "None", "facebook": "None", "youtube": "None", "website": "None", "summary": "None", "logo": "None", "latitude": 50.91902297387506, "longitude": -114.46490480736345}, "891167744RR0001": {"name": "PRIDDIS CREEK FIRE ASSOCIATION", "designationCode": "C", "categoryCode": "59", "address": "PO BOX 1563", "city": "BLACK DIAMOND", "province": "AB", "country": "CA", "postalCode": "T0L0H0", "twitter": "None", "instagram": "None", "facebook": "None", "youtube": "None", "website": "None", "summary": "None", "logo": "None", "latitude": 50.70011000000005, "longitude": -114.23529999999994}, "139512487RR0001": {"name": "PRIDE IN HERITAGE CHILDREN'S CENTRE - NORTH YORK", "designationCode": "C", "categoryCode": "20", "address": "55 GATEWAY BLVD", "city": "NORTH YORK", "province": "ON", "country": "CA", "postalCode": "M3C1B4", "twitter": "None", "instagram": "None", "facebook": "None", "youtube": "None", "website": "None", "summary": "None", "logo": "None", "latitude": 43.7117766500087, "longitude": -79.33026976123793}, "119102697RR0001": {"name": "PRIDE OF ISRAEL SYNAGOGUE", "designationCode": "C", "categoryCode": "42", "address": "59 LISSOM CRES.", "city": "WILLOWDALE", "province": "ON", "country": "CA", "postalCode": "M2R2P2", "twitter": "None", "instagram": "None", "facebook": "None", "youtube": "None", "website": "None", "summary": "None", "logo": "None", "latitude": 43.78560134471119, "longitude": -79.44505168307438}, "836021766RR0001": {"name": "PRIESTS BENEVOLENT FUND INC.", "designationCode": "C", "categoryCode": "49", "address": "45 GREAT GEORGE ST", "city": "CHARLOTTETOWN", "province": "PE", "country": "CA", "postalCode": "C1A4K1", "twitter": "None", "instagram": "None", "facebook": "None", "youtube": "None", "website": "None", "summary": "None", "logo": "None", "latitude": 46.235857830688495, "longitude": -63.12725287428578}, "870173242RR0001": {"name": "PRIESTS FOR LIFE, PRETRES PRO VIE CANADA", "designationCode": "C", "categoryCode": "46", "address": "PO BOX 134 STN MAIN", "city": "LINDSAY", "province": "ON", "country": "CA", "postalCode": "K9V4R8", "twitter": "None", "instagram": "None", "facebook": "None", "youtube": "None", "website": "None", "summary": "None", "logo": "None", "latitude": 44.35437300000005, "longitude": -78.73967149999993}, "891771362RR0001": {"name": "PRIMAVERA SENIOR CITIZENS ASSOCIATION", "designationCode": "C", "categoryCode": "09", "address": "9710 - 111 AVENUE", "city": "EDMONTON", "province": "AB", "country": "CA", "postalCode": "T5G0B1", "twitter": "None", "instagram": "None", "facebook": "None", "youtube": "None", "website": "None", "summary": "None", "logo": "None", "latitude": 53.558990453257394, "longitude": -113.49252427422236}, "895587848RR0001": {"name": "PRIME MERIDIAN TRAIL ASSOCIATION INCORPORATED", "designationCode": "C", "categoryCode": "56", "address": "BOX 162", "city": "GROSSE ISLE", "province": "MB", "country": "CA", "postalCode": "R0C1G0", "twitter": "None", "instagram": "None", "facebook": "None", "youtube": "None", "website": "None", "summary": "None", "logo": "None", "latitude": 50.79198409358606, "longitude": -96.9861434146833}, "894899939RR0001": {"name": "PRIME TIME PALS", "designationCode": "C", "categoryCode": "09", "address": "P O BOX 5001", "city": "WOODSTOCK", "province": "NB", "country": "CA", "postalCode": "E7M5C6", "twitter": "None", "instagram": "None", "facebook": "None", "youtube": "None", "website": "None", "summary": "None", "logo": "None", "latitude": 46.13724600000006, "longitude": -67.58087749999993}, "894945633RR0023": {"name": "PRIMERA IGLESIA ALIANZA HISPANA DE NORTH YORK", "designationCode": "C", "categoryCode": "39", "address": "6B-325 WESTON ROAD", "city": "TORONTO", "province": "ON", "country": "CA", "postalCode": "M6N4Z9", "twitter": "None", "instagram": "None", "facebook": "None", "youtube": "None", "website": "None", "summary": "None", "logo": "None", "latitude": 43.678558987823635, "longitude": -79.47356202922882}, "896800976RR0001": {"name": "PRIMERA IGLESIA BAUTISTA HISPANA", "designationCode": "C", "categoryCode": "39", "address": "47 GARSIDE AVE N", "city": "HAMILTON", "province": "ON", "country": "CA", "postalCode": "L8H4W1", "twitter": "None", "instagram": "None", "facebook": "None", "youtube": "None", "website": "None", "summary": "None", "logo": "None", "latitude": 43.24147956425641, "longitude": -79.80745629214019}, "865449078RR0001": {"name": "PRIMERA IGLESIA PENTECOSTAL HISPANA DE CANADA", "designationCode": "C", "categoryCode": "39", "address": "17 GREENWOOD CRESCENT", "city": "BRAMPTON", "province": "ON", "country": "CA", "postalCode": "L6S1T2", "twitter": "None", "instagram": "None", "facebook": "None", "youtube": "None", "website": "None", "summary": "None", "logo": "None", "latitude": 43.73646934805807, "longitude": -79.71119376253694}, "107857864RR0002": {"name": "PRIMERA IGLESIA PENTECOSTAL UNIDA HISPANA", "designationCode": "C", "categoryCode": "36", "address": "1020 KIPPS LANE", "city": "LONDON", "province": "ON", "country": "CA", "postalCode": "N5Y4S5", "twitter": "None", "instagram": "None", "facebook": "None", "youtube": "None", "website": "None", "summary": "None", "logo": "None", "latitude": 43.020645870419315, "longitude": -81.23558810548778}, "858721640RR0001": {"name": "PRIMERA IGLESIA UNIDA PENTECOSTAL", "designationCode": "C", "categoryCode": "39", "address": "37-90 TWENTY FIFTH STREET", "city": "ETOBICOKE", "province": "ON", "country": "CA", "postalCode": "M8V3P8", "twitter": "None", "instagram": "None", "facebook": "None", "youtube": "None", "website": "None", "summary": "None", "logo": "None", "latitude": 43.593783834094175, "longitude": -79.52242137802752}, "119102804RR0001": {"name": "PRIMROSE CONGREGATION OF JEHOVAH'S WITNESSES, EDMONTON, ALBERTA", "designationCode": "C", "categoryCode": "61", "address": "23060-120 AVE", "city": "EDMONTON", "province": "AB", "country": "CA", "postalCode": "T5S2C1", "twitter": "None", "instagram": "None", "facebook": "None", "youtube": "None", "website": "None", "summary": "None", "logo": "None", "latitude": 53.573980490478036, "longitude": -113.71274252983439}, "866707706RR0001": {"name": "PRIMROSE DONKEY SANCTUARY INCORPORATED", "designationCode": "C", "categoryCode": "54", "address": "1296 BOMANTON RD.             R.R.4", "city": "ROSENEATH", "province": "ON", "country": "CA", "postalCode": "K0K2X0", "twitter": "None", "instagram": "None", "facebook": "None", "youtube": "None", "website": "None", "summary": "None", "logo": "None", "latitude": 44.170080000000056, "longitude": -78.09407899999994}, "107857997RR0001": {"name": "PRIMROSE PLACE FAMILY CENTRE ASSOCIATION", "designationCode": "C", "categoryCode": "01", "address": "6311 92ND AVE NW", "city": "EDMONTON", "province": "AB", "country": "CA", "postalCode": "T6B0S3", "twitter": "None", "instagram": "None", "facebook": "None", "youtube": "None", "website": "None", "summary": "None", "logo": "None", "latitude": 53.526755495672184, "longitude": -113.42867408381903}, "107858011RR0001": {"name": "PRINCE ALBERT ALLIANCE CHURCH", "designationCode": "C", "categoryCode": "39", "address": "2777 6TH AVE WEST", "city": "PRINCE ALBERT", "province": "SK", "country": "CA", "postalCode": "S6V5L4", "twitter": "None", "instagram": "None", "facebook": "None", "youtube": "None", "website": "None", "summary": "None", "logo": "None", "latitude": 53.18790036199749, "longitude": -105.76990171417083}, "869061275RR0001": {"name": "PRINCE ALBERT AND AREA COMMUNITY FOUNDATION INC", "designationCode": "A", "categoryCode": "03", "address": "P.O. BOX 291", "city": "PRINCE ALBERT", "province": "SK", "country": "CA", "postalCode": "S6V5R5", "twitter": "None", "instagram": "None", "facebook": "None", "youtube": "None", "website": "None", "summary": "None", "logo": "None", "latitude": 53.199456000000055, "longitude": -105.74863099999993}, "107858177RR0001": {"name": "PRINCE ALBERT AND DISTRICT CIVIC FACILITIES ASSOCIATION", "designationCode": "C", "categoryCode": "56", "address": "1102 - 1ST AVENUE WEST", "city": "PRINCE ALBERT", "province": "SK", "country": "CA", "postalCode": "S6V4Y6", "twitter": "None", "instagram": "None", "facebook": "None", "youtube": "None", "website": "None", "summary": "None", "logo": "None", "latitude": 53.20293249708581, "longitude": -105.75709409876535}, "130946312RR0001": {"name": "PRINCE ALBERT AND DISTRICT COMMUNITY SERVICE CENTRE", "designationCode": "C", "categoryCode": "09", "address": "101-15 STREET WEST", "city": "PRINCE ALBERT", "province": "SK", "country": "CA", "postalCode": "S6V3P7", "twitter": "None", "instagram": "None", "facebook": "None", "youtube": "None", "website": "None", "summary": "None", "logo": "None", "latitude": 53.19936550288553, "longitude": -105.75735202553523}, "119102853RR0001": {"name": "PRINCE ALBERT BAPTIST CHURCH", "designationCode": "C", "categoryCode": "31", "address": "RR#6", "city": "DRESDEN", "province": "ON", "country": "CA", "postalCode": "N0P1M0", "twitter": "None", "instagram": "None", "facebook": "None", "youtube": "None", "website": "None", "summary": "None", "logo": "None", "latitude": 42.58952000000005, "longitude": -82.17963999999995}, "859862260RR0001": {"name": "PRINCE ALBERT CATHOLIC EDUCATION FOUNDATION CORPORATION", "designationCode": "A", "categoryCode": "23", "address": "118 11TH ST E", "city": "PRINCE ALBERT", "province": "SK", "country": "CA", "postalCode": "S6V1A1", "twitter": "None", "instagram": "None", "facebook": "None", "youtube": "None", "website": "None", "summary": "None", "logo": "None", "latitude": 53.20308350432784, "longitude": -105.75054072300767}, "119102879RR0001": {"name": "PRINCE ALBERT CHURCH OF THE NAZARENE", "designationCode": "C", "categoryCode": "39", "address": "26 - 18 ST EAST", "city": "PRINCE ALBERT", "province": "SK", "country": "CA", "postalCode": "S6V1G9", "twitter": "None", "instagram": "None", "facebook": "None", "youtube": "None", "website": "None", "summary": "None", "logo": "None", "latitude": 53.19679049321932, "longitude": -105.7531905}, "137253639RR0001": {"name": "PRINCE ALBERT COMMUNITY BIBLE CHURCH INC", "designationCode": "C", "categoryCode": "39", "address": "950 6TH AVE E", "city": "PRINCE ALBERT", "province": "SK", "country": "CA", "postalCode": "S6V2J8", "twitter": "None", "instagram": "None", "facebook": "None", "youtube": "None", "website": "None", "summary": "None", "logo": "None", "latitude": 53.204387341202796, "longitude": -105.73742833390858}, "119102887RR0001": {"name": "PRINCE ALBERT COMMUNITY PLAYERS INC.", "designationCode": "C", "categoryCode": "22", "address": "440-9TH AVE E.", "city": "PRINCE ALBERT", "province": "SK", "country": "CA", "postalCode": "S6V2L8", "twitter": "None", "instagram": "None", "facebook": "None", "youtube": "None", "website": "None", "summary": "None", "logo": "None", "latitude": 53.208067372127594, "longitude": -105.7260380390547}, "893198366RR0001": {"name": "PRINCE ALBERT CRIMESTOPPERS ASSOCIATION INC.", "designationCode": "C", "categoryCode": "59", "address": "BOX 3076", "city": "PRINCE ALBERT", "province": "SK", "country": "CA", "postalCode": "S6V7M4", "twitter": "None", "instagram": "None", "facebook": "None", "youtube": "None", "website": "None", "summary": "None", "logo": "None", "latitude": 53.199456000000055, "longitude": -105.74863099999993}, "119102911RR0001": {"name": "PRINCE ALBERT EARLY CHILDHOOD INTERVENTION PROGRAM INC.", "designationCode": "C", "categoryCode": "09", "address": "201 - 1008 1ST AVE W", "city": "PRINCE ALBERT", "province": "SK", "country": "CA", "postalCode": "S6V4Y4", "twitter": "None", "instagram": "None", "facebook": "None", "youtube": "None", "website": "None", "summary": "None", "logo": "None", "latitude": 53.202798940123294, "longitude": -105.75714402145704}, "131986473RR0001": {"name": "PRINCE ALBERT FAMILY CHURCH INC.", "designationCode": "C", "categoryCode": "39", "address": "PO BOX 670 STN MAIN", "city": "PRINCE ALBERT", "province": "SK", "country": "CA", "postalCode": "S6V5S2", "twitter": "None", "instagram": "None", "facebook": "None", "youtube": "None", "website": "None", "summary": "None", "logo": "None", "latitude": 53.199456000000055, "longitude": -105.74863099999993}, "873618615RR0001": {"name": "PRINCE ALBERT FULL GOSPEL OUTREACH CENTRE INC.", "designationCode": "C", "categoryCode": "39", "address": "921 CENTRAL AVE", "city": "PRINCE ALBERT", "province": "SK", "country": "CA", "postalCode": "S6V4V2", "twitter": "None", "instagram": "None", "facebook": "None", "youtube": "None", "website": "None", "summary": "None", "logo": "None", "latitude": 53.20430052844941, "longitude": -105.75435788291279}, "119102937RR0001": {"name": "PRINCE ALBERT GOSPEL ASSEMBLY", "designationCode": "C", "categoryCode": "39", "address": "BOX 22022", "city": "PRINCE ALBERT", "province": "SK", "country": "CA", "postalCode": "S6V8A6", "twitter": "None", "instagram": "None", "facebook": "None", "youtube": "None", "website": "None", "summary": "None", "logo": "None", "latitude": 53.199456000000055, "longitude": -105.74863099999993}, "107858219RR0001": {"name": "PRINCE ALBERT GROUP HOMES SOCIETY", "designationCode": "C", "categoryCode": "01", "address": "203 - 31ST STREET EAST", "city": "PRINCE ALBERT", "province": "SK", "country": "CA", "postalCode": "S6V8A8", "twitter": "None", "instagram": "None", "facebook": "None", "youtube": "None", "website": "None", "summary": "None", "logo": "None", "latitude": 53.18492454674262, "longitude": -105.749172}, "891213654RR0001": {"name": "PRINCE ALBERT HABITAT FOR HUMANITY INC.", "designationCode": "C", "categoryCode": "09", "address": "BOX 644", "city": "PRINCE ALBERT", "province": "SK", "country": "CA", "postalCode": "S6V5S2", "twitter": "None", "instagram": "None", "facebook": "None", "youtube": "None", "website": "None", "summary": "None", "logo": "None", "latitude": 53.199456000000055, "longitude": -105.74863099999993}, "890893993RR0001": {"name": "PRINCE ALBERT HISTORICAL SOCIETY", "designationCode": "C", "categoryCode": "50", "address": "10 RIVER STREET EAST", "city": "PRINCE ALBERT", "province": "SK", "country": "CA", "postalCode": "S6V8A9", "twitter": "None", "instagram": "None", "facebook": "None", "youtube": "None", "website": "None", "summary": "None", "logo": "None", "latitude": 53.20608052416283, "longitude": -105.75411533139841}, "870491222RR0001": {"name": "PRINCE ALBERT LITERACY NETWORK INC.", "designationCode": "C", "categoryCode": "21", "address": "525 - 1403 CENTRAL AVE", "city": "PRINCE ALBERT", "province": "SK", "country": "CA", "postalCode": "S6V7J4", "twitter": "None", "instagram": "None", "facebook": "None", "youtube": "None", "website": "None", "summary": "None", "logo": "None", "latitude": 53.20025283610168, "longitude": -105.75433382918635}, "880785894RR0001": {"name": "PRINCE ALBERT METIS WOMEN'S ASSOC.INC.", "designationCode": "B", "categoryCode": "09", "address": "8 - 54 - 10 STREET E", "city": "PRINCE ALBERT", "province": "SK", "country": "CA", "postalCode": "S6V0Y5", "twitter": "None", "instagram": "None", "facebook": "None", "youtube": "None", "website": "None", "summary": "None", "logo": "None"}, "876113820RR0001": {"name": "PRINCE ALBERT SAFE SHELTER FOR WOMEN INC.", "designationCode": "C", "categoryCode": "01", "address": "BOX 21025  CHPO", "city": "PRINCE ALBERT", "province": "SK", "country": "CA", "postalCode": "S6V8A4", "twitter": "None", "instagram": "None", "facebook": "None", "youtube": "None", "website": "None", "summary": "None", "logo": "None", "latitude": 53.199456000000055, "longitude": -105.74863099999993}, "119030666RR0037": {"name": "PRINCE ALBERT SEVENTH-DAY ADVENTIST CHURCH", "designationCode": "C", "categoryCode": "41", "address": "1004 VICTORIA AVE", "city": "SASKATOON", "province": "SK", "country": "CA", "postalCode": "S7N0Z8", "twitter": "None", "instagram": "None", "facebook": "None", "youtube": "None", "website": "None", "summary": "None", "logo": "None", "latitude": 52.115409, "longitude": -106.66240826773014}, "107858201RR0001": {"name": "PRINCE ALBERT SHARE A MEAL/FOOD BANK INC.", "designationCode": "C", "categoryCode": "09", "address": "64 11TH ST E", "city": "PRINCE ALBERT", "province": "SK", "country": "CA", "postalCode": "S6V0Z9", "twitter": "None", "instagram": "None", "facebook": "None", "youtube": "None", "website": "None", "summary": "None", "logo": "None", "latitude": 53.203168093343955, "longitude": -105.75247871651948}, "140465865RR0001": {"name": "PRINCE ALBERT SOCIETY FOR THE PREVENTION OF CRUELTY TO ANIMALS INC", "designationCode": "C", "categoryCode": "54", "address": "PO BOX 1832", "city": "PRINCE ALBERT", "province": "SK", "country": "CA", "postalCode": "S6V0Y5", "twitter": "None", "instagram": "None", "facebook": "None", "youtube": "None", "website": "None", "summary": "None", "logo": "None", "latitude": 53.204037000000056, "longitude": -105.75357649999994}, "868614009RR0001": {"name": "PRINCE ALBERT UPPER ROOM PRAYER CENTRE", "designationCode": "C", "categoryCode": "47", "address": "#21-13 STREET EAST", "city": "PRINCE ALBERT", "province": "SK", "country": "CA", "postalCode": "S6V1C7", "twitter": "None", "instagram": "None", "facebook": "None", "youtube": "None", "website": "None", "summary": "None", "logo": "None", "latitude": 53.20123447403209, "longitude": -105.7532805}, "814846143RR0001": {"name": "PRINCE COUNTY HOSPITAL AUXILIARY INC.", "designationCode": "C", "categoryCode": "19", "address": "PO BOX 3000", "city": "SUMMERSIDE", "province": "PE", "country": "CA", "postalCode": "C1N2A9", "twitter": "None", "instagram": "None", "facebook": "None", "youtube": "None", "website": "None", "summary": "None", "logo": "None", "latitude": 46.39407900000006, "longitude": -63.791980999999936}, "893526731RR0001": {"name": "PRINCE COUNTY HOSPITAL FOUNDATION INC.", "designationCode": "A", "categoryCode": "13", "address": "PO BOX 3000 STN MAIN", "city": "SUMMERSIDE", "province": "PE", "country": "CA", "postalCode": "C1N2A9", "twitter": "None", "instagram": "None", "facebook": "None", "youtube": "None", "website": "None", "summary": "None", "logo": "None", "latitude": 46.39407900000006, "longitude": -63.791980999999936}, "107858540RR0001": {"name": "PRINCE EDWARD CHILD CARE SERVICES INC.", "designationCode": "C", "categoryCode": "01", "address": "10 MCFARLAND COURT", "city": "PICTON", "province": "ON", "country": "CA", "postalCode": "K0K2T0", "twitter": "None", "instagram": "None", "facebook": "None", "youtube": "None", "website": "None", "summary": "None", "logo": "None", "latitude": 44.01640317716722, "longitude": -77.13964418563663}, "123646499RR0001": {"name": "PRINCE EDWARD COUNTY ARTS COUNCIL", "designationCode": "C", "categoryCode": "22", "address": "289 MAIN ST., SECOND FLOOR    P.O. BOX 6180", "city": "PICTON", "province": "ON", "country": "CA", "postalCode": "K0K2T0", "twitter": "None", "instagram": "None", "facebook": "None", "youtube": "None", "website": "None", "summary": "None", "logo": "None", "latitude": 44.19413477900494, "longitude": -77.05045357520731}, "119103059RR0001": {"name": "PRINCE EDWARD COUNTY COMMUNITY CARE FOR SENIORS ASSOCIATION", "designationCode": "C", "categoryCode": "09", "address": "74A KING ST", "city": "PICTON", "province": "ON", "country": "CA", "postalCode": "K0K2T0", "twitter": "None", "instagram": "None", "facebook": "None", "youtube": "None", "website": "None", "summary": "None", "logo": "None", "latitude": 44.009136388329715, "longitude": -77.14114315434279}, "119092906RR0001": {"name": "PRINCE EDWARD COUNTY FREE METHODIST CHURCH", "designationCode": "C", "categoryCode": "39", "address": "384 PICTON MAIN STREET", "city": "PICTON", "province": "ON", "country": "CA", "postalCode": "K0K2T0", "twitter": "None", "instagram": "None", "facebook": "None", "youtube": "None", "website": "None", "summary": "None", "logo": "None", "latitude": 44.01415813500237, "longitude": -77.13707545037973}, "867477341RR0001": {"name": "PRINCE EDWARD COUNTY GREEN TRUST", "designationCode": "C", "categoryCode": "55", "address": "339 FOSTER AVE", "city": "BELLEVILLE", "province": "ON", "country": "CA", "postalCode": "K8N3R6", "twitter": "None", "instagram": "None", "facebook": "None", "youtube": "None", "website": "None", "summary": "None", "logo": "None", "latitude": 44.171147063976846, "longitude": -77.37481989896632}, "124094103RR0001": {"name": "PRINCE EDWARD COUNTY MEMORIAL HOSPITAL AUXILIARY INCORPORATED", "designationCode": "C", "categoryCode": "19", "address": "389 MAIN STREET               SUITE 3", "city": "PICTON", "province": "ON", "country": "CA", "postalCode": "K0K2T0", "twitter": "None", "instagram": "None", "facebook": "None", "youtube": "None", "website": "None", "summary": "None", "logo": "None", "latitude": 44.19596592919718, "longitude": -77.04640625075639}, "132876855RR0001": {"name": "PRINCE EDWARD COUNTY MEMORIAL HOSPITAL FOUNDATION", "designationCode": "A", "categoryCode": "13", "address": "403 MAIN ST E", "city": "PICTON", "province": "ON", "country": "CA", "postalCode": "K0K2T0", "twitter": "None", "instagram": "None", "facebook": "None", "youtube": "None", "website": "None", "summary": "None", "logo": "None", "latitude": 44.196270303229674, "longitude": -77.04572002566495}, "106798382RR0001": {"name": "PRINCE EDWARD COUNTY WESLEYAN CHURCH", "designationCode": "C", "categoryCode": "39", "address": "3 JAMES AVE", "city": "PICTON", "province": "ON", "country": "CA", "postalCode": "K0K2T0", "twitter": "None", "instagram": "None", "facebook": "None", "youtube": "None", "website": "None", "summary": "None", "logo": "None", "latitude": 44.19995853489358, "longitude": -77.5987964596253}, "833067101RR0001": {"name": "PRINCE EDWARD ISLAND (PEI) SCOTTISH SETTLERS HISTORICAL SOCIETY INC.", "designationCode": "C", "categoryCode": "50", "address": "81 PRINCE ST.", "city": "CHARLOTTETOWN", "province": "PE", "country": "CA", "postalCode": "C1A4R3", "twitter": "None", "instagram": "None", "facebook": "None", "youtube": "None", "website": "None", "summary": "None", "logo": "None", "latitude": 46.23527784901036, "longitude": -63.123739081885795}, "132946658RR0001": {"name": "PRINCE EDWARD ISLAND ASSOCIATION FOR COMMUNITY LIVING INC.", "designationCode": "C", "categoryCode": "11", "address": "13A MYRTLE ST", "city": "STRATFORD", "province": "PE", "country": "CA", "postalCode": "C1B1P4", "twitter": "None", "instagram": "None", "facebook": "None", "youtube": "None", "website": "None", "summary": "None", "logo": "None", "latitude": 46.21873028064504, "longitude": -63.07469066007393}, "832193346RR0001": {"name": "PRINCE EDWARD ISLAND ASSOCIATION OF UNITED BAPTIST CHURCHES", "designationCode": "A", "categoryCode": "43", "address": "166 ROYALTY ROAD", "city": "CHARLOTTETOWN", "province": "PE", "country": "CA", "postalCode": "C1E3G1", "twitter": "None", "instagram": "None", "facebook": "None", "youtube": "None", "website": "None", "summary": "None", "logo": "None", "latitude": 46.279411270615675, "longitude": -63.183357072998994}, "119103109RR0001": {"name": "PRINCE EDWARD ISLAND CEREBRAL PALSY ASSOCIATION", "designationCode": "C", "categoryCode": "11", "address": "PO BOX 22034", "city": "CHARLOTTETOWN", "province": "PE", "country": "CA", "postalCode": "C1A9J2", "twitter": "None", "instagram": "None", "facebook": "None", "youtube": "None", "website": "None", "summary": "None", "logo": "None", "latitude": 46.23659700000006, "longitude": -63.12815449999994}, "853835346RR0001": {"name": "PRINCE EDWARD ISLAND CHAPTER OF THE CANADIAN HARD OF HEARING ASSOCIATION", "designationCode": "C", "categoryCode": "11", "address": "AUGUSTINE COVE", "city": "BARDEN-CARLETON", "province": "PE", "country": "CA", "postalCode": "C0B1X0", "twitter": "None", "instagram": "None", "facebook": "None", "youtube": "None", "website": "None", "summary": "None", "logo": "None", "latitude": 46.23093000000006, "longitude": -63.627579999999966}, "889246641RR0001": {"name": "PRINCE EDWARD ISLAND EVANGELISTIC ASSOCIATION INC", "designationCode": "A", "categoryCode": "49", "address": "406 SUFFOLK ROAD RTE 222", "city": "DUNSTAFFANAGE", "province": "PE", "country": "CA", "postalCode": "C1C0P6", "twitter": "None", "instagram": "None", "facebook": "None", "youtube": "None", "website": "None", "summary": "None", "logo": "None", "latitude": 46.313083906745895, "longitude": -63.05297920301237}, "896697950RR0001": {"name": "PRINCE EDWARD ISLAND FEDERATION OF FOSTER FAMILIES INC.", "designationCode": "C", "categoryCode": "09", "address": "32 DOC. BLANCHARD CRES", "city": "CHARLOTTETOWN", "province": "PE", "country": "CA", "postalCode": "C1A9K3", "twitter": "None", "instagram": "None", "facebook": "None", "youtube": "None", "website": "None", "summary": "None", "logo": "None", "latitude": 46.25717681848349, "longitude": -63.14643032904371}, "847125630RR0001": {"name": "PRINCE EDWARD ISLAND GROUND SEARCH AND RESCUE INC.", "designationCode": "C", "categoryCode": "59", "address": "13 CARRINGTON ROAD", "city": "STRATFORD", "province": "PE", "country": "CA", "postalCode": "C1B1L6", "twitter": "None", "instagram": "None", "facebook": "None", "youtube": "None", "website": "None", "summary": "None", "logo": "None", "latitude": 46.21763265277866, "longitude": -63.11073498335158}, "107831158RR0001": {"name": "PRINCE EDWARD ISLAND HOME AND SCHOOL FEDERATION INC.", "designationCode": "C", "categoryCode": "21", "address": "PO BOX 1012 STN CENTRAL", "city": "CHARLOTTETOWN", "province": "PE", "country": "CA", "postalCode": "C1A7M4", "twitter": "None", "instagram": "None", "facebook": "None", "youtube": "None", "website": "None", "summary": "None", "logo": "None", "latitude": 46.23659700000006, "longitude": -63.12815449999994}, "119103133RR0001": {"name": "PRINCE EDWARD ISLAND HUMANE SOCIETY", "designationCode": "C", "categoryCode": "54", "address": "P O BOX 20022", "city": "CHARLOTTETOWN", "province": "PE", "country": "CA", "postalCode": "C1A9E3", "twitter": "None", "instagram": "None", "facebook": "None", "youtube": "None", "website": "None", "summary": "None", "logo": "None", "latitude": 46.23659700000006, "longitude": -63.12815449999994}, "886695196RR0001": {"name": "PRINCE EDWARD ISLAND MUSEUM & HERITAGE FOUNDATION", "designationCode": "C", "categoryCode": "50", "address": "2 KENT ST", "city": "CHARLOTTETOWN", "province": "PE", "country": "CA", "postalCode": "C1A1M6", "twitter": "None", "instagram": "None", "facebook": "None", "youtube": "None", "website": "None", "summary": "None", "logo": "None", "latitude": 46.23218292948251, "longitude": -63.13374871588123}, "119103158RR0001": {"name": "PRINCE EDWARD ISLAND MUSIC FESTIVAL ASSOCIATION", "designationCode": "C", "categoryCode": "22", "address": "820 CRABBE ROAD", "city": "SPRING VALE", "province": "PE", "country": "CA", "postalCode": "C1E0L8", "twitter": "None", "instagram": "None", "facebook": "None", "youtube": "None", "website": "None", "summary": "None", "logo": "None", "latitude": 46.315266747157914, "longitude": -63.23648708993586}, "119103190RR0001": {"name": "PRINCE EDWARD ISLAND RURAL BEAUTIFICATION SOCIETY", "designationCode": "C", "categoryCode": "52", "address": "PO BOX 1194 STN CENTRAL", "city": "CHARLOTTETOWN", "province": "PE", "country": "CA", "postalCode": "C1A7M8", "twitter": "None", "instagram": "None", "facebook": "None", "youtube": "None", "website": "None", "summary": "None", "logo": "None", "latitude": 46.23659700000006, "longitude": -63.12815449999994}, "119103208RR0001": {"name": "PRINCE EDWARD ISLAND SPECIAL OLYMPICS INC.", "designationCode": "C", "categoryCode": "09", "address": "40 ENMAN CRESCENT ROOM 240", "city": "CHARLOTTETOWN", "province": "PE", "country": "CA", "postalCode": "C1E1E6", "twitter": "None", "instagram": "None", "facebook": "None", "youtube": "None", "website": "None", "summary": "None", "logo": "None", "latitude": 46.26020892990774, "longitude": -63.147127340887}, "894805621RR0001": {"name": "PRINCE EDWARD ISLAND SPIRITUAL SCIENCE FELLOWSHIP INTER-FAITH MINISTRY", "designationCode": "C", "categoryCode": "49", "address": "32 GREENWOOD DRIVE", "city": "CHARLOTTETOWN", "province": "PE", "country": "CA", "postalCode": "C1C1J3", "twitter": "None", "instagram": "None", "facebook": "None", "youtube": "None", "website": "None", "summary": "None", "logo": "None", "latitude": 46.27949836831318, "longitude": -63.09554713890019}, "119103216RR0001": {"name": "PRINCE EDWARD ISLAND SYMPHONY SOCIETY", "designationCode": "C", "categoryCode": "22", "address": "PO BOX 185 STN CENTRAL        TREASURER", "city": "CHARLOTTETOWN", "province": "PE", "country": "CA", "postalCode": "C1A7K4", "twitter": "None", "instagram": "None", "facebook": "None", "youtube": "None", "website": "None", "summary": "None", "logo": "None", "latitude": 46.23659700000006, "longitude": -63.12815449999994}, "892886870RR0001": {"name": "PRINCE EDWARD ISLAND TRAILS INC.", "designationCode": "C", "categoryCode": "52", "address": "BOX 265", "city": "CHARLOTTETOWN", "province": "PE", "country": "CA", "postalCode": "C1A7K4", "twitter": "None", "instagram": "None", "facebook": "None", "youtube": "None", "website": "None", "summary": "None", "logo": "None", "latitude": 46.23659700000006, "longitude": -63.12815449999994}, "119103224RR0001": {"name": "PRINCE EDWARD ISLAND WILDLIFE FEDERATION", "designationCode": "C", "categoryCode": "54", "address": "PO BOX 2314 STN CENTRAL", "city": "CHARLOTTETOWN", "province": "PE", "country": "CA", "postalCode": "C1A8C1", "twitter": "None", "instagram": "None", "facebook": "None", "youtube": "None", "website": "None", "summary": "None", "logo": "None", "latitude": 46.23659700000006, "longitude": -63.12815449999994}, "107858664RR0001": {"name": "PRINCE EDWARD ISLAND 4-H COUNCIL", "designationCode": "C", "categoryCode": "29", "address": "PO BOX 2000  STN CENTRAL", "city": "CHARLOTTETOWN", "province": "PE", "country": "CA", "postalCode": "C1A7N8", "twitter": "None", "instagram": "None", "facebook": "None", "youtube": "None", "website": "None", "summary": "None", "logo": "None", "latitude": 46.23659700000006, "longitude": -63.12815449999994}, "886587195RR0001": {"name": "PRINCE EDWARD ISLAND 4-H TRUST FUND", "designationCode": "A", "categoryCode": "56", "address": "P.O. BOX 2000", "city": "CHARLOTTETOWN", "province": "PE", "country": "CA", "postalCode": "C1A7N8", "twitter": "None", "instagram": "None", "facebook": "None", "youtube": "None", "website": "None", "summary": "None", "logo": "None", "latitude": 46.23659700000006, "longitude": -63.12815449999994}, "895350890RR0001": {"name": "PRINCE EDWARD LEARNING CENTRE", "designationCode": "C", "categoryCode": "21", "address": "7B-206 MAIN STREET            BOX 3223", "city": "PICTON", "province": "ON", "country": "CA", "postalCode": "K0K2T0", "twitter": "None", "instagram": "None", "facebook": "None", "youtube": "None", "website": "None", "summary": "None", "logo": "None", "latitude": 44.19266161143174, "longitude": -77.05393276005543}, "869685420RR0001": {"name": "PRINCE EDWARD POINT BIRD OBSERVATORY", "designationCode": "C", "categoryCode": "54", "address": "PO BOX 6043", "city": "PICTON", "province": "ON", "country": "CA", "postalCode": "K0K2T0", "twitter": "None", "instagram": "None", "facebook": "None", "youtube": "None", "website": "None", "summary": "None", "logo": "None", "latitude": 44.19536494728186, "longitude": -77.59328555317504}, "892805169RR0001": {"name": "PRINCE EDWARD-HASTINGS HABITAT FOR HUMANITY", "designationCode": "C", "categoryCode": "09", "address": "365 BELL BLVD.", "city": "BELLEVILLE", "province": "ON", "country": "CA", "postalCode": "K8P5H9", "twitter": "None", "instagram": "None", "facebook": "None", "youtube": "None", "website": "None", "summary": "None", "logo": "None", "latitude": 44.18299890640014, "longitude": -77.41836383677666}, "122679566RR0001": {"name": "PRINCE GEORGE ACTIVATOR SOCIETY", "designationCode": "C", "categoryCode": "59", "address": "770 SECOND AVE", "city": "PRINCE GEORGE", "province": "BC", "country": "CA", "postalCode": "V2L3A3", "twitter": "None", "instagram": "None", "facebook": "None", "youtube": "None", "website": "None", "summary": "None", "logo": "None", "latitude": 53.91545288705246, "longitude": -122.73680418891297}, "107858755RR0001": {"name": "PRINCE GEORGE ALANO CLUB", "designationCode": "C", "categoryCode": "57", "address": "725 ALWARD STREET", "city": "PRINCE GEORGE", "province": "BC", "country": "CA", "postalCode": "V2M2E6", "twitter": "None", "instagram": "None", "facebook": "None", "youtube": "None", "website": "None", "summary": "None", "logo": "None", "latitude": 53.91858641909516, "longitude": -122.76645916281929}, "107294407RR0001": {"name": "PRINCE GEORGE AND DISTRICT ELIZABETH FRY SOCIETY", "designationCode": "C", "categoryCode": "59", "address": "1575 5TH AVE", "city": "PRINCE GEORGE", "province": "BC", "country": "CA", "postalCode": "V2L3L9", "twitter": "None", "instagram": "None", "facebook": "None", "youtube": "None", "website": "None", "summary": "None", "logo": "None", "latitude": 53.91658008099738, "longitude": -122.75165372080745}, "119103299RR0001": {"name": "PRINCE GEORGE AND DISTRICT MUSIC FESTIVAL ASSOCIATION", "designationCode": "C", "categoryCode": "22", "address": "P.O. BOX 1533", "city": "PRINCE GEORGE", "province": "BC", "country": "CA", "postalCode": "V2L4V5", "twitter": "None", "instagram": "None", "facebook": "None", "youtube": "None", "website": "None", "summary": "None", "logo": "None", "latitude": 53.91241800000006, "longitude": -122.74463149999994}}