{"118800606RR0001": {"name": "BAYCREST DAY CARE CENTRE", "designationCode": "C", "categoryCode": "01", "address": "3560 BATHURST ST", "city": "TORONTO", "province": "ON", "country": "CA", "postalCode": "M6A2E1", "twitter": "None", "instagram": "None", "facebook": "None", "youtube": "None", "website": "None", "summary": "None", "logo": "None", "latitude": 43.730265584771324, "longitude": -79.43232918168847}, "118800614RR0002": {"name": "BAYCREST HOSPITAL", "designationCode": "C", "categoryCode": "10", "address": "3560 BATHURST ST", "city": "NORTH YORK", "province": "ON", "country": "CA", "postalCode": "M6A2E1", "twitter": "None", "instagram": "None", "facebook": "None", "youtube": "None", "website": "None", "summary": "None", "logo": "None", "latitude": 43.730265584771324, "longitude": -79.43232918168847}, "118800630RR0001": {"name": "BAYERS ROAD UNITED BAPTIST CHURCH", "designationCode": "C", "categoryCode": "31", "address": "7077 BAYERS ROAD", "city": "HALIFAX", "province": "NS", "country": "CA", "postalCode": "B3L2C5", "twitter": "None", "instagram": "None", "facebook": "None", "youtube": "None", "website": "None", "summary": "None", "logo": "None", "latitude": 44.653571431617316, "longitude": -63.62824235942637}, "128868809RR0001": {"name": "BAYERS/WESTWOOD FAMILY SUPPORT SERVICES ASSOCIATION", "designationCode": "C", "categoryCode": "01", "address": "3499 MCALPINE AVE", "city": "HALIFAX", "province": "NS", "country": "CA", "postalCode": "B3L3X8", "twitter": "None", "instagram": "None", "facebook": "None", "youtube": "None", "website": "None", "summary": "None", "logo": "None", "latitude": 44.65789926089216, "longitude": -63.62152573076931}, "118800648RR0001": {"name": "BAYFAIR BAPTIST CHURCH", "designationCode": "C", "categoryCode": "31", "address": "817 KINGSTON RD", "city": "PICKERING", "province": "ON", "country": "CA", "postalCode": "L1V1A9", "twitter": "None", "instagram": "None", "facebook": "None", "youtube": "None", "website": "None", "summary": "None", "logo": "None", "latitude": 43.82282006740177, "longitude": -79.10948657227785}, "118800655RR0001": {"name": "BAYFAIR DAYCARE INCORPORATED", "designationCode": "C", "categoryCode": "20", "address": "817 KINGSTON ROAD", "city": "PICKERING", "province": "ON", "country": "CA", "postalCode": "L1V1A9", "twitter": "None", "instagram": "None", "facebook": "None", "youtube": "None", "website": "None", "summary": "None", "logo": "None", "latitude": 43.82282006740177, "longitude": -79.10948657227785}, "890025869RR0001": {"name": "BAYFIELD AGRICULTURAL SOCIETY", "designationCode": "C", "categoryCode": "56", "address": "PO BOX 236", "city": "BAYFIELD", "province": "ON", "country": "CA", "postalCode": "N0M1G0", "twitter": "None", "instagram": "None", "facebook": "None", "youtube": "None", "website": "None", "summary": "None", "logo": "None", "latitude": 43.567108618343774, "longitude": -81.70172238864089}, "888128998RR0001": {"name": "BAYFIELD PASTORAL CHARGE,", "designationCode": "C", "categoryCode": "44", "address": "PO BOX 21", "city": "CLINTON", "province": "ON", "country": "CA", "postalCode": "N0M1L0", "twitter": "None", "instagram": "None", "facebook": "None", "youtube": "None", "website": "None", "summary": "None", "logo": "None", "latitude": 43.617650000000026, "longitude": -81.53971999999999}, "878991223RR0001": {"name": "BAYFIELD TOWN HALL HERITAGE SOCIETY", "designationCode": "C", "categoryCode": "52", "address": "PO BOX 2078", "city": "BAYFIELD", "province": "ON", "country": "CA", "postalCode": "N0M1G0", "twitter": "None", "instagram": "None", "facebook": "None", "youtube": "None", "website": "None", "summary": "None", "logo": "None", "latitude": 43.567108618343774, "longitude": -81.70172238864089}, "862135910RR0001": {"name": "BAYHAM HISTORICAL SOCIETY", "designationCode": "C", "categoryCode": "50", "address": "53678 CALTON LINE             RR 6", "city": "AYLMER", "province": "ON", "country": "CA", "postalCode": "N5H2R5", "twitter": "None", "instagram": "None", "facebook": "None", "youtube": "None", "website": "None", "summary": "None", "logo": "None", "latitude": 42.70970972308558, "longitude": -80.85438471826403}, "813377348RR0001": {"name": "BAYIT CHAYIM-HOUSE OF LIFE", "designationCode": "C", "categoryCode": "09", "address": "1468 O'HARA COURT", "city": "OSHAWA", "province": "ON", "country": "CA", "postalCode": "L1J8A4", "twitter": "None", "instagram": "None", "facebook": "None", "youtube": "None", "website": "None", "summary": "None", "logo": "None", "latitude": 43.85501074963944, "longitude": -78.86532526507575}, "118800739RR0001": {"name": "BAYNES LAKE VOLUNTEER FIRE DEPARTMENT", "designationCode": "C", "categoryCode": "59", "address": "3550 BAYNES LAKE DUMP ROAD", "city": "BAYNES LAKE", "province": "BC", "country": "CA", "postalCode": "V0B1T4", "twitter": "None", "instagram": "None", "facebook": "None", "youtube": "None", "website": "None", "summary": "None", "logo": "None", "latitude": 49.233445470713875, "longitude": -115.21367116763807}, "894945633RR0052": {"name": "BAYRIDGE ALLIANCE CHURCH", "designationCode": "C", "categoryCode": "39", "address": "825 GARDINERS ROAD", "city": "KINGSTON", "province": "ON", "country": "CA", "postalCode": "K7M7E6", "twitter": "None", "instagram": "None", "facebook": "None", "youtube": "None", "website": "None", "summary": "None", "logo": "None", "latitude": 44.252630601996664, "longitude": -76.56852124874445}, "806256285RR0001": {"name": "BAYSIDE BAPTIST CHURCH", "designationCode": "C", "categoryCode": "31", "address": "1 YOUTH CAMP RD", "city": "BAYSIDE", "province": "NS", "country": "CA", "postalCode": "B3Z1L8", "twitter": "None", "instagram": "None", "facebook": "None", "youtube": "None", "website": "None", "summary": "None", "logo": "None", "latitude": 44.52461876545112, "longitude": -63.807895587425705}, "119288918RR0307": {"name": "BAYSIDE CONGREGATION OF JEHOVAH'S WITNESSES, SAINT JOHN, NEW BRUNSWICK", "designationCode": "C", "categoryCode": "61", "address": "2447 CANDACE ST", "city": "SAINT JOHN", "province": "NB", "country": "CA", "postalCode": "E2J2Z8", "twitter": "None", "instagram": "None", "facebook": "None", "youtube": "None", "website": "None", "summary": "None", "logo": "None", "latitude": 45.31041834999131, "longitude": -65.9992879597496}, "118800895RR0001": {"name": "BAYSIDE UNITED BAPTIST CHURCH", "designationCode": "C", "categoryCode": "31", "address": "3564 ROUTE 127", "city": "BAYSIDE", "province": "NB", "country": "CA", "postalCode": "E3B2V2", "twitter": "None", "instagram": "None", "facebook": "None", "youtube": "None", "website": "None", "summary": "None", "logo": "None", "latitude": 45.131065208595466, "longitude": -67.10826743701207}, "873193130RR0001": {"name": "BAYSVILLE FRIENDS OF THE LIBRARY", "designationCode": "C", "categoryCode": "50", "address": "PO BOX 201", "city": "BAYSVILLE", "province": "ON", "country": "CA", "postalCode": "P0B1A0", "twitter": "None", "instagram": "None", "facebook": "None", "youtube": "None", "website": "None", "summary": "None", "logo": "None", "latitude": 45.150649922985714, "longitude": -79.11215748074642}, "118800929RR0001": {"name": "BAYSVILLE HORTICULTURAL SOCIETY", "designationCode": "C", "categoryCode": "52", "address": "1397 SOUTH RIL LAKE RD", "city": "BAYSVILLE", "province": "ON", "country": "CA", "postalCode": "P0B1A0", "twitter": "None", "instagram": "None", "facebook": "None", "youtube": "None", "website": "None", "summary": "None", "logo": "None", "latitude": 45.162749566478126, "longitude": -79.00323005736017}, "888835485RR0001": {"name": "BAYTREE MENNONITE CHURCH", "designationCode": "C", "categoryCode": "34", "address": "PO BOX 24", "city": "BAYTREE", "province": "AB", "country": "CA", "postalCode": "T0H0A0", "twitter": "None", "instagram": "None", "facebook": "None", "youtube": "None", "website": "None", "summary": "None", "logo": "None", "latitude": 55.82529600000005, "longitude": -119.94478099999994}, "818711897RR0001": {"name": "BAYVIEW AVENUE CHURCH OF CHRIST", "designationCode": "C", "categoryCode": "39", "address": "1708 BAYVIEW AVENUE", "city": "TORONTO", "province": "ON", "country": "CA", "postalCode": "M4G3C4", "twitter": "None", "instagram": "None", "facebook": "None", "youtube": "None", "website": "None", "summary": "None", "logo": "None", "latitude": 43.709113687200684, "longitude": -79.3765032623058}, "118800960RR0001": {"name": "BAYVIEW CEMETERY INC.", "designationCode": "C", "categoryCode": "59", "address": "19 SANDHILL LANE", "city": "HATFIELD POINT", "province": "NB", "country": "CA", "postalCode": "E5T2R5", "twitter": "None", "instagram": "None", "facebook": "None", "youtube": "None", "website": "None", "summary": "None", "logo": "None", "latitude": 45.65592880045007, "longitude": -65.85555813217684}, "855498341RR0001": {"name": "BAYVIEW CHRISTIAN CAMP INCORPORATED", "designationCode": "C", "categoryCode": "39", "address": "48 NORTHERN HARBOUR RD", "city": "HERSONVILLE", "province": "NB", "country": "CA", "postalCode": "E5V1G7", "twitter": "None", "instagram": "None", "facebook": "None", "youtube": "None", "website": "None", "summary": "None", "logo": "None", "latitude": 45.00680711488106, "longitude": -66.97579854684088}, "895259331RR0001": {"name": "BAYVIEW COMMUNITIES HEALTH FOUNDATION", "designationCode": "A", "categoryCode": "13", "address": "BAYVIEW MEMORIAL HEALTH CENTRE", "city": "ADVOCATE HARBOUR", "province": "NS", "country": "CA", "postalCode": "B0M1A0", "twitter": "None", "instagram": "None", "facebook": "None", "youtube": "None", "website": "None", "summary": "None", "logo": "None", "latitude": 45.33088102057126, "longitude": -64.76679813828258}, "129675138RR0001": {"name": "BAYVIEW COMMUNITY SERVICES INC.", "designationCode": "C", "categoryCode": "01", "address": "250 CONSUMERS ROAD, SUITE 805", "city": "WILLOWDALE", "province": "ON", "country": "CA", "postalCode": "M2J4V6", "twitter": "None", "instagram": "None", "facebook": "None", "youtube": "None", "website": "None", "summary": "None", "logo": "None", "latitude": 43.77169564169881, "longitude": -79.33155892527024}, "119288918RR0808": {"name": "BAYVIEW CONGREGATION OF JEHOVAH'S WITNESSES", "designationCode": "C", "categoryCode": "61", "address": "115 FERRIS LANE", "city": "BARRIE", "province": "ON", "country": "CA", "postalCode": "L4M2Y1", "twitter": "None", "instagram": "None", "facebook": "None", "youtube": "None", "website": "None", "summary": "None", "logo": "None", "latitude": 44.4068773277743, "longitude": -79.69242296251956}, "118800978RR0001": {"name": "BAYVIEW EVANGELICAL FREE CHURCH OF GIMLI/WINNIPEG BEACH DISTRICTS IN MANITOBA", "designationCode": "C", "categoryCode": "39", "address": "BOX 1709", "city": "GIMLI", "province": "MB", "country": "CA", "postalCode": "R0C1B0", "twitter": "None", "instagram": "None", "facebook": "None", "youtube": "None", "website": "None", "summary": "None", "logo": "None", "latitude": 50.30677349294383, "longitude": -96.92898988377391}, "118800994RR0001": {"name": "BAYVIEW GLEN CHURCH OF THE CHRISTIAN AND MISSIONARY ALLIANCE IN CANADA", "designationCode": "C", "categoryCode": "39", "address": "300 STEELES AVE E", "city": "THORNHILL", "province": "ON", "country": "CA", "postalCode": "L3T1A7", "twitter": "None", "instagram": "None", "facebook": "None", "youtube": "None", "website": "None", "summary": "None", "logo": "None", "latitude": 43.80366721016749, "longitude": -79.39455631352048}, "106777220RR0001": {"name": "BAYVIEW UNITED BAPTIST CHURCH", "designationCode": "C", "categoryCode": "31", "address": "3155 HIGHWAY 1", "city": "PORT MAITLAND", "province": "NS", "country": "CA", "postalCode": "B5A5T4", "twitter": "None", "instagram": "None", "facebook": "None", "youtube": "None", "website": "None", "summary": "None", "logo": "None", "latitude": 43.9798465568465, "longitude": -66.14672408784519}, "132527524RR0001": {"name": "BAYVIEW VILLAGE INC.", "designationCode": "C", "categoryCode": "09", "address": "35 ATLANTIC BAPTIST AVE", "city": "MONCTON", "province": "NB", "country": "CA", "postalCode": "E1E4N3", "twitter": "None", "instagram": "None", "facebook": "None", "youtube": "None", "website": "None", "summary": "None", "logo": "None", "latitude": 46.05999327145241, "longitude": -64.85879860263182}, "797265295RR0001": {"name": "BB People Helping People Foundation / Fondation BB Les Gens Qui Aident Les Gens", "designationCode": "A", "categoryCode": "03", "address": "7155 COTE ST. LUC ROAD        SUITE 202", "city": "COTE ST. LUC", "province": "QC", "country": "CA", "postalCode": "H4V1J2", "twitter": "None", "instagram": "None", "facebook": "None", "youtube": "None", "website": "None", "summary": "None", "logo": "None", "latitude": 45.46487779972558, "longitude": -73.65431139562831}, "897548996RR0001": {"name": "BBB FOUNDATION/FONDATION BBB", "designationCode": "A", "categoryCode": "03", "address": "7475 CHURCHILL", "city": "VERDUN", "province": "QC", "country": "CA", "postalCode": "H4H2L7", "twitter": "None", "instagram": "None", "facebook": "None", "youtube": "None", "website": "None", "summary": "None", "logo": "None", "latitude": 45.435661029978625, "longitude": -73.58752668293016}, "130907819RR0001": {"name": "BBYO ONTARIO", "designationCode": "A", "categoryCode": "43", "address": "122 - 4588 BATHURST ST", "city": "NORTH YORK", "province": "ON", "country": "CA", "postalCode": "M2R1W6", "twitter": "None", "instagram": "None", "facebook": "None", "youtube": "None", "website": "None", "summary": "None", "logo": "None", "latitude": 43.7629662933523, "longitude": -79.44034911835568}, "896694098RR0001": {"name": "BC ABORIGINAL NETWORK ON DISABILITY SOCIETY", "designationCode": "C", "categoryCode": "09", "address": "6 - 1610 ISLAND HWY", "city": "VICTORIA", "province": "BC", "country": "CA", "postalCode": "V9B1H8", "twitter": "None", "instagram": "None", "facebook": "None", "youtube": "None", "website": "None", "summary": "None", "logo": "None", "latitude": 48.455431037509115, "longitude": -123.46022972459421}, "893423400RR0001": {"name": "BC ASSOCIATION OF COMMUNITY RESPONSE NETWORKS", "designationCode": "C", "categoryCode": "99", "address": "15008-26TH AVENUE", "city": "SURREY", "province": "BC", "country": "CA", "postalCode": "V4P3H5", "twitter": "None", "instagram": "None", "facebook": "None", "youtube": "None", "website": "None", "summary": "None", "logo": "None"}, "866779739RR0001": {"name": "BC ATAXIA SOCIETY", "designationCode": "C", "categoryCode": "11", "address": "4431 COVENTRY DR.", "city": "RICHMOND", "province": "BC", "country": "CA", "postalCode": "V7C4R7", "twitter": "None", "instagram": "None", "facebook": "None", "youtube": "None", "website": "None", "summary": "None", "logo": "None", "latitude": 49.15082249321933, "longitude": -123.176394}, "847006707RR0001": {"name": "BC Challenger Baseball Booster Association", "designationCode": "C", "categoryCode": "56", "address": "208-3993 HENNING DRIVE", "city": "BURNABY", "province": "BC", "country": "CA", "postalCode": "V5C6P7", "twitter": "None", "instagram": "None", "facebook": "None", "youtube": "None", "website": "None", "summary": "None", "logo": "None", "latitude": 49.264106160717766, "longitude": -123.01660820863978}, "118818434RR0001": {"name": "BC CANCER FOUNDATION", "designationCode": "C", "categoryCode": "13", "address": "150-686 WEST BROADWAY", "city": "VANCOUVER", "province": "BC", "country": "CA", "postalCode": "V5Z1G1", "twitter": "None", "instagram": "None", "facebook": "None", "youtube": "None", "website": "None", "summary": "None", "logo": "None", "latitude": 49.263269502885535, "longitude": -123.1194224701656}, "847046349RR0001": {"name": "BC Dairy Historical Society", "designationCode": "C", "categoryCode": "50", "address": "33385 TOWNSHIPLINE ROAD", "city": "ABBOTSFORD", "province": "BC", "country": "CA", "postalCode": "V4X1X9", "twitter": "None", "instagram": "None", "facebook": "None", "youtube": "None", "website": "None", "summary": "None", "logo": "None", "latitude": 49.08922446047075, "longitude": -122.30009991618097}, "830323838RR0001": {"name": "BC Emergency Health Services Foundation", "designationCode": "C", "categoryCode": "11", "address": "260 - 1770 7TH AVE W", "city": "VANCOUVER", "province": "BC", "country": "CA", "postalCode": "V6J4Y6", "twitter": "None", "instagram": "None", "facebook": "None", "youtube": "None", "website": "None", "summary": "None", "logo": "None", "latitude": 49.26545048845881, "longitude": -123.1450229701656}, "874935760RR0001": {"name": "BC ENDOCRINE RESEARCH FOUNDATION", "designationCode": "C", "categoryCode": "11", "address": "4110-2775 LAUREL ST.", "city": "VANCOUVER", "province": "BC", "country": "CA", "postalCode": "V5Z1M9", "twitter": "None", "instagram": "None", "facebook": "None", "youtube": "None", "website": "None", "summary": "None", "logo": "None", "latitude": 49.26080193860277, "longitude": -123.12552569075034}, "118801133RR0001": {"name": "BC Farm Museum Association", "designationCode": "C", "categoryCode": "50", "address": "PO BOX 279 STN FORT LANGLEY", "city": "LANGLEY", "province": "BC", "country": "CA", "postalCode": "V1M2R6", "twitter": "None", "instagram": "None", "facebook": "None", "youtube": "None", "website": "None", "summary": "None", "logo": "None", "latitude": 49.16854007718262, "longitude": -122.57416995556595}, "137824322RR0001": {"name": "BC FAMILY CHILD CARE ASSOCIATION", "designationCode": "C", "categoryCode": "21", "address": "100-6846 KING GEORGE BLVD", "city": "SURREY", "province": "BC", "country": "CA", "postalCode": "V3W4Z9", "twitter": "None", "instagram": "None", "facebook": "None", "youtube": "None", "website": "None", "summary": "None", "logo": "None", "latitude": 49.12715632944776, "longitude": -122.84553053321086}, "871669016RR0001": {"name": "BC FOUNDATION FOR THE STUDY OF SIKHISM", "designationCode": "A", "categoryCode": "23", "address": "523-7184 120TH STREET", "city": "SURREY", "province": "BC", "country": "CA", "postalCode": "V3W0M6", "twitter": "None", "instagram": "None", "facebook": "None", "youtube": "None", "website": "None", "summary": "None", "logo": "None", "latitude": 49.13348400000001, "longitude": -122.89025901604283}, "889407466RR0001": {"name": "BC GOVERNMENT EMPLOYEES COMMUNITY SERVICES FUND TRUST", "designationCode": "B", "categoryCode": "75", "address": "3 FL-810 BLANSHARD ST         PO BOX 9564 STN PROV GOVT", "city": "VICTORIA", "province": "BC", "country": "CA", "postalCode": "V8W2H2", "twitter": "None", "instagram": "None", "facebook": "None", "youtube": "None", "website": "None", "summary": "None", "logo": "None", "latitude": 48.42217980183505, "longitude": -123.36307293467571}, "890028194RR0001": {"name": "BC GREAT BLUE HERON SOCIETY", "designationCode": "C", "categoryCode": "52", "address": "PO BOX 307", "city": "MERVILLE", "province": "BC", "country": "CA", "postalCode": "V0R2M0", "twitter": "None", "instagram": "None", "facebook": "None", "youtube": "None", "website": "None", "summary": "None", "logo": "None", "latitude": 49.78135887533998, "longitude": -125.07321726876313}, "883669509RR0001": {"name": "BC HERITAGE FAIRS SOCIETY", "designationCode": "C", "categoryCode": "21", "address": "3701 SAVANNAH AVE", "city": "VICTORIA", "province": "BC", "country": "CA", "postalCode": "V8X1T3", "twitter": "None", "instagram": "None", "facebook": "None", "youtube": "None", "website": "None", "summary": "None", "logo": "None", "latitude": 48.459073882047406, "longitude": -123.36377188672195}, "859078172RR0001": {"name": "BC LABOUR HERITAGE CENTRE SOCIETY", "designationCode": "C", "categoryCode": "53", "address": "301 - 8988 FRASERTON CRT", "city": "BURNABY", "province": "BC", "country": "CA", "postalCode": "V5J5H8", "twitter": "None", "instagram": "None", "facebook": "None", "youtube": "None", "website": "None", "summary": "None", "logo": "None", "latitude": 49.19945925301133, "longitude": -123.01434697833179}, "889458840RR0001": {"name": "BC NATURALISTS' FOUNDATION", "designationCode": "A", "categoryCode": "52", "address": "HERITAGE CENTRE               1620 MT SEYMOUR ROAD", "city": "NORTH VANCOUVER", "province": "BC", "country": "CA", "postalCode": "V7G2R9", "twitter": "None", "instagram": "None", "facebook": "None", "youtube": "None", "website": "None", "summary": "None", "logo": "None", "latitude": 49.321756384787285, "longitude": -122.96915443562372}, "814518072RR0001": {"name": "BC PULMONARY HYPERTENSION SOCIETY", "designationCode": "C", "categoryCode": "11", "address": "6032 CANADA AVE", "city": "DUNCAN", "province": "BC", "country": "CA", "postalCode": "V9L1V3", "twitter": "None", "instagram": "None", "facebook": "None", "youtube": "None", "website": "None", "summary": "None", "logo": "None", "latitude": 48.78939634146094, "longitude": -123.7114545463172}, "841194152RR0001": {"name": "BC Schizophrenia Society, Powell River Branch", "designationCode": "C", "categoryCode": "11", "address": "6983 RICHMOND ST", "city": "POWELL RIVER", "province": "BC", "country": "CA", "postalCode": "V8A1H7", "twitter": "None", "instagram": "None", "facebook": "None", "youtube": "None", "website": "None", "summary": "None", "logo": "None", "latitude": 49.810780464365884, "longitude": -124.521342585204}, "892173642RR0001": {"name": "BC Society for the Museum of Original Costume", "designationCode": "C", "categoryCode": "50", "address": "1489 MCRAE AVE", "city": "VANCOUVER", "province": "BC", "country": "CA", "postalCode": "V6H1V1", "twitter": "None", "instagram": "None", "facebook": "None", "youtube": "None", "website": "None", "summary": "None", "logo": "None", "latitude": 49.25716110296276, "longitude": -123.13794237308112}, "118801265RR0001": {"name": "BC SCHOOL SPORTS", "designationCode": "C", "categoryCode": "21", "address": "2003A-3713 KENSINGTON AVE", "city": "BURNABY", "province": "BC", "country": "CA", "postalCode": "V5C0A7", "twitter": "None", "instagram": "None", "facebook": "None", "youtube": "None", "website": "None", "summary": "None", "logo": "None", "latitude": 49.25303464244902, "longitude": -122.96668061872015}, "131670234RR0001": {"name": "BC SPACES FOR NATURE SOCIETY", "designationCode": "C", "categoryCode": "59", "address": "BOX 673", "city": "GIBSONS", "province": "BC", "country": "CA", "postalCode": "V0N1V0", "twitter": "None", "instagram": "None", "facebook": "None", "youtube": "None", "website": "None", "summary": "None", "logo": "None", "latitude": 49.40659350000001, "longitude": -123.528087}, "839610995RR0001": {"name": "BC Tomorrow Society", "designationCode": "C", "categoryCode": "21", "address": "PO BOX 10010", "city": "SALMON ARM", "province": "BC", "country": "CA", "postalCode": "V1E3B9", "twitter": "None", "instagram": "None", "facebook": "None", "youtube": "None", "website": "None", "summary": "None", "logo": "None", "latitude": 50.70318000000006, "longitude": -119.26884049999992}, "886685593RR0001": {"name": "BC WHEELCHAIR BASKETBALL SOCIETY", "designationCode": "C", "categoryCode": "56", "address": "780 SW MARINE DR", "city": "VANCOUVER", "province": "BC", "country": "CA", "postalCode": "V6P5Y7", "twitter": "None", "instagram": "None", "facebook": "None", "youtube": "None", "website": "None", "summary": "None", "logo": "None", "latitude": 49.207299508713916, "longitude": -123.12382893141574}, "106868698RR0001": {"name": "BC WHEELCHAIR SPORTS ASSOCIATION", "designationCode": "C", "categoryCode": "56", "address": "780 MARINE DR SW", "city": "VANCOUVER", "province": "BC", "country": "CA", "postalCode": "V6P5Y7", "twitter": "None", "instagram": "None", "facebook": "None", "youtube": "None", "website": "None", "summary": "None", "logo": "None", "latitude": 49.207299508713916, "longitude": -123.12382893141574}, "118884188RR0001": {"name": "BC Youth Music Society", "designationCode": "C", "categoryCode": "22", "address": "PO BOX 26064 RPO CTRL RICHMOND", "city": "RICHMOND", "province": "BC", "country": "CA", "postalCode": "V6Y3V3", "twitter": "None", "instagram": "None", "facebook": "None", "youtube": "None", "website": "None", "summary": "None", "logo": "None", "latitude": 49.163343000000054, "longitude": -123.13664449999993}, "829365857RR0001": {"name": "BCA CED Education Foundation", "designationCode": "A", "categoryCode": "03", "address": "PO BOX 1201                   173 CHARLOTTE ST.", "city": "SYDNEY", "province": "NS", "country": "CA", "postalCode": "B1P6J9", "twitter": "None", "instagram": "None", "facebook": "None", "youtube": "None", "website": "None", "summary": "None", "logo": "None", "latitude": 46.14086420923909, "longitude": -60.19549519578641}, "867421372RR0001": {"name": "BCAA ROAD SAFETY FOUNDATION", "designationCode": "C", "categoryCode": "59", "address": "4567 CANADA WAY", "city": "BURNABY", "province": "BC", "country": "CA", "postalCode": "V5G4T1", "twitter": "None", "instagram": "None", "facebook": "None", "youtube": "None", "website": "None", "summary": "None", "logo": "None", "latitude": 49.25472452654482, "longitude": -122.99958000000001}, "861277309RR0001": {"name": "BCCDC FOUNDATION FOR POPULATION AND PUBLIC HEALTH", "designationCode": "A", "categoryCode": "13", "address": "1500-1090 WEST GEORGIA STREET", "city": "VANCOUVER", "province": "BC", "country": "CA", "postalCode": "V6E3V7", "twitter": "None", "instagram": "None", "facebook": "None", "youtube": "None", "website": "None", "summary": "None", "logo": "None", "latitude": 49.28541748568885, "longitude": -123.12279712756055}, "875819831RR0001": {"name": "BCD REGIMENTAL COUNCIL SOCIETY", "designationCode": "A", "categoryCode": "55", "address": "720 LAWRENCE AVE", "city": "KELOWNA", "province": "BC", "country": "CA", "postalCode": "V1Y6L9", "twitter": "None", "instagram": "None", "facebook": "None", "youtube": "None", "website": "None", "summary": "None", "logo": "None", "latitude": 49.88548665105488, "longitude": -119.48783053523697}, "106792120RR0001": {"name": "BCM INTERNATIONAL (CANADA) INC.", "designationCode": "C", "categoryCode": "47", "address": "70 MELVIN AVE", "city": "HAMILTON", "province": "ON", "country": "CA", "postalCode": "L8H2J5", "twitter": "None", "instagram": "None", "facebook": "None", "youtube": "None", "website": "None", "summary": "None", "logo": "None", "latitude": 43.24446289312725, "longitude": -79.79384893242536}, "841646623RR0001": {"name": "BCS Charitable Corporation", "designationCode": "B", "categoryCode": "03", "address": "5484 TOMKEN RD                UNIT 33", "city": "MISSISSAUGA", "province": "ON", "country": "CA", "postalCode": "L4W2Z6", "twitter": "None", "instagram": "None", "facebook": "None", "youtube": "None", "website": "None", "summary": "None", "logo": "None", "latitude": 43.63542898274599, "longitude": -79.64439845302624}, "893879015RR0001": {"name": "BCU FOUNDATION", "designationCode": "B", "categoryCode": "53", "address": "2280 BLOOR STREET WEST", "city": "TORONTO", "province": "ON", "country": "CA", "postalCode": "M6S1N9", "twitter": "None", "instagram": "None", "facebook": "None", "youtube": "None", "website": "None", "summary": "None", "logo": "None", "latitude": 43.650712150729845, "longitude": -79.47832719929012}, "828128249RR0001": {"name": "BDMJ Family Foundation", "designationCode": "B", "categoryCode": "05", "address": "26 RIDELLE AVENUE", "city": "TORONTO", "province": "ON", "country": "CA", "postalCode": "M6B1H6", "twitter": "None", "instagram": "None", "facebook": "None", "youtube": "None", "website": "None", "summary": "None", "logo": "None", "latitude": 43.7065621906918, "longitude": -79.42957687122735}, "878865609RR0001": {"name": "BE A HERO", "designationCode": "C", "categoryCode": "09", "address": "300 - 1634 HARVEY AVE", "city": "KELOWNA", "province": "BC", "country": "CA", "postalCode": "V1Y6G2", "twitter": "None", "instagram": "None", "facebook": "None", "youtube": "None", "website": "None", "summary": "None", "logo": "None", "latitude": 49.882060483264674, "longitude": -119.46307402553522}, "887566867RR0001": {"name": "BE ALIVE CHRISTIAN FELLOWSHIP", "designationCode": "C", "categoryCode": "39", "address": "2420 MOHAWK TRAIL", "city": "MILTON", "province": "ON", "country": "CA", "postalCode": "L0P1B0", "twitter": "None", "instagram": "None", "facebook": "None", "youtube": "None", "website": "None", "summary": "None", "logo": "None", "latitude": 43.48441344569825, "longitude": -80.01119002103356}, "866735475RR0001": {"name": "BE'AD AMEINU", "designationCode": "C", "categoryCode": "49", "address": "1945 CLINTON AVE", "city": "MONTREAL", "province": "QC", "country": "CA", "postalCode": "H3S1L1", "twitter": "None", "instagram": "None", "facebook": "None", "youtube": "None", "website": "None", "summary": "None", "logo": "None", "latitude": 45.513972198453395, "longitude": -73.62405055831246}, "132397704RR0001": {"name": "BEACAN PRESBYTERIAN CHURCH", "designationCode": "C", "categoryCode": "37", "address": "BOX 741", "city": "BEAVERTON", "province": "ON", "country": "CA", "postalCode": "L0K1A0", "twitter": "None", "instagram": "None", "facebook": "None", "youtube": "None", "website": "None", "summary": "None", "logo": "None", "latitude": 44.43273000000005, "longitude": -79.15524999999997}, "106779606RR0001": {"name": "BEACH CORNER EVANGELICAL FREE CHURCH", "designationCode": "C", "categoryCode": "39", "address": "4 - 53117 RANGE ROAD 14", "city": "PARKLAND COUNTY", "province": "AB", "country": "CA", "postalCode": "T7Y2T3", "twitter": "None", "instagram": "None", "facebook": "None", "youtube": "None", "website": "None", "summary": "None", "logo": "None", "latitude": 53.5626877563332, "longitude": -114.09983466659887}, "118801380RR0001": {"name": "BEACH HEBREW INSTITUTE", "designationCode": "C", "categoryCode": "42", "address": "109 KENILWORTH AVE", "city": "TORONTO", "province": "ON", "country": "CA", "postalCode": "M4L3S4", "twitter": "None", "instagram": "None", "facebook": "None", "youtube": "None", "website": "None", "summary": "None", "logo": "None", "latitude": 43.66922897613823, "longitude": -79.30172828057033}, "892082843RR0001": {"name": "BEACH HEBREW INSTITUTE FOUNDATION", "designationCode": "C", "categoryCode": "52", "address": "109 KENILWORTH AVENUE", "city": "TORONTO", "province": "ON", "country": "CA", "postalCode": "M4L3S4", "twitter": "None", "instagram": "None", "facebook": "None", "youtube": "None", "website": "None", "summary": "None", "logo": "None", "latitude": 43.66922897613823, "longitude": -79.30172828057033}, "855696837RR0001": {"name": "BEACH MEADOWS CEMETERY SOCIETY", "designationCode": "C", "categoryCode": "59", "address": "662 EASTERN SHORE RD.         RR#1", "city": "BROOKLYN", "province": "NS", "country": "CA", "postalCode": "B0J1H0", "twitter": "None", "instagram": "None", "facebook": "None", "youtube": "None", "website": "None", "summary": "None", "logo": "None", "latitude": 44.064502516735324, "longitude": -64.64157355536962}, "106779572RR0001": {"name": "BEACHBURG PASTORAL CHARGE", "designationCode": "C", "categoryCode": "44", "address": "PO BOX 59", "city": "BEACHBURG", "province": "ON", "country": "CA", "postalCode": "K0J1C0", "twitter": "None", "instagram": "None", "facebook": "None", "youtube": "None", "website": "None", "summary": "None", "logo": "None", "latitude": 45.73551000000003, "longitude": -76.86358999999999}, "106779580RR0001": {"name": "BEACHBURG PENTECOSTAL TABERNACLE", "designationCode": "C", "categoryCode": "36", "address": "BOX 24", "city": "BEACHBURG", "province": "ON", "country": "CA", "postalCode": "K0J1C0", "twitter": "None", "instagram": "None", "facebook": "None", "youtube": "None", "website": "None", "summary": "None", "logo": "None", "latitude": 45.73551000000003, "longitude": -76.86358999999999}, "118801398RR0001": {"name": "BEACHVILLE BAPTIST CHURCH", "designationCode": "C", "categoryCode": "31", "address": "PO BOX 354", "city": "BEACHVILLE", "province": "ON", "country": "CA", "postalCode": "N0J1A0", "twitter": "None", "instagram": "None", "facebook": "None", "youtube": "None", "website": "None", "summary": "None", "logo": "None", "latitude": 43.10953307909114, "longitude": -80.799296522454}, "106779663RR0001": {"name": "BEACHVILLE DISTRICT HISTORICAL SOCIETY", "designationCode": "C", "categoryCode": "50", "address": "584367 BEACHVILLE RD          BOX 220", "city": "BEACHVILLE", "province": "ON", "country": "CA", "postalCode": "N0J1A0", "twitter": "None", "instagram": "None", "facebook": "None", "youtube": "None", "website": "None", "summary": "None", "logo": "None", "latitude": 43.07680521233187, "longitude": -80.84177986666839}, "131688459RR0001": {"name": "BEACHVILLE UNITED CHURCH,", "designationCode": "C", "categoryCode": "44", "address": "PO BOX 89", "city": "BEACHVILLE", "province": "ON", "country": "CA", "postalCode": "N0J1A0", "twitter": "None", "instagram": "None", "facebook": "None", "youtube": "None", "website": "None", "summary": "None", "logo": "None", "latitude": 43.10953307909114, "longitude": -80.799296522454}, "877119206RR0001": {"name": "BEACON BAPTIST CHURCH (CAMBRIDGE, ON)", "designationCode": "C", "categoryCode": "39", "address": "143 GLENMORRIS ST", "city": "CAMBRIDGE", "province": "ON", "country": "CA", "postalCode": "N1S2Z4", "twitter": "None", "instagram": "None", "facebook": "None", "youtube": "None", "website": "None", "summary": "None", "logo": "None", "latitude": 43.34477486955393, "longitude": -80.32163431692561}, "888715232RR0001": {"name": "BEACON BAPTIST CHURCH INC.", "designationCode": "C", "categoryCode": "31", "address": "114 NORTH 3RD STREET", "city": "URANIUM CITY", "province": "SK", "country": "CA", "postalCode": "S0J2W0", "twitter": "None", "instagram": "None", "facebook": "None", "youtube": "None", "website": "None", "summary": "None", "logo": "None", "latitude": 59.572283473102644, "longitude": -108.61350509170025}, "847313012RR0001": {"name": "BEACON BAPTIST CHURCH OF WELLAND", "designationCode": "C", "categoryCode": "31", "address": "109 CHAFFEY ST", "city": "WELLAND", "province": "ON", "country": "CA", "postalCode": "L3B2Y6", "twitter": "None", "instagram": "None", "facebook": "None", "youtube": "None", "website": "None", "summary": "None", "logo": "None", "latitude": 42.972786586733235, "longitude": -79.24418596292358}, "118801414RR0001": {"name": "BEACON BIBLE CAMP", "designationCode": "C", "categoryCode": "56", "address": "4488 SOUTHWOOD ROAD", "city": "TORRANCE", "province": "ON", "country": "CA", "postalCode": "P0C1M0", "twitter": "None", "instagram": "None", "facebook": "None", "youtube": "None", "website": "None", "summary": "None", "logo": "None", "latitude": 44.97522992561603, "longitude": -79.5694615481276}, "129951174RR0001": {"name": "BEACON COMMUNITY ASSOCIATION", "designationCode": "C", "categoryCode": "59", "address": "2723 QUADRA ST", "city": "VICTORIA", "province": "BC", "country": "CA", "postalCode": "V8T4E5", "twitter": "None", "instagram": "None", "facebook": "None", "youtube": "None", "website": "None", "summary": "None", "logo": "None", "latitude": 48.440040191788306, "longitude": -123.35929214928754}, "119288918RR0442": {"name": "BEACON HILL CONGREGATION OF JEHOVAH'S WITNESSES", "designationCode": "C", "categoryCode": "61", "address": "1637 CYRVILLE RD", "city": "GLOUCESTER", "province": "ON", "country": "CA", "postalCode": "K1B3L7", "twitter": "None", "instagram": "None", "facebook": "None", "youtube": "None", "website": "None", "summary": "None", "logo": "None", "latitude": 45.41819703473914, "longitude": -75.60988665901107}, "118801448RR0001": {"name": "BEACON HOUSE INTERFAITH SOCIETY", "designationCode": "C", "categoryCode": "09", "address": "470 COBEQUID ROAD", "city": "LOWER SACKVILLE", "province": "NS", "country": "CA", "postalCode": "B4C4E8", "twitter": "None", "instagram": "None", "facebook": "None", "youtube": "None", "website": "None", "summary": "None", "logo": "None", "latitude": 44.76492684015222, "longitude": -63.64923937099622}, "890096316RR0001": {"name": "BEACON OF GRACE BIBLE CHURCH", "designationCode": "C", "categoryCode": "39", "address": "109 WINDLE VILLAGE CRES", "city": "THOROLD", "province": "ON", "country": "CA", "postalCode": "L2V4Z5", "twitter": "None", "instagram": "None", "facebook": "None", "youtube": "None", "website": "None", "summary": "None", "logo": "None", "latitude": 43.09352933054428, "longitude": -79.20035283429517}, "896510302RR0001": {"name": "BEACON TO THE ANCESTORS FOUNDATION", "designationCode": "C", "categoryCode": "22", "address": "91 CELESTIAL CRES", "city": "HANNON", "province": "ON", "country": "CA", "postalCode": "L0R1P0", "twitter": "None", "instagram": "None", "facebook": "None", "youtube": "None", "website": "None", "summary": "None", "logo": "None", "latitude": 43.17784990008082, "longitude": -79.80114157977967}, "118801497RR0001": {"name": "BEACON UNITARIAN CHURCH", "designationCode": "C", "categoryCode": "39", "address": "414-552A CLARKE RD", "city": "COQUITLAM", "province": "BC", "country": "CA", "postalCode": "V3J0A3", "twitter": "None", "instagram": "None", "facebook": "None", "youtube": "None", "website": "None", "summary": "None", "logo": "None", "latitude": 49.26133640457719, "longitude": -122.89021971667313}, "106779879RR0001": {"name": "BEACON UNITED CHURCH", "designationCode": "C", "categoryCode": "44", "address": "25 BEACON ST", "city": "YARMOUTH", "province": "NS", "country": "CA", "postalCode": "B5A2W2", "twitter": "None", "instagram": "None", "facebook": "None", "youtube": "None", "website": "None", "summary": "None", "logo": "None", "latitude": 43.84275326447018, "longitude": -66.1152798526457}, "889559571RR0001": {"name": "BEACONSFIELD CHURCH & CEMETERY COMMITTEE", "designationCode": "C", "categoryCode": "59", "address": "BOX 91", "city": "SWAN LAKE", "province": "MB", "country": "CA", "postalCode": "R0G2S0", "twitter": "None", "instagram": "None", "facebook": "None", "youtube": "None", "website": "None", "summary": "None", "logo": "None", "latitude": 49.41136000000006, "longitude": -98.79357999999996}, "106779846RR0001": {"name": "BEACONSFIELD UNITED CHURCH", "designationCode": "C", "categoryCode": "44", "address": "202 WOODSIDE ROAD", "city": "BEACONSFIELD", "province": "QC", "country": "CA", "postalCode": "H9W2P1", "twitter": "None", "instagram": "None", "facebook": "None", "youtube": "None", "website": "None", "summary": "None", "logo": "None", "latitude": 45.43642734371682, "longitude": -73.85999795091509}, "892753146RR0001": {"name": "BEADS OF HOPE FOUNDATION", "designationCode": "C", "categoryCode": "09", "address": "COOK ST, R.P.O. BOX 23077", "city": "VICTORIA", "province": "BC", "country": "CA", "postalCode": "V8V4Z8", "twitter": "None", "instagram": "None", "facebook": "None", "youtube": "None", "website": "None", "summary": "None", "logo": "None", "latitude": 48.41744385501512, "longitude": -123.35552859189666}, "885428003RR0001": {"name": "BEAGLE PAWS INC.", "designationCode": "C", "categoryCode": "54", "address": "P.O. BOX 28164                48 KENMOUNT ROAD", "city": "ST. JOHN'S", "province": "NL", "country": "CA", "postalCode": "A1B4J8", "twitter": "None", "instagram": "None", "facebook": "None", "youtube": "None", "website": "None", "summary": "None", "logo": "None", "latitude": 47.55923313642354, "longitude": -52.75201821935239}, "868640970RR0001": {"name": "BEALIGHT FOUNDATION", "designationCode": "B", "categoryCode": "03", "address": "606 - 366 ADELAIDE ST W", "city": "TORONTO", "province": "ON", "country": "CA", "postalCode": "M5V1R9", "twitter": "None", "instagram": "None", "facebook": "None", "youtube": "None", "website": "None", "summary": "None", "logo": "None", "latitude": 43.64704015072985, "longitude": -79.39425964530548}, "106779937RR0001": {"name": "BEAMSVILLE CO-OPERATIVE NURSERY SCHOOL INC.", "designationCode": "C", "categoryCode": "20", "address": "4341 ONTARIO ST PO BOX 933", "city": "BEAMSVILLE", "province": "ON", "country": "CA", "postalCode": "L0R1B0", "twitter": "None", "instagram": "None", "facebook": "None", "youtube": "None", "website": "None", "summary": "None", "logo": "None", "latitude": 43.168022004443394, "longitude": -79.47645338458716}, "888917390RR0001": {"name": "BEAMSVILLE PASTORAL CHARGE", "designationCode": "C", "categoryCode": "44", "address": "BOX 609                       4287 WILLIAM STREET", "city": "BEAMSVILLE", "province": "ON", "country": "CA", "postalCode": "L0R1B0", "twitter": "None", "instagram": "None", "facebook": "None", "youtube": "None", "website": "None", "summary": "None", "logo": "None", "latitude": 43.166198294477454, "longitude": -79.47873397654224}, "119288918RR1412": {"name": "BEAMSVILLE, ONTARIO, CONGREGATION OF JEHOVAH'S WITNESSES", "designationCode": "A", "categoryCode": "61", "address": "4524 DUFFERIN AVENUE", "city": "BEAMSVILLE", "province": "ON", "country": "CA", "postalCode": "L0R1B5", "twitter": "None", "instagram": "None", "facebook": "None", "youtube": "None", "website": "None", "summary": "None", "logo": "None", "latitude": 43.177229132090865, "longitude": -79.47329589428108}, "133267328RR0001": {"name": "BEAR CREEK COMMUNITY CHURCH", "designationCode": "C", "categoryCode": "39", "address": "8383 140TH STREET", "city": "SURREY", "province": "BC", "country": "CA", "postalCode": "V3W5K9", "twitter": "None", "instagram": "None", "facebook": "None", "youtube": "None", "website": "None", "summary": "None", "logo": "None", "latitude": 49.155192, "longitude": -122.83459251612882}, "130740129RR0001": {"name": "BEAR CREEK PUNJAB CULTURAL SOCIETY", "designationCode": "C", "categoryCode": "49", "address": "8580 132 ST", "city": "SURREY", "province": "BC", "country": "CA", "postalCode": "V3W4N7", "twitter": "None", "instagram": "None", "facebook": "None", "youtube": "None", "website": "None", "summary": "None", "logo": "None", "latitude": 49.158566444630395, "longitude": -122.85682897766836}, "891478844RR0001": {"name": "BEAR POINT UNITED BAPTIST CHURCH,", "designationCode": "C", "categoryCode": "31", "address": "RR 1", "city": "SHAG HARBOUR", "province": "NS", "country": "CA", "postalCode": "B0W3B0", "twitter": "None", "instagram": "None", "facebook": "None", "youtube": "None", "website": "None", "summary": "None", "logo": "None", "latitude": 43.4958297581287, "longitude": -65.70659506198976}}