{"132410671RR0347": {"name": "SOCIETY OF ST VINCENT DE PAUL - DURHAM PARTICULAR COUNCIL", "designationCode": "C", "categoryCode": "09", "address": "274 LABRADOR DR", "city": "OSHAWA", "province": "ON", "country": "CA", "postalCode": "L1H7E8", "twitter": "None", "instagram": "None", "facebook": "None", "youtube": "None", "website": "None", "summary": "None", "logo": "None", "latitude": 43.90195253952927, "longitude": -78.81535946710719}, "132410671RR0004": {"name": "SOCIETY OF ST VINCENT DE PAUL - HOLY CROSS CONFERENCE, LONDON, ONTARIO", "designationCode": "C", "categoryCode": "09", "address": "10 ELM ST", "city": "LONDON", "province": "ON", "country": "CA", "postalCode": "N5Z2K2", "twitter": "None", "instagram": "None", "facebook": "None", "youtube": "None", "website": "None", "summary": "None", "logo": "None", "latitude": 42.979841024438706, "longitude": -81.20781095207488}, "132410671RR0323": {"name": "SOCIETY OF ST VINCENT DE PAUL - IMMACULATE CONCEPTION CONFERENCE", "designationCode": "C", "categoryCode": "09", "address": "PO BOX 258", "city": "RIVERHEAD HARBOUR GRACE", "province": "NL", "country": "CA", "postalCode": "A0A3P0", "twitter": "None", "instagram": "None", "facebook": "None", "youtube": "None", "website": "None", "summary": "None", "logo": "None", "latitude": 47.66810801687261, "longitude": -53.26041404514274}, "892289968RR0001": {"name": "SOCIETY OF ST VINCENT DE PAUL - OUR LADY OF FATIMA PARISH", "designationCode": "C", "categoryCode": "09", "address": "1452 KINGS ROAD", "city": "SYDNEY", "province": "NS", "country": "CA", "postalCode": "B1S1E6", "twitter": "None", "instagram": "None", "facebook": "None", "youtube": "None", "website": "None", "summary": "None", "logo": "None", "latitude": 46.10368539832045, "longitude": -60.22862878564797}, "132410671RR0068": {"name": "SOCIETY OF ST VINCENT DE PAUL - OUR LADY OF LOURDES CONFERENCE", "designationCode": "C", "categoryCode": "09", "address": "112 N.FOORD ST.", "city": "NEW GLASGOW", "province": "NS", "country": "CA", "postalCode": "B2H5G7", "twitter": "None", "instagram": "None", "facebook": "None", "youtube": "None", "website": "None", "summary": "None", "logo": "None", "latitude": 45.57591898917996, "longitude": -62.656049656731106}, "132410671RR0333": {"name": "SOCIETY OF ST VINCENT DE PAUL - PEEL PARTICULAR COUNCIL", "designationCode": "C", "categoryCode": "09", "address": "113 - 5230 GLEN ERIN DR", "city": "MISSISSAUGA", "province": "ON", "country": "CA", "postalCode": "L5M5Z7", "twitter": "None", "instagram": "None", "facebook": "None", "youtube": "None", "website": "None", "summary": "None", "logo": "None", "latitude": 43.55867304379977, "longitude": -79.71899672000657}, "132410671RR0321": {"name": "SOCIETY OF ST VINCENT DE PAUL - PRINCE OF PEACE CONFERENCE", "designationCode": "C", "categoryCode": "09", "address": "265 ALTON TOWERS CIRCLE", "city": "SCARBOROUGH", "province": "ON", "country": "CA", "postalCode": "M1V4E7", "twitter": "None", "instagram": "None", "facebook": "None", "youtube": "None", "website": "None", "summary": "None", "logo": "None", "latitude": 43.82485919871322, "longitude": -79.27800447867703}, "892088576RR0001": {"name": "SOCIETY OF ST VINCENT DE PAUL - ST ALPHONSUS CONFERENCE, WINDSOR", "designationCode": "C", "categoryCode": "09", "address": "3051 PETER ST.", "city": "WINDSOR", "province": "ON", "country": "CA", "postalCode": "N9C1H2", "twitter": "None", "instagram": "None", "facebook": "None", "youtube": "None", "website": "None", "summary": "None", "logo": "None", "latitude": 42.304348561746274, "longitude": -83.07223323838669}, "132410671RR0278": {"name": "SOCIETY OF ST VINCENT DE PAUL - ST ANN'S CONFERENCE", "designationCode": "C", "categoryCode": "09", "address": "33333 MAYFAIR AVENUE", "city": "ABBOTSFORD", "province": "BC", "country": "CA", "postalCode": "V2S1P4", "twitter": "None", "instagram": "None", "facebook": "None", "youtube": "None", "website": "None", "summary": "None", "logo": "None", "latitude": 49.04020052380354, "longitude": -122.30074107951987}, "890562341RR0001": {"name": "SOCIETY OF ST VINCENT DE PAUL - ST BASIL CONFERENCE", "designationCode": "C", "categoryCode": "09", "address": "2405-12 AVENUE SOUTH", "city": "LETHBRIDGE", "province": "AB", "country": "CA", "postalCode": "T1K0P4", "twitter": "None", "instagram": "None", "facebook": "None", "youtube": "None", "website": "None", "summary": "None", "logo": "None", "latitude": 49.68001251875456, "longitude": -112.80706191618097}, "132410671RR0336": {"name": "SOCIETY OF ST VINCENT DE PAUL - ST BONAVENTURE CONFERENCE", "designationCode": "C", "categoryCode": "09", "address": "2404-3 CONCORDE PL", "city": "NORTH YORK", "province": "ON", "country": "CA", "postalCode": "M3C3K7", "twitter": "None", "instagram": "None", "facebook": "None", "youtube": "None", "website": "None", "summary": "None", "logo": "None", "latitude": 43.72922806855558, "longitude": -79.32833218593126}, "132410671RR0262": {"name": "SOCIETY OF ST VINCENT DE PAUL - ST CATHERINE OF SIENA, MIS", "designationCode": "C", "categoryCode": "09", "address": "2340 HURONTARIO ST", "city": "MISSISSAUGA", "province": "ON", "country": "CA", "postalCode": "L5B1N1", "twitter": "None", "instagram": "None", "facebook": "None", "youtube": "None", "website": "None", "summary": "None", "logo": "None", "latitude": 43.57499841433465, "longitude": -79.60903702420755}, "132410671RR0340": {"name": "SOCIETY OF ST VINCENT DE PAUL - ST DOMINIC CONFERENCE", "designationCode": "C", "categoryCode": "09", "address": "177 MINEOLA RD E", "city": "MISSISSAUGA", "province": "ON", "country": "CA", "postalCode": "L5G2E7", "twitter": "None", "instagram": "None", "facebook": "None", "youtube": "None", "website": "None", "summary": "None", "logo": "None", "latitude": 43.565664948669756, "longitude": -79.58637295201662}, "132410671RR0272": {"name": "SOCIETY OF ST VINCENT DE PAUL - ST EDWARD'S CONFERENCE", "designationCode": "C", "categoryCode": "09", "address": "75 CHURCHILL AVE.", "city": "TORONTO", "province": "ON", "country": "CA", "postalCode": "M2N1Y3", "twitter": "None", "instagram": "None", "facebook": "None", "youtube": "None", "website": "None", "summary": "None", "logo": "None", "latitude": 43.772141958047506, "longitude": -79.41927578668718}, "132410671RR0212": {"name": "SOCIETY OF ST VINCENT DE PAUL - ST GERTRUDE'S CONFERENCE", "designationCode": "C", "categoryCode": "09", "address": "690 KING STREET E", "city": "OSHAWA", "province": "ON", "country": "CA", "postalCode": "L1H1G5", "twitter": "None", "instagram": "None", "facebook": "None", "youtube": "None", "website": "None", "summary": "None", "logo": "None", "latitude": 43.90335512025888, "longitude": -78.83894508455634}, "132410671RR0211": {"name": "SOCIETY OF ST VINCENT DE PAUL - ST ISAAC JOGUES CONFERENCE", "designationCode": "C", "categoryCode": "09", "address": "1148 FINCH AVENUE", "city": "PICKERING", "province": "ON", "country": "CA", "postalCode": "L1V1J6", "twitter": "None", "instagram": "None", "facebook": "None", "youtube": "None", "website": "None", "summary": "None", "logo": "None", "latitude": 43.84402928872351, "longitude": -79.10204731267947}, "132410671RR0320": {"name": "SOCIETY OF ST VINCENT DE PAUL - ST JAMES CONFERENCE", "designationCode": "C", "categoryCode": "09", "address": "BOX 628", "city": "TOTTENHAM", "province": "ON", "country": "CA", "postalCode": "L0G1W0", "twitter": "None", "instagram": "None", "facebook": "None", "youtube": "None", "website": "None", "summary": "None", "logo": "None", "latitude": 44.101466326769575, "longitude": -79.82930921542986}, "132410671RR0338": {"name": "SOCIETY OF ST VINCENT DE PAUL - ST JOSEPH'S HIGHLAND CREEK CONFERENCE", "designationCode": "C", "categoryCode": "09", "address": "200 MORRISH ROAD", "city": "WEST HILL", "province": "ON", "country": "CA", "postalCode": "M1C1E8", "twitter": "None", "instagram": "None", "facebook": "None", "youtube": "None", "website": "None", "summary": "None", "logo": "None", "latitude": 43.78244643298832, "longitude": -79.17029589507078}, "132410671RR0128": {"name": "SOCIETY OF ST VINCENT DE PAUL - ST MARY OF THE ASSUMPTION CONFERENCE", "designationCode": "C", "categoryCode": "09", "address": "169 ST. PAUL CRES", "city": "ST.CATHARINES", "province": "ON", "country": "CA", "postalCode": "L2S1N4", "twitter": "None", "instagram": "None", "facebook": "None", "youtube": "None", "website": "None", "summary": "None", "logo": "None", "latitude": 43.14786540267789, "longitude": -79.2517625750478}, "132410671RR0213": {"name": "SOCIETY OF ST VINCENT DE PAUL - ST MARY OF THE PEOPLE CONFERENCE", "designationCode": "C", "categoryCode": "09", "address": "570 MARION AVE", "city": "OSHAWA", "province": "ON", "country": "CA", "postalCode": "L1J3B9", "twitter": "None", "instagram": "None", "facebook": "None", "youtube": "None", "website": "None", "summary": "None", "logo": "None", "latitude": 43.906184158520134, "longitude": -78.8898596265796}, "132410671RR0039": {"name": "SOCIETY OF ST VINCENT DE PAUL - ST MICHAEL'S CATHEDRAL CONFERENCE", "designationCode": "C", "categoryCode": "09", "address": "200 CHUCH ST", "city": "TORONTO", "province": "ON", "country": "CA", "postalCode": "M5B1Z2", "twitter": "None", "instagram": "None", "facebook": "None", "youtube": "None", "website": "None", "summary": "None", "logo": "None", "latitude": 43.655508377459775, "longitude": -79.37675449252683}, "132410671RR0204": {"name": "SOCIETY OF ST VINCENT DE PAUL - ST PASCHAL BAYLON CONFERENCE,", "designationCode": "C", "categoryCode": "09", "address": "92 STEELES AVE WEST", "city": "THORNHILL", "province": "ON", "country": "CA", "postalCode": "L4J1A1", "twitter": "None", "instagram": "None", "facebook": "None", "youtube": "None", "website": "None", "summary": "None", "logo": "None", "latitude": 43.79730219631767, "longitude": -79.42357979909376}, "132410671RR0172": {"name": "SOCIETY OF ST VINCENT DE PAUL GUELPH PARTICULAR COUNCIL", "designationCode": "C", "categoryCode": "09", "address": "74 ELIZABETH STREET", "city": "GUELPH", "province": "ON", "country": "CA", "postalCode": "N1E2X2", "twitter": "None", "instagram": "None", "facebook": "None", "youtube": "None", "website": "None", "summary": "None", "logo": "None", "latitude": 43.54941811492283, "longitude": -80.23981122595052}, "132410671RR0258": {"name": "SOCIETY OF ST VINCENT DE PAUL HALIFAX CONFERENCE ST JOSEPH", "designationCode": "C", "categoryCode": "09", "address": "123 PLEASANT ST.", "city": "BRIDGEWATER", "province": "NS", "country": "CA", "postalCode": "B4V1N3", "twitter": "None", "instagram": "None", "facebook": "None", "youtube": "None", "website": "None", "summary": "None", "logo": "None", "latitude": 44.378557608084854, "longitude": -64.52187038346105}, "132410671RR0059": {"name": "SOCIETY OF ST VINCENT DE PAUL IMMACULATE CONCEPTION SUTTON-KESWICK CONFERENCE", "designationCode": "C", "categoryCode": "09", "address": "P.O. BOX 128", "city": "SUTTON WEST", "province": "ON", "country": "CA", "postalCode": "L0E1R0", "twitter": "None", "instagram": "None", "facebook": "None", "youtube": "None", "website": "None", "summary": "None", "logo": "None", "latitude": 44.33123400000005, "longitude": -79.33264549999993}, "891373045RR0001": {"name": "SOCIETY OF ST VINCENT DE PAUL KITCHENER PARTICULAR COUNCIL", "designationCode": "C", "categoryCode": "09", "address": "253-55 NORTHFIELD DR E", "city": "WATERLOO", "province": "ON", "country": "CA", "postalCode": "N2K3T6", "twitter": "None", "instagram": "None", "facebook": "None", "youtube": "None", "website": "None", "summary": "None", "logo": "None", "latitude": 43.51055174143936, "longitude": -80.52209700570711}, "132410671RR0159": {"name": "SOCIETY OF ST VINCENT DE PAUL LONDON DEANERY PARTICULAR COUNCIL", "designationCode": "C", "categoryCode": "09", "address": "585 YORK ST", "city": "LONDON", "province": "ON", "country": "CA", "postalCode": "N6B1R6", "twitter": "None", "instagram": "None", "facebook": "None", "youtube": "None", "website": "None", "summary": "None", "logo": "None", "latitude": 42.986055020226445, "longitude": -81.23109653231589}, "132410671RR0253": {"name": "SOCIETY OF ST VINCENT DE PAUL MOST PRECIOUS BLOOD PARISH", "designationCode": "C", "categoryCode": "09", "address": "2007 VIMY AVE.", "city": "WINDSOR", "province": "ON", "country": "CA", "postalCode": "N8W1P2", "twitter": "None", "instagram": "None", "facebook": "None", "youtube": "None", "website": "None", "summary": "None", "logo": "None", "latitude": 42.29848337050622, "longitude": -82.9958447576895}, "891103848RR0001": {"name": "SOCIETY OF ST VINCENT DE PAUL NORTHSIDE PARTICULAR COUNCIL", "designationCode": "C", "categoryCode": "09", "address": "24 ARCHIBALD AVE", "city": "NORTH SYDNEY", "province": "NS", "country": "CA", "postalCode": "B2A2W3", "twitter": "None", "instagram": "None", "facebook": "None", "youtube": "None", "website": "None", "summary": "None", "logo": "None", "latitude": 46.20998917984308, "longitude": -60.25017665918395}, "132410671RR0251": {"name": "SOCIETY OF ST VINCENT DE PAUL OKANAGAN VALLEY PARTICULAR COU", "designationCode": "C", "categoryCode": "09", "address": "3645 BENVOULIN RD", "city": "KELOWNA", "province": "BC", "country": "CA", "postalCode": "V1W4M7", "twitter": "None", "instagram": "None", "facebook": "None", "youtube": "None", "website": "None", "summary": "None", "logo": "None", "latitude": 49.851220138194854, "longitude": -119.4672633614483}, "132410671RR0024": {"name": "SOCIETY OF ST VINCENT DE PAUL OUR LADY OF FATIMA CONFERENCE", "designationCode": "C", "categoryCode": "09", "address": "3170 ST. CLAIR AVE EAST", "city": "SCARBOROUGH", "province": "ON", "country": "CA", "postalCode": "M1L1V6", "twitter": "None", "instagram": "None", "facebook": "None", "youtube": "None", "website": "None", "summary": "None", "logo": "None", "latitude": 43.709217209590584, "longitude": -79.29394579130347}, "132410671RR0080": {"name": "SOCIETY OF ST VINCENT DE PAUL OUR LADY OF GRACE CONFERENCE", "designationCode": "C", "categoryCode": "09", "address": "27 CENTRE ST", "city": "ANGUS", "province": "ON", "country": "CA", "postalCode": "L0M1B0", "twitter": "None", "instagram": "None", "facebook": "None", "youtube": "None", "website": "None", "summary": "None", "logo": "None", "latitude": 44.322564226758594, "longitude": -79.87968808312654}, "890572597RR0001": {"name": "SOCIETY OF ST VINCENT DE PAUL OUR LADY OF MERCY CONFERENCE (SARNIA)", "designationCode": "C", "categoryCode": "09", "address": "1011 OAK AVENUE", "city": "SARNIA", "province": "ON", "country": "CA", "postalCode": "N7S1J4", "twitter": "None", "instagram": "None", "facebook": "None", "youtube": "None", "website": "None", "summary": "None", "logo": "None", "latitude": 42.970746426366965, "longitude": -82.37288301013824}, "132410671RR0244": {"name": "SOCIETY OF ST VINCENT DE PAUL OUR LADY OF PEACE ISLINGTON ON", "designationCode": "C", "categoryCode": "09", "address": "3914 BLOOR ST W", "city": "ETOBICOKE", "province": "ON", "country": "CA", "postalCode": "M9B1L7", "twitter": "None", "instagram": "None", "facebook": "None", "youtube": "None", "website": "None", "summary": "None", "logo": "None", "latitude": 43.63976219848205, "longitude": -79.5446059334063}, "132410671RR0100": {"name": "SOCIETY OF ST VINCENT DE PAUL OUR LADY OF PERPETUAL HELP CONFERENCE", "designationCode": "C", "categoryCode": "09", "address": "78 CLIFTON RD", "city": "TORONTO", "province": "ON", "country": "CA", "postalCode": "M4T2G2", "twitter": "None", "instagram": "None", "facebook": "None", "youtube": "None", "website": "None", "summary": "None", "logo": "None", "latitude": 43.69063554509783, "longitude": -79.38459515295153}, "132410671RR0099": {"name": "SOCIETY OF ST VINCENT DE PAUL OUR LADY QUEEN OF THE WORLD CONFERENCE", "designationCode": "C", "categoryCode": "09", "address": "10411 BAYVIEW AVE", "city": "RICHMOND HILL", "province": "ON", "country": "CA", "postalCode": "L4C3P2", "twitter": "None", "instagram": "None", "facebook": "None", "youtube": "None", "website": "None", "summary": "None", "logo": "None", "latitude": 43.88568788149914, "longitude": -79.417804878903}, "889285268RR0001": {"name": "SOCIETY OF ST VINCENT DE PAUL PRECIOUS BLOOD CONFERENCE", "designationCode": "C", "categoryCode": "09", "address": "31 GOLDEN APPLEWAY", "city": "TORONTO", "province": "ON", "country": "CA", "postalCode": "M3A3P2", "twitter": "None", "instagram": "None", "facebook": "None", "youtube": "None", "website": "None", "summary": "None", "logo": "None", "latitude": 43.7456576364187, "longitude": -79.31198554261634}, "132410671RR0011": {"name": "SOCIETY OF ST VINCENT DE PAUL SACRED HEART CONFERENCE", "designationCode": "C", "categoryCode": "09", "address": "1465 LECARON AVE", "city": "SARNIA", "province": "ON", "country": "CA", "postalCode": "N7V3J4", "twitter": "None", "instagram": "None", "facebook": "None", "youtube": "None", "website": "None", "summary": "None", "logo": "None", "latitude": 43.00735215746618, "longitude": -82.38958696317167}, "132410671RR0077": {"name": "SOCIETY OF ST VINCENT DE PAUL SACRED HEARTS OF JESUS AND MARY CONFERENCE", "designationCode": "C", "categoryCode": "09", "address": "65 AMELIA ST.", "city": "BARRIE", "province": "ON", "country": "CA", "postalCode": "L4M1M6", "twitter": "None", "instagram": "None", "facebook": "None", "youtube": "None", "website": "None", "summary": "None", "logo": "None", "latitude": 44.39402576796129, "longitude": -79.67850257118133}, "132410671RR0227": {"name": "SOCIETY OF ST VINCENT DE PAUL SCARBOROUGH WEST PARTICULAR COUNCIL", "designationCode": "C", "categoryCode": "09", "address": "1004-3131 BRIDLETOWNE CIRCLE", "city": "SCARBOROUGH", "province": "ON", "country": "CA", "postalCode": "M1W2S9", "twitter": "None", "instagram": "None", "facebook": "None", "youtube": "None", "website": "None", "summary": "None", "logo": "None", "latitude": 43.79900221980503, "longitude": -79.31987513465835}, "132410671RR0124": {"name": "SOCIETY OF ST VINCENT DE PAUL ST ANNE'S CONFERENCE GLACE BAY", "designationCode": "C", "categoryCode": "09", "address": "695 MAIN ST.                  P.O. BOX 190", "city": "GLACE BAY", "province": "NS", "country": "CA", "postalCode": "B1A5V2", "twitter": "None", "instagram": "None", "facebook": "None", "youtube": "None", "website": "None", "summary": "None", "logo": "None", "latitude": 46.196558488458805, "longitude": -59.96181172009348}, "132410671RR0217": {"name": "SOCIETY OF ST VINCENT DE PAUL ST ANSELM'S CONFERENCE", "designationCode": "C", "categoryCode": "09", "address": "31 BRENTCLIFFE RD APT 2", "city": "TORONTO", "province": "ON", "country": "CA", "postalCode": "M4G3Y4", "twitter": "None", "instagram": "None", "facebook": "None", "youtube": "None", "website": "None", "summary": "None", "logo": "None", "latitude": 43.7151580088868, "longitude": -79.35997874782176}, "132410671RR0257": {"name": "SOCIETY OF ST VINCENT DE PAUL ST BARTHOLOMEW CONFERENCE", "designationCode": "C", "categoryCode": "09", "address": "59 HEATHER RD", "city": "AGINCOURT", "province": "ON", "country": "CA", "postalCode": "M1S2E2", "twitter": "None", "instagram": "None", "facebook": "None", "youtube": "None", "website": "None", "summary": "None", "logo": "None", "latitude": 43.79042889976369, "longitude": -79.27042545723943}, "132410671RR0220": {"name": "SOCIETY OF ST VINCENT DE PAUL ST BENEDICT'S CONFERENCE", "designationCode": "C", "categoryCode": "09", "address": "1011 OAK AVE", "city": "SARNIA", "province": "ON", "country": "CA", "postalCode": "N7S1J4", "twitter": "None", "instagram": "None", "facebook": "None", "youtube": "None", "website": "None", "summary": "None", "logo": "None", "latitude": 42.970746426366965, "longitude": -82.37288301013824}, "132410671RR0051": {"name": "SOCIETY OF ST VINCENT DE PAUL ST BERNADETTE CONFERENCE", "designationCode": "C", "categoryCode": "09", "address": "21 BAYLY STREET EAST", "city": "AJAX", "province": "ON", "country": "CA", "postalCode": "L1S1P2", "twitter": "None", "instagram": "None", "facebook": "None", "youtube": "None", "website": "None", "summary": "None", "logo": "None", "latitude": 43.844266086545396, "longitude": -79.01685628495082}, "132410671RR0108": {"name": "SOCIETY OF ST VINCENT DE PAUL ST BONIFACE CONFERENCE", "designationCode": "C", "categoryCode": "09", "address": "21 MARKANNA DR", "city": "SCARBOROUGH", "province": "ON", "country": "CA", "postalCode": "M1M2H9", "twitter": "None", "instagram": "None", "facebook": "None", "youtube": "None", "website": "None", "summary": "None", "logo": "None", "latitude": 43.74055886037866, "longitude": -79.21806484456695}, "132410671RR0224": {"name": "SOCIETY OF ST VINCENT DE PAUL ST BONVENTURE CONFERENCE CALGA", "designationCode": "C", "categoryCode": "09", "address": "1556 ACADIA DRIVE S.E.,", "city": "CALGARY", "province": "AB", "country": "CA", "postalCode": "T2J3B3", "twitter": "None", "instagram": "None", "facebook": "None", "youtube": "None", "website": "None", "summary": "None", "logo": "None", "latitude": 50.93342944463038, "longitude": -114.04810991352657}, "132410671RR0078": {"name": "SOCIETY OF ST VINCENT DE PAUL ST CHARLES CONFERENCE", "designationCode": "C", "categoryCode": "09", "address": "811 LAWRENCE AVE. WEST", "city": "TORONTO", "province": "ON", "country": "CA", "postalCode": "M6B1C3", "twitter": "None", "instagram": "None", "facebook": "None", "youtube": "None", "website": "None", "summary": "None", "logo": "None", "latitude": 43.713940758237776, "longitude": -79.45537615292288}, "132410671RR0248": {"name": "SOCIETY OF ST VINCENT DE PAUL ST JOHN VIANNEY CONFERENCE", "designationCode": "C", "categoryCode": "09", "address": "385 DIEPPE ST", "city": "WINDSOR", "province": "ON", "country": "CA", "postalCode": "N8S3V3", "twitter": "None", "instagram": "None", "facebook": "None", "youtube": "None", "website": "None", "summary": "None", "logo": "None", "latitude": 42.33826240576496, "longitude": -82.94058270055953}, "132410671RR0149": {"name": "SOCIETY OF ST VINCENT DE PAUL ST JOHN'S CONFERENCE", "designationCode": "C", "categoryCode": "09", "address": "794 KINGSTON ROAD", "city": "TORONTO", "province": "ON", "country": "CA", "postalCode": "M4E2C2", "twitter": "None", "instagram": "None", "facebook": "None", "youtube": "None", "website": "None", "summary": "None", "logo": "None", "latitude": 43.680029132407995, "longitude": -79.29326639676258}, "132410671RR0279": {"name": "SOCIETY OF ST VINCENT DE PAUL ST LEONARD'S CONFERENCE", "designationCode": "C", "categoryCode": "09", "address": "187 CONESTOGA DRIVE", "city": "BRAMPTON", "province": "ON", "country": "CA", "postalCode": "L6Z3X8", "twitter": "None", "instagram": "None", "facebook": "None", "youtube": "None", "website": "None", "summary": "None", "logo": "None", "latitude": 43.72235400556859, "longitude": -79.79071155534095}, "132410671RR0107": {"name": "SOCIETY OF ST VINCENT DE PAUL ST MARGARET CONFERENCE", "designationCode": "C", "categoryCode": "09", "address": "10 SANDRINGHAM DRIVE", "city": "TORONTO", "province": "ON", "country": "CA", "postalCode": "M5M3G3", "twitter": "None", "instagram": "None", "facebook": "None", "youtube": "None", "website": "None", "summary": "None", "logo": "None", "latitude": 43.74268102443872, "longitude": -79.41507275258226}, "132410671RR0086": {"name": "SOCIETY OF ST VINCENT DE PAUL ST MARTIN'S CONFERENCE", "designationCode": "C", "categoryCode": "09", "address": "46 CATHCART ST", "city": "LONDON", "province": "ON", "country": "CA", "postalCode": "N6C3L7", "twitter": "None", "instagram": "None", "facebook": "None", "youtube": "None", "website": "None", "summary": "None", "logo": "None", "latitude": 42.97008150513591, "longitude": -81.25438397986046}, "132410671RR0085": {"name": "SOCIETY OF ST VINCENT DE PAUL ST MARYS CONFERENCE", "designationCode": "C", "categoryCode": "09", "address": "777 PRINCESS AVE", "city": "LONDON", "province": "ON", "country": "CA", "postalCode": "N5W3M5", "twitter": "None", "instagram": "None", "facebook": "None", "youtube": "None", "website": "None", "summary": "None", "logo": "None", "latitude": 42.99455811183575, "longitude": -81.22739620093492}, "132410671RR0044": {"name": "SOCIETY OF ST VINCENT DE PAUL ST MONICA CONFERENCE", "designationCode": "C", "categoryCode": "09", "address": "44 BROADWAY AVENUE", "city": "TORONTO", "province": "ON", "country": "CA", "postalCode": "M4P1T4", "twitter": "None", "instagram": "None", "facebook": "None", "youtube": "None", "website": "None", "summary": "None", "logo": "None", "latitude": 43.710115239020936, "longitude": -79.39632636499495}, "132410671RR0146": {"name": "SOCIETY OF ST VINCENT DE PAUL ST PAULS CONFERENCE", "designationCode": "C", "categoryCode": "09", "address": "83 POWER ST", "city": "TORONTO", "province": "ON", "country": "CA", "postalCode": "M5A3A8", "twitter": "None", "instagram": "None", "facebook": "None", "youtube": "None", "website": "None", "summary": "None", "logo": "None", "latitude": 43.65552211241267, "longitude": -79.36324914276666}, "891233348RR0001": {"name": "SOCIETY OF ST VINCENT DE PAUL ST PETER'S PARISH CONFERENCE", "designationCode": "C", "categoryCode": "09", "address": "110 ASHFORD DR", "city": "MOUNT PEARL", "province": "NL", "country": "CA", "postalCode": "A1N3L6", "twitter": "None", "instagram": "None", "facebook": "None", "youtube": "None", "website": "None", "summary": "None", "logo": "None", "latitude": 47.511796347167305, "longitude": -52.81685405665382}, "132410671RR0010": {"name": "SOCIETY OF ST VINCENT DE PAUL ST PHILIP'S CONFERENCE", "designationCode": "C", "categoryCode": "09", "address": "4237 MARTHAVILLE RD", "city": "PETROLIA", "province": "ON", "country": "CA", "postalCode": "N0N1R0", "twitter": "None", "instagram": "None", "facebook": "None", "youtube": "None", "website": "None", "summary": "None", "logo": "None", "latitude": 42.885261450458756, "longitude": -82.16857792829907}, "132410671RR0131": {"name": "SOCIETY OF ST VINCENT DE PAUL ST PIUS X CONFERENCE", "designationCode": "C", "categoryCode": "09", "address": "2424 24 AVE NW", "city": "CALGARY", "province": "AB", "country": "CA", "postalCode": "T2M2A2", "twitter": "None", "instagram": "None", "facebook": "None", "youtube": "None", "website": "None", "summary": "None", "logo": "None", "latitude": 51.074271511541184, "longitude": -114.11626113918865}, "132410671RR0283": {"name": "SOCIETY OF ST VINCENT DE PAUL ST PIUS X CONFERENCE IN TORONT", "designationCode": "C", "categoryCode": "09", "address": "2305 BLOOR ST. W", "city": "TORONTO", "province": "ON", "country": "CA", "postalCode": "M6S1P1", "twitter": "None", "instagram": "None", "facebook": "None", "youtube": "None", "website": "None", "summary": "None", "logo": "None", "latitude": 43.6504208748054, "longitude": -79.47938557048882}, "132410671RR0245": {"name": "SOCIETY OF ST VINCENT DE PAUL ST TERESA CONFERENCE KITCHENER", "designationCode": "C", "categoryCode": "09", "address": "44 LEONARD ST.", "city": "KITCHENER", "province": "ON", "country": "CA", "postalCode": "N2H3M6", "twitter": "None", "instagram": "None", "facebook": "None", "youtube": "None", "website": "None", "summary": "None", "logo": "None", "latitude": 43.46675045325739, "longitude": -80.48779055398464}, "132410671RR0226": {"name": "SOCIETY OF ST VINCENT DE PAUL ST THERESA CONFERENCE", "designationCode": "C", "categoryCode": "09", "address": "1991 NORMAN ROAD", "city": "WINDSOR", "province": "ON", "country": "CA", "postalCode": "N8T1S1", "twitter": "None", "instagram": "None", "facebook": "None", "youtube": "None", "website": "None", "summary": "None", "logo": "None", "latitude": 42.30974490562074, "longitude": -82.9673289711752}, "132410671RR0038": {"name": "SOCIETY OF ST VINCENT DE PAUL ST THERESA'S SHRINE CONFERENCE", "designationCode": "C", "categoryCode": "09", "address": "2559 KINGSTON ROAD", "city": "SCARBOROUGH", "province": "ON", "country": "CA", "postalCode": "M1M1M1", "twitter": "None", "instagram": "None", "facebook": "None", "youtube": "None", "website": "None", "summary": "None", "logo": "None", "latitude": 43.711462687748934, "longitude": -79.2477465160715}, "132410671RR0254": {"name": "SOCIETY OF ST VINCENT DE PAUL ST THOMAS THE APOSTLE CONFEREN", "designationCode": "C", "categoryCode": "09", "address": "14 HIGHGATE DRIVE", "city": "MARKHAM", "province": "ON", "country": "CA", "postalCode": "L3R3R6", "twitter": "None", "instagram": "None", "facebook": "None", "youtube": "None", "website": "None", "summary": "None", "logo": "None", "latitude": 43.82653492480796, "longitude": -79.31666948211083}, "132410671RR0232": {"name": "SOCIETY OF ST VINCENT DE PAUL ST TIMOTHY'S CONFERENCE WILLOW", "designationCode": "C", "categoryCode": "09", "address": "21 LEITH HILL ROAD", "city": "NORTH YORK", "province": "ON", "country": "CA", "postalCode": "M2J1Y9", "twitter": "None", "instagram": "None", "facebook": "None", "youtube": "None", "website": "None", "summary": "None", "logo": "None", "latitude": 43.776518838161664, "longitude": -79.35056732915929}, "132410671RR0233": {"name": "SOCIETY OF ST VINCENT DE PAUL ST VINCENT DE PAUL CONFERENCE", "designationCode": "C", "categoryCode": "09", "address": "320 FLYING CLOUD DRIVE", "city": "DARTMOUTH", "province": "NS", "country": "CA", "postalCode": "B2W4T6", "twitter": "None", "instagram": "None", "facebook": "None", "youtube": "None", "website": "None", "summary": "None", "logo": "None", "latitude": 44.689972471030984, "longitude": -63.495696009059685}, "132410671RR0256": {"name": "SOCIETY OF ST VINCENT DE PAUL STE ROSE OF LIMA CONFERENCE", "designationCode": "C", "categoryCode": "09", "address": "3216 LAWRENCE AVE EAST", "city": "SCARBOROUGH", "province": "ON", "country": "CA", "postalCode": "M1H1A4", "twitter": "None", "instagram": "None", "facebook": "None", "youtube": "None", "website": "None", "summary": "None", "logo": "None", "latitude": 43.75646718795049, "longitude": -79.24129834237391}, "132410671RR0052": {"name": "SOCIETY OF ST VINCENT DE PAUL TORONTO NORTH PARTICULAR COUNCIL", "designationCode": "C", "categoryCode": "09", "address": "202 - 18 GRAYDON HALL DR", "city": "NORTH YORK", "province": "ON", "country": "CA", "postalCode": "M3A0A4", "twitter": "None", "instagram": "None", "facebook": "None", "youtube": "None", "website": "None", "summary": "None", "logo": "None", "latitude": 43.764812090647645, "longitude": -79.34382709752443}, "132410671RR0177": {"name": "SOCIETY OF ST VINCENT DE PAUL TORONTO WEST PARTICULAR COUNCIL TORONTO ONTARIO", "designationCode": "C", "categoryCode": "09", "address": "728 ANNETTE STREET", "city": "TORONTO", "province": "ON", "country": "CA", "postalCode": "M6S2E2", "twitter": "None", "instagram": "None", "facebook": "None", "youtube": "None", "website": "None", "summary": "None", "logo": "None", "latitude": 43.6586731906918, "longitude": -79.48618734277795}, "132410671RR0290": {"name": "SOCIETY OF ST VINCENT DE PAUL TRANSFIGURATION OF LORD CONFERENCE", "designationCode": "C", "categoryCode": "38", "address": "45 LUDSTONE DRIVE", "city": "ETOBICOKE", "province": "ON", "country": "CA", "postalCode": "M9R2J2", "twitter": "None", "instagram": "None", "facebook": "None", "youtube": "None", "website": "None", "summary": "None", "logo": "None", "latitude": 43.691554899763695, "longitude": -79.56420770578234}, "132410671RR0180": {"name": "SOCIETY OF ST VINCENT DE PAUL- CONFERENCE OF ST JOHN DE BREBEUF-KINGSVILLE", "designationCode": "C", "categoryCode": "09", "address": "67 MAIN ST EAST", "city": "KINGSVILLE", "province": "ON", "country": "CA", "postalCode": "N9Y1A1", "twitter": "None", "instagram": "None", "facebook": "None", "youtube": "None", "website": "None", "summary": "None", "logo": "None", "latitude": 42.037961096865594, "longitude": -82.73678124962194}, "132410671RR0277": {"name": "SOCIETY OF ST VINCENT DE PAUL- MERCIFUL REDEEMER CONFERENCE", "designationCode": "C", "categoryCode": "09", "address": "2775 ERIN CENTRE BLVD", "city": "MISSISSAUGA", "province": "ON", "country": "CA", "postalCode": "L5M5W2", "twitter": "None", "instagram": "None", "facebook": "None", "youtube": "None", "website": "None", "summary": "None", "logo": "None", "latitude": 43.55729290400461, "longitude": -79.7181202150149}, "132410671RR0006": {"name": "SOCIETY OF ST VINCENT DE PAUL- ST JOAN OF ARC CONFERENCE", "designationCode": "C", "categoryCode": "09", "address": "1701 BLOOR STREET WEST", "city": "TORONTO", "province": "ON", "country": "CA", "postalCode": "M6P1B1", "twitter": "None", "instagram": "None", "facebook": "None", "youtube": "None", "website": "None", "summary": "None", "logo": "None", "latitude": 43.65511084927016, "longitude": -79.45796557048882}, "134447424RR0001": {"name": "SOCIETY OF ST VINCENT DE PAUL-CHURCH OF OUR LADY IMMACULATE", "designationCode": "C", "categoryCode": "09", "address": "28 NORFOLK ST.", "city": "GUELPH", "province": "ON", "country": "CA", "postalCode": "N1H4H8", "twitter": "None", "instagram": "None", "facebook": "None", "youtube": "None", "website": "None", "summary": "None", "logo": "None", "latitude": 43.54278722851944, "longitude": -80.24963732880269}, "132410671RR0178": {"name": "SOCIETY OF ST VINCENT DE PAUL-CONFERENCE OF ST JOSEPH AND ST CHARLES", "designationCode": "C", "categoryCode": "09", "address": "385 LYNDOCH ST", "city": "CORUNNA", "province": "ON", "country": "CA", "postalCode": "N0N1G0", "twitter": "None", "instagram": "None", "facebook": "None", "youtube": "None", "website": "None", "summary": "None", "logo": "None", "latitude": 42.8896447857349, "longitude": -82.45334043883066}, "132410671RR0316": {"name": "SOCIETY OF ST VINCENT DE PAUL-HOLY FAMILY CONFERENCE", "designationCode": "C", "categoryCode": "09", "address": "91 RIBBLESDALE DRIVE", "city": "WHITBY", "province": "ON", "country": "CA", "postalCode": "L1N6Z3", "twitter": "None", "instagram": "None", "facebook": "None", "youtube": "None", "website": "None", "summary": "None", "logo": "None", "latitude": 43.89370369637595, "longitude": -78.92953016495501}, "132410671RR0096": {"name": "SOCIETY OF ST VINCENT DE PAUL-HOLY NAME CONFERENCE", "designationCode": "C", "categoryCode": "09", "address": "71 GOUGH AVE", "city": "TORONTO", "province": "ON", "country": "CA", "postalCode": "M4K3N9", "twitter": "None", "instagram": "None", "facebook": "None", "youtube": "None", "website": "None", "summary": "None", "logo": "None", "latitude": 43.679337474609, "longitude": -79.3462891764962}, "132410671RR0203": {"name": "SOCIETY OF ST VINCENT DE PAUL-OUR LADY OF GRACE CONFERENCE", "designationCode": "C", "categoryCode": "09", "address": "15347 YONGE ST", "city": "AURORA", "province": "ON", "country": "CA", "postalCode": "L4G1K5", "twitter": "None", "instagram": "None", "facebook": "None", "youtube": "None", "website": "None", "summary": "None", "logo": "None", "latitude": 44.00228767000401, "longitude": -79.468153715737}, "132410671RR0367": {"name": "SOCIETY OF ST VINCENT DE PAUL-OUR LADY OF THE SCAPULAR CONFERENCE", "designationCode": "C", "categoryCode": "09", "address": "6557 THOROLD STONE ROAD", "city": "NIAGARA FALLS", "province": "ON", "country": "CA", "postalCode": "L2J1B2", "twitter": "None", "instagram": "None", "facebook": "None", "youtube": "None", "website": "None", "summary": "None", "logo": "None", "latitude": 43.115185483264675, "longitude": -79.1061906633389}, "132410671RR0292": {"name": "SOCIETY OF ST VINCENT DE PAUL-PARTICULAR COUNSIL, ETOBICOKE,ONTARIO", "designationCode": "C", "categoryCode": "09", "address": "508-420 MILL ROAD", "city": "ETOBICOKE", "province": "ON", "country": "CA", "postalCode": "M9C1Z1", "twitter": "None", "instagram": "None", "facebook": "None", "youtube": "None", "website": "None", "summary": "None", "logo": "None", "latitude": 43.64450848372696, "longitude": -79.58832821348571}, "132410671RR0047": {"name": "SOCIETY OF ST VINCENT DE PAUL-SACRED HEART CONFERENCE, KITCHENER", "designationCode": "C", "categoryCode": "09", "address": "66 SHANLEY STREET", "city": "KITCHENER", "province": "ON", "country": "CA", "postalCode": "N2H5N9", "twitter": "None", "instagram": "None", "facebook": "None", "youtube": "None", "website": "None", "summary": "None", "logo": "None", "latitude": 43.45650371720795, "longitude": -80.50250922496959}, "132410671RR0046": {"name": "SOCIETY OF ST VINCENT DE PAUL-SCARBOROUGH EAST PARTICULAR COUNCIL", "designationCode": "C", "categoryCode": "09", "address": "9 FAIRCROFT BLVD", "city": "SCARBOROUGH", "province": "ON", "country": "CA", "postalCode": "M1M2W9", "twitter": "None", "instagram": "None", "facebook": "None", "youtube": "None", "website": "None", "summary": "None", "logo": "None", "latitude": 43.72846739523338, "longitude": -79.22582006477602}, "132410671RR0129": {"name": "SOCIETY OF ST VINCENT DE PAUL-ST GERARD'S CONFERENCE", "designationCode": "C", "categoryCode": "09", "address": "8944 ELBOW DR. SW", "city": "CALGARY", "province": "AB", "country": "CA", "postalCode": "T2V1L2", "twitter": "None", "instagram": "None", "facebook": "None", "youtube": "None", "website": "None", "summary": "None", "logo": "None", "latitude": 50.97397387898897, "longitude": -114.08446950066383}, "132410671RR0348": {"name": "SOCIETY OF ST VINCENT DE PAUL-ST LAWRENCE THE MARTYR CONFERENCE", "designationCode": "C", "categoryCode": "09", "address": "2210 LAWRENCE AVENUE EAST", "city": "SCARBOROUGH", "province": "ON", "country": "CA", "postalCode": "M1P2P9", "twitter": "None", "instagram": "None", "facebook": "None", "youtube": "None", "website": "None", "summary": "None", "logo": "None", "latitude": 43.74845420237722, "longitude": -79.28035923301967}, "132410671RR0317": {"name": "SOCIETY OF ST VINCENT DE PAUL-ST MARTIN DE PORRES CONFERENCE", "designationCode": "C", "categoryCode": "09", "address": "4179 LAWRENCE AVENUE EAST", "city": "TORONTO", "province": "ON", "country": "CA", "postalCode": "M1E2S3", "twitter": "None", "instagram": "None", "facebook": "None", "youtube": "None", "website": "None", "summary": "None", "logo": "None", "latitude": 43.76806688533697, "longitude": -79.18763383345845}, "132410671RR0276": {"name": "SOCIETY OF ST VINCENT DE PAUL-ST PATRICK-MARKHAM CONFERENCE", "designationCode": "C", "categoryCode": "09", "address": "5633 HIGHWAY #7", "city": "MARKHAM", "province": "ON", "country": "CA", "postalCode": "L3P1B6", "twitter": "None", "instagram": "None", "facebook": "None", "youtube": "None", "website": "None", "summary": "None", "logo": "None", "latitude": 43.87042592964289, "longitude": -79.2710391566734}, "132410671RR0140": {"name": "SOCIETY OF ST VINCENT DE PAUL-ST PATRICK'S CONFERENCE", "designationCode": "C", "categoryCode": "09", "address": "1414 SHAWNESSY BLVD SW", "city": "CALGARY", "province": "AB", "country": "CA", "postalCode": "T2Y2L7", "twitter": "None", "instagram": "None", "facebook": "None", "youtube": "None", "website": "None", "summary": "None", "logo": "None", "latitude": 50.9141034893242, "longitude": -114.09117308381903}, "132410671RR0384": {"name": "SOCIETY OF ST VINCENT DE PAUL-ST.FRANCES OF ROME CONFERENCE", "designationCode": "C", "categoryCode": "09", "address": "235 CHURCH ST.", "city": "ST.CATHARINES", "province": "ON", "country": "CA", "postalCode": "L2R3E8", "twitter": "None", "instagram": "None", "facebook": "None", "youtube": "None", "website": "None", "summary": "None", "logo": "None", "latitude": 43.16369143940757, "longitude": -79.23513887258368}, "892468364RR0001": {"name": "SOCIETY OF ST VINCENT DE PAUL-STS MARTHA AND MARY CONFERENCE", "designationCode": "C", "categoryCode": "09", "address": "1870 BURNHAMTHORPE RD E", "city": "MISSISSAUGA", "province": "ON", "country": "CA", "postalCode": "L4X2S5", "twitter": "None", "instagram": "None", "facebook": "None", "youtube": "None", "website": "None", "summary": "None", "logo": "None", "latitude": 43.63245306186183, "longitude": -79.59158147080078}, "132410671RR0134": {"name": "SOCIETY OF ST VINCENT DE PAUL, ALL SAINTS CONFERENCE, COQUITLAM, B C", "designationCode": "C", "categoryCode": "09", "address": "821 FAIRFAX STREET", "city": "COQUITLAM", "province": "BC", "country": "CA", "postalCode": "V3J5K7", "twitter": "None", "instagram": "None", "facebook": "None", "youtube": "None", "website": "None", "summary": "None", "logo": "None", "latitude": 49.26461671352182, "longitude": -122.85461954197022}, "132410671RR0005": {"name": "SOCIETY OF ST VINCENT DE PAUL, BLESSED SACRAMENT CONFERENCE, WINDSOR, ONTARIO", "designationCode": "C", "categoryCode": "09", "address": "3511 BARRYMORE LANE", "city": "WINDSOR", "province": "ON", "country": "CA", "postalCode": "N9C1V4", "twitter": "None", "instagram": "None", "facebook": "None", "youtube": "None", "website": "None", "summary": "None", "logo": "None", "latitude": 42.291722452392, "longitude": -83.07008443877335}, "132410671RR0184": {"name": "SOCIETY OF ST VINCENT DE PAUL, CORPUS CHRISTI CONFERENCE, CALGARY", "designationCode": "C", "categoryCode": "09", "address": "404 NORTHMOUNT PLACE NW", "city": "CALGARY", "province": "AB", "country": "CA", "postalCode": "T2K3P9", "twitter": "None", "instagram": "None", "facebook": "None", "youtube": "None", "website": "None", "summary": "None", "logo": "None", "latitude": 51.102940243407005, "longitude": -114.07071917998731}, "132410671RR0057": {"name": "SOCIETY OF ST VINCENT DE PAUL, CORPUS CHRISTI CONFERENCE, TORONTO", "designationCode": "C", "categoryCode": "09", "address": "16 LOCKWOOD ROAD", "city": "TORONTO", "province": "ON", "country": "CA", "postalCode": "M4L3M8", "twitter": "None", "instagram": "None", "facebook": "None", "youtube": "None", "website": "None", "summary": "None", "logo": "None", "latitude": 43.668641965577976, "longitude": -79.30948512839726}, "132410671RR0221": {"name": "SOCIETY OF ST VINCENT DE PAUL, DARTMOUTH PARTICULAR COUNCIL", "designationCode": "C", "categoryCode": "56", "address": "22-7 ROSE WAY", "city": "DARTMOUTH", "province": "NS", "country": "CA", "postalCode": "B2Y4L9", "twitter": "None", "instagram": "None", "facebook": "None", "youtube": "None", "website": "None", "summary": "None", "logo": "None", "latitude": 44.66999945954806, "longitude": -63.543342231638356}, "132410671RR0183": {"name": "SOCIETY OF ST VINCENT DE PAUL, GUARDIAN ANGELS CONFERENCE, ORILLIA", "designationCode": "C", "categoryCode": "09", "address": "115 WEST STREET N", "city": "ORILLIA", "province": "ON", "country": "CA", "postalCode": "L3V5C4", "twitter": "None", "instagram": "None", "facebook": "None", "youtube": "None", "website": "None", "summary": "None", "logo": "None", "latitude": 44.61141375019598, "longitude": -79.42232368801953}, "132410671RR0126": {"name": "SOCIETY OF ST VINCENT DE PAUL, HOLY NAME OF JESUS CONFERENCE, ESSEX", "designationCode": "C", "categoryCode": "09", "address": "146 TALBOT ST S", "city": "ESSEX", "province": "ON", "country": "CA", "postalCode": "N8M1B4", "twitter": "None", "instagram": "None", "facebook": "None", "youtube": "None", "website": "None", "summary": "None", "logo": "None", "latitude": 42.16994625951762, "longitude": -82.8163244088095}, "132410671RR0025": {"name": "SOCIETY OF ST VINCENT DE PAUL, HOLY NAME OF MARY CONFERENCE, WINDSOR", "designationCode": "C", "categoryCode": "09", "address": "681 MCEWAN AVENUE", "city": "WINDSOR", "province": "ON", "country": "CA", "postalCode": "N9B2E9", "twitter": "None", "instagram": "None", "facebook": "None", "youtube": "None", "website": "None", "summary": "None", "logo": "None", "latitude": 42.30661889840738, "longitude": -83.05414898560193}, "132410671RR0030": {"name": "SOCIETY OF ST VINCENT DE PAUL, IMMACULATE CONCEPTION CONFERENCE, KELOWNA", "designationCode": "C", "categoryCode": "09", "address": "839 SUTHERLAND AVENUE", "city": "KELOWNA", "province": "BC", "country": "CA", "postalCode": "V1Y5X4", "twitter": "None", "instagram": "None", "facebook": "None", "youtube": "None", "website": "None", "summary": "None", "logo": "None", "latitude": 49.87974392461985, "longitude": -119.48453987949574}, "890361777RR0001": {"name": "SOCIETY OF ST VINCENT DE PAUL, IMMACULATE CONCEPTION CONFERENCE, TORONTO", "designationCode": "C", "categoryCode": "09", "address": "2 RICHARDSON AVE", "city": "TORONTO", "province": "ON", "country": "CA", "postalCode": "M6M3R2", "twitter": "None", "instagram": "None", "facebook": "None", "youtube": "None", "website": "None", "summary": "None", "logo": "None", "latitude": 43.69127348681403, "longitude": -79.47167361630781}, "138942156RR0001": {"name": "SOCIETY OF ST VINCENT DE PAUL, MARILLAC PLACE SPECIAL WORKS CONFERENCE, KITCHENER, ONTARIO", "designationCode": "C", "categoryCode": "09", "address": "103-630 RIVERBEND DRIVE", "city": "KITCHENER", "province": "ON", "country": "CA", "postalCode": "N2K3S2", "twitter": "None", "instagram": "None", "facebook": "None", "youtube": "None", "website": "None", "summary": "None", "logo": "None", "latitude": 43.47626647074253, "longitude": -80.48166518881679}}